$GNGGA,183139.000,4910.425018,N,12304.400460,W,2,31,0.50,8.447,M,-16.817,M,,*4A
$GNGLL,4910.425018,N,12304.400460,W,183139.000,A,D*55
$GNGSA,A,3,09,04,16,07,26,03,06,11,31,20,,,0.82,0.50,0.65,1*01
$GNGSA,A,3,68,78,69,79,67,85,,,,,,,0.82,0.50,0.65,2*02
$GNGSA,A,3,09,06,31,04,05,34,36,21,,,,,0.82,0.50,0.65,3*02
$GNGSA,A,3,32,23,37,20,25,41,38,,,,,,0.82,0.50,0.65,4*07
$GPGSV,4,1,14,09,74,303,37,04,72,097,34,16,48,083,34,07,43,245,31,1*64
$GPGSV,4,2,14,48,33,182,29,26,27,051,29,03,24,174,25,06,14,269,19,1*63
$GPGSV,4,3,14,11,14,307,25,31,10,063,23,20,10,325,25,30,07,245,25,1*67
$GPGSV,4,4,14,27,03,114,18,29,01,007,,1*67
$GLGSV,2,1,07,68,79,094,30,78,79,120,18,69,43,319,28,79,33,202,26,1*7A
$GLGSV,2,2,07,67,29,129,26,85,13,331,18,86,03,020,,1*43
$GAGSV,3,1,10,09,81,320,31,06,71,097,31,31,47,145,28,04,44,104,30,7*76
$GAGSV,3,2,10,05,27,292,26,34,20,299,24,36,14,247,19,24,10,186,22,7*7E
$GAGSV,3,3,10,15,06,346,18,21,05,030,18,7*74
$GBGSV,2,1,08,32,70,166,38,23,69,085,39,37,47,207,36,20,46,304,36,1*7D
$GBGSV,2,2,08,25,20,051,29,41,17,140,28,38,07,333,27,04,01,262,,1*71
$GNRMC,183139.000,A,4910.425018,N,12304.400460,W,0.02,0.00,051224,,,D,V*1A
$GNVTG,0.00,T,,M,0.02,N,0.03,K,D*27
$GNGGA,183140.000,4910.425090,N,12304.400454,W,2,31,0.50,8.514,M,-16.817,M,,*44
$GNGLL,4910.425090,N,12304.400454,W,183140.000,A,D*5C
$GNGSA,A,3,09,04,16,07,26,03,06,11,31,20,,,0.82,0.50,0.65,1*01
$GNGSA,A,3,68,78,69,79,67,85,,,,,,,0.82,0.50,0.65,2*02
$GNGSA,A,3,09,06,31,04,05,34,36,21,,,,,0.82,0.50,0.65,3*02
$GNGSA,A,3,32,23,37,20,25,41,38,,,,,,0.82,0.50,0.65,4*07
$GPGSV,4,1,14,09,74,303,37,04,72,097,34,16,48,083,34,07,43,245,31,1*64
$GPGSV,4,2,14,48,33,182,29,26,27,051,29,03,24,174,25,06,14,269,20,1*69
$GPGSV,4,3,14,11,14,307,25,31,10,063,23,20,10,325,25,30,07,245,25,1*67
$GPGSV,4,4,14,27,03,114,18,29,01,007,,1*67
$GLGSV,2,1,07,68,79,094,31,78,79,120,18,69,43,319,28,79,33,202,26,1*7B
$GLGSV,2,2,07,67,29,129,26,85,13,331,18,86,03,020,,1*43
$GAGSV,3,1,10,09,81,320,31,06,71,097,31,31,47,145,28,04,44,104,30,7*76
$GAGSV,3,2,10,05,27,292,26,34,20,299,24,36,14,247,19,24,10,186,22,7*7E
$GAGSV,3,3,10,15,06,346,18,21,05,030,18,7*74
$GBGSV,2,1,08,32,70,166,38,23,69,085,39,37,47,207,36,20,46,304,36,1*7D
$GBGSV,2,2,08,25,20,051,29,41,17,140,28,38,07,333,27,04,01,262,,1*71
$GNRMC,183140.000,A,4910.425090,N,12304.400454,W,0.02,0.00,051224,,,D,V*13
$GNVTG,0.00,T,,M,0.02,N,0.04,K,D*20
$GNGGA,183141.000,4910.425144,N,12304.400424,W,2,31,0.50,8.564,M,-16.816,M,,*4C
$GNGLL,4910.425144,N,12304.400424,W,183141.000,A,D*52
$GNGSA,A,3,09,04,16,07,26,03,06,11,31,20,,,0.82,0.50,0.65,1*01
$GNGSA,A,3,68,78,69,79,67,85,,,,,,,0.82,0.50,0.65,2*02
$GNGSA,A,3,09,06,31,04,05,34,36,21,,,,,0.82,0.50,0.65,3*02
$GNGSA,A,3,32,23,37,20,25,41,38,,,,,,0.82,0.50,0.65,4*07
$GPGSV,4,1,14,09,74,303,37,04,72,097,34,16,48,083,34,07,43,245,31,1*64
$GPGSV,4,2,14,48,33,182,29,26,27,051,29,03,24,174,25,06,14,269,20,1*69
$GPGSV,4,3,14,11,14,307,25,31,10,063,23,20,10,325,25,30,07,245,25,1*67
$GPGSV,4,4,14,27,03,114,18,29,01,007,,1*67
$GLGSV,2,1,07,68,79,094,31,78,79,120,18,69,43,319,28,79,33,202,26,1*7B
$GLGSV,2,2,07,67,29,129,26,85,13,331,18,86,03,020,,1*43
$GAGSV,3,1,10,09,81,320,31,06,71,097,31,31,47,145,28,04,44,104,30,7*76
$GAGSV,3,2,10,05,27,292,26,34,20,299,24,36,14,247,19,24,10,186,22,7*7E
$GAGSV,3,3,10,15,06,346,18,21,05,030,18,7*74
$GBGSV,2,1,08,32,70,166,38,23,69,085,39,37,47,207,36,20,46,304,36,1*7D
$GBGSV,2,2,08,25,20,051,29,41,17,140,28,38,07,333,27,04,01,262,,1*71
$GNRMC,183141.000,A,4910.425144,N,12304.400424,W,0.02,0.00,051224,,,D,V*1D
$GNVTG,0.00,T,,M,0.02,N,0.03,K,D*27
$GNGGA,183142.000,4910.425240,N,12304.400322,W,2,31,0.50,8.608,M,-16.817,M,,*41
$GNGLL,4910.425240,N,12304.400322,W,183142.000,A,D*57
$GNGSA,A,3,09,04,16,07,26,03,06,11,31,20,,,0.82,0.50,0.65,1*01
$GNGSA,A,3,68,78,69,79,67,85,,,,,,,0.82,0.50,0.65,2*02
$GNGSA,A,3,09,06,31,04,05,34,36,21,,,,,0.82,0.50,0.65,3*02
$GNGSA,A,3,32,23,37,20,25,41,38,,,,,,0.82,0.50,0.65,4*07
$GPGSV,4,1,14,09,74,303,37,04,72,097,35,16,48,083,34,07,43,245,32,1*66
$GPGSV,4,2,14,48,33,182,29,26,27,051,29,03,24,174,26,06,14,269,20,1*6A
$GPGSV,4,3,14,11,14,307,25,31,10,063,23,20,10,325,25,30,07,245,25,1*67
$GPGSV,4,4,14,27,03,114,18,29,01,007,,1*67
$GLGSV,2,1,07,68,79,094,31,78,79,120,18,69,43,319,28,79,33,202,26,1*7B
$GLGSV,2,2,07,67,29,129,26,85,13,331,18,86,03,020,,1*43
$GAGSV,3,1,10,09,81,320,31,06,71,097,31,31,47,145,28,04,44,104,30,7*76
$GAGSV,3,2,10,05,27,292,26,34,20,299,24,36,14,247,19,24,10,186,22,7*7E
$GAGSV,3,3,10,15,06,346,19,21,05,030,18,7*75
$GBGSV,2,1,08,32,70,166,38,23,69,085,39,37,47,207,36,20,46,304,36,1*7D
$GBGSV,2,2,08,25,20,051,29,41,17,140,28,38,07,333,26,04,01,262,,1*70
$GNRMC,183142.000,A,4910.425240,N,12304.400322,W,0.02,0.00,051224,,,D,V*18
$GNVTG,0.00,T,,M,0.02,N,0.04,K,D*20
$GNGGA,183143.000,4910.425366,N,12304.400274,W,2,31,0.50,8.628,M,-16.816,M,,*44
$GNGLL,4910.425366,N,12304.400274,W,183143.000,A,D*51
$GNGSA,A,3,09,04,16,07,26,03,06,11,31,20,,,0.82,0.50,0.65,1*01
$GNGSA,A,3,68,78,69,79,67,85,,,,,,,0.82,0.50,0.65,2*02
$GNGSA,A,3,09,06,31,04,05,34,36,21,,,,,0.82,0.50,0.65,3*02
$GNGSA,A,3,32,23,37,20,25,41,38,,,,,,0.82,0.50,0.65,4*07
$GPGSV,4,1,14,09,74,303,37,04,72,097,35,16,48,083,34,07,43,245,32,1*66
$GPGSV,4,2,14,48,33,182,29,26,27,051,29,03,24,174,25,06,14,269,20,1*69
$GPGSV,4,3,14,11,14,307,25,31,10,063,23,20,10,325,25,30,07,245,25,1*67
$GPGSV,4,4,14,27,03,114,18,29,01,007,,1*67
$GLGSV,2,1,07,68,79,094,31,78,79,120,18,69,43,319,28,79,33,202,26,1*7B
$GLGSV,2,2,07,67,29,129,26,85,13,331,18,86,03,020,,1*43
$GAGSV,3,1,10,09,81,320,31,06,71,097,31,31,47,145,28,04,44,104,30,7*76
$GAGSV,3,2,10,05,27,292,26,34,20,299,24,36,14,247,19,24,10,186,22,7*7E
$GAGSV,3,3,10,15,06,346,19,21,05,030,18,7*75
$GBGSV,2,1,08,32,70,166,38,23,69,085,39,37,47,207,36,20,46,304,36,1*7D
$GBGSV,2,2,08,25,20,051,29,41,17,140,28,38,07,333,26,04,01,262,,1*70
$GNRMC,183143.000,A,4910.425366,N,12304.400274,W,0.02,0.00,051224,,,D,V*1E
$GNVTG,0.00,T,,M,0.02,N,0.04,K,D*20
$GNGGA,183144.000,4910.425468,N,12304.400250,W,2,31,0.50,8.652,M,-16.816,M,,*41
