1*07
$GNGSA,A,3,68,69,79,67,,,,,,,,,0.76,0.47,0.59,2*02
$GNGSA,A,3,09,06,31,04,05,34,24,36,15,,,,0.76,0.47,0.59,3*01
$GNGSA,A,3,23,32,37,20,25,38,41,19,,,,,0.76,0.47,0.59,4*0D
$GPGSV,4,1,13,09,81,305,38,04,65,109,35,07,49,250,36,16,46,073,35,1*68
$GPGSV,4,2,13,48,33,182,31,26,22,047,25,03,16,174,26,20,15,322,28,1*68
$GPGSV,4,3,13,30,13,248,25,11,13,301,28,06,09,263,21,27,08,109,27,1*68
$GPGSV,4,4,13,31,04,066,,1*50
$GLGSV,2,1,07,78,77,071,17,68,72,123,31,69,51,321,25,79,42,206,27,1*7F
$GLGSV,2,2,07,67,21,134,21,85,10,323,21,86,07,013,,1*4E
$GAGSV,3,1,09,09,86,348,33,06,66,105,32,31,53,139,30,04,39,109,30,7*7A
$GAGSV,3,2,09,05,31,295,29,34,18,293,23,24,16,186,26,36,08,244,19,7*73
$GAGSV,3,3,09,15,08,341,22,7*40
$GBGSV,4,1,13,23,64,072,36,32,62,165,37,37,55,209,36,20,52,301,38,1*77
$GBGSV,4,2,13,25,14,052,28,38,10,334,22,41,10,143,29,19,06,315,25,1*74
$GBGSV,4,3,13,46,04,224,,08,02,341,16,12,01,027,,44,01,005,,1*79
$GBGSV,4,4,13,04,01,262,,1*47
$GNRMC,184940.000,A,4910.428054,N,12304.399638,W,0.03,0.00,051224,,,D,V*17
$GNVTG,0.00,T,,M,0.03,N,0.05,K,D*20
$GNGGA,184941.000,4910.428078,N,12304.399608,W,2,32,0.47,10.848,M,-16.816,M,,*74
$GNGLL,4910.428078,N,12304.399608,W,184941.000,A,D*55
$GNGSA,A,3,09,04,07,16,26,03,20,30,11,06,27,,0.76,0.47,0.59,1*07
$GNGSA,A,3,68,69,79,67,,,,,,,,,0.76,0.47,0.59,2*02
$GNGSA,A,3,09,06,31,04,05,34,24,36,15,,,,0.76,0.47,0.59,3*01
$GNGSA,A,3,23,32,37,20,25,38,41,19,,,,,0.76,0.47,0.59,4*0D
$GPGSV,4,1,13,09,81,305,38,04,65,109,35,07,50,251,36,16,46,073,35,1*61
$GPGSV,4,2,13,48,33,182,31,26,22,047,26,03,16,174,26,20,15,322,28,1*6B
$GPGSV,4,3,13,30,13,248,25,11,13,301,27,06,09,263,21,27,08,109,27,1*67
$GPGSV,4,4,13,31,04,066,,1*50
$GLGSV,2,1,07,78,77,071,17,68,72,123,31,69,51,321,25,79,42,206,27,1*7F
$GLGSV,2,2,07,67,21,134,21,85,10,323,21,86,07,013,,1*4E
$GAGSV,3,1,09,09,86,348,33,06,66,105,32,31,53,139,30,04,39,109,30,7*7A
$GAGSV,3,2,09,05,31,295,29,34,18,293,23,24,16,186,26,36,08,244,19,7*73
$GAGSV,3,3,09,15,08,341,22,7*40
$GBGSV,4,1,13,23,64,072,36,32,62,165,37,37,55,209,35,20,52,301,38,1*74
$GBGSV,4,2,13,25,14,052,28,38,10,334,22,41,10,143,29,19,06,315,25,1*74
$GBGSV,4,3,13,46,04,224,,08,02,341,16,12,01,027,,44,01,005,,1*79
$GBGSV,4,4,13,04,01,262,,1*47
$GNRMC,184941.000,A,4910.428078,N,12304.399608,W,0.03,0.00,051224,,,D,V*1B
$GNVTG,0.00,T,,M,0.03,N,0.05,K,D*20
$GNGGA,184942.000,4910.428048,N,12304.399638,W,2,32,0.47,10.905,M,-16.817,M,,*7E
$GNGLL,4910.428048,N,12304.399638,W,184942.000,A,D*56
$GNGSA,A,3,09,04,07,16,26,03,20,30,11,06,27,,0.76,0.47,0.59,1*07
$GNGSA,A,3,68,69,79,67,,,,,,,,,0.76,0.47,0.59,2*02
$GNGSA,A,3,09,06,31,04,05,34,24,36,15,,,,0.76,0.47,0.59,3*01
$GNGSA,A,3,23,32,37,20,25,38,41,19,,,,,0.76,0.47,0.59,4*0D
$GPGSV,4,1,13,09,81,305,38,04,65,109,35,07,50,251,36,16,46,073,35,1*61
$GPGSV,4,2,13,48,33,182,31,26,22,047,25,03,16,174,26,20,15,322,28,1*68
$GPGSV,4,3,13,30,13,248,27,11,13,301,27,06,09,263,21,27,08,109,27,1*65
$GPGSV,4,4,13,31,04,066,,1*50
$GLGSV,2,1,07,78,77,071,17,68,72,123,31,69,51,321,25,79,42,206,27,1*7F
$GLGSV,2,2,07,67,21,134,21,85,10,323,21,86,07,013,,1*4E
$GAGSV,3,1,09,09,86,348,33,06,66,105,32,31,53,139,30,04,39,109,30,7*7A
$GAGSV,3,2,09,05,31,295,29,34,18,293,23,24,16,186,26,36,08,244,19,7*73
$GAGSV,3,3,09,15,08,341,21,7*43
$GBGSV,4,1,13,23,64,072,36,32,62,165,37,37,55,209,35,20,52,301,38,1*74
$GBGSV,4,2,13,25,14,052,28,38,10,334,22,41,10,143,29,19,06,315,25,1*74
$GBGSV,4,3,13,46,04,224,,08,02,341,16,12,01,027,,44,01,005,,1*79
$GBGSV,4,4,13,04,01,262,,1*47
$GNRMC,184942.000,A,4910.428048,N,12304.399638,W,0.02,0.00,051224,,,D,V*19
$GNVTG,0.00,T,,M,0.02,N,0.04,K,D*20
$GNGGA,184943.000,4910.428042,N,12304.399680,W,2,32,0.47,10.963,M,-16.816,M,,*77
$GNGLL,4910.428042,N,12304.399680,W,184943.000,A,D*5E
$GNGSA,A,3,09,04,07,16,26,03,20,30,11,06,27,,0.76,0.47,0.59,1*07
$GNGSA,A,3,68,69,79,67,,,,,,,,,0.76,0.47,0.59,2*02
$GNGSA,A,3,09,06,31,04,05,34,24,36,15,,,,0.76,0.47,0.59,3*01
$GNGSA,A,3,23,32,37,20,25,38,41,19,,,,,0.76,0.47,0.59,4*0D
$GPGSV,4,1,13,09,83,304,38,04,65,109,35,07,50,251,36,16,46,073,35,1*62
$GPGSV,4,2,13,48,33,182,31,26,22,047,26,03,16,174,26,20,15,322,28,1*6B
$GPGSV,4,3,13,30,13,248,25,11,13,301,27,06,09,263,20,27,08,109,27,1*66
$GPGSV,4,4,13,31,04,066,,1*50
$GLGSV,2,1,07,78,77,071,17,68,72,123,31,69,51,321,25,79,42,206,27,1*7F
$GLGSV,2,2,07,67,21,134,20,85,10,323,21,86,07,013,,1*4F
$GAGSV,3,1,09,09,86,348,33,06,66,105,32,31,53,139,30,04,39,109,30,7*7A
$GAGSV,3,2,09,05,31,295,29,34,18,293,23,24,16,186,26,36,08,244,19,7*73
$GAGSV,3,3,09,15,08,341,21,7*43
$GBGSV,4,1,13,23,64,072,36,32,62,165,37,37,55,209,35,20,52,301,38,1*74
$GBGSV,4,2,13,25,14,052,28,38,10,334,22,41,10,143,29,19,06,315,25,1*74
$GBGSV,4,3,13,46,04,224,,08,02,341,16,12,01,027,,44,01,005,,1*79
$GBGSV,4,4,13,04,01,262,,1*47
$GNRMC,184943.000,A,4910.428042,N,12304.399680,W,0.02,0.00,051224,,,D,V*11
$GNVTG,0.00,T,,M,0.02,N,0.03,K,D*27

$GNGGA,184944.000,4910.428084,N,12304.399680,W,2,32,0.47,11.015,M,-16.816,M,,*73
$GNGLL,4910.428084,N,12304.399680,W,184944.000,A,D*53
$GNGSA,A,3,09,04,07,16,26,03,20,30,11,06,27,,0.76,0.47,0.59,1*07
$GNGSA,A,3,68,69,79,67,,,,,,,,,0.76,0.47,0.59,2*02
$GNGSA,A,3,09,06,31,04,05,34,24,36,15,,,,0.76,0.47,0.59,3*01
$GNGSA,A,3,23,32,37,20,25,38,41,19,,,,,0.76,0.47,0.59,4*0D
$GPGSV,4,1,13,09,83,304,38,04,65,109,35,07,50,251,36,16,46,073,35,1*62
$GPGSV,4,2,13,48,33,182,31,26,22,047,26,03,16,174,26,20,15,322,28,1*6B
$GPGSV,4,3,13,30,13,248,25,11,13,301,27,06,09,263,20,27,08,109,27,1*66
$GPGSV,4,4,13,31,04,066,,1*50
$GLGSV,2,1,07,78,77,071,17,68,72,123,31,69,51,321,25,79,42,206,27,1*7F
$GLGSV,2,2,07,67,21,134,20,85,10,323,21,86,07,013,,1*4F
$GAGSV,3,1,09,09,86,348,33,06,66,105,32,31,53,139,30,04,39,109,30,7*7A
$GAGSV,3,2,09,05,31,295,29,34,18,293,23,24,16,186,26,36,08,244,19,7*73
$GAGSV,3,3,09,15,08,341,21,7*43
$GBGSV,4,1,13,23,64,072,36,32,62,165,37,37,55,209,35,20,52,301,38,1*74
$GBGSV,4,2,13,25,14,052,28,38,10,334,22,41,10,143,29,19,06,315,25,1*74
$GBGSV,4,3,13,46,04,224,,08,02,341,16,12,01,027,,44,01,005,,1*79
$GBGSV,4,4,13,04,01,262,,1*47
$GNRMC,184944.000,A,4910.428084,N,12304.399680,W,0.02,0.00,051224,,,D,V*1C
$GNVTG,0.00,T,,M,0.02,N,0.04,K,D*20
$GNGGA,184945.000,4910.428084,N,12304.399764,W,2,32,0.47,11.129,M,-16.816,M,,*77
