33,182,30,26,28,052,32,03,26,174,30,06,15,270,18,1*63
$GPGSV,4,3,14,11,14,309,26,31,11,062,24,20,09,325,21,30,06,244,21,1*65
$GPGSV,4,4,14,27,02,115,23,29,01,008,,1*60
$GLGSV,2,1,07,68,80,084,32,78,79,130,15,69,41,318,28,79,31,201,29,1*7E
$GLGSV,2,2,07,67,30,128,24,85,13,332,22,84,06,283,,1*4E
$GAGSV,3,1,10,09,79,317,33,06,72,095,33,31,46,145,29,04,45,103,30,7*72
$GAGSV,3,2,10,05,26,291,24,34,20,300,24,36,15,248,24,24,09,186,21,7*74
$GAGSV,3,3,10,15,05,347,23,21,05,030,20,7*75
$GBGSV,2,1,08,32,71,166,38,23,70,089,38,37,46,207,36,20,44,305,36,1*7B
$GBGSV,2,2,08,25,21,051,30,41,18,140,27,38,07,333,26,04,01,262,,1*79
$GNRMC,182818.000,A,4910.427052,N,12304.401198,W,0.03,0.00,051224,,,D,V*1F
$GNVTG,0.00,T,,M,0.03,N,0.05,K,D*20
$GNGGA,182819.000,4910.427088,N,12304.401138,W,2,31,0.50,10.882,M,-16.816,M,,*7F
$GNGLL,4910.427088,N,12304.401138,W,182819.000,A,D*5D
$GNGSA,A,3,04,09,16,07,26,03,06,11,31,20,,,0.83,0.50,0.66,1*03
$GNGSA,A,3,68,78,69,79,67,85,,,,,,,0.83,0.50,0.66,2*00
$GNGSA,A,3,09,06,31,04,05,34,36,21,,,,,0.83,0.50,0.66,3*00
$GNGSA,A,3,32,23,37,20,25,41,38,,,,,,0.83,0.50,0.66,4*05
$GPGSV,4,1,14,04,74,095,36,09,73,302,38,16,48,085,36,07,41,244,33,1*6E
$GPGSV,4,2,14,48,33,182,30,26,28,052,32,03,26,174,30,06,15,270,18,1*63
$GPGSV,4,3,14,11,14,309,26,31,11,062,24,20,09,325,20,30,06,244,21,1*64
$GPGSV,4,4,14,27,02,115,23,29,01,008,,1*60
$GLGSV,2,1,07,68,80,084,32,78,79,130,16,69,41,318,28,79,31,201,29,1*7D
$GLGSV,2,2,07,67,30,128,24,85,13,332,22,84,06,283,,1*4E
$GAGSV,3,1,10,09,79,317,33,06,72,095,33,31,46,145,29,04,45,103,30,7*72
$GAGSV,3,2,10,05,26,291,24,34,20,300,24,36,15,248,23,24,09,186,21,7*73
$GAGSV,3,3,10,15,05,347,23,21,05,030,20,7*75
$GBGSV,2,1,08,32,71,166,38,23,70,089,38,37,46,207,36,20,44,305,36,1*7B
$GBGSV,2,2,08,25,21,051,30,41,18,140,27,38,07,333,26,04,01,262,,1*79
$GNRMC,182819.000,A,4910.427088,N,12304.401138,W,0.03,0.00,051224,,,D,V*13
$GNVTG,0.00,T,,M,0.03,N,0.05,K,D*20
$GNGGA,182820.000,4910.427076,N,12304.401102,W,2,31,0.50,10.968,M,-16.816,M,,*78
$GNGLL,4910.427076,N,12304.401102,W,182820.000,A,D*5F
$GNGSA,A,3,04,09,16,07,26,03,06,11,31,20,,,0.83,0.50,0.66,1*03
$GNGSA,A,3,68,78,69,79,67,85,,,,,,,0.83,0.50,0.66,2*00
$GNGSA,A,3,09,06,31,04,05,34,36,21,,,,,0.83,0.50,0.66,3*00
$GNGSA,A,3,32,23,37,20,25,41,38,,,,,,0.83,0.50,0.66,4*05
$GPGSV,4,1,14,04,74,095,36,09,73,302,38,16,48,085,36,07,41,244,33,1*6E
$GPGSV,4,2,14,48,33,182,30,26,28,052,32,03,26,174,30,06,15,270,18,1*63
$GPGSV,4,3,14,11,14,309,26,31,11,062,24,20,09,325,21,30,06,244,21,1*65
$GPGSV,4,4,14,27,02,115,22,29,01,008,,1*61
$GLGSV,2,1,07,68,80,084,32,78,79,130,16,69,41,318,28,79,31,201,29,1*7D
$GLGSV,2,2,07,67,30,128,24,85,13,332,22,84,06,283,,1*4E
$GAGSV,3,1,10,09,79,317,33,06,72,095,33,31,46,145,29,04,45,103,30,7*72
$GAGSV,3,2,10,05,26,291,24,34,20,300,25,36,15,248,23,24,09,186,21,7*72
$GAGSV,3,3,10,15,05,347,23,21,05,030,20,7*75
$GBGSV,2,1,08,32,71,166,38,23,70,089,38,37,46,207,36,20,44,305,36,1*7B
$GBGSV,2,2,08,25,21,051,30,41,18,140,27,38,07,333,26,04,01,262,,1*79
$GNRMC,182820.000,A,4910.427076,N,12304.401102,W,0.03,0.00,051224,,,D,V*11
$GNVTG,0.00,T,,M,0.03,N,0.05,K,D*20
$GNGGA,182821.000,4910.427118,N,12304.401096,W,2,31,0.50,11.131,M,-16.816,M,,*79
$GNGLL,4910.427118,N,12304.401096,W,182821.000,A,D*5B
$GNGSA,A,3,04,09,16,07,26,03,06,11,31,20,,,0.83,0.50,0.66,1*03
$GNGSA,A,3,68,78,69,79,67,85,,,,,,,0.83,0.50,0.66,2*00
$GNGSA,A,3,09,06,31,04,05,34,36,21,,,,,0.83,0.50,0.66,3*00
$GNGSA,A,3,32,23,37,20,25,41,38,,,,,,0.83,0.50,0.66,4*05
$GPGSV,4,1,14,04,74,095,36,09,73,302,38,16,48,085,36,07,41,244,33,1*6E
$GPGSV,4,2,14,48,33,182,31,26,28,052,32,03,26,174,30,06,15,270,18,1*62
$GPGSV,4,3,14,11,14,309,27,31,11,062,24,20,09,325,21,30,06,244,21,1*64
$GPGSV,4,4,14,27,02,115,21,29,01,008,,1*62
$GLGSV,2,1,07,68,80,084,32,78,79,130,17,69,41,318,28,79,31,201,29,1*7C
$GLGSV,2,2,07,67,30,128,24,85,13,332,22,84,06,283,,1*4E
$GAGSV,3,1,10,09,79,317,33,06,72,095,33,31,46,145,29,04,45,103,30,7*72
$GAGSV,3,2,10,05,26,291,24,34,20,300,25,36,15,248,23,24,09,186,21,7*72
$GAGSV,3,3,10,15,05,347,23,21,05,030,20,7*75
$GBGSV,2,1,08,32,71,166,38,23,70,089,38,37,46,207,36,20,44,305,36,1*7B
$GBGSV,2,2,08,25,21,051,30,41,18,140,27,38,07,333,26,04,01,262,,1*79
$GNRMC,182821.000,A,4910.427118,N,12304.401096,W,0.02,0.00,051224,,,D,V*14
$GNVTG,0.00,T,,M,0.02,N,0.04,K,D*20
$GNGGA,182822.000,4910.427172,N,12304.401060,W,2,31,0.50,11.218,M,-16.817,M,,*76
$GNGLL,4910.427172,N,12304.401060,W,182822.000,A,D*5D
$GNGSA,A,3,04,09,16,07,26,03,06,11,31,20,,,0.83,0.50,0.66,1*03
$GNGSA,A,3,68,78,69,79,67,85,,,,,,,0.83,0.50,0.66,2*00
$GNGSA,A,3,09,06,31,04,05,34,36,21,,,,,0.83,0.50,0.66,3*00
$GNGSA,A,3,32,23,37,20,25,41,38,,,,,,0.83,0.50,0.66,4*05
$GPGSV,4,1,14,04,74,095,36,09,73,302,38,16,48,085,36,07,42,244,33,1*6D
$GPGSV,4,2,14,48,33,182,31,26,28,052,32,03,26,174,30,06,15,270,18,1*62
$GPGSV,4,3,14,11,14,309,27,31,11,062,23,20,09,325,22,30,06,244,21,1*60
$GPGSV,4,4,14,27,02,115,23,29,01,008,,1*60
$GLGSV,2,1,07,68,80,084,32,78,79,130,17,69,41,318,28,79,31,201,29,1*7C
$GLGSV,2,2,07,67,30,128,23,85,13,332,22,84,06,283,,1*49
$GAGSV,3,1,10,09,79,317,33,06,72,095,33,31,46,145,29,04,45,103,30,7*72
$GAGSV,3,2,10,05,26,291,24,34,20,300,25,36,15,248,23,24,09,186,21,7*72
$GAGSV,3,3,10,15,05,347,23,21,05,030,20,7*75
$GBGSV,2,1,08,32,71,166,38,23,70,089,38,37,46,207,36,20,44,305,36,1*7B
$GBGSV,2,2,08,25,21,051,30,41,18,140,27,38,07,333,26,04,01,262,,1*79
$GNRMC,182822.000,A,4910.427172,N,12304.401060,W,0.02,0.00,051224,,,D,V*12
$GNVTG,0.00,T,,M,0.02,N,0.03,K,D*27
$GNGGA,182823.000,4910.427196,N,12304.401060,W,2,31,0.50,11.242,M,-16.816,M,,*73
