$GNGGA,174330.000,4910.425390,N,12304.401552,W,2,36,0.43,5.251,M,-16.816,M,,*43
$GNGLL,4910.425390,N,12304.401552,W,174330.000,A,D*54
$GNGSA,A,3,04,03,26,09,31,16,06,07,28,11,,,0.77,0.43,0.64,1*00
$GNGSA,A,3,79,69,70,80,86,78,85,,,,,,0.77,0.43,0.64,2*05
$GNGSA,A,3,19,29,27,10,12,21,11,04,30,33,,,0.77,0.43,0.64,3*06
$GNGSA,A,3,41,33,25,24,14,32,23,26,30,,,,0.77,0.43,0.64,4*07
$GPGSV,3,1,11,04,72,301,35,03,61,176,37,26,41,086,33,09,41,285,33,1*6F
$GPGSV,3,2,11,31,40,057,32,48,33,182,31,16,32,127,32,06,25,302,30,1*65
$GPGSV,3,3,11,07,13,227,27,28,12,054,29,11,06,336,23,1*51
$GLGSV,2,1,07,79,61,075,39,69,55,092,40,70,48,316,18,80,41,172,36,1*77
$GLGSV,2,2,07,86,20,317,27,78,18,030,28,85,13,263,29,1*4F
$GAGSV,3,1,11,19,80,329,28,29,46,086,32,27,36,074,30,10,33,276,27,7*72
$GAGSV,3,2,11,12,31,247,26,21,30,138,28,11,26,307,22,04,24,278,27,7*7C
$GAGSV,3,3,11,30,09,028,25,33,05,199,16,36,01,347,,7*43
$GBGSV,4,1,13,41,70,301,36,33,55,124,33,25,54,171,35,24,50,068,36,1*7C
$GBGSV,4,2,13,14,28,123,28,57,26,232,,32,15,302,27,23,10,203,24,1*74
$GBGSV,4,3,13,26,07,040,23,30,06,305,21,42,03,123,18,31,02,345,,1*7B
$GBGSV,4,4,13,29,01,354,,1*4C
$GNRMC,174330.000,A,4910.425390,N,12304.401552,W,0.02,0.00,291124,,,D,V*16
$GNVTG,0.00,T,,M,0.02,N,0.04,K,D*20
$PAIRLOG,Full*51
$GNGGA,174331.000,4910.425318,N,12304.401516,W,2,36,0.43,5.195,M,-16.816,M,,*49
$GNGLL,4910.425318,N,12304.401516,W,174331.000,A,D*55
$GNGSA,A,3,04,03,26,09,31,16,06,07,28,11,,,0.77,0.43,0.64,1*00
$GNGSA,A,3,79,69,70,80,86,78,85,,,,,,0.77,0.43,0.64,2*05
$GNGSA,A,3,19,29,27,10,12,21,11,04,30,33,,,0.77,0.43,0.64,3*06
$GNGSA,A,3,41,33,25,24,14,32,23,26,30,,,,0.77,0.43,0.64,4*07
$GPGSV,3,1,11,04,72,301,35,03,61,176,37,26,41,086,32,09,41,285,33,1*6E
$GPGSV,3,2,11,31,40,057,32,48,33,182,31,16,32,127,31,06,25,302,30,1*66
$GPGSV,3,3,11,07,13,227,27,28,12,054,29,11,06,336,22,1*50
$GLGSV,2,1,07,79,61,075,39,69,55,092,40,70,48,316,18,80,41,172,36,1*77
$GLGSV,2,2,07,86,20,317,25,78,18,030,28,85,13,263,29,1*4D
$GAGSV,3,1,11,19,80,329,28,29,46,086,32,27,36,074,30,10,33,276,27,7*72
$GAGSV,3,2,11,12,31,247,26,21,30,138,28,11,26,307,21,04,24,278,26,7*7E
$GAGSV,3,3,11,30,09,028,25,33,05,199,16,36,01,347,,7*43
$GBGSV,4,1,13,41,70,301,36,33,55,124,33,25,54,171,35,24,50,068,36,1*7C
$GBGSV,4,2,13,14,28,123,28,57,26,232,,32,15,302,27,23,10,203,24,1*74
$GBGSV,4,3,13,26,07,040,23,30,06,305,21,42,03,123,18,31,02,345,,1*7B
$GBGSV,4,4,13,29,01,354,,1*4C
$GNRMC,174331.000,A,4910.425318,N,12304.401516,W,0.02,0.00,291124,,,D,V*17
$GNVTG,0.00,T,,M,0.02,N,0.03,K,D*27
$PAIRLOG,Full*51
$GNGGA,174332.000,4910.425258,N,12304.401516,W,2,36,0.43,5.208,M,-16.816,M,,*48
$GNGLL,4910.425258,N,12304.401516,W,174332.000,A,D*53
$GNGSA,A,3,04,03,26,09,31,16,06,07,28,11,,,0.77,0.43,0.64,1*00
$GNGSA,A,3,79,69,70,80,86,78,85,,,,,,0.77,0.43,0.64,2*05
$GNGSA,A,3,19,29,27,10,12,21,11,04,30,33,,,0.77,0.43,0.64,3*06
$GNGSA,A,3,41,33,25,24,14,32,23,26,30,,,,0.77,0.43,0.64,4*07
$GPGSV,3,1,11,04,72,301,35,03,61,176,37,26,41,086,32,09,41,285,33,1*6E
$GPGSV,3,2,11,31,40,057,32,48,33,182,31,16,32,127,31,06,25,302,30,1*66
$GPGSV,3,3,11,07,13,227,27,28,12,054,29,11,06,336,22,1*50
$GLGSV,2,1,07,79,61,075,39,69,55,092,40,70,48,316,18,80,41,172,35,1*74
$GLGSV,2,2,07,86,20,317,25,78,18,030,28,85,13,263,28,1*4C
$GAGSV,3,1,11,19,80,329,27,29,46,086,32,27,36,074,29,10,33,276,27,7*75
$GAGSV,3,2,11,12,31,247,25,21,30,138,27,11,26,307,21,04,24,278,26,7*72
$GAGSV,3,3,11,30,09,028,24,33,05,199,15,36,01,347,,7*41
$GBGSV,4,1,13,41,70,301,36,33,55,124,33,25,54,171,35,24,50,068,35,1*7F
$GBGSV,4,2,13,14,28,123,28,57,26,232,,32,15,302,26,23,10,203,23,1*72
$GBGSV,4,3,13,26,07,040,23,30,06,305,21,42,03,123,18,31,02,345,,1*7B
$GBGSV,4,4,13,29,01,354,,1*4C
$GNRMC,174332.000,A,4910.425258,N,12304.401516,W,0.02,0.00,291124,,,D,V*11
$GNVTG,0.00,T,,M,0.02,N,0.04,K,D*20
$PAIRLOG,Full*51
$GNGGA,174333.000,4910.425264,N,12304.401552,W,2,36,0.43,5.120,M,-16.816,M,,*4F
$GNGLL,4910.425264,N,12304.401552,W,174333.000,A,D*5D
$GNGSA,A,3,04,03,26,09,31,16,06,07,28,11,,,0.77,0.43,0.64,1*00
$GNGSA,A,3,79,69,70,80,86,78,85,,,,,,0.77,0.43,0.64,2*05
$GNGSA,A,3,19,29,27,10,12,21,11,04,30,33,,,0.77,0.43,0.64,3*06
$GNGSA,A,3,41,33,25,24,14,32,23,26,30,,,,0.77,0.43,0.64,4*07
$GPGSV,3,1,11,04,72,301,35,03,61,176,37,26,41,086,32,09,41,285,33,1*6E
$GPGSV,3,2,11,31,40,057,32,48,33,182,31,16,32,127,31,06,25,302,30,1*66
$GPGSV,3,3,11,07,13,227,27,28,12,054,28,11,06,336,22,1*51
$GLGSV,2,1,07,79,61,075,39,69,55,092,40,70,48,316,18,80,41,172,35,1*74
$GLGSV,2,2,07,86,20,317,26,78,18,030,28,85,13,263,28,1*4F
$GAGSV,3,1,10,19,80,329,27,29,46,086,32,27,36,074,29,10,33,276,27,7*74
$GAGSV,3,2,10,12,31,247,25,21,30,138,27,11,26,307,21,04,24,278,26,7*73
$GAGSV,3,3,10,30,09,028,24,33,05,199,15,7*74
$GBGSV,4,1,14,41,70,301,36,33,55,124,32,25,54,171,35,24,50,068,35,1*79
$GBGSV,4,2,14,14,28,123,28,57,26,232,,32,15,302,26,23,10,203,23,1*75
$GBGSV,4,3,14,26,07,040,22,30,06,305,21,42,03,123,18,31,02,345,,1*7D
$GBGSV,4,4,14,04,01,261,,29,01,354,,1*7B
$GNRMC,174333.000,A,4910.425264,N,12304.401552,W,0.02,0.00,291124,,,D,V*1F
$GNVTG,0.00,T,,M,0.02,N,0.03,K,D*27
$PAIRLOG,Full*51
$GNGGA,174334.000,4910.425252,N,12304.401582,W,2,36,0.43,5.110,M,-16.816,M,,*43
$GNGLL,4910.425252,N,12304.401582,W,174334.000,A,D*52
$GNGSA,A,3,04,03,26,09,31,16,06,07,28,11,,,0.77,0.43,0.64,1*00
$GNGSA,A,3,79,69,70,80,86,78,85,,,,,,0.77,0.43,0.64,2*05
$GNGSA,A,3,19,29,27,10,12,21,11,04,30,33,,,0.77,0.43,0.64,3*06
$GNGSA,A,3,41,33,25,24,14,32,23,26,30,,,,0.77,0.43,0.64,4*07
$GPGSV,3,1,11,04,72,301,35,03,61,176,36,26,41,086,31,09,41,285,33,1*6C
$GPGSV,3,2,11,31,40,057,31,48,33,182,31,16,32,127,31,06,25,302,30,1*65
$GPGSV,3,3,11,07,13,227,27,28,12,054,28,11,06,336,22,1*51
$GLGSV,2,1,07,79,61,075,39,69,55,092,40,70,48,316,18,80,41,172,35,1*74
$GLGSV,2,2,07,86,20,317,26,78,18,030,28,85,13,263,28,1*4F
$GAGSV,3,1,10,19,80,329,27,29,46,086,32,27,36,074,29,10,33,276,27,7*74
$GAGSV,3,2,10,12,31,247,25,21,30,138,27,11,26,307,21,04,24,278,26,7*73
$GAGSV,3,3,10,30,09,028,24,33,05,199,15,7*74
$GBGSV,4,1,14,41,70,301,36,33,55,124,32,25,54,171,34,24,50,068,35,1*78
$GBGSV,4,2,14,14,28,123,28,57,26,232,,32,15,302,26,23,10,203,23,1*75
$GBGSV,4,3,14,26,07,040,22,30,06,305,20,42,03,123,18,31,02,345,,1*7C
$GBGSV,4,4,14,04,01,261,,29,01,354,,1*7B
$GNRMC,174334.000,A,4910.425252,N,12304.401582,W,0.02,0.00,291124,,,D,V*10
$GNVTG,0.00,T,,M,0.02,N,0.03,K,D*27
$PAIRLOG,Full*51
$GNGGA,174335.000,4910.425234,N,12304.401588,W,2,36,0.43,5.098,M,-16.816,M,,*49
$GNGLL,4910.425234,N,12304.401588,W,174335.000,A,D*59
$GNGSA,A,3,04,03,26,09,31,16,06,07,28,11,,,0.77,0.43,0.64,1*00
$GNGSA,A,3,79,69,70,80,86,78,85,,,,,,0.77,0.43,0.64,2*05
$GNGSA,A,3,19,29,27,10,12,21,11,04,30,33,,,0.77,0.43,0.64,3*06
$GNGSA,A,3,41,33,25,24,14,32,23,26,30,,,,0.77,0.43,0.64,4*07
$GPGSV,3,1,11,04,72,301,36,03,61,176,36,26,41,086,32,09,41,285,34,1*6B
$GPGSV,3,2,11,31,40,057,32,48,33,182,31,16,32,127,32,06,25,302,30,1*65
$GPGSV,3,3,11,07,13,227,27,28,12,054,28,11,06,336,23,1*50
$GLGSV,2,1,07,79,61,075,39,69,55,092,40,70,48,316,18,80,41,172,35,1*74
$GLGSV,2,2,07,86,20,317,26,78,18,030,28,85,13,263,28,1*4F
$GAGSV,3,1,10,19,80,329,28,29,46,086,32,27,36,074,30,10,33,276,27,7*73
$GAGSV,3,2,10,12,31,247,26,21,30,138,27,11,26,307,21,04,24,278,26,7*70
$GAGSV,3,3,10,30,09,028,24,33,05,199,15,7*74
$GBGSV,4,1,14,41,70,301,36,33,55,124,32,25,54,171,34,24,50,068,35,1*78
$GBGSV,4,2,14,14,28,123,28,57,26,232,,32,15,302,26,23,10,203,23,1*75
$GBGSV,4,3,14,26,07,040,22,30,06,305,20,42,03,123,18,31,02,345,,1*7C
$GBGSV,4,4,14,04,01,261,,29,01,354,,1*7B
$GNRMC,174335.000,A,4910.425234,N,12304.401588,W,0.02,0.00,291124,,,D,V*1B
$GNVTG,0.00,T,,M,0.02,N,0.03,K,D*27
$PAIRLOG,Full*51
$GNGGA,174336.000,4910.425228,N,12304.401582,W,2,36,0.43,5.303,M,-16.816,M,,*4C
$GNGLL,4910.425228,N,12304.401582,W,174336.000,A,D*5D
$GNGSA,A,3,04,03,26,09,31,16,06,07,28,11,,,0.77,0.43,0.64,1*00
$GNGSA,A,3,79,69,70,80,86,78,85,,,,,,0.77,0.43,0.64,2*05
$GNGSA,A,3,19,29,27,10,12,21,11,04,30,33,,,0.77,0.43,0.64,3*06
$GNGSA,A,3,41,33,25,24,14,32,23,26,30,,,,0.77,0.43,0.64,4*07
$GPGSV,3,1,11,04,72,301,37,03,61,176,37,26,41,086,33,09,41,285,35,1*6B
$GPGSV,3,2,11,31,40,057,33,48,33,182,32,16,32,127,33,06,25,302,31,1*67
$GPGSV,3,3,11,07,13,227,28,28,12,054,29,11,06,336,23,1*5E
$GLGSV,2,1,07,79,61,075,39,69,55,092,40,70,48,316,18,80,41,172,35,1*74
$GLGSV,2,2,07,86,20,317,26,78,18,030,28,85,13,263,28,1*4F
$GAGSV,3,1,11,19,80,329,29,29,46,086,33,27,36,074,31,10,33,276,28,7*7C
$GAGSV,3,2,11,12,31,247,26,21,30,138,28,11,26,307,22,04,24,278,27,7*7C
$GAGSV,3,3,11,30,09,028,25,33,05,199,15,36,01,347,,7*40
$GBGSV,4,1,13,41,70,301,36,33,55,124,32,25,54,171,34,24,50,068,35,1*7F
$GBGSV,4,2,13,14,28,123,28,57,26,232,,32,15,302,27,23,10,203,23,1*73
$GBGSV,4,3,13,26,07,040,22,30,06,305,20,42,03,123,18,31,02,345,,1*7B
$GBGSV,4,4,13,29,01,354,,1*4C
$GNRMC,174336.000,A,4910.425228,N,12304.401582,W,0.01,0.00,291124,,,D,V*1C
$GNVTG,0.00,T,,M,0.01,N,0.03,K,D*24
$PAIRLOG,Full*51
$GNGGA,174337.000,4910.425222,N,12304.401540,W,2,36,0.43,5.521,M,-16.816,M,,*4F
$GNGLL,4910.425222,N,12304.401540,W,174337.000,A,D*58
$GNGSA,A,3,04,03,26,09,31,16,06,07,28,11,,,0.77,0.43,0.64,1*00
$GNGSA,A,3,79,69,70,80,86,78,85,,,,,,0.77,0.43,0.64,2*05
$GNGSA,A,3,19,29,27,10,12,21,11,04,30,33,,,0.77,0.43,0.64,3*06
$GNGSA,A,3,41,33,25,24,14,32,23,26,30,,,,0.77,0.43,0.64,4*07
$GPGSV,3,1,11,04,72,301,37,03,61,176,37,26,41,086,33,09,41,285,35,1*6B
$GPGSV,3,2,11,31,40,057,33,48,33,182,32,16,32,127,33,06,25,302,31,1*67
$GPGSV,3,3,11,07,13,227,29,28,12,054,29,11,06,336,24,1*58
$GLGSV,2,1,07,79,61,075,39,69,55,092,41,70,48,316,18,80,41,172,35,1*75
$GLGSV,2,2,07,86,20,317,26,78,18,030,28,85,13,263,29,1*4E
$GAGSV,3,1,11,19,80,329,29,29,46,086,33,27,36,074,31,10,33,276,28,7*7C
$GAGSV,3,2,11,12,31,247,26,21,30,138,28,11,26,307,22,04,24,278,27,7*7C
$GAGSV,3,3,11,30,09,028,25,33,05,199,16,36,01,347,,7*43
$GBGSV,4,1,13,41,70,301,36,33,55,124,33,25,54,171,34,24,50,068,35,1*7E
$GBGSV,4,2,13,14,28,123,28,57,26,232,,32,15,302,27,23,10,203,23,1*73
$GBGSV,4,3,13,26,07,040,22,30,06,305,20,42,03,123,18,31,02,345,,1*7B
$GBGSV,4,4,13,29,01,354,,1*4C
$GNRMC,174337.000,A,4910.425222,N,12304.401540,W,0.02,0.00,291124,,,D,V*1A
$GNVTG,0.00,T,,M,0.02,N,0.03,K,D*27
$PAIRLOG,Full*51
$GNGGA,174338.000,4910.425222,N,12304.401504,W,2,36,0.43,5.635,M,-16.816,M,,*46
$GNGLL,4910.425222,N,12304.401504,W,174338.000,A,D*57
$GNGSA,A,3,04,03,26,09,31,16,06,07,28,11,,,0.77,0.43,0.64,1*00
$GNGSA,A,3,79,69,70,80,86,78,85,,,,,,0.77,0.43,0.64,2*05
$GNGSA,A,3,19,29,27,10,12,21,11,04,30,33,,,0.77,0.43,0.64,3*06
$GNGSA,A,3,41,33,25,24,14,32,23,26,30,,,,0.77,0.43,0.64,4*07
$GPGSV,3,1,11,04,72,301,37,03,61,176,37,26,41,086,34,09,41,285,35,1*6C
$GPGSV,3,2,11,31,40,057,33,48,33,182,32,16,32,127,33,06,25,302,31,1*67
$GPGSV,3,3,11,07,13,227,29,28,12,054,29,11,06,336,24,1*58
$GLGSV,2,1,07,79,61,075,39,69,55,092,41,70,48,316,18,80,41,172,36,1*76
$GLGSV,2,2,07,86,20,317,26,78,18,030,28,85,13,263,29,1*4E
$GAGSV,3,1,11,19,80,329,29,29,46,086,33,27,36,074,31,10,33,276,28,7*7C
$GAGSV,3,2,11,12,31,247,26,21,30,138,28,11,26,307,22,04,24,278,27,7*7C
$GAGSV,3,3,11,30,09,028,25,33,05,199,16,36,01,347,,7*43
$GBGSV,4,1,13,41,70,301,36,33,55,124,33,25,54,171,34,24,50,068,35,1*7E
$GBGSV,4,2,13,14,28,123,28,57,26,232,,32,15,302,27,23,10,203,23,1*73
$GBGSV,4,3,13,26,07,040,22,30,06,305,21,42,03,123,18,31,02,345,,1*7A
$GBGSV,4,4,13,29,01,354,,1*4C
$GNRMC,174338.000,A,4910.425222,N,12304.401504,W,0.02,0.00,291124,,,D,V*15
$GNVTG,0.00,T,,M,0.02,N,0.03,K,D*27
$PAIRLOG,Full*51
$GNGGA,174339.000,4910.425198,N,12304.401552,W,2,36,0.43,5.784,M,-16.816,M,,*4D
$GNGLL,4910.425198,N,12304.401552,W,174339.000,A,D*57
$GNGSA,A,3,04,03,26,09,31,16,06,07,28,11,,,0.77,0.43,0.64,1*00
$GNGSA,A,3,79,69,70,80,86,78,85,,,,,,0.77,0.43,0.64,2*05
$GNGSA,A,3,19,29,27,10,12,21,11,04,30,33,,,0.77,0.43,0.64,3*06
$GNGSA,A,3,41,33,25,24,14,32,23,26,30,,,,0.77,0.43,0.64,4*07
$GPGSV,3,1,11,04,72,301,37,03,61,176,37,26,41,086,34,09,41,285,35,1*6C
$GPGSV,3,2,11,31,40,057,33,48,33,182,32,16,32,127,33,06,25,302,31,1*67
$GPGSV,3,3,11,07,13,227,29,28,12,054,29,11,06,336,24,1*58
$GLGSV,2,1,07,79,61,075,39,69,55,092,41,70,48,316,18,80,41,172,36,1*76
$GLGSV,2,2,07,86,20,317,26,78,18,030,28,85,13,263,29,1*4E
$GAGSV,3,1,11,19,80,329,29,29,46,086,33,27,36,074,32,10,33,276,28,7*7F
$GAGSV,3,2,11,12,31,247,26,21,30,138,29,11,26,307,23,04,24,278,27,7*7C
$GAGSV,3,3,11,30,09,028,25,33,05,199,15,36,01,347,,7*40
$GBGSV,4,1,13,41,70,301,36,33,55,124,33,25,54,171,34,24,50,068,35,1*7E
$GBGSV,4,2,13,14,28,123,28,57,26,232,,32,15,302,27,23,10,203,24,1*74
$GBGSV,4,3,13,26,07,040,22,30,06,305,21,42,03,123,18,31,02,345,,1*7A
$GBGSV,4,4,13,29,01,354,,1*4C
$GNRMC,174339.000,A,4910.425198,N,12304.401552,W,0.01,0.00,291124,,,D,V*16
$GNVTG,0.00,T,,M,0.01,N,0.03,K,D*24
$PAIRLOG,Full*51
$GNGGA,174340.000,4910.425228,N,12304.401498,W,2,36,0.43,5.942,M,-16.817,M,,*49
