$GNGGA,003723.000,4910.427934,N,12304.400586,W,2,31,0.46,7.119,M,-16.816,M,,*45
$GNGLL,4910.427934,N,12304.400586,W,003723.000,A,D*5D
$GNGSA,A,3,17,22,19,14,24,13,15,02,30,21,,,0.82,0.46,0.68,1*0E
$GNGSA,A,3,83,82,72,80,65,71,,,,,,,0.82,0.46,0.68,2*0D
$GNGSA,A,3,25,02,08,03,10,24,05,,,,,,0.82,0.46,0.68,3*09
$GNGSA,A,3,36,30,27,45,21,29,28,22,,,,,0.82,0.46,0.68,4*02
$GPGSV,4,1,13,17,74,104,26,22,72,060,27,19,57,191,26,14,50,080,26,1*6A
$GPGSV,4,2,13,24,34,305,25,46,33,188,26,13,30,216,23,15,26,255,21,1*63
$GPGSV,4,3,13,02,22,045,24,30,18,141,20,21,09,030,17,06,08,159,22,1*64
$GPGSV,4,4,13,12,04,268,,1*5D
$GLGSV,2,1,07,83,55,097,24,74,45,309,,82,34,038,28,72,26,283,27,1*76
$GLGSV,2,2,07,80,23,099,32,65,14,341,29,71,10,236,32,1*4D
$GAGSV,3,1,11,25,82,018,26,02,37,272,21,08,34,294,22,03,34,230,20,7*74
$GAGSV,3,2,11,10,33,092,21,24,32,080,18,12,30,064,20,11,27,124,19,7*77
$GAGSV,3,3,11,05,05,187,12,07,04,336,12,33,04,017,11,7*4A
$GBGSV,3,1,11,36,79,300,37,30,53,151,34,27,45,067,34,46,44,112,,1*7D
$GBGSV,3,2,11,45,27,295,26,57,23,065,,21,14,303,26,29,11,194,27,1*79
$GBGSV,3,3,11,28,10,036,26,22,08,254,27,42,03,348,23,1*49
$GNRMC,003723.000,A,4910.427934,N,12304.400586,W,0.02,181.98,061224,,,D,V*18
$GNVTG,181.98,T,,M,0.02,N,0.04,K,D*29
$PAIRLOG,Full*51
$GNGGA,003724.000,4910.428006,N,12304.400688,W,2,31,0.46,7.081,M,-16.816,M,,*48
$GNGLL,4910.428006,N,12304.400688,W,003724.000,A,D*50
$GNGSA,A,3,17,22,19,14,24,13,15,02,30,21,,,0.82,0.46,0.68,1*0E
$GNGSA,A,3,83,82,72,80,65,71,,,,,,,0.82,0.46,0.68,2*0D
$GNGSA,A,3,25,02,08,03,10,24,05,,,,,,0.82,0.46,0.68,3*09
$GNGSA,A,3,36,30,27,45,21,29,28,22,,,,,0.82,0.46,0.68,4*02
$GPGSV,4,1,13,17,74,104,25,22,72,060,27,19,57,191,25,14,50,080,25,1*69
$GPGSV,4,2,13,24,34,305,25,46,33,188,26,13,30,216,22,15,26,255,21,1*62
$GPGSV,4,3,13,02,22,045,24,30,18,141,19,21,09,030,17,06,08,159,22,1*6E
$GPGSV,4,4,13,12,04,268,,1*5D
$GLGSV,2,1,07,83,55,097,24,74,45,309,,82,34,038,28,72,26,283,27,1*76
$GLGSV,2,2,07,80,23,099,32,65,14,341,29,71,10,236,32,1*4D
$GAGSV,3,1,11,25,82,018,26,02,37,272,21,08,34,294,21,03,34,230,20,7*77
$GAGSV,3,2,11,10,33,092,21,24,32,080,17,12,30,064,19,11,27,124,19,7*72
$GAGSV,3,3,11,05,05,187,12,07,04,336,12,33,04,017,11,7*4A
$GBGSV,3,1,11,36,79,300,37,30,53,151,34,27,45,067,34,46,44,112,,1*7D
$GBGSV,3,2,11,45,27,295,26,57,23,065,,21,14,303,26,29,11,194,27,1*79
$GBGSV,3,3,11,28,10,036,26,22,08,254,27,42,03,348,23,1*49
$GNRMC,003724.000,A,4910.428006,N,12304.400688,W,0.03,181.98,061224,,,D,V*14
$GNVTG,181.98,T,,M,0.03,N,0.05,K,D*29
$PAIRLOG,Full*51
$GNGGA,003725.000,4910.428036,N,12304.400736,W,2,31,0.46,7.146,M,-16.817,M,,*45
$GNGLL,4910.428036,N,12304.400736,W,003725.000,A,D*56
$GNGSA,A,3,17,22,19,14,24,13,15,02,30,21,,,0.82,0.46,0.68,1*0E
$GNGSA,A,3,83,82,72,80,65,71,,,,,,,0.82,0.46,0.68,2*0D
$GNGSA,A,3,25,02,08,03,10,24,05,,,,,,0.82,0.46,0.68,3*09
$GNGSA,A,3,36,30,27,45,21,29,28,22,,,,,0.82,0.46,0.68,4*02
$GPGSV,4,1,13,17,74,104,24,22,72,060,27,19,57,191,24,14,50,080,25,1*69
$GPGSV,4,2,13,24,34,305,25,46,33,188,26,13,30,216,21,15,26,255,20,1*60
$GPGSV,4,3,13,02,22,045,24,30,18,141,18,21,09,030,17,06,08,159,22,1*6F
$GPGSV,4,4,13,12,04,268,,1*5D
$GLGSV,2,1,07,83,55,097,23,74,45,309,,82,34,038,28,72,26,283,27,1*71
$GLGSV,2,2,07,80,23,099,32,65,14,341,29,71,10,236,32,1*4D
$GAGSV,3,1,11,25,82,018,26,02,37,272,22,08,34,294,21,03,34,230,20,7*74
$GAGSV,3,2,11,10,33,092,21,24,32,080,16,12,30,064,19,11,27,124,19,7*73
$GAGSV,3,3,11,05,05,187,12,07,04,336,13,33,04,017,11,7*4B
$GBGSV,3,1,11,36,79,300,37,30,53,151,34,27,45,067,34,46,44,112,,1*7D
$GBGSV,3,2,11,45,27,295,26,57,23,065,,21,14,303,26,29,11,194,27,1*79
$GBGSV,3,3,11,28,10,036,26,22,08,254,27,42,03,348,22,1*48
$GNRMC,003725.000,A,4910.428036,N,12304.400736,W,0.03,181.98,061224,,,D,V*12
$GNVTG,181.98,T,,M,0.03,N,0.05,K,D*29
$PAIRLOG,Full*51
$GNGGA,003726.000,4910.428096,N,12304.400748,W,2,31,0.46,7.204,M,-16.816,M,,*41
$GNGLL,4910.428096,N,12304.400748,W,003726.000,A,D*56
$GNGSA,A,3,17,22,19,14,24,13,15,02,30,21,,,0.82,0.46,0.68,1*0E
$GNGSA,A,3,83,82,72,80,65,71,,,,,,,0.82,0.46,0.68,2*0D
$GNGSA,A,3,25,02,08,03,10,24,05,,,,,,0.82,0.46,0.68,3*09
$GNGSA,A,3,36,30,27,45,21,29,28,22,,,,,0.82,0.46,0.68,4*02
$GPGSV,4,1,13,17,74,104,23,22,72,060,26,19,57,191,23,14,50,080,24,1*69
$GPGSV,4,2,13,24,34,305,25,46,33,188,26,13,30,216,21,15,26,255,19,1*6A
$GPGSV,4,3,13,02,22,045,23,30,18,141,17,21,09,030,17,06,08,159,21,1*64
$GPGSV,4,4,13,12,04,268,,1*5D
$GLGSV,2,1,07,83,55,097,23,74,45,309,,82,34,038,28,72,26,283,27,1*71
$GLGSV,2,2,07,80,23,099,32,65,14,341,29,71,10,236,32,1*4D
$GAGSV,3,1,11,25,82,018,26,02,37,272,22,08,34,294,21,03,34,230,20,7*74
$GAGSV,3,2,11,10,33,092,20,24,32,080,15,12,30,064,19,11,27,124,19,7*71
$GAGSV,3,3,11,05,05,187,12,07,04,336,13,33,04,017,11,7*4B
$GBGSV,3,1,11,36,79,300,37,30,53,151,34,27,45,067,34,46,44,112,,1*7D
$GBGSV,3,2,11,45,27,295,26,57,23,065,,21,14,303,26,29,11,194,27,1*79
$GBGSV,3,3,11,28,10,036,26,22,08,254,27,42,03,348,22,1*48
$GNRMC,003726.000,A,4910.428096,N,12304.400748,W,0.03,181.98,061224,,,D,V*12
$GNVTG,181.98,T,,M,0.03,N,0.05,K,D*29
$PAIRLOG,Full*51
$GNGGA,003727.000,4910.428150,N,12304.400760,W,2,31,0.46,7.179,M,-16.816,M,,*48
$GNGLL,4910.428150,N,12304.400760,W,003727.000,A,D*56
$GNGSA,A,3,17,22,19,14,24,13,15,02,30,21,,,0.82,0.46,0.68,1*0E
$GNGSA,A,3,83,82,72,80,65,71,,,,,,,0.82,0.46,0.68,2*0D
$GNGSA,A,3,25,02,08,03,10,24,05,,,,,,0.82,0.46,0.68,3*09
$GNGSA,A,3,36,30,27,45,21,29,28,22,,,,,0.82,0.46,0.68,4*02
$GPGSV,3,1,12,17,74,104,24,22,72,060,27,19,57,191,23,14,50,080,25,1*68
$GPGSV,3,2,12,24,34,305,25,46,33,188,26,13,30,216,21,15,26,255,19,1*6C
$GPGSV,3,3,12,02,22,045,23,30,18,141,16,21,09,030,17,06,08,159,21,1*63
$GLGSV,2,1,07,83,55,097,23,74,45,309,,82,34,038,28,72,26,283,27,1*71
$GLGSV,2,2,07,80,23,099,32,65,14,341,29,71,10,236,32,1*4D
$GAGSV,3,1,11,25,82,018,26,02,37,272,22,08,34,294,21,03,34,230,20,7*74
$GAGSV,3,2,11,10,33,092,20,24,32,080,16,12,30,064,19,11,27,124,19,7*72
$GAGSV,3,3,11,05,05,187,12,07,04,336,13,33,04,017,11,7*4B
$GBGSV,3,1,12,36,79,300,37,30,53,151,34,27,45,067,34,46,44,112,,1*7E
$GBGSV,3,2,12,45,27,295,26,57,23,065,,21,14,303,26,29,11,194,27,1*7A
$GBGSV,3,3,12,28,10,036,26,58,08,123,,22,08,254,27,42,03,348,22,1*7E
$GNRMC,003727.000,A,4910.428150,N,12304.400760,W,0.03,181.98,061224,,,D,V*12
$GNVTG,181.98,T,,M,0.03,N,0.06,K,D*2A
$PAIRLOG,Full*51
$GNGGA,003728.000,4910.428186,N,12304.400850,W,2,31,0.46,7.175,M,-16.816,M,,*4C
