$GNGGA,003723.000,4910.428108,N,12304.402278,W,2,31,0.46,7.180,M,-16.816,M,,*49
$GNGLL,4910.428108,N,12304.402278,W,003723.000,A,D*51
$GNGSA,A,3,17,22,19,14,24,13,15,02,30,21,06,,0.80,0.46,0.65,1*07
$GNGSA,A,3,73,72,80,71,,,,,,,,,0.80,0.46,0.65,2*04
$GNGSA,A,3,25,02,08,03,10,24,12,05,,,,,0.80,0.46,0.65,3*05
$GNGSA,A,3,36,30,27,45,21,29,28,22,,,,,0.80,0.46,0.65,4*0D
$GPGSV,4,1,13,17,74,106,34,22,73,059,33,19,57,191,31,14,51,080,32,1*67
$GPGSV,4,2,13,46,33,188,29,24,33,305,29,13,31,216,31,15,26,255,26,1*62
$GPGSV,4,3,13,02,22,046,25,30,19,141,24,21,10,030,21,06,07,160,23,1*6A
$GPGSV,4,4,13,12,04,268,14,1*58
$GLGSV,2,1,07,73,73,044,24,83,55,097,,74,45,308,,82,34,038,,1*70
$GLGSV,2,2,07,72,26,283,22,80,23,099,22,71,10,236,27,1*4B
$GAGSV,3,1,11,25,82,017,31,02,37,272,26,08,34,294,24,03,34,230,24,7*78
$GAGSV,3,2,11,10,33,092,25,24,32,080,26,12,30,064,22,11,26,124,21,7*76
$GAGSV,3,3,11,05,05,187,16,33,04,017,17,07,04,336,17,7*4D
$GBGSV,3,1,11,36,78,300,40,30,52,152,37,46,45,112,,27,45,068,36,1*71
$GBGSV,3,2,11,45,26,295,30,57,23,066,,21,14,304,28,29,10,194,30,1*72
$GBGSV,3,3,11,28,10,037,29,22,09,255,30,42,03,349,25,1*46
$GNRMC,003723.000,A,4910.428108,N,12304.402278,W,0.03,342.49,061224,,,D,V*14
$GNVTG,342.49,T,,M,0.03,N,0.05,K,D*28
$GNGGA,003724.000,4910.428216,N,12304.402326,W,2,31,0.46,7.274,M,-16.816,M,,*40
$GNGLL,4910.428216,N,12304.402326,W,003724.000,A,D*50
$GNGSA,A,3,17,22,19,14,24,13,15,02,30,21,06,,0.80,0.46,0.65,1*07
$GNGSA,A,3,73,72,80,71,,,,,,,,,0.80,0.46,0.65,2*04
$GNGSA,A,3,25,02,08,03,10,24,12,05,,,,,0.80,0.46,0.65,3*05
$GNGSA,A,3,36,30,27,45,21,29,28,22,,,,,0.80,0.46,0.65,4*0D
$GPGSV,4,1,13,17,74,106,35,22,73,059,33,19,57,191,31,14,51,080,32,1*66
$GPGSV,4,2,13,46,33,188,29,24,33,305,29,13,31,216,31,15,26,255,28,1*6C
$GPGSV,4,3,13,02,22,046,26,30,19,141,24,21,10,030,21,06,07,160,24,1*6E
$GPGSV,4,4,13,12,04,268,14,1*58
$GLGSV,2,1,07,73,73,044,25,83,55,097,,74,45,308,,82,34,038,,1*71
$GLGSV,2,2,07,72,26,283,22,80,23,099,22,71,10,236,27,1*4B
$GAGSV,3,1,11,25,82,017,31,02,37,272,27,08,34,294,24,03,34,230,24,7*79
$GAGSV,3,2,11,10,33,092,25,24,32,080,26,12,30,064,23,11,26,124,21,7*77
$GAGSV,3,3,11,05,05,187,16,33,04,017,17,07,04,336,16,7*4C
$GBGSV,3,1,11,36,78,300,40,30,52,152,37,46,45,112,,27,45,068,36,1*71
$GBGSV,3,2,11,45,26,295,30,57,23,066,,21,14,304,28,29,10,194,30,1*72
$GBGSV,3,3,11,28,10,037,29,22,09,255,30,42,03,349,25,1*46
$GNRMC,003724.000,A,4910.428216,N,12304.402326,W,0.03,342.49,061224,,,D,V*15
$GNVTG,342.49,T,,M,0.03,N,0.06,K,D*2B
$GNGGA,003725.000,4910.428294,N,12304.402368,W,2,31,0.46,7.363,M,-16.817,M,,*47
$GNGLL,4910.428294,N,12304.402368,W,003725.000,A,D*51
$GNGSA,A,3,17,22,19,14,24,13,15,02,30,21,06,,0.80,0.46,0.65,1*07
$GNGSA,A,3,73,72,80,71,,,,,,,,,0.80,0.46,0.65,2*04
$GNGSA,A,3,25,02,08,03,10,24,12,05,,,,,0.80,0.46,0.65,3*05
$GNGSA,A,3,36,30,27,45,21,29,28,22,,,,,0.80,0.46,0.65,4*0D
$GPGSV,4,1,13,17,74,106,35,22,73,059,33,19,57,191,31,14,51,080,32,1*66
$GPGSV,4,2,13,46,33,188,29,24,33,305,29,13,31,216,31,15,26,255,27,1*63
$GPGSV,4,3,13,02,22,046,26,30,19,141,24,21,10,030,21,06,07,160,24,1*6E
$GPGSV,4,4,13,12,04,268,15,1*59
$GLGSV,2,1,07,73,73,044,25,83,55,097,,74,45,308,,82,34,038,,1*71
$GLGSV,2,2,07,72,26,283,22,80,23,099,22,71,10,236,27,1*4B
$GAGSV,3,1,11,25,82,017,31,02,37,272,27,08,34,294,25,03,34,230,24,7*78
$GAGSV,3,2,11,10,33,092,25,24,32,080,26,12,30,064,23,11,26,124,21,7*77
$GAGSV,3,3,11,05,05,187,16,33,04,017,17,07,04,336,16,7*4C
$GBGSV,3,1,11,36,78,300,40,30,52,152,37,46,45,112,,27,45,068,36,1*71
$GBGSV,3,2,11,45,26,295,30,57,23,066,,21,14,304,28,29,10,194,30,1*72
$GBGSV,3,3,11,28,10,037,29,22,09,255,29,42,03,349,25,1*4E
$GNRMC,003725.000,A,4910.428294,N,12304.402368,W,0.03,342.49,061224,,,D,V*14
$GNVTG,342.49,T,,M,0.03,N,0.06,K,D*2B
$GNGGA,003726.000,4910.428330,N,12304.402296,W,2,31,0.46,7.445,M,-16.817,M,,*48
$GNGLL,4910.428330,N,12304.402296,W,003726.000,A,D*5D
$GNGSA,A,3,17,22,19,14,24,13,15,02,30,21,06,,0.80,0.46,0.65,1*07
$GNGSA,A,3,73,72,80,71,,,,,,,,,0.80,0.46,0.65,2*04
$GNGSA,A,3,25,02,08,03,10,24,12,05,,,,,0.80,0.46,0.65,3*05
$GNGSA,A,3,36,30,27,45,21,29,28,22,,,,,0.80,0.46,0.65,4*0D
$GPGSV,4,1,13,17,74,106,35,22,73,059,33,19,57,191,31,14,51,080,31,1*65
$GPGSV,4,2,13,46,33,188,29,24,33,305,29,13,31,216,31,15,26,255,25,1*61
$GPGSV,4,3,13,02,22,046,26,30,19,141,24,21,10,030,21,06,07,160,23,1*69
$GPGSV,4,4,13,12,04,268,14,1*58
$GLGSV,2,1,07,73,73,044,25,83,55,097,,74,45,308,,82,34,038,,1*71
$GLGSV,2,2,07,72,26,283,22,80,23,099,22,71,10,236,27,1*4B
$GAGSV,3,1,11,25,82,017,31,02,37,272,27,08,34,294,25,03,34,230,24,7*78
$GAGSV,3,2,11,10,33,092,25,24,32,080,26,12,30,064,23,11,26,124,21,7*77
$GAGSV,3,3,11,05,05,187,15,33,04,017,17,07,04,336,16,7*4F
$GBGSV,3,1,11,36,78,300,40,30,52,152,36,46,45,112,,27,45,068,36,1*70
$GBGSV,3,2,11,45,26,295,30,57,23,066,,21,14,304,28,29,10,194,30,1*72
$GBGSV,3,3,11,28,10,037,29,22,09,255,29,42,03,349,25,1*4E
$GNRMC,003726.000,A,4910.428330,N,12304.402296,W,0.03,342.49,061224,,,D,V*18
$GNVTG,342.49,T,,M,0.03,N,0.06,K,D*2B
$GNGGA,003727.000,4910.428342,N,12304.402266,W,2,31,0.46,7.520,M,-16.817,M,,*41
$GNGLL,4910.428342,N,12304.402266,W,003727.000,A,D*56
$GNGSA,A,3,17,22,19,14,24,13,15,02,30,21,06,,0.80,0.46,0.65,1*07
$GNGSA,A,3,73,72,80,71,,,,,,,,,0.80,0.46,0.65,2*04
$GNGSA,A,3,25,02,08,03,10,24,12,05,,,,,0.80,0.46,0.65,3*05
$GNGSA,A,3,36,30,27,45,21,29,28,22,,,,,0.80,0.46,0.65,4*0D
$GPGSV,4,1,13,17,74,106,35,22,73,059,33,19,57,191,31,14,51,080,31,1*65
$GPGSV,4,2,13,46,33,188,29,24,33,305,29,13,31,216,31,15,26,255,26,1*62
$GPGSV,4,3,13,02,22,046,26,30,19,141,24,21,10,030,21,06,07,160,23,1*69
$GPGSV,4,4,13,12,04,268,15,1*59
$GLGSV,2,1,07,73,73,044,25,83,55,097,,74,45,308,,82,34,038,,1*71
$GLGSV,2,2,07,72,26,283,22,80,23,099,22,71,10,236,27,1*4B
$GAGSV,3,1,11,25,82,017,31,02,37,272,27,08,34,294,25,03,34,230,24,7*78
$GAGSV,3,2,11,10,33,092,26,24,32,080,26,12,30,064,23,11,26,124,21,7*74
$GAGSV,3,3,11,05,05,187,16,33,04,017,17,07,04,336,15,7*4F
$GBGSV,3,1,11,36,78,300,40,30,52,152,36,46,45,112,,27,45,068,36,1*70
$GBGSV,3,2,11,45,26,295,30,57,23,066,,21,14,304,28,29,10,194,30,1*72
$GBGSV,3,3,11,28,10,037,29,22,09,255,29,42,03,349,25,1*4E
$GNRMC,003727.000,A,4910.428342,N,12304.402266,W,0.03,342.49,061224,,,D,V*13
$GNVTG,342.49,T,,M,0.03,N,0.05,K,D*28
$PAIR010,0,1,2343,434265*3E
