27,47,075,38,30,46,156,37,1*79
$GBGSV,3,2,12,57,22,072,,45,21,292,33,21,15,309,32,28,15,038,33,1*71
$GBGSV,3,3,12,22,13,259,31,29,05,194,29,13,03,318,27,08,03,308,17,1*7A
$GNRMC,002214.000,A,4910.427814,N,12304.401840,W,0.02,342.49,061224,,,D,V*1C
$GNVTG,342.49,T,,M,0.02,N,0.04,K,D*28
$GNGGA,002215.000,4910.427790,N,12304.401744,W,2,31,0.46,5.446,M,-16.816,M,,*44
$GNGLL,4910.427790,N,12304.401744,W,002215.000,A,D*51
$GNGSA,A,3,22,17,14,19,13,15,24,30,02,21,,,0.83,0.46,0.69,1*0E
$GNGSA,A,3,73,72,80,71,,,,,,,,,0.83,0.46,0.69,2*0B
$GNGSA,A,3,25,03,24,08,02,10,12,05,33,,,,0.83,0.46,0.69,3*0A
$GNGSA,A,3,36,27,30,45,21,28,22,29,,,,,0.83,0.46,0.69,4*02
$GPGSV,4,1,13,22,78,045,35,17,73,129,36,14,57,075,34,19,50,192,33,1*63
$GPGSV,4,2,13,13,37,220,34,46,33,188,32,15,29,262,33,24,27,306,29,1*67
$GPGSV,4,3,13,30,25,139,28,02,24,051,32,21,13,034,28,06,02,162,15,1*6C
$GPGSV,4,4,13,10,02,345,,1*57
$GLGSV,2,1,07,73,73,012,28,83,51,111,,82,40,046,,74,38,302,,1*7E
$GLGSV,2,2,07,72,30,293,22,80,29,092,26,71,17,241,27,1*4F
$GAGSV,3,1,10,25,82,332,31,03,40,235,28,24,37,076,28,08,33,301,27,7*72
$GAGSV,3,2,10,02,32,267,26,10,29,099,26,12,29,071,23,11,21,127,19,7*79
$GAGSV,3,3,10,05,11,188,21,33,08,020,19,7*77
$GBGSV,3,1,12,36,73,299,40,46,50,107,,27,47,075,38,30,46,156,37,1*79
$GBGSV,3,2,12,57,22,072,,45,21,292,33,21,15,309,32,28,15,038,33,1*71
$GBGSV,3,3,12,22,13,259,31,29,05,194,29,13,03,318,27,08,03,308,17,1*7A
$GNRMC,002215.000,A,4910.427790,N,12304.401744,W,0.02,342.49,061224,,,D,V*15
$GNVTG,342.49,T,,M,0.02,N,0.04,K,D*28
$GNGGA,002216.000,4910.427856,N,12304.401780,W,2,31,0.46,5.438,M,-16.816,M,,*43
$GNGLL,4910.427856,N,12304.401780,W,002216.000,A,D*5F
$GNGSA,A,3,22,17,14,19,13,15,24,30,02,21,,,0.83,0.46,0.69,1*0E
$GNGSA,A,3,73,72,80,71,,,,,,,,,0.83,0.46,0.69,2*0B
$GNGSA,A,3,25,03,24,08,02,10,12,05,33,,,,0.83,0.46,0.69,3*0A
$GNGSA,A,3,36,27,30,45,21,28,22,29,,,,,0.83,0.46,0.69,4*02
$GPGSV,4,1,13,22,78,045,35,17,73,129,36,14,57,075,34,19,50,192,33,1*63
$GPGSV,4,2,13,13,37,220,34,46,33,188,32,15,29,262,33,24,27,306,29,1*67
$GPGSV,4,3,13,30,25,139,29,02,24,051,32,21,13,034,28,06,02,162,17,1*6F
$GPGSV,4,4,13,10,02,345,,1*57
$GLGSV,2,1,07,73,73,012,28,83,51,111,,82,40,046,,74,38,302,,1*7E
$GLGSV,2,2,07,72,30,293,22,80,29,092,26,71,17,241,27,1*4F
$GAGSV,3,1,10,25,82,332,31,03,40,235,28,24,37,076,28,08,33,301,27,7*72
$GAGSV,3,2,10,02,32,267,26,10,29,099,26,12,29,071,23,11,21,127,19,7*79
$GAGSV,3,3,10,05,11,188,21,33,08,020,19,7*77
$GBGSV,3,1,12,36,73,299,40,46,50,107,,27,47,075,38,30,46,156,38,1*76
$GBGSV,3,2,12,57,22,072,,45,21,292,34,21,15,309,32,28,15,038,33,1*76
$GBGSV,3,3,12,22,13,259,31,29,05,194,30,13,03,318,27,08,03,308,17,1*72
$GNRMC,002216.000,A,4910.427856,N,12304.401780,W,0.03,342.49,061224,,,D,V*1A
$GNVTG,342.49,T,,M,0.03,N,0.05,K,D*28
$GNGGA,002217.000,4910.427832,N,12304.401828,W,2,31,0.46,5.381,M,-16.816,M,,*48
$GNGLL,4910.427832,N,12304.401828,W,002217.000,A,D*51
$GNGSA,A,3,22,17,14,19,13,15,24,30,02,21,,,0.83,0.46,0.69,1*0E
$GNGSA,A,3,73,72,80,71,,,,,,,,,0.83,0.46,0.69,2*0B
$GNGSA,A,3,25,03,24,02,08,10,12,05,33,,,,0.83,0.46,0.69,3*0A
$GNGSA,A,3,36,27,30,45,21,28,22,29,,,,,0.83,0.46,0.69,4*02
$GPGSV,4,1,13,22,78,045,35,17,73,129,36,14,57,075,34,19,50,192,33,1*63
$GPGSV,4,2,13,13,37,220,34,46,33,188,31,15,29,262,32,24,27,306,29,1*65
$GPGSV,4,3,13,30,25,139,29,02,24,051,31,21,13,034,28,06,02,162,15,1*6E
$GPGSV,4,4,13,10,02,345,,1*57
$GLGSV,2,1,07,73,73,012,27,83,51,111,,82,40,046,,74,38,302,,1*71
$GLGSV,2,2,07,72,30,293,21,80,29,092,25,71,17,241,26,1*4E
$GAGSV,3,1,10,25,82,332,31,03,40,235,27,24,37,076,28,02,33,268,26,7*78
$GAGSV,3,2,10,08,33,301,27,10,29,099,26,12,29,071,23,11,21,127,19,7*72
$GAGSV,3,3,10,05,11,188,21,33,08,020,19,7*77
$GBGSV,3,1,12,36,73,299,40,46,50,107,,27,47,075,38,30,46,156,38,1*76
$GBGSV,3,2,12,57,22,072,,45,21,292,34,21,15,309,32,28,15,038,33,1*76
$GBGSV,3,3,12,22,13,259,31,29,05,194,30,13,03,318,27,08,03,308,17,1*72
$GNRMC,002217.000,A,4910.427832,N,12304.401828,W,0.02,342.49,061224,,,D,V*15
$GNVTG,342.49,T,,M,0.02,N,0.04,K,D*28
$GNGGA,002218.000,4910.427850,N,12304.401858,W,2,31,0.46,5.285,M,-16.816,M,,*41
$GNGLL,4910.427850,N,12304.401858,W,002218.000,A,D*5D
$GNGSA,A,3,22,17,14,19,13,15,24,30,02,21,,,0.83,0.46,0.69,1*0E
$GNGSA,A,3,73,72,80,71,,,,,,,,,0.83,0.46,0.69,2*0B
$GNGSA,A,3,25,03,24,02,08,10,12,05,33,,,,0.83,0.46,0.69,3*0A
$GNGSA,A,3,36,27,30,45,21,28,22,29,,,,,0.83,0.46,0.69,4*02
$GPGSV,4,1,13,22,78,045,35,17,73,129,36,14,57,075,34,19,50,192,33,1*63
$GPGSV,4,2,13,13,37,220,33,46,33,188,31,15,29,262,32,24,27,306,29,1*62
$GPGSV,4,3,13,30,25,139,29,02,24,051,31,21,13,034,28,06,02,162,15,1*6E
$GPGSV,4,4,13,10,02,345,,1*57
$GLGSV,2,1,07,73,73,012,27,83,51,111,,82,40,046,,74,38,302,,1*71
$GLGSV,2,2,07,72,30,293,22,80,29,092,25,71,17,241,26,1*4D
$GAGSV,3,1,10,25,82,332,31,03,39,234,27,24,37,076,28,02,33,268,26,7*77
$GAGSV,3,2,10,08,33,301,27,10,29,099,26,12,29,071,23,11,21,127,18,7*73
$GAGSV,3,3,10,05,11,188,21,33,08,020,19,7*77
$GBGSV,3,1,12,36,73,299,40,46,50,107,,27,47,075,38,30,46,156,38,1*76
$GBGSV,3,2,12,57,22,072,,45,21,292,34,21,15,309,32,28,15,038,33,1*76
$GBGSV,3,3,12,22,13,259,31,29,05,194,30,13,03,318,27,08,03,308,17,1*72
$GNRMC,002218.000,A,4910.427850,N,12304.401858,W,0.02,342.49,061224,,,D,V*19
$GNVTG,342.49,T,,M,0.02,N,0.04,K,D*28
$GNGGA,002219.000,4910.427856,N,12304.401864,W,2,31,0.46,5.267,M,-16.816,M,,*45
