$GNGGA,184316.000,4910.425648,N,12304.395444,W,2,29,0.50,17.614,M,-16.816,M,,*7E
$GNGLL,4910.425648,N,12304.395444,W,184316.000,A,D*53
$GNGSA,A,3,09,04,07,16,26,03,11,20,30,06,,,0.81,0.50,0.64,1*02
$GNGSA,A,3,78,68,69,79,67,85,86,,,,,,0.81,0.50,0.64,2*0E
$GNGSA,A,3,09,04,05,34,36,,,,,,,,0.81,0.50,0.64,3*07
$GNGSA,A,3,23,32,37,20,25,41,38,,,,,,0.81,0.50,0.64,4*05
$GPGSV,3,1,11,09,80,304,29,04,67,105,26,07,48,249,22,16,46,075,21,1*6E
$GPGSV,3,2,11,26,23,048,16,03,19,174,17,11,14,303,16,20,14,323,13,1*61
$GPGSV,3,3,11,30,12,247,17,06,11,265,13,37,,,,1*62
$GLGSV,2,1,08,78,79,083,26,68,75,117,36,69,49,320,39,79,39,204,36,1*7D
$GLGSV,2,2,08,67,23,133,24,85,11,325,23,86,06,016,22,84,01,278,,1*70
$GAGSV,2,1,07,09,84,337,25,04,40,108,24,05,30,294,17,34,18,295,18,7*7B
$GAGSV,2,2,07,24,15,186,17,36,10,245,16,15,07,343,17,7*4E
$GBGSV,2,1,07,23,66,075,36,32,64,165,35,37,52,208,34,20,50,302,34,1*7C
$GBGSV,2,2,07,25,16,051,24,41,12,142,29,38,09,334,23,1*4E
$GNRMC,184316.000,A,4910.425648,N,12304.395444,W,0.13,59.07,051224,,,D,V*27
$GNVTG,59.07,T,,M,0.13,N,0.23,K,D*1E
$PAIRLOG,Full*51
$GNGGA,184317.000,4910.425648,N,12304.395474,W,2,29,0.50,17.654,M,-16.816,M,,*78
$GNGLL,4910.425648,N,12304.395474,W,184317.000,A,D*51
$GNGSA,A,3,09,04,07,16,26,03,11,20,30,06,,,0.81,0.50,0.64,1*02
$GNGSA,A,3,78,68,69,79,67,85,86,,,,,,0.81,0.50,0.64,2*0E
$GNGSA,A,3,09,04,05,34,36,,,,,,,,0.81,0.50,0.64,3*07
$GNGSA,A,3,23,32,37,20,25,41,38,,,,,,0.81,0.50,0.64,4*05
$GPGSV,3,1,11,09,80,304,29,04,67,105,23,07,48,249,20,16,46,075,20,1*68
$GPGSV,3,2,11,26,23,048,16,03,19,174,17,11,14,303,15,20,14,323,14,1*65
$GPGSV,3,3,11,30,12,247,17,06,11,265,12,37,,,,1*63
$GLGSV,2,1,08,78,79,083,26,68,75,117,35,69,49,320,39,79,39,204,36,1*7E
$GLGSV,2,2,08,67,23,133,24,85,11,325,23,86,06,016,22,84,01,278,,1*70
$GAGSV,2,1,07,09,84,337,24,04,40,108,23,05,30,294,17,34,18,295,17,7*72
$GAGSV,2,2,07,24,15,186,17,36,10,245,16,15,07,343,17,7*4E
$GBGSV,2,1,07,23,66,075,36,32,64,165,35,37,52,208,34,20,50,302,35,1*7D
$GBGSV,2,2,07,25,16,051,24,41,12,142,29,38,09,334,23,1*4E
$GNRMC,184317.000,A,4910.425648,N,12304.395474,W,0.12,59.07,051224,,,D,V*24
$GNVTG,59.07,T,,M,0.12,N,0.23,K,D*1F
$PAIRLOG,Full*51
$GNGGA,184318.000,4910.425654,N,12304.395534,W,2,29,0.50,17.643,M,-16.817,M,,*78
$GNGLL,4910.425654,N,12304.395534,W,184318.000,A,D*56
$GNGSA,A,3,09,04,07,16,26,03,11,20,30,06,,,0.81,0.50,0.64,1*02
$GNGSA,A,3,78,68,69,79,67,85,86,,,,,,0.81,0.50,0.64,2*0E
$GNGSA,A,3,09,04,05,34,36,,,,,,,,0.81,0.50,0.64,3*07
$GNGSA,A,3,23,32,37,20,25,41,38,,,,,,0.81,0.50,0.64,4*05
$GPGSV,3,1,11,09,80,304,28,04,67,105,24,07,48,249,21,16,46,075,20,1*6F
$GPGSV,3,2,11,26,23,048,16,03,19,174,17,11,14,303,15,20,14,323,14,1*65
$GPGSV,3,3,11,30,12,247,17,06,11,265,14,37,,,,1*65
$GLGSV,2,1,08,78,79,083,26,68,75,117,35,69,49,320,40,79,39,204,36,1*70
$GLGSV,2,2,08,67,23,133,25,85,11,325,23,86,06,016,22,84,01,278,,1*71
$GAGSV,2,1,07,09,84,337,24,04,40,108,22,05,30,294,17,34,18,295,17,7*73
$GAGSV,2,2,07,24,15,186,17,36,10,245,16,15,07,343,16,7*4F
$GBGSV,2,1,07,23,66,075,36,32,64,165,35,37,52,208,34,20,50,302,35,1*7D
$GBGSV,2,2,07,25,16,051,24,41,12,142,29,38,09,334,24,1*49
$GNRMC,184318.000,A,4910.425654,N,12304.395534,W,0.12,59.07,051224,,,D,V*23
$GNVTG,59.07,T,,M,0.12,N,0.22,K,D*1E
$PAIRLOG,Full*51
$GNGGA,184319.000,4910.425666,N,12304.395576,W,2,29,0.50,17.548,M,-16.817,M,,*76
$GNGLL,4910.425666,N,12304.395576,W,184319.000,A,D*50
$GNGSA,A,3,09,04,07,16,26,03,11,20,30,06,,,0.81,0.50,0.64,1*02
$GNGSA,A,3,78,68,69,79,67,85,86,,,,,,0.81,0.50,0.64,2*0E
$GNGSA,A,3,09,04,05,34,36,,,,,,,,0.81,0.50,0.64,3*07
$GNGSA,A,3,23,32,37,20,25,41,38,,,,,,0.81,0.50,0.64,4*05
$GPGSV,4,1,13,09,80,304,28,04,67,105,23,07,48,249,20,16,46,075,19,1*66
$GPGSV,4,2,13,26,23,048,17,03,19,174,16,11,14,303,15,20,14,323,15,1*61
$GPGSV,4,3,13,30,12,247,17,06,11,265,12,27,07,110,,31,05,065,,1*64
$GPGSV,4,4,13,37,,,,1*62
$GLGSV,2,1,08,78,79,083,27,68,75,117,35,69,49,320,40,79,39,204,36,1*71
$GLGSV,2,2,08,67,23,133,26,85,11,325,24,86,06,016,23,84,01,278,,1*74
$GAGSV,3,1,09,09,84,337,24,06,67,103,,31,51,141,,04,40,108,22,7*72
$GAGSV,3,2,09,05,30,294,17,34,18,295,16,24,15,186,17,36,10,245,15,7*7B
$GAGSV,3,3,09,15,07,343,16,7*4A
$GBGSV,4,1,13,23,66,075,36,32,64,165,35,37,52,208,34,20,50,302,35,1*7E
$GBGSV,4,2,13,58,39,228,,25,16,051,24,41,12,142,29,38,09,334,24,1*75
$GBGSV,4,3,13,31,07,342,,19,05,315,,08,01,341,,44,01,007,,1*70
$GBGSV,4,4,13,46,01,223,,1*44
$GNRMC,184319.000,A,4910.425666,N,12304.395576,W,0.11,59.07,051224,,,D,V*26
$GNVTG,59.07,T,,M,0.11,N,0.21,K,D*1E
$PAIRLOG,Full*51
$GNGGA,184320.000,4910.425696,N,12304.395594,W,2,30,0.50,17.511,M,-16.816,M,,*7A
$GNGLL,4910.425696,N,12304.395594,W,184320.000,A,D*59
$GNGSA,A,3,09,04,07,16,26,03,11,20,30,06,,,0.81,0.50,0.63,1*05
$GNGSA,A,3,78,68,69,79,67,85,86,,,,,,0.81,0.50,0.63,2*09
$GNGSA,A,3,09,06,04,05,34,36,,,,,,,0.81,0.50,0.63,3*06
$GNGSA,A,3,23,32,37,20,25,41,38,,,,,,0.81,0.50,0.63,4*02
$GPGSV,3,1,12,09,80,304,28,04,67,105,25,07,48,249,20,16,46,075,19,1*66
$GPGSV,3,2,12,26,23,048,17,03,19,174,15,11,14,303,12,20,14,323,13,1*65
$GPGSV,3,3,12,30,12,247,17,06,11,265,15,27,07,110,,31,05,065,,1*65
$GLGSV,2,1,08,78,79,083,27,68,75,117,34,69,49,320,40,79,39,204,36,1*70
$GLGSV,2,2,08,67,23,133,26,85,11,325,24,86,06,016,23,84,01,278,,1*74
$GAGSV,3,1,09,09,84,337,24,06,67,103,24,31,51,141,,04,40,108,22,7*74
$GAGSV,3,2,09,05,30,294,17,34,18,295,16,24,15,186,17,36,10,245,15,7*7B
$GAGSV,3,3,09,15,07,343,16,7*4A
$GBGSV,4,1,13,23,66,075,36,32,64,165,35,37,52,208,34,20,50,302,35,1*7E
$GBGSV,4,2,13,58,39,228,,25,16,051,24,41,12,142,29,38,09,334,24,1*75
$GBGSV,4,3,13,31,07,342,,19,05,315,,08,01,341,,44,01,007,,1*70
$GBGSV,4,4,13,46,01,223,,1*44
$GNRMC,184320.000,A,4910.425696,N,12304.395594,W,0.11,59.07,051224,,,D,V*2F
$GNVTG,59.07,T,,M,0.11,N,0.21,K,D*1E
$PAIRLOG,Full*51
$GNGGA,184321.000,4910.425672,N,12304.395612,W,2,29,0.50,17.558,M,-16.817,M,,*78
$GNGLL,4910.425672,N,12304.395612,W,184321.000,A,D*5F
$GNGSA,A,3,09,04,07,16,26,03,11,20,30,06,,,0.81,0.50,0.64,1*02
$GNGSA,A,3,78,68,69,79,67,85,86,,,,,,0.81,0.50,0.64,2*0E
$GNGSA,A,3,09,04,05,34,36,,,,,,,,0.81,0.50,0.64,3*07
$GNGSA,A,3,23,32,37,20,25,41,38,,,,,,0.81,0.50,0.64,4*05
$GPGSV,4,1,13,09,80,304,28,04,67,105,24,07,48,249,21,16,46,075,18,1*61
$GPGSV,4,2,13,26,23,048,17,03,19,174,17,11,14,303,14,20,14,323,13,1*67
$GPGSV,4,3,13,30,12,247,17,06,11,265,14,27,07,110,,31,05,065,,1*62
$GPGSV,4,4,13,42,,,,1*60
$GLGSV,2,1,08,78,79,083,26,68,75,117,34,69,49,320,40,79,39,204,36,1*71
$GLGSV,2,2,08,67,23,133,26,85,11,325,24,86,06,016,23,84,01,278,,1*74
$GAGSV,3,1,09,09,84,337,24,06,67,103,,31,51,141,,04,40,108,22,7*72
$GAGSV,3,2,09,05,30,294,17,34,18,295,16,24,15,186,17,36,10,245,16,7*78
$GAGSV,3,3,09,15,07,343,16,7*4A
$GBGSV,4,1,13,23,66,075,36,32,64,165,35,37,52,208,34,20,50,302,35,1*7E
$GBGSV,4,2,13,58,39,228,,25,16,051,24,41,12,142,29,38,09,334,24,1*75
$GBGSV,4,3,13,31,07,342,,19,05,315,,08,01,341,,44,01,007,,1*70
$GBGSV,4,4,13,46,01,223,,1*44
$GNRMC,184321.000,A,4910.425672,N,12304.395612,W,0.10,59.07,051224,,,D,V*28
$GNVTG,59.07,T,,M,0.10,N,0.19,K,D*14
$PAIRLOG,Full*51
$GNGGA,184322.000,4910.425708,N,12304.395642,W,2,29,0.50,17.547,M,-16.816,M,,*7D
$GNGLL,4910.425708,N,12304.395642,W,184322.000,A,D*55
$GNGSA,A,3,09,04,07,16,26,03,11,20,30,06,,,0.81,0.50,0.64,1*02
$GNGSA,A,3,78,68,69,79,67,85,86,,,,,,0.81,0.50,0.64,2*0E
$GNGSA,A,3,09,04,05,34,36,,,,,,,,0.81,0.50,0.64,3*07
$GNGSA,A,3,23,32,37,20,25,41,38,,,,,,0.81,0.50,0.64,4*05
$GPGSV,4,1,13,09,80,304,29,04,67,105,26,07,48,249,21,16,46,075,19,1*63
$GPGSV,4,2,13,26,23,048,17,03,19,174,17,11,14,303,15,20,14,323,15,1*60
$GPGSV,4,3,13,30,12,247,17,06,11,265,13,27,07,110,,31,05,065,,1*65
$GPGSV,4,4,13,42,,,,1*60
$GLGSV,2,1,08,78,79,083,27,68,75,117,34,69,49,320,40,79,39,204,36,1*70
$GLGSV,2,2,08,67,23,133,25,85,11,325,24,86,06,016,23,84,01,278,,1*77
$GAGSV,3,1,09,09,84,337,25,06,67,103,,31,51,141,,04,40,108,23,7*72
$GAGSV,3,2,09,05,30,294,17,34,18,295,17,24,15,186,17,36,10,245,16,7*79
$GAGSV,3,3,09,15,07,343,16,7*4A
$GBGSV,4,1,13,23,66,075,36,32,64,165,35,37,52,208,34,20,50,302,35,1*7E
$GBGSV,4,2,13,58,39,228,,25,16,051,24,41,12,142,29,38,09,334,24,1*75
$GBGSV,4,3,13,31,07,342,,19,05,315,,08,01,341,,44,01,007,,1*70
$GBGSV,4,4,13,46,01,223,,1*44
$GNRMC,184322.000,A,4910.425708,N,12304.395642,W,0.10,59.07,051224,,,D,V*22
$GNVTG,59.07,T,,M,0.10,N,0.18,K,D*15
$PAIRLOG,Full*51
$GNGGA,184323.000,4910.425738,N,12304.395636,W,2,29,0.50,17.402,M,-16.816,M,,*7C
$GNGLL,4910.425738,N,12304.395636,W,184323.000,A,D*54
$GNGSA,A,3,09,04,07,16,26,03,11,20,30,06,,,0.81,0.50,0.64,1*02
$GNGSA,A,3,78,68,69,79,67,85,86,,,,,,0.81,0.50,0.64,2*0E
$GNGSA,A,3,09,04,05,34,36,,,,,,,,0.81,0.50,0.64,3*07
$GNGSA,A,3,23,32,37,20,25,41,38,,,,,,0.81,0.50,0.64,4*05
$GPGSV,3,1,11,09,80,304,30,04,67,105,28,07,48,249,26,16,46,075,20,1*6D
$GPGSV,3,2,11,26,23,048,18,03,19,174,20,11,14,303,17,20,14,323,17,1*6E
$GPGSV,3,3,11,30,12,247,17,06,11,265,13,42,,,,1*60
$GLGSV,2,1,08,78,79,083,27,68,75,117,34,69,49,320,40,79,39,204,36,1*70
$GLGSV,2,2,08,67,23,133,25,85,11,325,24,86,06,016,24,84,01,278,,1*70
$GAGSV,2,1,07,09,84,337,26,04,40,108,23,05,30,294,17,34,18,295,18,7*7F
$GAGSV,2,2,07,24,15,186,17,36,10,245,16,15,07,343,17,7*4E
$GBGSV,2,1,07,23,66,075,36,32,64,165,35,37,52,208,34,20,50,302,35,1*7D
$GBGSV,2,2,07,25,16,051,24,41,12,142,29,38,09,334,23,1*4E
$GNRMC,184323.000,A,4910.425738,N,12304.395636,W,0.09,59.07,051224,,,D,V*2B
$GNVTG,59.07,T,,M,0.09,N,0.16,K,D*13
$PAIRLOG,Full*51
$GNGGA,184324.000,4910.425744,N,12304.395678,W,2,29,0.50,17.427,M,-16.816,M,,*7D
$GNGLL,4910.425744,N,12304.395678,W,184324.000,A,D*52
$GNGSA,A,3,09,04,07,16,26,03,11,20,30,06,,,0.81,0.50,0.64,1*02
$GNGSA,A,3,78,68,69,79,67,85,86,,,,,,0.81,0.50,0.64,2*0E
$GNGSA,A,3,09,04,05,34,36,,,,,,,,0.81,0.50,0.64,3*07
$GNGSA,A,3,23,32,37,20,25,41,38,,,,,,0.81,0.50,0.64,4*05
$GPGSV,3,1,11,09,80,304,30,04,67,105,28,07,48,249,25,16,46,075,20,1*6E
$GPGSV,3,2,11,26,23,048,19,03,19,174,20,11,14,303,16,20,14,323,16,1*6F
$GPGSV,3,3,11,30,12,247,17,06,11,265,14,42,,,,1*67
$GLGSV,2,1,08,78,79,083,27,68,75,117,34,69,49,320,40,79,39,204,36,1*70
$GLGSV,2,2,08,67,23,133,25,85,11,325,24,86,06,016,24,84,01,278,,1*70
$GAGSV,2,1,07,09,84,337,26,04,40,108,23,05,30,294,18,34,18,295,18,7*70
$GAGSV,2,2,07,24,15,186,18,36,10,245,16,15,07,343,17,7*41
$GBGSV,2,1,07,23,66,075,36,32,64,165,35,37,52,208,34,20,50,302,35,1*7D
$GBGSV,2,2,07,25,16,051,24,41,12,142,28,38,09,334,23,1*4F
$GNRMC,184324.000,A,4910.425744,N,12304.395678,W,0.08,59.07,051224,,,D,V*2C
$GNVTG,59.07,T,,M,0.08,N,0.15,K,D*11
$PAIRLOG,Full*51
$GNGGA,184325.000,4910.425750,N,12304.395630,W,2,29,0.50,17.519,M,-16.817,M,,*78
$GNGLL,4910.425750,N,12304.395630,W,184325.000,A,D*5A
$GNGSA,A,3,09,04,07,16,26,03,11,20,30,06,,,0.81,0.50,0.64,1*02
$GNGSA,A,3,78,68,69,79,67,85,86,,,,,,0.81,0.50,0.64,2*0E
$GNGSA,A,3,09,04,05,34,36,,,,,,,,0.81,0.50,0.64,3*07
$GNGSA,A,3,23,32,37,20,25,41,38,,,,,,0.81,0.50,0.64,4*05
$GPGSV,3,1,11,09,80,304,31,04,67,105,28,07,48,249,26,16,46,075,21,1*6D
$GPGSV,3,2,11,26,23,048,20,03,19,174,20,11,14,303,16,20,14,323,17,1*64
$GPGSV,3,3,11,30,12,247,17,06,11,265,13,42,,,,1*60
$GLGSV,2,1,08,78,79,083,27,68,75,117,34,69,49,320,40,79,39,204,36,1*70
$GLGSV,2,2,08,67,23,133,25,85,11,325,23,86,06,016,24,84,01,278,,1*77
$GAGSV,2,1,07,09,84,337,26,04,40,108,24,05,30,294,18,34,18,295,18,7*77
$GAGSV,2,2,07,24,15,186,18,36,10,245,16,15,07,343,17,7*41
$GBGSV,2,1,07,23,66,075,36,32,64,165,35,37,52,208,34,20,50,302,35,1*7D
$GBGSV,2,2,07,25,16,051,24,41,12,142,28,38,09,334,22,1*4E
$GNRMC,184325.000,A,4910.425750,N,12304.395630,W,0.07,59.07,051224,,,D,V*2B
$GNVTG,59.07,T,,M,0.07,N,0.13,K,D*18
$PAIRLOG,Full*51
$GNGGA,184326.000,4910.425762,N,12304.395606,W,2,30,0.50,17.356,M,-16.816,M,,*7B
$GNGLL,4910.425762,N,12304.395606,W,184326.000,A,D*5D
$GNGSA,A,3,09,04,07,16,26,03,11,20,30,06,,,0.81,0.50,0.63,1*05
$GNGSA,A,3,78,68,69,79,67,85,86,,,,,,0.81,0.50,0.63,2*09
$GNGSA,A,3,09,06,04,05,34,36,,,,,,,0.81,0.50,0.63,3*06
$GNGSA,A,3,23,32,37,20,25,41,38,,,,,,0.81,0.50,0.63,4*02
$GPGSV,4,1,13,09,80,304,31,04,67,105,27,07,48,249,24,16,46,075,21,1*65
$GPGSV,4,2,13,26,23,048,21,03,19,174,20,11,14,302,16,20,14,323,16,1*60
$GPGSV,4,3,13,30,12,247,17,06,11,265,15,27,07,110,,31,05,065,,1*63
$GPGSV,4,4,13,42,,,,1*60
$GLGSV,2,1,08,78,79,083,27,68,75,117,34,69,49,320,40,79,39,204,36,1*70
$GLGSV,2,2,08,67,23,133,25,85,11,325,23,86,06,016,24,84,01,278,,1*77
$GAGSV,3,1,09,09,84,337,26,06,67,103,25,31,51,141,,04,40,108,24,7*71
$GAGSV,3,2,09,05,30,294,18,34,18,295,19,24,15,186,18,36,10,245,16,7*77
$GAGSV,3,3,09,15,07,343,17,7*4B
$GBGSV,4,1,13,23,66,075,36,32,64,165,35,37,52,208,34,20,50,302,35,1*7E
$GBGSV,4,2,13,58,39,228,,25,16,051,24,41,12,142,28,38,09,334,22,1*72
$GBGSV,4,3,13,31,07,342,,19,05,315,,08,01,341,,44,01,007,,1*70
$GBGSV,4,4,13,46,01,223,,1*44
$GNRMC,184326.000,A,4910.425762,N,12304.395606,W,0.05,59.07,051224,,,D,V*2E
$GNVTG,59.07,T,,M,0.05,N,0.10,K,D*19
$PAIRLOG,Full*51
$GNGGA,184327.000,4910.425750,N,12304.395630,W,2,31,0.50,17.523,M,-16.816,M,,*7B
$GNGLL,4910.425750,N,12304.395630,W,184327.000,A,D*58
$GNGSA,A,3,09,04,07,16,26,03,11,20,30,06,,,0.80,0.50,0.63,1*04
$GNGSA,A,3,78,68,69,79,67,85,86,,,,,,0.80,0.50,0.63,2*08
$GNGSA,A,3,09,06,31,04,05,34,36,,,,,,0.80,0.50,0.63,3*05
$GNGSA,A,3,23,32,37,20,25,41,38,,,,,,0.80,0.50,0.63,4*03
$GPGSV,3,1,12,09,80,304,31,04,67,105,27,07,48,249,25,16,46,075,21,1*62
$GPGSV,3,2,12,26,23,048,21,03,19,174,20,11,14,302,13,20,14,323,16,1*63
$GPGSV,3,3,12,30,12,247,17,06,11,265,15,27,07,110,,31,05,065,,1*65
$GLGSV,2,1,07,78,79,083,27,68,75,117,34,69,49,320,40,79,39,204,36,1*7F
$GLGSV,2,2,07,67,23,133,25,85,11,325,23,86,06,016,24,1*48
$GAGSV,3,1,09,09,84,337,26,06,67,103,25,31,51,141,20,04,40,108,24,7*73
$GAGSV,3,2,09,05,30,294,18,34,18,295,19,24,15,186,18,36,10,245,16,7*77
$GAGSV,3,3,09,15,07,343,17,7*4B
$GBGSV,4,1,13,23,66,075,36,32,64,165,35,37,52,208,34,20,50,302,35,1*7E
$GBGSV,4,2,13,58,39,228,,25,16,051,24,41,12,142,28,38,09,334,22,1*72
$GBGSV,4,3,13,31,07,342,,19,05,315,,08,01,341,,46,01,223,,1*76
$GBGSV,4,4,13,44,01,007,,1*42
$GNRMC,184327.000,A,4910.425750,N,12304.395630,W,0.13,59.07,051224,,,D,V*2C
$GNVTG,59.07,T,,M,0.13,N,0.24,K,D*19
$PAIRLOG,Full*51
$GNGGA,184328.000,4910.425762,N,12304.395612,W,2,28,0.51,17.367,M,-16.817,M,,*7B
$GNGLL,4910.425762,N,12304.395612,W,184328.000,A,D*56
$GNGSA,A,3,09,04,07,16,26,03,20,11,30,,,,0.83,0.51,0.65,1*06
$GNGSA,A,3,78,68,69,79,67,85,86,,,,,,0.83,0.51,0.65,2*0C
$GNGSA,A,3,09,04,05,34,36,,,,,,,,0.83,0.51,0.65,3*05
$GNGSA,A,3,23,32,37,20,25,41,38,,,,,,0.83,0.51,0.65,4*07
$GPGSV,4,1,13,09,80,304,31,04,67,105,27,07,48,249,24,16,46,075,20,1*64
$GPGSV,4,2,13,26,23,048,20,03,19,174,20,20,14,323,16,11,14,302,15,1*62
$GPGSV,4,3,13,30,12,247,17,06,11,265,,27,07,110,,31,05,065,,1*67
$GPGSV,4,4,13,43,,,,1*61
$GLGSV,2,1,07,78,79,083,27,68,75,117,34,69,49,320,40,79,39,204,36,1*7F
$GLGSV,2,2,07,67,23,133,25,85,11,325,23,86,06,016,24,1*48
$GAGSV,3,1,09,09,84,337,26,06,67,103,,31,51,141,,04,40,108,23,7*71
$GAGSV,3,2,09,05,30,294,18,34,18,295,19,24,15,186,18,36,10,245,16,7*77
$GAGSV,3,3,09,15,07,343,17,7*4B
$GBGSV,4,1,13,23,66,075,36,32,64,165,35,37,52,208,34,20,50,302,35,1*7E
$GBGSV,4,2,13,58,39,228,,48,29,309,,25,16,051,24,41,12,142,28,1*79
$GBGSV,4,3,13,38,09,334,22,31,07,342,,19,05,315,,44,01,007,,1*79
$GBGSV,4,4,13,08,01,341,,1*4B
$GNRMC,184328.000,A,4910.425762,N,12304.395612,W,0.11,59.07,051224,,,D,V*20
$GNVTG,59.07,T,,M,0.11,N,0.20,K,D*1F
$PAIRLOG,Full*51
$GNGGA,184329.000,4910.425762,N,12304.395600,W,2,28,0.51,17.365,M,-16.816,M,,*7A
$GNGLL,4910.425762,N,12304.395600,W,184329.000,A,D*54
$GNGSA,A,3,09,04,07,16,26,03,11,20,30,,,,0.83,0.51,0.65,1*06
$GNGSA,A,3,78,68,69,79,67,85,86,,,,,,0.83,0.51,0.65,2*0C
$GNGSA,A,3,09,04,05,34,36,,,,,,,,0.83,0.51,0.65,3*05
$GNGSA,A,3,23,32,37,20,25,41,38,,,,,,0.83,0.51,0.65,4*07
$GPGSV,3,1,11,09,80,304,31,04,67,105,27,07,48,249,25,16,46,075,19,1*6A
$GPGSV,3,2,11,26,23,048,21,03,19,174,20,11,14,302,14,20,14,323,17,1*66
$GPGSV,3,3,11,30,12,247,17,06,11,265,,43,,,,1*63
$GLGSV,2,1,08,78,79,083,27,68,75,117,34,69,49,320,40,79,39,204,36,1*70
$GLGSV,2,2,08,67,23,133,25,85,11,325,24,86,06,016,24,84,01,278,,1*70
$GAGSV,2,1,07,09,84,337,26,04,40,108,23,05,30,294,18,34,18,295,19,7*71
$GAGSV,2,2,07,24,15,186,17,36,10,245,17,15,07,343,17,7*4F
$GBGSV,2,1,07,23,66,075,36,32,64,165,35,37,52,208,34,20,50,302,35,1*7D
$GBGSV,2,2,07,25,16,051,24,41,12,142,28,38,09,334,23,1*4F
$GNRMC,184329.000,A,4910.425762,N,12304.395600,W,0.11,59.07,051224,,,D,V*22
$GNVTG,59.07,T,,M,0.11,N,0.20,K,D*1F
$PAIRLOG,Full*51
$GNGGA,184330.000,4910.425762,N,12304.395612,W,2,28,0.51,17.403,M,-16.816,M,,*76
$GNGLL,4910.425762,N,12304.395612,W,184330.000,A,D*5F
$GNGSA,A,3,09,04,07,16,26,03,11,20,30,,,,0.83,0.51,0.65,1*06
$GNGSA,A,3,78,68,69,79,67,85,86,,,,,,0.83,0.51,0.65,2*0C
$GNGSA,A,3,09,04,05,34,36,,,,,,,,0.83,0.51,0.65,3*05
$GNGSA,A,3,23,32,37,20,25,41,38,,,,,,0.83,0.51,0.65,4*07
$GPGSV,3,1,11,09,80,304,31,04,67,105,26,07,48,249,25,16,46,075,17,1*65
$GPGSV,3,2,11,26,23,048,20,03,19,174,20,11,14,302,15,20,14,323,16,1*67
$GPGSV,3,3,11,30,12,247,17,06,11,265,,43,,,,1*63
$GLGSV,2,1,08,78,79,083,27,68,75,117,34,69,49,320,40,79,39,204,36,1*70
$GLGSV,2,2,08,67,23,133,25,85,11,325,24,86,06,016,24,84,01,278,,1*70
$GAGSV,2,1,07,09,84,337,25,04,40,108,23,05,30,294,17,34,18,295,18,7*7C
$GAGSV,2,2,07,24,15,186,17,36,10,245,17,15,07,343,17,7*4F
$GBGSV,2,1,07,23,66,075,36,32,64,165,35,37,52,208,34,20,50,302,35,1*7D
$GBGSV,2,2,07,25,16,051,24,41,12,142,28,38,09,334,23,1*4F
$GNRMC,184330.000,A,4910.425762,N,12304.395612,W,0.10,59.07,051224,,,D,V*28
$GNVTG,59.07,T,,M,0.10,N,0.18,K,D*15
$PAIRLOG,Full*51
$GNGGA,184331.000,4910.425774,N,12304.395630,W,2,28,0.51,17.380,M,-16.816,M,,*7C
$GNGLL,4910.425774,N,12304.395630,W,184331.000,A,D*59
$GNGSA,A,3,09,04,07,16,26,03,11,20,30,,,,0.83,0.51,0.65,1*06
$GNGSA,A,3,78,68,69,79,67,85,86,,,,,,0.83,0.51,0.65,2*0C
$GNGSA,A,3,09,04,05,34,36,,,,,,,,0.83,0.51,0.65,3*05
$GNGSA,A,3,23,32,37,20,25,41,38,,,,,,0.83,0.51,0.65,4*07
$GPGSV,4,1,13,09,80,304,30,04,67,105,25,07,48,249,25,16,46,075,15,1*60
$GPGSV,4,2,13,26,23,048,20,03,19,174,19,11,14,302,15,20,14,323,17,1*69
$GPGSV,4,3,13,30,12,247,17,06,11,265,,27,07,110,,31,05,065,,1*67
$GPGSV,4,4,13,43,,,,1*61
$GLGSV,2,1,08,78,79,083,27,68,75,117,34,69,49,320,40,79,39,204,36,1*70
$GLGSV,2,2,08,67,23,133,25,85,11,325,24,86,06,016,24,84,01,278,,1*70
$GAGSV,3,1,09,09,84,337,24,06,67,103,,31,51,141,,04,40,108,22,7*72
$GAGSV,3,2,09,05,30,294,16,34,18,295,17,24,15,186,17,36,10,245,16,7*78
$GAGSV,3,3,09,15,07,343,17,7*4B
$GBGSV,4,1,13,23,66,075,36,32,64,165,35,37,52,208,34,20,50,302,35,1*7E
$GBGSV,4,2,13,58,39,228,,48,29,309,,25,16,051,24,41,12,142,28,1*79
$GBGSV,4,3,13,38,09,334,23,31,07,342,,19,05,315,,08,01,341,,1*71
$GBGSV,4,4,13,44,01,007,,1*42
$GNRMC,184331.000,A,4910.425774,N,12304.395630,W,0.09,59.07,051224,,,D,V*26
$GNVTG,59.07,T,,M,0.09,N,0.16,K,D*13
$PAIRLOG,Full*51
$GNGGA,184332.000,4910.425768,N,12304.395618,W,2,28,0.51,17.384,M,-16.816,M,,*7C
$GNGLL,4910.425768,N,12304.395618,W,184332.000,A,D*5D
$GNGSA,A,3,09,04,07,16,26,03,11,20,30,,,,0.83,0.51,0.65,1*06
$GNGSA,A,3,78,68,69,79,67,85,86,,,,,,0.83,0.51,0.65,2*0C
$GNGSA,A,3,09,04,05,34,36,,,,,,,,0.83,0.51,0.65,3*05
$GNGSA,A,3,23,32,37,20,25,41,38,,,,,,0.83,0.51,0.65,4*07
$GPGSV,4,1,13,09,80,304,30,04,67,105,27,07,48,249,24,16,46,075,15,1*63
$GPGSV,4,2,13,26,23,048,20,03,19,174,19,11,14,302,13,20,14,323,17,1*6F
$GPGSV,4,3,13,30,12,247,17,06,11,265,,27,07,110,,31,05,065,,1*67
$GPGSV,4,4,13,43,,,,1*61
$GLGSV,2,1,08,78,79,083,27,68,75,117,34,69,49,320,40,79,39,204,36,1*70
$GLGSV,2,2,08,67,23,133,25,85,11,325,24,86,06,016,24,84,01,278,,1*70
$GAGSV,3,1,09,09,84,337,24,06,67,103,,31,51,141,,04,40,108,22,7*72
$GAGSV,3,2,09,05,30,294,16,34,18,295,17,24,15,186,17,36,10,245,16,7*78
$GAGSV,3,3,09,15,07,343,17,7*4B
$GBGSV,4,1,13,23,66,075,36,32,64,165,35,37,52,208,34,20,50,302,35,1*7E
$GBGSV,4,2,13,58,39,228,,48,29,309,,25,16,051,24,41,12,142,28,1*79
$GBGSV,4,3,13,38,09,334,23,31,07,342,,19,05,315,,08,01,341,,1*71
$GBGSV,4,4,13,44,01,007,,1*42
$GNRMC,184332.000,A,4910.425768,N,12304.395618,W,0.08,59.07,051224,,,D,V*23
$GNVTG,59.07,T,,M,0.08,N,0.15,K,D*11
$PAIRLOG,Full*51
$GNGGA,184333.000,4910.425774,N,12304.395666,W,2,30,0.51,17.404,M,-16.816,M,,*7F
$GNGLL,4910.425774,N,12304.395666,W,184333.000,A,D*58
$GNGSA,A,3,09,04,07,16,26,03,11,20,30,,,,0.81,0.51,0.63,1*02
$GNGSA,A,3,78,68,69,79,67,85,86,,,,,,0.81,0.51,0.63,2*08
$GNGSA,A,3,09,06,31,04,05,34,36,,,,,,0.81,0.51,0.63,3*05
$GNGSA,A,3,23,32,37,20,25,41,38,,,,,,0.81,0.51,0.63,4*03
$GPGSV,3,1,12,09,80,304,29,04,67,105,24,07,48,249,24,16,46,075,13,1*68
$GPGSV,3,2,12,26,23,048,20,03,19,174,17,11,14,302,15,20,14,323,16,1*60
$GPGSV,3,3,12,30,12,247,16,06,11,265,,27,07,110,,31,05,065,,1*60
$GLGSV,2,1,08,78,79,083,28,68,75,117,34,69,49,320,39,79,39,204,36,1*71
$GLGSV,2,2,08,67,23,133,24,85,11,325,24,86,06,016,24,84,01,278,,1*71
$GAGSV,3,1,09,09,84,337,23,06,67,103,24,31,51,141,17,04,40,108,22,7*75
$GAGSV,3,2,09,05,30,294,16,34,18,295,17,24,15,186,17,36,10,245,16,7*78
$GAGSV,3,3,09,15,07,343,16,7*4A
$GBGSV,4,1,13,23,66,075,35,32,64,165,35,37,52,208,34,20,50,302,35,1*7D
$GBGSV,4,2,13,58,39,228,,48,29,309,,25,16,051,24,41,12,142,28,1*79
$GBGSV,4,3,13,38,09,334,23,31,07,342,,19,05,315,,08,01,341,,1*71
$GBGSV,4,4,13,46,01,223,,1*44
$GNRMC,184333.000,A,4910.425774,N,12304.395666,W,0.07,59.07,051224,,,D,V*29
$GNVTG,59.07,T,,M,0.07,N,0.14,K,D*1F
$PAIRLOG,Full*51
$GNGGA,184334.000,4910.425780,N,12304.395654,W,2,28,0.51,17.320,M,-16.816,M,,*7A
$GNGLL,4910.425780,N,12304.395654,W,184334.000,A,D*55
$GNGSA,A,3,09,04,07,16,26,03,11,20,30,,,,0.83,0.51,0.65,1*06
$GNGSA,A,3,78,68,69,79,67,85,86,,,,,,0.83,0.51,0.65,2*0C
$GNGSA,A,3,09,04,05,34,36,,,,,,,,0.83,0.51,0.65,3*05
$GNGSA,A,3,23,32,37,20,25,41,38,,,,,,0.83,0.51,0.65,4*07
$GPGSV,4,1,13,09,80,304,29,04,67,105,26,07,48,249,24,16,46,075,13,1*6C
$GPGSV,4,2,13,26,23,048,20,03,19,174,17,11,14,302,12,20,14,323,17,1*60
$GPGSV,4,3,13,30,12,247,15,06,11,265,,27,07,110,,31,05,065,,1*65
$GPGSV,4,4,13,47,,,,1*65
$GLGSV,2,1,08,78,79,083,28,68,75,117,34,69,49,320,39,79,39,204,36,1*71
$GLGSV,2,2,08,67,23,133,24,85,11,325,24,86,06,016,24,84,01,278,,1*71
$GAGSV,3,1,09,09,84,337,23,06,67,103,,31,51,141,,04,40,108,22,7*75
$GAGSV,3,2,09,05,30,294,16,34,18,295,17,24,15,186,17,36,10,245,16,7*78
$GAGSV,3,3,09,15,07,343,16,7*4A
$GBGSV,4,1,13,23,66,075,34,32,64,165,34,37,52,208,33,20,50,302,34,1*7B
$GBGSV,4,2,13,58,39,228,,48,29,309,,25,16,051,24,41,12,142,28,1*79
$GBGSV,4,3,13,38,09,334,23,31,07,342,,19,05,315,,08,01,341,,1*71
$GBGSV,4,4,13,44,01,007,,1*42
$GNRMC,184334.000,A,4910.425780,N,12304.395654,W,0.07,59.07,051224,,,D,V*24
$GNVTG,59.07,T,,M,0.07,N,0.13,K,D*18
$PAIRLOG,Full*51
$GNGGA,184335.000,4910.425804,N,12304.395702,W,2,28,0.51,17.279,M,-16.816,M,,*77
$GNGLL,4910.425804,N,12304.395702,W,184335.000,A,D*55
$GNGSA,A,3,09,04,07,16,26,03,11,20,30,,,,0.83,0.51,0.65,1*06
$GNGSA,A,3,78,68,69,79,67,85,86,,,,,,0.83,0.51,0.65,2*0C
$GNGSA,A,3,09,04,05,34,36,,,,,,,,0.83,0.51,0.65,3*05
$GNGSA,A,3,23,32,37,20,25,41,38,,,,,,0.83,0.51,0.65,4*07
$GPGSV,4,1,13,09,80,304,29,04,67,105,27,07,48,249,24,16,46,075,14,1*6A
$GPGSV,4,2,13,26,23,048,20,03,19,174,17,11,14,302,13,20,14,323,17,1*61
$GPGSV,4,3,13,30,12,247,15,06,11,265,,27,07,110,,31,05,065,,1*65
$GPGSV,4,4,13,47,,,,1*65
$GLGSV,2,1,08,78,79,083,28,68,75,117,34,69,49,320,39,79,39,204,36,1*71
$GLGSV,2,2,08,67,23,133,25,85,11,325,24,86,06,016,24,84,01,278,,1*70
$GAGSV,3,1,09,09,84,337,23,06,67,103,,31,51,141,,04,40,108,21,7*76
$GAGSV,3,2,09,05,30,294,16,34,18,295,17,24,15,186,17,36,10,245,16,7*78
$GAGSV,3,3,09,15,07,343,16,7*4A
$GBGSV,4,1,13,23,66,075,34,32,64,165,34,37,52,208,33,20,50,302,34,1*7B
$GBGSV,4,2,13,58,39,228,,48,29,309,,25,16,051,24,41,12,142,28,1*79
$GBGSV,4,3,13,38,09,334,23,31,07,342,,19,05,315,,08,01,341,,1*71
$GBGSV,4,4,13,44,01,007,,1*42
$GNRMC,184335.000,A,4910.425804,N,12304.395702,W,0.06,59.07,051224,,,D,V*25
$GNVTG,59.07,T,,M,0.06,N,0.12,K,D*18
$PAIRLOG,Full*51
$GNGGA,184336.000,4910.425822,N,12304.395798,W,2,28,0.51,17.244,M,-16.817,M,,*7C
$GNGLL,4910.425822,N,12304.395798,W,184336.000,A,D*51
$GNGSA,A,3,09,04,07,16,26,03,11,20,30,,,,0.83,0.51,0.65,1*06
$GNGSA,A,3,78,68,69,79,67,85,86,,,,,,0.83,0.51,0.65,2*0C
$GNGSA,A,3,09,04,05,34,36,,,,,,,,0.83,0.51,0.65,3*05
$GNGSA,A,3,23,32,37,20,25,41,38,,,,,,0.83,0.51,0.65,4*07
$GPGSV,3,1,11,09,80,304,30,04,67,105,27,07,48,249,25,16,46,075,14,1*66
$GPGSV,3,2,11,26,23,048,22,03,19,174,18,11,14,302,14,20,14,323,15,1*6C
$GPGSV,3,3,11,30,12,247,16,06,11,265,,47,,,,1*66
$GLGSV,2,1,08,78,79,083,28,68,75,117,34,69,49,320,39,79,39,204,36,1*71
$GLGSV,2,2,08,67,23,133,25,85,11,325,24,86,06,016,24,84,01,278,,1*70
$GAGSV,2,1,07,09,84,337,24,04,40,108,21,05,30,294,17,34,18,295,17,7*70
$GAGSV,2,2,07,24,15,186,17,36,10,245,16,15,07,343,15,7*4C
$GBGSV,2,1,07,23,66,075,34,32,64,165,34,37,52,208,33,20,50,302,34,1*78
$GBGSV,2,2,07,25,16,051,24,41,12,142,28,38,09,334,23,1*4F
$GNRMC,184336.000,A,4910.425822,N,12304.395798,W,0.05,59.07,051224,,,D,V*22
$GNVTG,59.07,T,,M,0.05,N,0.10,K,D*19
$PAIRLOG,Full*51
$GNGGA,184337.000,4910.425810,N,12304.395900,W,2,28,0.51,17.379,M,-16.817,M,,*7C
$GNGLL,4910.425810,N,12304.395900,W,184337.000,A,D*5E
$GNGSA,A,3,09,04,07,16,26,03,11,20,30,,,,0.83,0.51,0.65,1*06
$GNGSA,A,3,78,68,69,79,67,85,86,,,,,,0.83,0.51,0.65,2*0C
$GNGSA,A,3,09,04,05,34,36,,,,,,,,0.83,0.51,0.65,3*05
$GNGSA,A,3,23,32,37,20,25,41,38,,,,,,0.83,0.51,0.65,4*07
$GPGSV,3,1,11,09,80,304,29,04,67,105,27,07,48,249,25,16,46,075,16,1*6C
$GPGSV,3,2,11,26,23,048,21,03,19,174,20,11,14,302,15,20,14,323,15,1*65
$GPGSV,3,3,11,30,12,247,16,06,11,265,,47,,,,1*66
$GLGSV,2,1,08,78,79,083,28,68,75,117,34,69,49,320,39,79,39,204,36,1*71
$GLGSV,2,2,08,67,23,133,25,85,11,325,24,86,06,016,24,84,01,278,,1*70
$GAGSV,2,1,07,09,84,337,24,04,40,108,21,05,30,294,17,34,18,295,17,7*70
$GAGSV,2,2,07,24,15,186,17,36,10,245,16,15,07,343,15,7*4C
$GBGSV,2,1,07,23,66,075,34,32,64,165,34,37,52,208,33,20,50,302,34,1*78
$GBGSV,2,2,07,25,16,051,24,41,12,142,28,38,09,334,23,1*4F
$GNRMC,184337.000,A,4910.425810,N,12304.395900,W,0.04,59.07,051224,,,D,V*2C
$GNVTG,59.07,T,,M,0.04,N,0.08,K,D*11
$PAIRLOG,Full*51
$GNGGA,184338.000,4910.425792,N,12304.395966,W,2,28,0.51,17.240,M,-16.816,M,,*7C
$GNGLL,4910.425792,N,12304.395966,W,184338.000,A,D*54
$GNGSA,A,3,09,04,07,16,26,03,11,20,30,,,,0.83,0.51,0.65,1*06
$GNGSA,A,3,78,68,69,79,67,85,86,,,,,,0.83,0.51,0.65,2*0C
$GNGSA,A,3,09,04,05,34,36,,,,,,,,0.83,0.51,0.65,3*05
$GNGSA,A,3,23,32,37,20,25,41,38,,,,,,0.83,0.51,0.65,4*07
$GPGSV,3,1,11,09,80,304,30,04,67,105,28,07,48,249,25,16,46,075,17,1*6A
$GPGSV,3,2,11,26,23,048,23,03,19,174,20,11,14,302,14,20,14,323,14,1*67
$GPGSV,3,3,11,30,12,247,16,06,11,265,,47,,,,1*66
$GLGSV,2,1,08,78,79,083,28,68,75,117,34,69,49,320,39,79,39,204,36,1*71
$GLGSV,2,2,08,67,23,133,25,85,11,325,24,86,06,016,24,84,01,278,,1*70
$GAGSV,2,1,07,09,84,337,24,04,40,108,21,05,30,294,16,34,18,295,18,7*7E
$GAGSV,2,2,07,24,15,186,17,36,10,245,16,15,07,343,16,7*4F
$GBGSV,2,1,07,23,66,075,34,32,64,165,34,37,52,208,33,20,50,302,34,1*78
$GBGSV,2,2,07,25,16,051,24,41,12,142,28,38,09,334,23,1*4F
$GNRMC,184338.000,A,4910.425792,N,12304.395966,W,0.04,59.07,051224,,,D,V*26
$GNVTG,59.07,T,,M,0.04,N,0.07,K,D*1E
$PAIRLOG,Full*51
$GNGGA,184339.000,4910.425804,N,12304.396038,W,2,28,0.51,17.175,M,-16.816,M,,*79
$GNGLL,4910.425804,N,12304.396038,W,184339.000,A,D*54
$GNGSA,A,3,09,04,07,16,26,03,11,20,30,,,,0.83,0.51,0.65,1*06
$GNGSA,A,3,78,68,69,79,67,85,86,,,,,,0.83,0.51,0.65,2*0C
$GNGSA,A,3,09,04,05,34,36,,,,,,,,0.83,0.51,0.65,3*05
$GNGSA,A,3,23,32,37,20,25,41,38,,,,,,0.83,0.51,0.65,4*07
$GPGSV,4,1,13,09,80,304,30,04,67,105,28,07,48,249,26,16,46,075,15,1*6E
$GPGSV,4,2,13,26,23,048,24,03,19,174,20,11,14,302,15,20,14,323,17,1*67
$GPGSV,4,3,13,30,12,247,17,06,11,265,,27,07,110,,31,05,065,,1*67
$GPGSV,4,4,13,47,,,,1*65
$GLGSV,2,1,08,78,79,083,28,68,75,117,34,69,49,320,39,79,39,204,36,1*71
$GLGSV,2,2,08,67,23,133,25,85,11,325,24,86,06,016,24,84,01,278,,1*70
$GAGSV,3,1,09,09,84,337,24,06,67,103,,31,51,141,,04,40,108,21,7*71
$GAGSV,3,2,09,05,30,294,17,34,18,295,18,24,15,186,17,36,10,245,16,7*76
$GAGSV,3,3,09,15,07,343,16,7*4A
$GBGSV,4,1,13,23,66,075,34,32,64,165,34,37,52,208,33,20,50,302,34,1*7B
$GBGSV,4,2,13,58,39,228,,48,29,309,,25,16,051,24,41,12,142,28,1*79
$GBGSV,4,3,13,38,09,334,23,31,07,342,,19,05,315,,08,01,341,,1*71
$GBGSV,4,4,13,44,01,007,,1*42
$GNRMC,184339.000,A,4910.425804,N,12304.396038,W,0.03,59.07,051224,,,D,V*21
$GNVTG,59.07,T,,M,0.03,N,0.06,K,D*18
$PAIRLOG,Full*51
$GNGGA,184340.000,4910.425816,N,12304.395972,W,2,30,0.51,17.171,M,-16.816,M,,*7D
$GNGLL,4910.425816,N,12304.395972,W,184340.000,A,D*5D
$GNGSA,A,3,09,04,07,16,26,03,11,20,30,,,,0.81,0.51,0.63,1*02
$GNGSA,A,3,78,68,69,79,67,85,86,,,,,,0.81,0.51,0.63,2*08
$GNGSA,A,3,09,06,31,04,05,34,36,,,,,,0.81,0.51,0.63,3*05
$GNGSA,A,3,23,32,37,20,25,41,38,,,,,,0.81,0.51,0.63,4*03
$GPGSV,3,1,12,09,80,304,31,04,67,105,29,07,48,249,26,16,46,075,16,1*6B
$GPGSV,3,2,12,26,23,048,24,03,19,174,20,11,14,302,15,20,14,323,17,1*61
$GPGSV,3,3,12,30,12,247,17,06,11,265,,27,07,110,,31,05,065,,1*61
$GLGSV,2,1,08,78,79,083,27,68,75,117,34,69,49,320,39,79,39,204,36,1*7E
$GLGSV,2,2,08,67,23,133,25,85,11,325,23,86,06,016,24,84,01,278,,1*77
$GAGSV,3,1,09,09,84,337,24,06,67,103,26,31,51,141,20,04,40,108,21,7*77
$GAGSV,3,2,09,05,30,294,17,34,18,295,18,24,15,186,17,36,10,245,16,7*76
$GAGSV,3,3,09,15,07,343,16,7*4A
$GBGSV,4,1,13,23,66,075,34,32,64,165,34,37,52,208,33,20,50,302,34,1*7B
$GBGSV,4,2,13,58,39,228,,48,29,309,,25,16,051,25,41,12,142,28,1*78
$GBGSV,4,3,13,38,09,334,24,31,07,342,,19,05,315,,08,01,341,,1*76
$GBGSV,4,4,13,44,01,007,,1*42
$GNRMC,184340.000,A,4910.425816,N,12304.395972,W,0.03,59.07,051224,,,D,V*28
$GNVTG,59.07,T,,M,0.03,N,0.06,K,D*18
$PAIRLOG,Full*51
$GNGGA,184341.000,4910.425786,N,12304.395996,W,2,28,0.51,17.197,M,-16.816,M,,*71
$GNGLL,4910.425786,N,12304.395996,W,184341.000,A,D*50
$GNGSA,A,3,09,04,07,16,26,03,11,20,30,,,,0.83,0.51,0.65,1*06
$GNGSA,A,3,78,68,69,79,67,85,86,,,,,,0.83,0.51,0.65,2*0C
$GNGSA,A,3,09,04,05,34,36,,,,,,,,0.83,0.51,0.65,3*05
$GNGSA,A,3,23,32,37,20,25,41,38,,,,,,0.83,0.51,0.65,4*07
$GPGSV,4,1,13,09,80,304,33,04,67,105,29,07,48,249,27,16,46,075,17,1*6F
$GPGSV,4,2,13,26,23,048,24,03,19,174,21,11,14,302,17,20,14,323,18,1*6B
$GPGSV,4,3,13,30,12,247,17,06,11,265,,27,07,110,,31,05,065,,1*67
$GPGSV,4,4,13,35,,,,1*60
$GLGSV,2,1,08,78,79,083,27,68,75,117,34,69,49,320,39,79,39,204,36,1*7E
$GLGSV,2,2,08,67,23,133,25,85,11,325,23,86,06,016,24,84,01,278,,1*77
$GAGSV,3,1,09,09,84,337,25,06,67,103,,31,51,141,,04,40,108,21,7*70
$GAGSV,3,2,09,05,30,294,17,34,18,295,18,24,15,186,17,36,10,245,16,7*76
$GAGSV,3,3,09,15,07,343,16,7*4A
$GBGSV,4,1,13,23,66,075,34,32,64,165,34,37,52,208,32,20,50,302,34,1*7A
$GBGSV,4,2,13,58,39,228,,48,29,309,,25,16,051,24,41,12,142,27,1*76
$GBGSV,4,3,13,38,09,334,24,31,07,342,,19,05,315,,08,01,341,,1*76
$GBGSV,4,4,13,44,01,007,,1*42
$GNRMC,184341.000,A,4910.425786,N,12304.395996,W,0.03,59.07,051224,,,D,V*25
$GNVTG,59.07,T,,M,0.03,N,0.06,K,D*18
$PAIRLOG,Full*51
$GNGGA,184342.000,4910.425810,N,12304.395894,W,2,28,0.51,17.339,M,-16.816,M,,*77
$GNGLL,4910.425810,N,12304.395894,W,184342.000,A,D*50
$GNGSA,A,3,09,04,07,16,26,03,11,20,30,,,,0.83,0.51,0.65,1*06
$GNGSA,A,3,78,68,69,79,67,85,86,,,,,,0.83,0.51,0.65,2*0C
$GNGSA,A,3,09,04,05,34,36,,,,,,,,0.83,0.51,0.65,3*05
$GNGSA,A,3,23,32,37,20,25,41,38,,,,,,0.83,0.51,0.65,4*07
$GPGSV,3,1,11,09,80,304,32,04,67,105,29,07,48,249,27,16,46,075,20,1*6F
$GPGSV,3,2,11,26,23,048,25,03,19,174,22,11,14,302,17,20,14,323,18,1*6C
$GPGSV,3,3,11,30,12,247,17,06,11,265,,35,,,,1*62
$GLGSV,2,1,08,78,79,083,27,68,75,117,34,69,49,320,39,79,39,204,36,1*7E
$GLGSV,2,2,08,67,23,133,24,85,11,325,22,86,06,016,24,84,01,278,,1*77
$GAGSV,2,1,07,09,84,337,25,04,40,108,21,05,30,294,17,34,18,295,18,7*7E
$GAGSV,2,2,07,24,15,186,16,36,10,245,16,15,07,343,17,7*4F
$GBGSV,2,1,07,23,66,075,33,32,64,165,33,37,52,208,32,20,50,302,34,1*79
$GBGSV,2,2,07,25,16,051,24,41,12,142,27,38,09,334,23,1*40
$GNRMC,184342.000,A,4910.425810,N,12304.395894,W,0.03,59.07,051224,,,D,V*25
$GNVTG,59.07,T,,M,0.03,N,0.06,K,D*18
$PAIRLOG,Full*51
$GNGGA,184343.000,4910.425822,N,12304.395912,W,2,28,0.51,17.312,M,-16.816,M,,*71
$GNGLL,4910.425822,N,12304.395912,W,184343.000,A,D*5F
$GNGSA,A,3,09,04,07,16,26,03,11,20,30,,,,0.83,0.51,0.65,1*06
$GNGSA,A,3,78,68,69,79,67,85,86,,,,,,0.83,0.51,0.65,2*0C
$GNGSA,A,3,09,04,05,34,36,,,,,,,,0.83,0.51,0.65,3*05
$GNGSA,A,3,23,32,37,20,25,41,38,,,,,,0.83,0.51,0.65,4*07
$GPGSV,3,1,11,09,80,304,30,04,67,105,29,07,48,249,26,16,46,075,18,1*67
$GPGSV,3,2,11,26,23,048,24,03,19,174,21,11,14,302,17,20,14,323,18,1*6E
$GPGSV,3,3,11,30,12,247,17,06,11,265,,35,,,,1*62
$GLGSV,2,1,08,78,79,083,26,68,75,117,34,69,49,320,39,79,39,204,36,1*7F
$GLGSV,2,2,08,67,23,133,24,85,11,325,22,86,06,016,24,84,01,278,,1*77
$GAGSV,2,1,07,09,84,337,25,04,40,108,21,05,30,294,17,34,18,295,18,7*7E
$GAGSV,2,2,07,24,15,186,16,36,10,245,16,15,07,343,17,7*4F
$GBGSV,2,1,07,23,66,075,33,32,64,165,34,37,52,208,33,20,50,302,34,1*7F
$GBGSV,2,2,07,25,16,051,24,41,12,142,27,38,09,334,23,1*40
$GNRMC,184343.000,A,4910.425822,N,12304.395912,W,0.03,59.07,051224,,,D,V*2A
$GNVTG,59.07,T,,M,0.03,N,0.06,K,D*18
$PAIRLOG,Full*51
$GNGGA,184344.000,4910.425834,N,12304.395936,W,2,28,0.51,17.390,M,-16.816,M,,*7D
$GNGLL,4910.425834,N,12304.395936,W,184344.000,A,D*59
$GNGSA,A,3,09,04,07,16,26,03,11,20,30,,,,0.83,0.51,0.65,1*06
$GNGSA,A,3,78,68,69,79,67,85,86,,,,,,0.83,0.51,0.65,2*0C
$GNGSA,A,3,09,04,05,34,36,,,,,,,,0.83,0.51,0.65,3*05
$GNGSA,A,3,23,32,37,20,25,41,38,,,,,,0.83,0.51,0.65,4*07
$GPGSV,3,1,11,09,80,304,30,04,67,105,29,07,48,249,26,16,46,075,20,1*6C
$GPGSV,3,2,11,26,23,048,25,03,19,174,21,11,14,302,16,20,14,323,18,1*6E
$GPGSV,3,3,11,30,12,247,17,06,11,265,,35,,,,1*62
$GLGSV,2,1,08,78,79,083,26,68,75,117,34,69,49,320,39,79,39,204,36,1*7F
$GLGSV,2,2,08,67,23,133,24,85,11,325,23,86,06,016,24,84,01,278,,1*76
$GAGSV,2,1,07,09,84,337,25,04,40,108,21,05,30,294,17,34,18,295,18,7*7E
$GAGSV,2,2,07,24,15,186,16,36,10,245,16,15,07,343,17,7*4F
$GBGSV,2,1,07,23,66,075,33,32,64,165,34,37,52,208,33,20,50,302,34,1*7F
$GBGSV,2,2,07,25,16,051,24,41,12,142,27,38,09,334,23,1*40
$GNRMC,184344.000,A,4910.425834,N,12304.395936,W,0.02,59.07,051224,,,D,V*2D
$GNVTG,59.07,T,,M,0.02,N,0.04,K,D*1B
$PAIRLOG,Full*51
$GNGGA,184345.000,4910.425858,N,12304.395930,W,2,30,0.51,17.358,M,-16.816,M,,*7D
$GNGLL,4910.425858,N,12304.395930,W,184345.000,A,D*54
$GNGSA,A,3,09,04,07,16,26,03,11,20,30,,,,0.81,0.51,0.63,1*02
$GNGSA,A,3,78,68,69,79,67,85,86,,,,,,0.81,0.51,0.63,2*08
$GNGSA,A,3,09,06,31,04,05,34,36,,,,,,0.81,0.51,0.63,3*05
$GNGSA,A,3,23,32,37,20,25,41,38,,,,,,0.81,0.51,0.63,4*03
$GPGSV,4,1,13,09,80,304,30,04,67,105,29,07,48,249,26,16,46,075,20,1*69
$GPGSV,4,2,13,26,23,048,25,03,19,174,23,11,14,302,17,20,14,323,18,1*68
$GPGSV,4,3,13,30,12,247,17,06,11,265,,27,07,110,,31,05,065,,1*67
$GPGSV,4,4,13,35,,,,1*60
$GLGSV,2,1,08,78,79,083,26,68,75,117,34,69,49,320,39,79,39,204,36,1*7F
$GLGSV,2,2,08,67,23,133,24,85,11,325,23,86,06,016,24,84,01,278,,1*76
$GAGSV,3,1,09,09,84,337,25,06,67,103,27,31,51,141,23,04,40,108,21,7*74
$GAGSV,3,2,09,05,30,294,17,34,18,295,18,24,15,186,16,36,10,245,16,7*77
$GAGSV,3,3,09,15,07,343,17,7*4B
$GBGSV,4,1,13,23,66,075,33,32,64,165,34,37,52,208,33,20,50,302,34,1*7C
$GBGSV,4,2,13,58,39,228,,48,29,309,,25,16,051,24,41,12,142,27,1*76
$GBGSV,4,3,13,38,09,334,23,31,07,342,,19,05,315,,08,01,341,,1*71
$GBGSV,4,4,13,44,01,007,,1*42
$GNRMC,184345.000,A,4910.425858,N,12304.395930,W,0.02,59.07,051224,,,D,V*20
$GNVTG,59.07,T,,M,0.02,N,0.04,K,D*1B
$PAIRLOG,Full*51
$GNGGA,184346.000,4910.425858,N,12304.395906,W,2,31,0.49,17.470,M,-16.817,M,,*7F
