$GNGGA,184316.000,4910.425162,N,12304.402482,W,2,33,0.46,11.744,M,-16.816,M,,*7C
$GNGLL,4910.425162,N,12304.402482,W,184316.000,A,D*5F
$GNGSA,A,3,09,04,07,16,26,03,11,20,30,06,27,31,0.73,0.46,0.57,1*0F
$GNGSA,A,3,78,68,69,79,67,85,,,,,,,0.73,0.46,0.57,2*0A
$GNGSA,A,3,09,06,31,04,05,34,24,36,,,,,0.73,0.46,0.57,3*0F
$GNGSA,A,3,23,32,37,20,25,41,38,,,,,,0.73,0.46,0.57,4*0F
$GPGSV,4,1,13,09,80,304,39,04,67,105,36,07,47,249,33,16,46,075,32,1*66
$GPGSV,4,2,13,48,33,182,31,26,23,048,27,03,19,174,29,11,14,303,26,1*6A
$GPGSV,4,3,13,20,14,323,24,30,12,247,26,06,11,265,25,27,07,110,26,1*61
$GPGSV,4,4,13,31,05,065,23,1*53
$GLGSV,2,1,07,78,79,083,18,68,75,117,32,69,49,320,27,79,39,204,25,1*76
$GLGSV,2,2,07,67,23,133,20,85,11,325,18,86,06,016,,1*43
$GAGSV,3,1,10,09,84,337,34,06,67,103,32,31,51,141,30,04,40,108,28,7*73
$GAGSV,3,2,10,05,30,294,25,34,18,295,26,24,15,186,25,36,10,245,21,7*77
$GAGSV,3,3,10,15,07,343,24,21,01,029,,7*7A
$GBGSV,3,1,12,23,66,075,37,32,64,165,38,37,52,208,35,20,50,302,37,1*77
$GBGSV,3,2,12,25,16,051,28,41,12,142,31,38,09,334,28,19,04,315,23,1*7F
$GBGSV,3,3,12,04,01,262,,08,01,341,,44,01,007,,46,01,223,,1*7F
$GNRMC,184316.000,A,4910.425162,N,12304.402482,W,0.02,0.00,051224,,,D,V*10
$GNVTG,0.00,T,,M,0.02,N,0.03,K,D*27
$GNGGA,184317.000,4910.425168,N,12304.402488,W,2,33,0.46,11.806,M,-16.816,M,,*74
$GNGLL,4910.425168,N,12304.402488,W,184317.000,A,D*5E
$GNGSA,A,3,09,04,07,16,26,03,11,20,30,06,27,31,0.73,0.46,0.56,1*0E
$GNGSA,A,3,78,68,69,79,67,85,,,,,,,0.73,0.46,0.56,2*0B
$GNGSA,A,3,09,06,31,04,05,34,24,36,,,,,0.73,0.46,0.56,3*0E
$GNGSA,A,3,23,32,37,20,25,41,38,,,,,,0.73,0.46,0.56,4*0E
$GPGSV,4,1,13,09,80,304,39,04,67,105,36,07,47,249,32,16,46,075,32,1*67
$GPGSV,4,2,13,48,33,182,31,26,23,048,27,03,19,174,29,11,14,303,26,1*6A
$GPGSV,4,3,13,20,14,323,24,30,12,247,26,06,11,265,24,27,07,110,25,1*63
$GPGSV,4,4,13,31,05,065,23,1*53
$GLGSV,2,1,07,78,79,083,18,68,75,117,32,69,49,320,27,79,39,204,25,1*76
$GLGSV,2,2,07,67,23,133,20,85,11,325,18,86,06,016,,1*43
$GAGSV,3,1,10,09,84,337,34,06,67,103,32,31,51,141,30,04,40,108,28,7*73
$GAGSV,3,2,10,05,30,294,25,34,18,295,26,24,15,186,25,36,10,245,21,7*77
$GAGSV,3,3,10,15,07,343,23,21,01,029,,7*7D
$GBGSV,3,1,12,23,66,075,37,32,64,165,38,37,52,208,35,20,50,302,37,1*77
$GBGSV,3,2,12,25,16,051,28,41,12,142,32,38,09,334,27,19,04,315,23,1*73
$GBGSV,3,3,12,04,01,262,,08,01,341,,44,01,007,,46,01,223,,1*7F
$GNRMC,184317.000,A,4910.425168,N,12304.402488,W,0.02,0.00,051224,,,D,V*11
$GNVTG,0.00,T,,M,0.02,N,0.03,K,D*27
$GNGGA,184318.000,4910.425150,N,12304.402542,W,2,33,0.46,11.914,M,-16.817,M,,*74
$GNGLL,4910.425150,N,12304.402542,W,184318.000,A,D*5D
$GNGSA,A,3,09,04,07,16,26,03,11,20,30,06,27,31,0.73,0.46,0.56,1*0E
$GNGSA,A,3,78,68,69,79,67,85,,,,,,,0.73,0.46,0.56,2*0B
$GNGSA,A,3,09,06,31,04,05,34,24,36,,,,,0.73,0.46,0.56,3*0E
$GNGSA,A,3,23,32,37,20,25,41,38,,,,,,0.73,0.46,0.56,4*0E
$GPGSV,4,1,13,09,80,304,39,04,67,105,36,07,47,249,32,16,46,075,32,1*67
$GPGSV,4,2,13,48,33,182,31,26,23,048,27,03,19,174,29,11,14,303,26,1*6A
$GPGSV,4,3,13,20,14,323,25,30,12,247,26,06,11,265,25,27,07,110,25,1*63
$GPGSV,4,4,13,31,05,065,23,1*53
$GLGSV,2,1,07,78,79,083,18,68,75,117,31,69,49,320,27,79,39,204,25,1*75
$GLGSV,2,2,07,67,23,133,20,85,11,325,18,86,06,016,,1*43
$GAGSV,3,1,10,09,84,337,34,06,67,103,32,31,51,141,30,04,40,108,28,7*73
$GAGSV,3,2,10,05,30,294,25,34,18,295,26,24,15,186,25,36,10,245,21,7*77
$GAGSV,3,3,10,15,07,343,23,21,01,029,,7*7D
$GBGSV,3,1,12,23,66,075,37,32,64,165,38,37,52,208,35,20,50,302,37,1*77
$GBGSV,3,2,12,25,16,051,28,41,12,142,32,38,09,334,27,19,04,315,23,1*73
$GBGSV,3,3,12,04,01,262,,08,01,341,,44,01,007,,46,01,223,,1*7F
$GNRMC,184318.000,A,4910.425150,N,12304.402542,W,0.02,0.00,051224,,,D,V*12
$GNVTG,0.00,T,,M,0.02,N,0.03,K,D*27
$GNGGA,184319.000,4910.425192,N,12304.402548,W,2,33,0.46,11.973,M,-16.816,M,,*71
$GNGLL,4910.425192,N,12304.402548,W,184319.000,A,D*58
$GNGSA,A,3,09,04,07,16,26,03,11,20,30,06,27,31,0.73,0.46,0.56,1*0E
$GNGSA,A,3,78,68,69,79,67,85,,,,,,,0.73,0.46,0.56,2*0B
$GNGSA,A,3,09,06,31,04,05,34,24,36,,,,,0.73,0.46,0.56,3*0E
$GNGSA,A,3,23,32,37,20,25,41,38,,,,,,0.73,0.46,0.56,4*0E
$GPGSV,4,1,13,09,80,304,39,04,67,105,36,07,48,249,32,16,46,075,32,1*68
$GPGSV,4,2,13,48,33,182,31,26,23,048,27,03,19,174,29,11,14,303,26,1*6A
$GPGSV,4,3,13,20,14,323,24,30,12,247,26,06,11,265,24,27,07,110,26,1*60
$GPGSV,4,4,13,31,05,065,22,1*52
$GLGSV,2,1,07,78,79,083,17,68,75,117,31,69,49,320,27,79,39,204,24,1*7B
$GLGSV,2,2,07,67,23,133,20,85,11,325,18,86,06,016,,1*43
$GAGSV,3,1,10,09,84,337,34,06,67,103,32,31,51,141,30,04,40,108,28,7*73
$GAGSV,3,2,10,05,30,294,25,34,18,295,26,24,15,186,25,36,10,245,21,7*77
$GAGSV,3,3,10,15,07,343,23,21,01,029,,7*7D
$GBGSV,3,1,12,23,66,075,37,32,64,165,38,37,52,208,35,20,50,302,37,1*77
$GBGSV,3,2,12,25,16,051,28,41,12,142,32,38,09,334,27,19,04,315,23,1*73
$GBGSV,3,3,12,04,01,262,,08,01,341,,44,01,007,,46,01,223,,1*7F
$GNRMC,184319.000,A,4910.425192,N,12304.402548,W,0.02,0.00,051224,,,D,V*17
$GNVTG,0.00,T,,M,0.02,N,0.03,K,D*27
$GNGGA,184320.000,4910.425204,N,12304.402524,W,2,33,0.46,12.045,M,-16.817,M,,*73
$GNGLL,4910.425204,N,12304.402524,W,184320.000,A,D*54
$GNGSA,A,3,09,04,07,16,26,03,11,20,30,06,27,31,0.73,0.46,0.56,1*0E
$GNGSA,A,3,78,68,69,79,67,85,,,,,,,0.73,0.46,0.56,2*0B
$GNGSA,A,3,09,06,31,04,05,34,24,36,,,,,0.73,0.46,0.56,3*0E
$GNGSA,A,3,23,32,37,20,25,41,38,,,,,,0.73,0.46,0.56,4*0E
$GPGSV,4,1,13,09,80,304,39,04,67,105,36,07,48,249,32,16,46,075,32,1*68
$GPGSV,4,2,13,48,33,182,31,26,23,048,27,03,19,174,29,11,14,303,26,1*6A
$GPGSV,4,3,13,20,14,323,26,30,12,247,26,06,11,265,24,27,07,110,26,1*62
$GPGSV,4,4,13,31,05,065,22,1*52
$GLGSV,2,1,07,78,79,083,17,68,75,117,31,69,49,320,27,79,39,204,25,1*7A
$GLGSV,2,2,07,67,23,133,20,85,11,325,19,86,06,016,,1*42
$GAGSV,3,1,10,09,84,337,34,06,67,103,33,31,51,141,30,04,40,108,28,7*72
$GAGSV,3,2,10,05,30,294,26,34,18,295,26,24,15,186,26,36,10,245,21,7*77
$GAGSV,3,3,10,15,07,343,23,21,01,029,,7*7D
$GBGSV,3,1,12,23,66,075,38,32,64,165,38,37,52,208,35,20,50,302,37,1*78
$GBGSV,3,2,12,25,16,051,28,41,12,142,32,38,09,334,27,19,04,315,23,1*73
$GBGSV,3,3,12,04,01,262,,08,01,341,,44,01,007,,46,01,223,,1*7F
$GNRMC,184320.000,A,4910.425204,N,12304.402524,W,0.02,0.00,051224,,,D,V*1B
$GNVTG,0.00,T,,M,0.02,N,0.03,K,D*27
$GNGGA,184321.000,4910.425144,N,12304.402632,W,2,33,0.46,12.187,M,-16.816,M,,*7F
$GNGLL,4910.425144,N,12304.402632,W,184321.000,A,D*56
$GNGSA,A,3,09,04,07,16,26,03,11,20,30,06,27,31,0.73,0.46,0.56,1*0E
$GNGSA,A,3,78,68,69,79,67,85,,,,,,,0.73,0.46,0.56,2*0B
$GNGSA,A,3,09,06,31,04,05,34,24,36,,,,,0.73,0.46,0.56,3*0E
$GNGSA,A,3,23,32,37,20,25,41,38,,,,,,0.73,0.46,0.56,4*0E
$GPGSV,4,1,13,09,80,304,39,04,67,105,36,07,48,249,32,16,46,075,32,1*68
$GPGSV,4,2,13,48,33,182,31,26,23,048,27,03,19,174,29,11,14,303,26,1*6A
$GPGSV,4,3,13,20,14,323,25,30,12,247,26,06,11,265,23,27,07,110,26,1*66
$GPGSV,4,4,13,31,05,065,22,1*52
$GLGSV,2,1,07,78,79,083,17,68,75,117,31,69,49,320,27,79,39,204,25,1*7A
$GLGSV,2,2,07,67,23,133,20,85,11,325,19,86,06,016,,1*42
$GAGSV,3,1,10,09,84,337,34,06,67,103,33,31,51,141,30,04,40,108,28,7*72
$GAGSV,3,2,10,05,30,294,26,34,18,295,26,24,15,186,26,36,10,245,21,7*77
$GAGSV,3,3,10,15,07,343,23,21,01,029,,7*7D
$GBGSV,3,1,12,23,66,075,37,32,64,165,38,37,52,208,34,20,50,302,37,1*76
$GBGSV,3,2,12,25,16,051,27,41,12,142,31,38,09,334,27,19,04,315,23,1*7F
$GBGSV,3,3,12,04,01,262,,08,01,341,,44,01,007,,46,01,223,,1*7F
$GNRMC,184321.000,A,4910.425144,N,12304.402632,W,0.02,0.00,051224,,,D,V*19
$GNVTG,0.00,T,,M,0.02,N,0.04,K,D*20
$GNGGA,184322.000,4910.425192,N,12304.402608,W,2,33,0.46,12.250,M,-16.816,M,,*77
$GNGLL,4910.425192,N,12304.402608,W,184322.000,A,D*57
$GNGSA,A,3,09,04,07,16,26,03,11,20,30,06,27,31,0.73,0.46,0.56,1*0E
$GNGSA,A,3,78,68,69,79,67,85,,,,,,,0.73,0.46,0.56,2*0B
$GNGSA,A,3,09,06,31,04,05,34,24,36,,,,,0.73,0.46,0.56,3*0E
$GNGSA,A,3,23,32,37,20,25,41,38,,,,,,0.73,0.46,0.56,4*0E
$GPGSV,4,1,13,09,80,304,39,04,67,105,36,07,48,249,32,16,46,075,32,1*68
$GPGSV,4,2,13,48,33,182,31,26,23,048,27,03,19,174,29,11,14,303,26,1*6A
$GPGSV,4,3,13,20,14,323,25,30,12,247,26,06,11,265,23,27,07,110,26,1*66
$GPGSV,4,4,13,31,05,065,22,1*52
$GLGSV,2,1,07,78,79,083,17,68,75,117,31,69,49,320,27,79,39,204,25,1*7A
$GLGSV,2,2,07,67,23,133,20,85,11,325,19,86,06,016,,1*42
$GAGSV,3,1,10,09,84,337,34,06,67,103,33,31,51,141,30,04,40,108,28,7*72
$GAGSV,3,2,10,05,30,294,26,34,18,295,25,24,15,186,26,36,10,245,20,7*75
$GAGSV,3,3,10,15,07,343,22,21,01,029,,7*7C
$GBGSV,3,1,12,23,66,075,37,32,64,165,38,37,52,208,35,20,50,302,37,1*77
$GBGSV,3,2,12,25,16,051,27,41,12,142,31,38,09,334,27,19,04,315,23,1*7F
$GBGSV,3,3,12,04,01,262,,08,01,341,,44,01,007,,46,01,223,,1*7F
$GNRMC,184322.000,A,4910.425192,N,12304.402608,W,0.02,0.00,051224,,,D,V*18
$GNVTG,0.00,T,,M,0.02,N,0.04,K,D*20
$GNGGA,184323.000,4910.425270,N,12304.402554,W,2,33,0.46,12.250,M,-16.816,M,,*73
$GNGLL,4910.425270,N,12304.402554,W,184323.000,A,D*53
$GNGSA,A,3,09,04,07,16,26,03,11,20,30,06,27,31,0.73,0.46,0.56,1*0E
$GNGSA,A,3,78,68,69,79,67,85,,,,,,,0.73,0.46,0.56,2*0B
$GNGSA,A,3,09,06,31,04,05,34,24,36,,,,,0.73,0.46,0.56,3*0E
$GNGSA,A,3,23,32,37,20,25,41,38,,,,,,0.73,0.46,0.56,4*0E
$GPGSV,4,1,13,09,80,304,39,04,67,105,36,07,48,249,32,16,46,075,32,1*68
$GPGSV,4,2,13,48,33,182,31,26,23,048,27,03,19,174,29,11,14,302,26,1*6B
$GPGSV,4,3,13,20,14,323,25,30,12,247,26,06,11,265,23,27,07,110,26,1*66
$GPGSV,4,4,13,31,05,065,22,1*52
$GLGSV,2,1,07,78,79,083,16,68,75,117,31,69,49,320,27,79,39,204,25,1*7B
$GLGSV,2,2,07,67,23,133,19,85,11,325,19,86,06,016,,1*48
$GAGSV,3,1,10,09,84,337,34,06,67,103,33,31,51,141,30,04,40,108,28,7*72
$GAGSV,3,2,10,05,30,294,26,34,18,295,25,24,15,186,25,36,10,245,20,7*76
$GAGSV,3,3,10,15,07,343,22,21,01,029,,7*7C
$GBGSV,3,1,12,23,66,075,38,32,64,165,38,37,52,208,35,20,50,302,37,1*78
$GBGSV,3,2,12,25,16,051,27,41,12,142,31,38,09,334,27,19,04,315,24,1*78
$GBGSV,3,3,12,04,01,262,,08,01,341,,44,01,007,,46,01,223,,1*7F
$GNRMC,184323.000,A,4910.425270,N,12304.402554,W,0.02,0.00,051224,,,D,V*1C
$GNVTG,0.00,T,,M,0.02,N,0.03,K,D*27
$GNGGA,184324.000,4910.425324,N,12304.402524,W,2,33,0.46,12.257,M,-16.816,M,,*74
$GNGLL,4910.425324,N,12304.402524,W,184324.000,A,D*53
$GNGSA,A,3,09,04,07,16,26,03,11,20,30,06,27,31,0.73,0.46,0.56,1*0E
$GNGSA,A,3,78,68,69,79,67,85,,,,,,,0.73,0.46,0.56,2*0B
$GNGSA,A,3,09,06,31,04,05,34,24,36,,,,,0.73,0.46,0.56,3*0E
$GNGSA,A,3,23,32,37,20,25,41,38,,,,,,0.73,0.46,0.56,4*0E
$GPGSV,4,1,13,09,80,304,39,04,67,105,36,07,48,249,32,16,46,075,32,1*68
$GPGSV,4,2,13,48,33,182,31,26,23,048,27,03,19,174,29,11,14,302,25,1*68
$GPGSV,4,3,13,20,14,323,25,30,12,247,25,06,11,265,23,27,07,110,26,1*65
$GPGSV,4,4,13,31,05,065,22,1*52
$GLGSV,2,1,07,78,79,083,16,68,75,117,31,69,49,320,26,79,39,204,25,1*7A
$GLGSV,2,2,07,67,23,133,19,85,11,325,18,86,06,016,,1*49
$GAGSV,3,1,10,09,84,337,34,06,67,103,33,31,51,141,30,04,40,108,28,7*72
$GAGSV,3,2,10,05,30,294,26,34,18,295,25,24,15,186,25,36,10,245,20,7*76
$GAGSV,3,3,10,15,07,343,22,21,01,029,,7*7C
$GBGSV,3,1,12,23,66,075,38,32,64,165,38,37,52,208,35,20,50,302,37,1*78
$GBGSV,3,2,12,25,16,051,27,41,12,142,31,38,09,334,27,19,04,315,24,1*78
$GBGSV,3,3,12,04,01,262,,08,01,341,,44,01,007,,46,01,223,,1*7F
$GNRMC,184324.000,A,4910.425324,N,12304.402524,W,0.02,0.00,051224,,,D,V*1C
$GNVTG,0.00,T,,M,0.02,N,0.03,K,D*27
$GNGGA,184325.000,4910.425414,N,12304.402494,W,2,33,0.46,12.234,M,-16.817,M,,*7F
$GNGLL,4910.425414,N,12304.402494,W,184325.000,A,D*5C
$GNGSA,A,3,09,04,07,16,26,03,11,20,30,06,27,31,0.73,0.46,0.56,1*0E
$GNGSA,A,3,78,68,69,79,67,85,,,,,,,0.73,0.46,0.56,2*0B
$GNGSA,A,3,09,06,31,04,05,34,24,36,,,,,0.73,0.46,0.56,3*0E
$GNGSA,A,3,23,32,37,20,25,41,38,,,,,,0.73,0.46,0.56,4*0E
$GPGSV,4,1,13,09,80,304,39,04,67,105,36,07,48,249,32,16,46,075,32,1*68
$GPGSV,4,2,13,48,33,182,31,26,23,048,27,03,19,174,29,11,14,302,25,1*68
$GPGSV,4,3,13,20,14,323,25,30,12,247,25,06,11,265,23,27,07,110,26,1*65
$GPGSV,4,4,13,31,05,065,22,1*52
$GLGSV,2,1,07,78,79,083,15,68,75,117,30,69,49,320,26,79,39,204,25,1*78
$GLGSV,2,2,07,67,23,133,19,85,11,325,18,86,06,016,,1*49
$GAGSV,3,1,10,09,84,337,34,06,67,103,33,31,51,141,30,04,40,108,28,7*72
$GAGSV,3,2,10,05,30,294,26,34,18,295,25,24,15,186,25,36,10,245,20,7*76
$GAGSV,3,3,10,15,07,343,22,21,01,029,,7*7C
$GBGSV,3,1,12,23,66,075,38,32,64,165,38,37,52,208,35,20,50,302,37,1*78
$GBGSV,3,2,12,25,16,051,27,41,12,142,31,38,09,334,27,19,04,315,24,1*78
$GBGSV,3,3,12,04,01,262,,08,01,341,,44,01,007,,46,01,223,,1*7F
$GNRMC,184325.000,A,4910.425414,N,12304.402494,W,0.02,0.00,051224,,,D,V*13
$GNVTG,0.00,T,,M,0.02,N,0.03,K,D*27
$GNGGA,184326.000,4910.425474,N,12304.402488,W,2,33,0.46,12.274,M,-16.817,M,,*73
$GNGLL,4910.425474,N,12304.402488,W,184326.000,A,D*54
$GNGSA,A,3,09,04,07,16,26,03,11,20,30,06,27,31,0.73,0.46,0.56,1*0E
$GNGSA,A,3,78,68,69,79,67,85,,,,,,,0.73,0.46,0.56,2*0B
$GNGSA,A,3,09,06,31,04,05,34,24,36,,,,,0.73,0.46,0.56,3*0E
$GNGSA,A,3,23,32,37,20,25,41,38,,,,,,0.73,0.46,0.56,4*0E
$GPGSV,4,1,13,09,80,304,39,04,67,105,36,07,48,249,32,16,46,075,32,1*68
$GPGSV,4,2,13,48,33,182,31,26,23,048,27,03,19,174,29,11,14,302,25,1*68
$GPGSV,4,3,13,20,14,323,25,30,12,247,24,06,11,265,23,27,07,110,26,1*64
$GPGSV,4,4,13,31,05,065,21,1*51
$GLGSV,2,1,07,78,79,083,14,68,75,117,30,69,49,320,26,79,39,204,25,1*79
$GLGSV,2,2,07,67,23,133,19,85,11,325,18,86,06,016,,1*49
$GAGSV,3,1,10,09,84,337,34,06,67,103,33,31,51,141,30,04,40,108,28,7*72
$GAGSV,3,2,10,05,30,294,26,34,18,295,25,24,15,186,25,36,10,245,20,7*76
$GAGSV,3,3,10,15,07,343,22,21,01,029,,7*7C
$GBGSV,3,1,12,23,66,075,38,32,64,165,38,37,52,208,35,20,50,302,37,1*78
$GBGSV,3,2,12,25,16,051,27,41,12,142,31,38,09,334,28,19,04,315,24,1*77
$GBGSV,3,3,12,04,01,262,,08,01,341,,44,01,007,,46,01,223,,1*7F
$GNRMC,184326.000,A,4910.425474,N,12304.402488,W,0.01,0.00,051224,,,D,V*18
$GNVTG,0.00,T,,M,0.01,N,0.03,K,D*24
$GNGGA,184327.000,4910.425570,N,12304.402452,W,2,33,0.46,12.291,M,-16.816,M,,*7A
$GNGLL,4910.425570,N,12304.402452,W,184327.000,A,D*57
$GNGSA,A,3,09,04,07,16,26,03,11,20,30,06,27,31,0.73,0.46,0.56,1*0E
$GNGSA,A,3,78,68,69,79,67,85,,,,,,,0.73,0.46,0.56,2*0B
$GNGSA,A,3,09,06,31,04,05,34,24,36,,,,,0.73,0.46,0.56,3*0E
$GNGSA,A,3,23,32,37,20,25,41,38,,,,,,0.73,0.46,0.56,4*0E
$GPGSV,4,1,13,09,80,304,39,04,67,105,36,07,48,249,32,16,46,075,32,1*68
$GPGSV,4,2,13,48,33,182,31,26,23,048,27,03,19,174,29,11,14,302,25,1*68
$GPGSV,4,3,13,20,14,323,25,30,12,247,23,06,11,265,23,27,07,110,26,1*63
$GPGSV,4,4,13,31,05,065,22,1*52
$GLGSV,2,1,07,78,79,083,14,68,75,117,30,69,49,320,26,79,39,204,25,1*79
$GLGSV,2,2,07,67,23,133,20,85,11,325,18,86,06,016,,1*43
$GAGSV,3,1,10,09,84,337,34,06,67,103,33,31,51,141,30,04,40,108,28,7*72
$GAGSV,3,2,10,05,30,294,25,34,18,295,25,24,15,186,25,36,10,245,20,7*75
$GAGSV,3,3,10,15,07,343,21,21,01,029,,7*7F
$GBGSV,3,1,12,23,66,075,38,32,64,165,38,37,52,208,35,20,50,302,37,1*78
$GBGSV,3,2,12,25,16,051,27,41,12,142,31,38,09,334,28,19,04,315,24,1*77
$GBGSV,3,3,12,04,01,262,,08,01,341,,44,01,007,,46,01,223,,1*7F
$GNRMC,184327.000,A,4910.425570,N,12304.402452,W,0.02,0.00,051224,,,D,V*18
$GNVTG,0.00,T,,M,0.02,N,0.03,K,D*27
$GNGGA,184328.000,4910.425618,N,12304.402488,W,2,33,0.46,12.294,M,-16.816,M,,*7A
$GNGLL,4910.425618,N,12304.402488,W,184328.000,A,D*52
$GNGSA,A,3,09,04,07,16,26,03,11,20,30,06,27,31,0.73,0.46,0.56,1*0E
$GNGSA,A,3,78,68,69,79,67,85,,,,,,,0.73,0.46,0.56,2*0B
$GNGSA,A,3,09,06,31,04,05,34,24,36,,,,,0.73,0.46,0.56,3*0E
$GNGSA,A,3,23,32,37,20,25,41,38,,,,,,0.73,0.46,0.56,4*0E
$GPGSV,4,1,13,09,80,304,39,04,67,105,36,07,48,249,32,16,46,075,32,1*68
$GPGSV,4,2,13,48,33,182,31,26,23,048,27,03,19,174,29,11,14,302,25,1*68
$GPGSV,4,3,13,20,14,323,25,30,12,247,25,06,11,265,23,27,07,110,27,1*64
$GPGSV,4,4,13,31,05,065,20,1*50
$GLGSV,2,1,07,78,79,083,12,68,75,117,30,69,49,320,26,79,39,204,25,1*7F
$GLGSV,2,2,07,67,23,133,20,85,11,325,18,86,06,016,,1*43
$GAGSV,3,1,09,09,84,337,34,06,67,103,33,31,51,141,30,04,40,108,28,7*7A
$GAGSV,3,2,09,05,30,294,25,34,18,295,25,24,15,186,25,36,10,245,20,7*7D
$GAGSV,3,3,09,15,07,343,21,7*4E
$GBGSV,4,1,13,23,66,075,38,32,64,165,38,37,52,208,35,20,50,302,37,1*7E
$GBGSV,4,2,13,48,29,309,,25,16,051,27,41,12,142,31,38,09,334,28,1*71
$GBGSV,4,3,13,19,04,315,24,04,01,262,,08,01,341,,44,01,007,,1*74
$GBGSV,4,4,13,46,01,223,,1*44
$GNRMC,184328.000,A,4910.425618,N,12304.402488,W,0.02,0.00,051224,,,D,V*1D
$GNVTG,0.00,T,,M,0.02,N,0.04,K,D*20
$GNGGA,184329.000,4910.425660,N,12304.402440,W,2,33,0.46,12.274,M,-16.816,M,,*7E
$GNGLL,4910.425660,N,12304.402440,W,184329.000,A,D*58
$GNGSA,A,3,09,04,07,16,26,03,11,20,30,06,27,31,0.73,0.46,0.56,1*0E
$GNGSA,A,3,78,68,69,79,67,85,,,,,,,0.73,0.46,0.56,2*0B
$GNGSA,A,3,09,06,31,04,05,34,24,36,,,,,0.73,0.46,0.56,3*0E
$GNGSA,A,3,23,32,37,20,25,41,38,,,,,,0.73,0.46,0.56,4*0E
$GPGSV,4,1,13,09,80,304,39,04,67,105,36,07,48,249,32,16,46,075,32,1*68
$GPGSV,4,2,13,48,33,182,31,26,23,048,27,03,19,174,29,11,14,302,25,1*68
$GPGSV,4,3,13,20,14,323,24,30,12,247,25,06,11,265,23,27,07,110,28,1*6A
$GPGSV,4,4,13,31,05,065,20,1*50
$GLGSV,2,1,07,78,79,083,15,68,75,117,30,69,49,320,25,79,39,204,25,1*7B
$GLGSV,2,2,07,67,23,133,20,85,11,325,18,86,06,016,,1*43
$GAGSV,3,1,09,09,84,337,34,06,67,103,33,31,51,141,30,04,40,108,28,7*7A
$GAGSV,3,2,09,05,30,294,25,34,18,295,25,24,15,186,25,36,10,245,20,7*7D
$GAGSV,3,3,09,15,07,343,21,7*4E
$GBGSV,4,1,13,23,66,075,38,32,64,165,38,37,52,208,35,20,50,302,37,1*7E
$GBGSV,4,2,13,48,29,309,,25,16,051,27,41,12,142,31,38,09,334,28,1*71
$GBGSV,4,3,13,19,04,315,24,04,01,262,,08,01,341,,44,01,007,,1*74
$GBGSV,4,4,13,46,01,223,,1*44
$GNRMC,184329.000,A,4910.425660,N,12304.402440,W,0.02,0.00,051224,,,D,V*17
$GNVTG,0.00,T,,M,0.02,N,0.03,K,D*27
$GNGGA,184330.000,4910.425720,N,12304.402446,W,2,33,0.46,12.273,M,-16.817,M,,*73
$GNGLL,4910.425720,N,12304.402446,W,184330.000,A,D*53
$GNGSA,A,3,09,04,07,16,26,03,11,20,30,06,27,31,0.73,0.46,0.56,1*0E
$GNGSA,A,3,78,68,69,79,67,85,,,,,,,0.73,0.46,0.56,2*0B
$GNGSA,A,3,09,06,31,04,05,34,24,36,,,,,0.73,0.46,0.56,3*0E
$GNGSA,A,3,23,32,37,20,25,41,38,,,,,,0.73,0.46,0.56,4*0E
$GPGSV,4,1,13,09,80,304,39,04,67,105,36,07,48,249,32,16,46,075,32,1*68
$GPGSV,4,2,13,48,33,182,31,26,23,048,27,03,19,174,29,11,14,302,25,1*68
$GPGSV,4,3,13,20,14,323,23,30,12,247,25,06,11,265,23,27,07,110,28,1*6D
$GPGSV,4,4,13,31,05,065,22,1*52
$GLGSV,2,1,07,78,79,083,17,68,75,117,30,69,49,320,25,79,39,204,25,1*79
$GLGSV,2,2,07,67,23,133,20,85,11,325,18,86,06,016,,1*43
$GAGSV,3,1,10,09,84,337,34,06,67,103,33,31,51,141,30,04,40,108,28,7*72
$GAGSV,3,2,10,05,30,294,25,34,18,295,25,24,15,186,25,36,10,245,20,7*75
$GAGSV,3,3,10,15,07,343,21,21,01,029,,7*7F
$GBGSV,3,1,12,23,66,075,38,32,64,165,38,37,52,208,35,20,50,302,37,1*78
$GBGSV,3,2,12,48,29,309,,25,16,051,27,41,12,142,31,38,09,334,28,1*77
$GBGSV,3,3,12,19,04,315,24,08,01,341,,44,01,007,,04,01,262,,1*72
$GNRMC,184330.000,A,4910.425720,N,12304.402446,W,0.02,0.00,051224,,,D,V*1C
$GNVTG,0.00,T,,M,0.02,N,0.03,K,D*27
$GNGGA,184331.000,4910.425756,N,12304.402452,W,2,33,0.46,12.257,M,-16.816,M,,*71
$GNGLL,4910.425756,N,12304.402452,W,184331.000,A,D*56
$GNGSA,A,3,09,04,07,16,26,03,11,20,30,06,27,31,0.73,0.46,0.56,1*0E
$GNGSA,A,3,78,68,69,79,67,85,,,,,,,0.73,0.46,0.56,2*0B
$GNGSA,A,3,09,06,31,04,05,34,24,36,,,,,0.73,0.46,0.56,3*0E
$GNGSA,A,3,23,32,37,20,25,41,38,,,,,,0.73,0.46,0.56,4*0E
$GPGSV,4,1,13,09,80,304,39,04,67,105,35,07,48,249,32,16,46,075,32,1*6B
$GPGSV,4,2,13,48,33,182,31,26,23,048,27,03,19,174,29,11,14,302,24,1*69
$GPGSV,4,3,13,20,14,323,23,30,12,247,24,06,11,265,23,27,07,110,28,1*6C
$GPGSV,4,4,13,31,05,065,21,1*51
$GLGSV,2,1,07,78,79,083,15,68,75,117,30,69,49,320,25,79,39,204,25,1*7B
$GLGSV,2,2,07,67,23,133,20,85,11,325,18,86,06,016,,1*43
$GAGSV,3,1,09,09,84,337,34,06,67,103,33,31,51,141,30,04,40,108,28,7*7A
$GAGSV,3,2,09,05,30,294,25,34,18,295,25,24,15,186,24,36,10,245,20,7*7C
$GAGSV,3,3,09,15,07,343,21,7*4E
$GBGSV,4,1,13,23,66,075,38,32,64,165,38,37,52,208,35,20,50,302,37,1*7E
$GBGSV,4,2,13,48,29,309,,25,16,051,27,41,12,142,31,38,09,334,28,1*71
$GBGSV,4,3,13,19,04,315,24,04,01,262,,08,01,341,,44,01,007,,1*74
$GBGSV,4,4,13,46,01,223,,1*44
$GNRMC,184331.000,A,4910.425756,N,12304.402452,W,0.01,0.00,051224,,,D,V*1A
$GNVTG,0.00,T,,M,0.01,N,0.02,K,D*25
$GNGGA,184332.000,4910.425828,N,12304.402482,W,2,33,0.46,12.250,M,-16.817,M,,*7F
$GNGLL,4910.425828,N,12304.402482,W,184332.000,A,D*5E
$GNGSA,A,3,09,04,07,16,26,03,11,20,30,06,27,31,0.73,0.46,0.56,1*0E
$GNGSA,A,3,78,68,69,79,67,85,,,,,,,0.73,0.46,0.56,2*0B
$GNGSA,A,3,09,06,31,04,05,34,24,36,,,,,0.73,0.46,0.56,3*0E
$GNGSA,A,3,23,32,37,20,25,41,38,,,,,,0.73,0.46,0.56,4*0E
$GPGSV,4,1,13,09,80,304,39,04,67,105,35,07,48,249,32,16,46,075,32,1*6B
$GPGSV,4,2,13,48,33,182,31,26,23,048,27,03,19,174,29,11,14,302,25,1*68
$GPGSV,4,3,13,20,14,323,24,30,12,247,24,06,11,265,23,27,07,110,28,1*6B
$GPGSV,4,4,13,31,05,065,21,1*51
$GLGSV,2,1,07,78,79,083,13,68,75,117,30,69,49,320,25,79,39,204,25,1*7D
$GLGSV,2,2,07,67,23,133,20,85,11,325,18,86,06,016,,1*43
$GAGSV,3,1,09,09,84,337,34,06,67,103,33,31,51,141,30,04,40,108,28,7*7A
$GAGSV,3,2,09,05,30,294,25,34,18,295,25,24,15,186,24,36,10,245,20,7*7C
$GAGSV,3,3,09,15,07,343,21,7*4E
$GBGSV,4,1,13,23,66,075,38,32,64,165,38,37,52,208,35,20,50,302,37,1*7E
$GBGSV,4,2,13,48,29,309,,25,16,051,27,41,12,142,32,38,09,334,28,1*72
$GBGSV,4,3,13,19,04,315,24,04,01,262,,08,01,341,,44,01,007,,1*74
$GBGSV,4,4,13,46,01,223,,1*44
$GNRMC,184332.000,A,4910.425828,N,12304.402482,W,0.01,0.00,051224,,,D,V*12
$GNVTG,0.00,T,,M,0.01,N,0.02,K,D*25
$GNGGA,184333.000,4910.425882,N,12304.402494,W,2,33,0.46,12.223,M,-16.816,M,,*7C
$GNGLL,4910.425882,N,12304.402494,W,184333.000,A,D*58
$GNGSA,A,3,09,04,07,16,26,03,11,20,30,06,27,31,0.73,0.46,0.56,1*0E
$GNGSA,A,3,78,68,69,79,67,85,,,,,,,0.73,0.46,0.56,2*0B
$GNGSA,A,3,09,06,31,04,05,34,24,36,,,,,0.73,0.46,0.56,3*0E
$GNGSA,A,3,23,32,37,20,25,41,38,,,,,,0.73,0.46,0.56,4*0E
$GPGSV,4,1,13,09,80,304,39,04,67,105,35,07,48,249,32,16,46,075,33,1*6A
$GPGSV,4,2,13,48,33,182,31,26,23,048,27,03,19,174,29,11,14,302,24,1*69
$GPGSV,4,3,13,20,14,323,24,30,12,247,24,06,11,265,23,27,07,110,28,1*6B
$GPGSV,4,4,13,31,05,065,21,1*51
$GLGSV,2,1,07,78,79,083,13,68,75,117,30,69,49,320,25,79,39,204,25,1*7D
$GLGSV,2,2,07,67,23,133,20,85,11,325,18,86,06,016,,1*43
$GAGSV,3,1,09,09,84,337,34,06,67,103,33,31,51,141,30,04,40,108,28,7*7A
$GAGSV,3,2,09,05,30,294,24,34,18,295,25,24,15,186,24,36,10,245,20,7*7D
$GAGSV,3,3,09,15,07,343,21,7*4E
$GBGSV,4,1,13,23,66,075,38,32,64,165,38,37,52,208,36,20,50,302,37,1*7D
$GBGSV,4,2,13,48,29,309,,25,16,051,28,41,12,142,32,38,09,334,28,1*7D
$GBGSV,4,3,13,19,04,315,24,04,01,262,,08,01,341,,44,01,007,,1*74
$GBGSV,4,4,13,46,01,223,,1*44
$GNRMC,184333.000,A,4910.425882,N,12304.402494,W,0.01,0.00,051224,,,D,V*14
$GNVTG,0.00,T,,M,0.01,N,0.01,K,D*26
$GNGGA,184334.000,4910.425990,N,12304.402494,W,2,33,0.46,12.116,M,-16.816,M,,*7C
$GNGLL,4910.425990,N,12304.402494,W,184334.000,A,D*5D
$GNGSA,A,3,09,04,07,16,26,03,11,20,30,06,27,31,0.73,0.46,0.56,1*0E
$GNGSA,A,3,78,68,69,79,67,85,,,,,,,0.73,0.46,0.56,2*0B
$GNGSA,A,3,09,06,31,04,05,34,24,36,,,,,0.73,0.46,0.56,3*0E
$GNGSA,A,3,23,32,37,20,25,41,38,,,,,,0.73,0.46,0.56,4*0E
$GPGSV,4,1,13,09,80,304,39,04,67,105,35,07,48,249,32,16,46,075,33,1*6A
$GPGSV,4,2,13,48,33,182,31,26,23,048,28,03,19,174,29,11,14,302,23,1*61
$GPGSV,4,3,13,20,14,323,24,30,12,247,24,06,11,265,23,27,07,110,28,1*6B
$GPGSV,4,4,13,31,05,065,21,1*51
$GLGSV,2,1,07,78,79,083,12,68,75,117,30,69,49,320,26,79,39,204,25,1*7F
$GLGSV,2,2,07,67,23,133,20,85,11,325,18,86,06,016,,1*43
$GAGSV,3,1,09,09,84,337,34,06,67,103,33,31,51,141,30,04,40,108,28,7*7A
$GAGSV,3,2,09,05,30,294,24,34,18,295,25,24,15,186,24,36,10,245,20,7*7D
$GAGSV,3,3,09,15,07,343,21,7*4E
$GBGSV,4,1,13,23,66,075,38,32,64,165,38,37,52,208,36,20,50,302,37,1*7D
$GBGSV,4,2,13,48,29,309,,25,16,051,28,41,12,142,32,38,09,334,28,1*7D
$GBGSV,4,3,13,19,04,315,24,04,01,262,,08,01,341,,44,01,007,,1*74
$GBGSV,4,4,13,46,01,223,,1*44
$GNRMC,184334.000,A,4910.425990,N,12304.402494,W,0.01,0.00,051224,,,D,V*11
$GNVTG,0.00,T,,M,0.01,N,0.03,K,D*24
$GNGGA,184335.000,4910.426074,N,12304.402506,W,2,33,0.46,12.049,M,-16.816,M,,*7C
$GNGLL,4910.426074,N,12304.402506,W,184335.000,A,D*56
$GNGSA,A,3,09,04,07,16,26,03,11,20,30,06,27,31,0.73,0.46,0.56,1*0E
$GNGSA,A,3,78,68,69,79,67,85,,,,,,,0.73,0.46,0.56,2*0B
$GNGSA,A,3,09,06,31,04,05,34,24,36,,,,,0.73,0.46,0.56,3*0E
$GNGSA,A,3,23,32,37,20,25,41,38,,,,,,0.73,0.46,0.56,4*0E
$GPGSV,4,1,13,09,80,304,39,04,67,105,35,07,48,249,32,16,46,075,33,1*6A
$GPGSV,4,2,13,48,33,182,31,26,23,048,28,03,19,174,29,11,14,302,24,1*66
$GPGSV,4,3,13,20,14,323,24,30,12,247,24,06,11,265,23,27,07,110,28,1*6B
$GPGSV,4,4,13,31,05,065,21,1*51
$GLGSV,2,1,07,78,79,083,14,68,75,117,30,69,49,320,26,79,39,204,25,1*79
$GLGSV,2,2,07,67,23,133,20,85,11,325,18,86,06,016,,1*43
$GAGSV,3,1,09,09,84,337,34,06,67,103,33,31,51,141,30,04,40,108,28,7*7A
$GAGSV,3,2,09,05,30,294,24,34,18,295,25,24,15,186,24,36,10,245,20,7*7D
$GAGSV,3,3,09,15,07,343,21,7*4E
$GBGSV,4,1,13,23,66,075,38,32,64,165,38,37,52,208,36,20,50,302,37,1*7D
$GBGSV,4,2,13,48,29,309,,25,16,051,28,41,12,142,32,38,09,334,28,1*7D
$GBGSV,4,3,13,19,04,315,24,04,01,262,,08,01,341,,44,01,007,,1*74
$GBGSV,4,4,13,46,01,223,,1*44
$GNRMC,184335.000,A,4910.426074,N,12304.402506,W,0.02,0.00,051224,,,D,V*19
$GNVTG,0.00,T,,M,0.02,N,0.03,K,D*27
$GNGGA,184336.000,4910.426110,N,12304.402572,W,2,33,0.46,12.019,M,-16.816,M,,*7A
$GNGLL,4910.426110,N,12304.402572,W,184336.000,A,D*55
$GNGSA,A,3,09,04,07,16,26,03,11,20,30,06,27,31,0.73,0.46,0.56,1*0E
$GNGSA,A,3,78,68,69,79,67,85,,,,,,,0.73,0.46,0.56,2*0B
$GNGSA,A,3,09,06,31,04,05,34,24,36,,,,,0.73,0.46,0.56,3*0E
$GNGSA,A,3,23,32,37,20,25,41,38,,,,,,0.73,0.46,0.56,4*0E
$GPGSV,4,1,13,09,80,304,39,04,67,105,35,07,48,249,32,16,46,075,33,1*6A
$GPGSV,4,2,13,48,33,182,31,26,23,048,28,03,19,174,29,11,14,302,24,1*66
$GPGSV,4,3,13,20,14,323,25,30,12,247,24,06,11,265,23,27,07,110,28,1*6A
$GPGSV,4,4,13,31,05,065,21,1*51
$GLGSV,2,1,07,78,79,083,14,68,75,117,30,69,49,320,26,79,39,204,25,1*79
$GLGSV,2,2,07,67,23,133,20,85,11,325,17,86,06,016,,1*4C
$GAGSV,3,1,09,09,84,337,34,06,67,103,33,31,51,141,30,04,40,108,28,7*7A
$GAGSV,3,2,09,05,30,294,24,34,18,295,25,24,15,186,24,36,10,245,20,7*7D
$GAGSV,3,3,09,15,07,343,21,7*4E
$GBGSV,4,1,13,23,66,075,38,32,64,165,38,37,52,208,36,20,50,302,37,1*7D
$GBGSV,4,2,13,48,29,309,,25,16,051,28,41,12,142,32,38,09,334,28,1*7D
$GBGSV,4,3,13,19,04,315,23,04,01,262,,08,01,341,,44,01,007,,1*73
$GBGSV,4,4,13,46,01,223,,1*44
$GNRMC,184336.000,A,4910.426110,N,12304.402572,W,0.02,0.00,051224,,,D,V*1A
$GNVTG,0.00,T,,M,0.02,N,0.04,K,D*20
$GNGGA,184337.000,4910.426110,N,12304.402644,W,2,33,0.46,11.928,M,-16.816,M,,*75
$GNGLL,4910.426110,N,12304.402644,W,184337.000,A,D*52
$GNGSA,A,3,09,04,07,16,26,03,11,20,30,06,27,31,0.73,0.46,0.56,1*0E
$GNGSA,A,3,78,68,69,79,67,85,,,,,,,0.73,0.46,0.56,2*0B
$GNGSA,A,3,09,06,31,04,05,34,24,36,,,,,0.73,0.46,0.56,3*0E
$GNGSA,A,3,23,32,37,20,25,41,38,,,,,,0.73,0.46,0.56,4*0E
$GPGSV,4,1,13,09,80,304,39,04,67,105,35,07,48,249,32,16,46,075,33,1*6A
$GPGSV,4,2,13,48,33,182,31,26,23,048,28,03,19,174,29,11,14,302,24,1*66
$GPGSV,4,3,13,20,14,323,25,30,12,247,24,06,11,265,23,27,07,110,28,1*6A
$GPGSV,4,4,13,31,05,065,21,1*51
$GLGSV,2,1,07,78,79,083,15,68,75,117,30,69,49,320,26,79,39,204,25,1*78
$GLGSV,2,2,07,67,23,133,21,85,11,325,17,86,06,016,,1*4D
$GAGSV,3,1,09,09,84,337,34,06,67,103,33,31,51,141,30,04,40,108,28,7*7A
$GAGSV,3,2,09,05,30,294,24,34,18,295,25,24,15,186,24,36,10,245,20,7*7D
$GAGSV,3,3,09,15,07,343,21,7*4E
$GBGSV,4,1,13,23,66,075,37,32,64,165,38,37,52,208,36,20,50,302,37,1*72
$GBGSV,4,2,13,48,29,309,,25,16,051,28,41,12,142,32,38,09,334,28,1*7D
$GBGSV,4,3,13,19,04,315,22,04,01,262,,08,01,341,,44,01,007,,1*72
$GBGSV,4,4,13,46,01,223,,1*44
$GNRMC,184337.000,A,4910.426110,N,12304.402644,W,0.02,0.00,051224,,,D,V*1D
$GNVTG,0.00,T,,M,0.02,N,0.04,K,D*20
$GNGGA,184338.000,4910.426116,N,12304.402692,W,2,33,0.46,11.844,M,-16.816,M,,*7C
$GNGLL,4910.426116,N,12304.402692,W,184338.000,A,D*50
$GNGSA,A,3,09,04,07,16,26,03,11,20,30,06,27,31,0.73,0.46,0.56,1*0E
$GNGSA,A,3,78,68,69,79,67,85,,,,,,,0.73,0.46,0.56,2*0B
$GNGSA,A,3,09,06,31,04,05,34,24,36,,,,,0.73,0.46,0.56,3*0E
$GNGSA,A,3,23,32,37,20,25,41,38,,,,,,0.73,0.46,0.56,4*0E
$GPGSV,4,1,13,09,80,304,39,04,67,105,35,07,48,249,32,16,46,075,33,1*6A
$GPGSV,4,2,13,48,33,182,31,26,23,048,28,03,19,174,29,11,14,302,24,1*66
$GPGSV,4,3,13,20,14,323,26,30,12,247,24,06,11,265,23,27,07,110,28,1*69
$GPGSV,4,4,13,31,05,065,21,1*51
$GLGSV,2,1,07,78,79,083,17,68,75,117,30,69,49,320,25,79,39,204,25,1*79
$GLGSV,2,2,07,67,23,133,21,85,11,325,18,86,06,016,,1*42
$GAGSV,3,1,09,09,84,337,34,06,67,103,33,31,51,141,30,04,40,108,28,7*7A
$GAGSV,3,2,09,05,30,294,24,34,18,295,26,24,15,186,24,36,10,245,21,7*7F
$GAGSV,3,3,09,15,07,343,21,7*4E
$GBGSV,4,1,13,23,66,075,37,32,64,165,38,37,52,208,36,20,50,302,37,1*72
$GBGSV,4,2,13,48,29,309,,25,16,051,28,41,12,142,31,38,09,334,28,1*7E
$GBGSV,4,3,13,19,04,315,22,04,01,262,,08,01,341,,44,01,007,,1*72
$GBGSV,4,4,13,46,01,223,,1*44
$GNRMC,184338.000,A,4910.426116,N,12304.402692,W,0.02,0.00,051224,,,D,V*1F
$GNVTG,0.00,T,,M,0.02,N,0.04,K,D*20
$GNGGA,184339.000,4910.426134,N,12304.402800,W,2,33,0.46,11.723,M,-16.816,M,,*76
$GNGLL,4910.426134,N,12304.402800,W,184339.000,A,D*54
$GNGSA,A,3,09,04,07,16,26,03,11,20,30,06,27,31,0.73,0.46,0.56,1*0E
$GNGSA,A,3,78,68,69,79,67,85,,,,,,,0.73,0.46,0.56,2*0B
$GNGSA,A,3,09,06,31,04,05,34,24,36,,,,,0.73,0.46,0.56,3*0E
$GNGSA,A,3,23,32,37,20,25,41,38,,,,,,0.73,0.46,0.56,4*0E
$GPGSV,4,1,13,09,80,304,39,04,67,105,35,07,48,249,33,16,46,075,34,1*6C
$GPGSV,4,2,13,48,33,182,31,26,23,048,28,03,19,174,29,11,14,302,23,1*61
$GPGSV,4,3,13,20,14,323,26,30,12,247,25,06,11,265,23,27,07,110,28,1*68
$GPGSV,4,4,13,31,05,065,21,1*51
$GLGSV,2,1,07,78,79,083,15,68,75,117,31,69,49,320,25,79,39,204,25,1*7A
$GLGSV,2,2,07,67,23,133,20,85,11,325,18,86,06,016,,1*43
$GAGSV,3,1,09,09,84,337,34,06,67,103,33,31,51,141,30,04,40,108,28,7*7A
$GAGSV,3,2,09,05,30,294,25,34,18,295,26,24,15,186,24,36,10,245,22,7*7D
$GAGSV,3,3,09,15,07,343,21,7*4E
$GBGSV,4,1,13,23,66,075,37,32,64,165,38,37,52,208,36,20,50,302,37,1*72
$GBGSV,4,2,13,48,29,309,,25,16,051,28,41,12,142,31,38,09,334,28,1*7E
$GBGSV,4,3,13,19,04,315,23,04,01,262,,08,01,341,,44,01,007,,1*73
$GBGSV,4,4,13,46,01,223,,1*44
$GNRMC,184339.000,A,4910.426134,N,12304.402800,W,0.02,0.00,051224,,,D,V*1B
$GNVTG,0.00,T,,M,0.02,N,0.03,K,D*27
$GNGGA,184340.000,4910.426086,N,12304.402854,W,2,33,0.46,11.621,M,-16.816,M,,*72
$GNGLL,4910.426086,N,12304.402854,W,184340.000,A,D*53
$GNGSA,A,3,09,04,07,16,26,03,11,20,30,06,27,31,0.73,0.46,0.56,1*0E
$GNGSA,A,3,78,68,69,79,67,85,,,,,,,0.73,0.46,0.56,2*0B
$GNGSA,A,3,09,06,31,04,05,34,24,36,,,,,0.73,0.46,0.56,3*0E
$GNGSA,A,3,23,32,37,20,25,41,38,,,,,,0.73,0.46,0.56,4*0E
$GPGSV,4,1,13,09,80,304,39,04,67,105,36,07,48,249,33,16,46,075,34,1*6F
$GPGSV,4,2,13,48,33,182,31,26,23,048,29,03,19,174,29,11,14,302,23,1*60
$GPGSV,4,3,13,20,14,323,27,30,12,247,25,06,11,265,23,27,07,110,28,1*69
$GPGSV,4,4,13,31,05,065,21,1*51
$GLGSV,2,1,07,78,79,083,15,68,75,117,30,69,49,320,25,79,39,204,25,1*7B
$GLGSV,2,2,07,67,23,133,20,85,11,325,18,86,06,016,,1*43
$GAGSV,3,1,09,09,84,337,34,06,67,103,33,31,51,141,30,04,40,108,28,7*7A
$GAGSV,3,2,09,05,30,294,25,34,18,295,26,24,15,186,24,36,10,245,22,7*7D
$GAGSV,3,3,09,15,07,343,21,7*4E
$GBGSV,4,1,13,23,66,075,37,32,64,165,38,37,52,208,36,20,50,302,37,1*72
$GBGSV,4,2,13,48,29,309,,25,16,051,28,41,12,142,31,38,09,334,28,1*7E
$GBGSV,4,3,13,19,04,315,24,04,01,262,,08,01,341,,44,01,007,,1*74
$GBGSV,4,4,13,46,01,223,,1*44
$GNRMC,184340.000,A,4910.426086,N,12304.402854,W,0.02,0.00,051224,,,D,V*1C
$GNVTG,0.00,T,,M,0.02,N,0.03,K,D*27
$GNGGA,184341.000,4910.426104,N,12304.402818,W,2,33,0.46,11.586,M,-16.816,M,,*7E
$GNGLL,4910.426104,N,12304.402818,W,184341.000,A,D*51
$GNGSA,A,3,09,04,07,16,26,03,11,20,30,06,27,31,0.73,0.46,0.56,1*0E
$GNGSA,A,3,78,68,69,79,67,85,,,,,,,0.73,0.46,0.56,2*0B
$GNGSA,A,3,09,06,31,04,05,34,24,36,,,,,0.73,0.46,0.56,3*0E
$GNGSA,A,3,23,32,37,20,25,41,38,,,,,,0.73,0.46,0.56,4*0E
$GPGSV,4,1,13,09,80,304,39,04,67,105,36,07,48,249,33,16,46,075,34,1*6F
$GPGSV,4,2,13,48,33,182,31,26,23,048,29,03,19,174,29,11,14,302,23,1*60
$GPGSV,4,3,13,20,14,323,25,30,12,247,25,06,11,265,23,27,07,110,28,1*6B
$GPGSV,4,4,13,31,05,065,21,1*51
$GLGSV,2,1,07,78,79,083,14,68,75,117,30,69,49,320,26,79,39,204,25,1*79
$GLGSV,2,2,07,67,23,133,20,85,11,325,18,86,06,016,,1*43
$GAGSV,3,1,09,09,84,337,34,06,67,103,33,31,51,141,30,04,40,108,28,7*7A
$GAGSV,3,2,09,05,30,294,25,34,18,295,26,24,15,186,24,36,10,245,22,7*7D
$GAGSV,3,3,09,15,07,343,21,7*4E
$GBGSV,4,1,13,23,66,075,37,32,64,165,38,37,52,208,36,20,50,302,37,1*72
$GBGSV,4,2,13,48,29,309,,25,16,051,28,41,12,142,31,38,09,334,28,1*7E
$GBGSV,4,3,13,19,04,315,24,04,01,262,,08,01,341,,44,01,007,,1*74
$GBGSV,4,4,13,46,01,223,,1*44
$GNRMC,184341.000,A,4910.426104,N,12304.402818,W,0.01,0.00,051224,,,D,V*1D
$GNVTG,0.00,T,,M,0.01,N,0.03,K,D*24
$GNGGA,184342.000,4910.426110,N,12304.402776,W,2,33,0.46,11.572,M,-16.816,M,,*74
$GNGLL,4910.426110,N,12304.402776,W,184342.000,A,D*50
$GNGSA,A,3,09,04,07,16,26,03,11,20,30,06,27,31,0.73,0.46,0.56,1*0E
$GNGSA,A,3,78,68,69,79,67,85,,,,,,,0.73,0.46,0.56,2*0B
$GNGSA,A,3,09,06,31,04,05,34,24,36,,,,,0.73,0.46,0.56,3*0E
$GNGSA,A,3,23,32,37,20,25,41,38,,,,,,0.73,0.46,0.56,4*0E
$GPGSV,4,1,13,09,80,304,39,04,67,105,36,07,48,249,33,16,46,075,34,1*6F
$GPGSV,4,2,13,48,33,182,31,26,23,048,29,03,19,174,29,11,14,302,23,1*60
$GPGSV,4,3,13,20,14,323,26,30,12,247,25,06,11,265,24,27,07,110,28,1*6F
$GPGSV,4,4,13,31,05,065,21,1*51
$GLGSV,2,1,07,78,79,083,15,68,75,117,30,69,49,320,26,79,39,204,25,1*78
$GLGSV,2,2,07,67,23,133,20,85,11,325,18,86,06,016,,1*43
$GAGSV,3,1,09,09,84,337,34,06,67,103,33,31,51,141,30,04,40,108,28,7*7A
$GAGSV,3,2,09,05,30,294,25,34,18,295,26,24,15,186,24,36,10,245,22,7*7D
$GAGSV,3,3,09,15,07,343,21,7*4E
$GBGSV,4,1,13,23,66,075,37,32,64,165,38,37,52,208,36,20,50,302,37,1*72
$GBGSV,4,2,13,48,29,309,,25,16,051,29,41,12,142,31,38,09,334,28,1*7F
$GBGSV,4,3,13,19,04,315,24,04,01,262,,08,01,341,,44,01,007,,1*74
$GBGSV,4,4,13,46,01,223,,1*44
$GNRMC,184342.000,A,4910.426110,N,12304.402776,W,0.01,0.00,051224,,,D,V*1C
$GNVTG,0.00,T,,M,0.01,N,0.02,K,D*25
$GNGGA,184343.000,4910.426152,N,12304.402650,W,2,33,0.46,11.622,M,-16.817,M,,*71
$GNGLL,4910.426152,N,12304.402650,W,184343.000,A,D*52
$GNGSA,A,3,09,04,07,16,26,03,11,20,30,06,27,31,0.73,0.46,0.56,1*0E
$GNGSA,A,3,78,68,69,79,67,85,,,,,,,0.73,0.46,0.56,2*0B
$GNGSA,A,3,09,06,31,04,05,34,24,36,,,,,0.73,0.46,0.56,3*0E
$GNGSA,A,3,23,32,37,20,25,41,38,,,,,,0.73,0.46,0.56,4*0E
$GPGSV,4,1,13,09,80,304,39,04,67,105,36,07,48,249,33,16,46,075,34,1*6F
$GPGSV,4,2,13,48,33,182,31,26,23,048,29,03,19,174,29,11,14,302,22,1*61
$GPGSV,4,3,13,20,14,323,27,30,12,247,25,06,11,265,22,27,07,110,28,1*68
$GPGSV,4,4,13,31,05,065,20,1*50
$GLGSV,2,1,07,78,79,083,16,68,75,117,30,69,49,320,26,79,39,204,25,1*7B
$GLGSV,2,2,07,67,23,133,20,85,11,325,18,86,06,016,,1*43
$GAGSV,3,1,09,09,84,337,34,06,67,103,33,31,51,141,30,04,40,108,28,7*7A
$GAGSV,3,2,09,05,30,294,25,34,18,295,26,24,15,186,24,36,10,245,21,7*7E
$GAGSV,3,3,09,15,07,343,21,7*4E
$GBGSV,4,1,13,23,66,075,37,32,64,165,38,37,52,208,36,20,50,302,37,1*72
$GBGSV,4,2,13,48,29,309,34,25,16,051,29,41,12,142,31,38,09,334,28,1*78
$GBGSV,4,3,13,19,04,315,24,04,01,262,,08,01,341,,44,01,007,,1*74
$GBGSV,4,4,13,46,01,223,,1*44
$GNRMC,184343.000,A,4910.426152,N,12304.402650,W,0.02,0.00,051224,,,D,V*1D
$GNVTG,0.00,T,,M,0.02,N,0.03,K,D*27
$GNGGA,184344.000,4910.426158,N,12304.402470,W,2,33,0.46,11.640,M,-16.816,M,,*79
$GNGLL,4910.426158,N,12304.402470,W,184344.000,A,D*5F
$GNGSA,A,3,09,04,07,16,26,03,11,20,30,06,27,31,0.73,0.46,0.56,1*0E
$GNGSA,A,3,78,68,69,79,67,85,,,,,,,0.73,0.46,0.56,2*0B
$GNGSA,A,3,09,06,31,04,05,34,24,36,,,,,0.73,0.46,0.56,3*0E
$GNGSA,A,3,23,32,37,20,25,41,38,,,,,,0.73,0.46,0.56,4*0E
$GPGSV,4,1,13,09,80,304,39,04,67,105,36,07,48,249,33,16,46,075,34,1*6F
$GPGSV,4,2,13,48,33,182,31,26,23,048,30,03,19,174,29,11,14,302,25,1*6E
$GPGSV,4,3,13,20,14,323,28,30,12,247,27,06,11,265,24,27,07,110,28,1*63
$GPGSV,4,4,13,31,05,065,20,1*50
$GLGSV,2,1,07,78,79,083,16,68,75,117,30,69,49,320,26,79,39,204,25,1*7B
$GLGSV,2,2,07,67,23,133,20,85,11,325,18,86,06,016,,1*43
$GAGSV,3,1,09,09,84,337,34,06,67,103,33,31,51,141,30,04,40,108,29,7*7B
$GAGSV,3,2,09,05,30,294,25,34,18,295,26,24,15,186,24,36,10,245,22,7*7D
$GAGSV,3,3,09,15,07,343,21,7*4E
$GBGSV,4,1,13,23,66,075,37,32,64,165,38,37,52,208,36,20,50,302,37,1*72
$GBGSV,4,2,13,48,29,309,33,25,16,051,29,41,12,142,31,38,09,334,28,1*7F
$GBGSV,4,3,13,19,04,315,23,04,01,262,,08,01,341,,44,01,007,,1*73
$GBGSV,4,4,13,46,01,223,,1*44
$GNRMC,184344.000,A,4910.426158,N,12304.402470,W,0.02,0.00,051224,,,D,V*10
$GNVTG,0.00,T,,M,0.02,N,0.04,K,D*20
$GNGGA,184345.000,4910.426218,N,12304.402374,W,2,33,0.46,11.622,M,-16.816,M,,*78
$GNGLL,4910.426218,N,12304.402374,W,184345.000,A,D*5A
$GNGSA,A,3,09,04,07,16,26,03,11,20,30,06,27,31,0.73,0.46,0.56,1*0E
$GNGSA,A,3,78,68,69,79,67,85,,,,,,,0.73,0.46,0.56,2*0B
$GNGSA,A,3,09,06,31,04,05,34,24,36,,,,,0.73,0.46,0.56,3*0E
$GNGSA,A,3,23,32,37,20,25,41,38,,,,,,0.73,0.46,0.56,4*0E
$GPGSV,4,1,13,09,80,304,39,04,67,105,36,07,48,249,33,16,46,075,34,1*6F
$GPGSV,4,2,13,48,33,182,31,26,23,048,30,03,19,174,29,11,14,302,24,1*6F
$GPGSV,4,3,13,20,14,323,28,30,12,247,25,06,11,265,23,27,07,110,28,1*66
$GPGSV,4,4,13,31,05,065,20,1*50
$GLGSV,2,1,07,78,79,083,16,68,75,117,31,69,49,320,26,79,39,204,25,1*7A
$GLGSV,2,2,07,67,23,133,20,85,11,325,18,86,06,016,,1*43
$GAGSV,3,1,09,09,84,337,34,06,67,103,33,31,51,141,31,04,40,108,29,7*7A
$GAGSV,3,2,09,05,30,294,25,34,18,295,26,24,15,186,24,36,10,245,22,7*7D
$GAGSV,3,3,09,15,07,343,20,7*4F
$GBGSV,4,1,13,23,66,075,37,32,64,165,38,37,52,208,36,20,50,302,37,1*72
$GBGSV,4,2,13,48,29,309,33,25,16,051,29,41,12,142,31,38,09,334,28,1*7F
$GBGSV,4,3,13,19,04,315,23,04,01,262,,08,01,341,,44,01,007,,1*73
$GBGSV,4,4,13,46,01,223,,1*44
$GNRMC,184345.000,A,4910.426218,N,12304.402374,W,0.03,0.00,051224,,,D,V*14
$GNVTG,0.00,T,,M,0.03,N,0.05,K,D*20
$GNGGA,184346.000,4910.426242,N,12304.402296,W,2,33,0.46,11.586,M,-16.816,M,,*74
