$GNGGA,004657.000,4910.427550,N,12304.401576,W,2,29,0.52,-2.305,M,-16.817,M,,*6A
$GNGLL,4910.427550,N,12304.401576,W,004657.000,A,D*58
$GNGSA,A,3,06,12,19,24,11,17,03,32,,,,,0.87,0.52,0.70,1*01
$GNGSA,A,3,75,74,85,73,,,,,,,,,0.87,0.52,0.70,2*05
$GNGSA,A,3,21,13,15,27,26,04,06,09,,,,,0.87,0.52,0.70,3*03
$GNGSA,A,3,34,25,11,12,23,43,44,24,39,,,,0.87,0.52,0.70,4*02
$GPGSV,3,1,10,06,60,106,33,12,58,298,34,19,50,062,31,24,44,224,31,1*61
$GPGSV,3,2,10,25,43,301,,11,43,168,31,46,33,188,29,17,21,065,23,1*63
$GPGSV,3,3,10,03,10,031,23,32,09,317,24,1*6F
$GLGSV,2,1,07,84,72,053,22,75,61,320,34,74,60,138,21,85,46,206,28,1*7D
$GLGSV,2,2,07,73,15,139,26,67,09,012,,66,08,323,,1*41
$GAGSV,3,1,09,21,86,070,31,13,58,130,30,15,36,050,28,27,31,112,23,7*74
$GAGSV,3,2,09,26,22,185,20,04,14,288,17,06,12,313,23,09,08,335,17,7*73
$GAGSV,3,3,09,19,03,235,16,7*42
$GBGSV,3,1,12,34,80,112,32,25,67,187,32,11,65,203,30,12,54,059,28,1*77
$GBGSV,3,2,12,23,46,300,30,43,42,220,29,44,28,055,29,24,19,146,24,1*77
$GBGSV,3,3,12,39,11,330,24,19,03,017,16,16,01,334,,48,01,353,,1*79
$GNRMC,004657.000,A,4910.427550,N,12304.401576,W,0.03,40.82,070125,,,D,V*29
$GNVTG,40.82,T,,M,0.03,N,0.05,K,D*1E
$PAIRLOG,Full*51
$GNGGA,004658.000,4910.427646,N,12304.401594,W,2,29,0.52,-2.298,M,-16.816,M,,*69
$GNGLL,4910.427646,N,12304.401594,W,004658.000,A,D*5F
$GNGSA,A,3,06,12,19,24,11,17,03,32,,,,,0.87,0.52,0.70,1*01
$GNGSA,A,3,75,74,85,73,,,,,,,,,0.87,0.52,0.70,2*05
$GNGSA,A,3,21,13,15,27,26,04,06,09,,,,,0.87,0.52,0.70,3*03
$GNGSA,A,3,34,25,11,12,23,43,44,24,39,,,,0.87,0.52,0.70,4*02
$GPGSV,3,1,10,06,60,106,33,12,58,298,34,19,50,062,31,24,44,224,31,1*61
$GPGSV,3,2,10,25,43,301,,11,43,168,31,46,33,188,29,17,21,065,23,1*63
$GPGSV,3,3,10,03,10,031,22,32,09,317,23,1*69
$GLGSV,2,1,07,84,72,053,22,75,61,320,34,74,60,138,21,85,48,207,28,1*72
$GLGSV,2,2,07,73,15,139,25,67,09,012,,66,08,323,,1*42
$GAGSV,3,1,09,21,86,070,31,13,58,130,30,15,36,050,28,27,31,112,23,7*74
$GAGSV,3,2,09,26,22,185,20,04,14,288,17,06,12,313,23,09,08,335,17,7*73
$GAGSV,3,3,09,19,03,235,15,7*41
$GBGSV,3,1,12,34,80,112,33,25,67,187,32,11,65,203,30,12,54,059,29,1*77
$GBGSV,3,2,12,23,46,300,30,43,42,220,29,44,28,055,30,24,19,146,26,1*7D
$GBGSV,3,3,12,39,11,330,24,19,03,017,16,16,01,334,,48,01,353,,1*79
$GNRMC,004658.000,A,4910.427646,N,12304.401594,W,0.03,40.82,070125,,,D,V*2E
$GNVTG,40.82,T,,M,0.03,N,0.05,K,D*1E
$PAIRLOG,Full*51
$GNGGA,004659.000,4910.427718,N,12304.401612,W,2,29,0.52,-2.167,M,-16.816,M,,*6C
$GNGLL,4910.427718,N,12304.401612,W,004659.000,A,D*59
$GNGSA,A,3,06,12,19,24,11,17,03,32,,,,,0.87,0.52,0.70,1*01
$GNGSA,A,3,75,74,85,73,,,,,,,,,0.87,0.52,0.70,2*05
$GNGSA,A,3,21,13,15,27,26,04,06,09,,,,,0.87,0.52,0.70,3*03
$GNGSA,A,3,34,25,11,12,23,43,44,24,39,,,,0.87,0.52,0.70,4*02
$GPGSV,3,1,10,06,60,106,33,12,58,298,34,19,50,062,31,24,44,224,31,1*61
$GPGSV,3,2,10,25,43,301,,11,43,168,31,46,33,188,29,17,21,065,23,1*63
$GPGSV,3,3,10,03,10,031,23,32,09,317,23,1*68
$GLGSV,2,1,07,84,72,053,22,75,61,320,34,74,60,138,21,85,48,207,28,1*72
$GLGSV,2,2,07,73,15,139,25,67,09,012,,66,08,323,,1*42
$GAGSV,3,1,09,21,86,070,31,13,58,130,30,15,36,050,28,27,31,112,23,7*74
$GAGSV,3,2,09,26,22,185,20,04,14,288,17,06,12,313,23,09,08,335,17,7*73
$GAGSV,3,3,09,19,03,235,15,7*41
$GBGSV,3,1,12,34,80,112,33,25,67,187,32,11,65,203,30,12,54,059,29,1*77
$GBGSV,3,2,12,23,46,300,30,43,42,220,29,44,28,055,30,24,19,146,25,1*7E
$GBGSV,3,3,12,39,11,330,24,19,03,017,16,16,01,334,,48,01,353,,1*79
$GNRMC,004659.000,A,4910.427718,N,12304.401612,W,0.03,40.82,070125,,,D,V*28
$GNVTG,40.82,T,,M,0.03,N,0.05,K,D*1E
$PAIRLOG,Full*51
$GNGGA,004700.000,4910.427802,N,12304.401624,W,2,29,0.52,-2.018,M,-16.816,M,,*69
$GNGLL,4910.427802,N,12304.401624,W,004700.000,A,D*55
$GNGSA,A,3,06,12,19,24,11,17,03,32,,,,,0.87,0.52,0.70,1*01
$GNGSA,A,3,75,74,85,73,,,,,,,,,0.87,0.52,0.70,2*05
$GNGSA,A,3,21,13,15,27,26,04,06,09,,,,,0.87,0.52,0.70,3*03
$GNGSA,A,3,34,25,11,12,23,43,44,24,39,,,,0.87,0.52,0.70,4*02
$GPGSV,3,1,10,06,60,106,33,12,58,298,34,19,50,062,31,24,44,224,31,1*61
$GPGSV,3,2,10,25,43,301,,11,43,168,31,46,33,188,29,17,21,065,23,1*63
$GPGSV,3,3,10,03,10,031,23,32,09,317,24,1*6F
$GLGSV,2,1,07,84,72,053,23,75,61,320,34,74,60,138,21,85,48,207,28,1*73
$GLGSV,2,2,07,73,15,139,25,67,09,012,,66,08,323,,1*42
$GAGSV,3,1,09,21,86,070,32,13,58,130,31,15,36,050,28,27,31,112,24,7*71
$GAGSV,3,2,09,26,22,185,21,04,14,288,17,06,12,313,23,09,08,335,17,7*72
$GAGSV,3,3,09,19,03,235,16,7*42
$GBGSV,3,1,12,34,80,112,33,25,67,187,32,11,65,203,30,12,54,059,29,1*77
$GBGSV,3,2,12,23,46,300,30,43,42,220,29,44,28,055,30,24,19,146,25,1*7E
$GBGSV,3,3,12,39,11,330,24,19,03,017,16,16,01,334,,48,01,353,,1*79
$GNRMC,004700.000,A,4910.427802,N,12304.401624,W,0.03,40.82,070125,,,D,V*24
$GNVTG,40.82,T,,M,0.03,N,0.05,K,D*1E
$PAIRLOG,Full*51
$GNGGA,004701.000,4910.427946,N,12304.401768,W,2,29,0.52,-1.805,M,-16.816,M,,*67
$GNGLL,4910.427946,N,12304.401768,W,004701.000,A,D*5C
$GNGSA,A,3,06,12,19,24,11,17,03,32,,,,,0.87,0.52,0.70,1*01
$GNGSA,A,3,75,74,85,73,,,,,,,,,0.87,0.52,0.70,2*05
$GNGSA,A,3,21,13,15,27,26,04,06,09,,,,,0.87,0.52,0.70,3*03
$GNGSA,A,3,34,25,11,12,23,43,44,24,39,,,,0.87,0.52,0.70,4*02
$GPGSV,3,1,10,06,60,106,33,12,58,298,34,19,50,062,31,24,44,224,31,1*61
$GPGSV,3,2,10,25,43,301,,11,43,168,31,46,33,188,29,17,21,065,23,1*63
$GPGSV,3,3,10,03,10,031,24,32,09,317,24,1*68
$GLGSV,2,1,07,84,72,053,23,75,61,320,34,74,60,138,20,85,48,207,28,1*72
$GLGSV,2,2,07,73,15,139,25,67,09,012,21,66,08,323,,1*41
$GAGSV,3,1,09,21,86,070,32,13,58,130,31,15,36,050,28,27,31,112,24,7*71
$GAGSV,3,2,09,26,22,185,21,04,14,288,17,06,12,313,23,09,08,335,18,7*7D
$GAGSV,3,3,09,19,03,235,17,7*43
$GBGSV,3,1,12,34,80,112,33,25,67,187,32,11,65,203,30,12,54,059,29,1*77
$GBGSV,3,2,12,23,46,300,30,43,42,220,29,44,28,055,30,24,19,146,25,1*7E
$GBGSV,3,3,12,39,11,330,25,19,03,017,16,16,01,334,,48,01,353,,1*78
$GNRMC,004701.000,A,4910.427946,N,12304.401768,W,0.03,40.82,070125,,,D,V*2D
$GNVTG,40.82,T,,M,0.03,N,0.06,K,D*1D
$PAIRLOG,Full*51
$GNGGA,004702.000,4910.428054,N,12304.401948,W,2,29,0.52,-1.642,M,-16.816,M,,*60
$GNGLL,4910.428054,N,12304.401948,W,004702.000,A,D*56
$GNGSA,A,3,06,12,19,24,11,17,03,32,,,,,0.87,0.52,0.70,1*01
$GNGSA,A,3,75,74,85,73,,,,,,,,,0.87,0.52,0.70,2*05
$GNGSA,A,3,21,13,15,27,26,04,06,09,,,,,0.87,0.52,0.70,3*03
$GNGSA,A,3,34,25,11,12,23,43,44,24,39,,,,0.87,0.52,0.70,4*02
$GPGSV,3,1,10,06,60,106,33,12,58,298,34,19,50,062,31,24,44,224,31,1*61
$GPGSV,3,2,10,25,43,301,,11,43,168,31,46,33,188,29,17,21,065,23,1*63
$GPGSV,3,3,10,03,10,031,24,32,09,317,24,1*68
$GLGSV,2,1,07,84,72,053,23,75,61,320,34,74,60,138,20,85,48,207,28,1*72
$GLGSV,2,2,07,73,15,139,25,67,09,012,20,66,08,323,,1*40
$GAGSV,3,1,09,21,86,070,32,13,58,130,31,15,36,050,28,27,31,112,24,7*71
$GAGSV,3,2,09,26,22,185,21,04,14,288,17,06,12,313,23,09,08,335,19,7*7C
$GAGSV,3,3,09,19,03,235,17,7*43
$GBGSV,3,1,12,34,80,112,33,25,67,187,32,11,65,203,30,12,54,059,29,1*77
$GBGSV,3,2,12,23,46,300,30,43,42,220,29,44,28,055,30,24,19,146,25,1*7E
$GBGSV,3,3,12,39,11,330,25,19,03,017,16,16,01,334,,48,01,353,,1*78
$GNRMC,004702.000,A,4910.428054,N,12304.401948,W,0.04,40.82,070125,,,D,V*20
$GNVTG,40.82,T,,M,0.04,N,0.07,K,D*1B
$PAIRLOG,Full*51
$GNGGA,004703.000,4910.428042,N,12304.402014,W,2,29,0.52,-1.598,M,-16.816,M,,*61
$GNGLL,4910.428042,N,12304.402014,W,004703.000,A,D*53
$GNGSA,A,3,06,12,19,24,11,17,03,32,,,,,0.87,0.52,0.70,1*01
$GNGSA,A,3,75,74,85,73,,,,,,,,,0.87,0.52,0.70,2*05
$GNGSA,A,3,21,13,15,27,26,04,06,09,,,,,0.87,0.52,0.70,3*03
$GNGSA,A,3,34,25,11,12,23,43,44,24,39,,,,0.87,0.52,0.70,4*02
$GPGSV,3,1,10,06,60,106,34,12,58,298,34,19,50,062,31,24,44,224,31,1*66
$GPGSV,3,2,10,25,43,301,,11,43,168,31,46,33,188,29,17,21,065,23,1*63
$GPGSV,3,3,10,03,10,031,24,32,09,317,24,1*68
$GLGSV,2,1,07,84,72,053,23,75,61,320,33,74,60,138,20,85,48,207,28,1*75
$GLGSV,2,2,07,73,15,139,25,67,09,012,20,66,08,323,,1*40
$GAGSV,3,1,09,21,86,070,32,13,58,130,31,15,36,050,28,27,31,112,24,7*71
$GAGSV,3,2,09,26,22,185,21,04,14,288,17,06,12,313,23,09,08,335,19,7*7C
$GAGSV,3,3,09,19,03,235,16,7*42
$GBGSV,3,1,12,34,80,112,34,25,67,187,33,11,65,203,31,12,54,059,29,1*70
$GBGSV,3,2,12,23,46,300,30,43,42,220,29,44,28,055,30,24,19,146,24,1*7F
$GBGSV,3,3,12,39,11,330,25,19,03,017,16,16,01,334,,48,01,353,,1*78
$GNRMC,004703.000,A,4910.428042,N,12304.402014,W,0.03,40.82,070125,,,D,V*22
$GNVTG,40.82,T,,M,0.03,N,0.06,K,D*1D
$PAIRLOG,Full*51
$GNGGA,004704.000,4910.428048,N,12304.402110,W,2,29,0.52,-1.442,M,-16.816,M,,*6F
$GNGLL,4910.428048,N,12304.402110,W,004704.000,A,D*5B
$GNGSA,A,3,06,12,19,24,11,17,03,32,,,,,0.87,0.52,0.70,1*01
$GNGSA,A,3,75,74,85,73,,,,,,,,,0.87,0.52,0.70,2*05
$GNGSA,A,3,21,13,15,27,26,04,06,09,,,,,0.87,0.52,0.70,3*03
$GNGSA,A,3,34,25,11,12,23,43,44,24,39,,,,0.87,0.52,0.70,4*02
$GPGSV,3,1,10,06,60,106,34,12,58,298,34,19,50,062,31,24,44,224,31,1*66
$GPGSV,3,2,10,25,43,301,,11,43,168,31,46,33,188,29,17,21,065,23,1*63
$GPGSV,3,3,10,03,10,031,24,32,09,317,24,1*68
$GLGSV,2,1,07,84,72,053,23,75,61,320,34,74,60,138,20,85,48,207,28,1*72
$GLGSV,2,2,07,73,15,139,25,67,09,012,20,66,08,323,,1*40
$GAGSV,3,1,09,21,86,070,32,13,58,130,31,15,36,050,27,27,31,112,24,7*7E
$GAGSV,3,2,09,26,22,185,21,04,14,288,17,06,12,313,23,09,08,335,19,7*7C
$GAGSV,3,3,09,19,03,235,15,7*41
$GBGSV,3,1,12,34,80,112,34,25,67,187,33,11,65,203,31,12,54,059,29,1*70
$GBGSV,3,2,12,23,46,300,30,43,42,220,29,44,28,055,30,24,19,146,25,1*7E
$GBGSV,3,3,12,39,11,330,25,19,03,017,16,16,01,334,,48,01,353,,1*78
$GNRMC,004704.000,A,4910.428048,N,12304.402110,W,0.03,40.82,070125,,,D,V*2A
$GNVTG,40.82,T,,M,0.03,N,0.05,K,D*1E
$PAIRLOG,Full*51
$GNGGA,004705.000,4910.428060,N,12304.402068,W,2,29,0.52,-1.299,M,-16.816,M,,*6A
$GNGLL,4910.428060,N,12304.402068,W,004705.000,A,D*5E
$GNGSA,A,3,06,12,19,24,11,17,03,32,,,,,0.87,0.52,0.70,1*01
$GNGSA,A,3,75,74,85,73,,,,,,,,,0.87,0.52,0.70,2*05
$GNGSA,A,3,21,13,15,27,26,04,06,09,,,,,0.87,0.52,0.70,3*03
$GNGSA,A,3,34,25,11,12,23,43,44,24,39,,,,0.87,0.52,0.70,4*02
$GPGSV,3,1,10,06,60,106,34,12,58,298,34,19,50,062,31,24,44,224,31,1*66
$GPGSV,3,2,10,25,43,301,,11,43,168,31,46,33,188,30,17,21,065,23,1*6B
$GPGSV,3,3,10,03,10,031,24,32,09,317,24,1*68
$GLGSV,2,1,07,84,72,053,22,75,61,320,34,74,60,138,20,85,48,207,27,1*7C
$GLGSV,2,2,07,73,15,139,25,67,09,012,20,66,08,323,,1*40
$GAGSV,3,1,09,21,86,070,32,13,58,130,31,15,36,050,27,27,31,112,24,7*7E
$GAGSV,3,2,09,26,22,185,21,04,14,288,17,06,12,313,23,09,08,335,19,7*7C
$GAGSV,3,3,09,19,03,235,15,7*41
$GBGSV,3,1,12,34,80,112,34,25,67,187,33,11,65,203,31,12,54,059,29,1*70
$GBGSV,3,2,12,23,46,300,30,43,42,220,30,44,28,055,31,24,19,146,25,1*77
$GBGSV,3,3,12,39,11,330,25,19,03,017,16,16,01,334,,48,01,353,,1*78
$GNRMC,004705.000,A,4910.428060,N,12304.402068,W,0.03,40.82,070125,,,D,V*2F
$GNVTG,40.82,T,,M,0.03,N,0.05,K,D*1E
$PAIRLOG,Full*51
$GNGGA,004706.000,4910.428084,N,12304.402062,W,2,29,0.52,-1.139,M,-16.816,M,,*60
$GNGLL,4910.428084,N,12304.402062,W,004706.000,A,D*5D
$GNGSA,A,3,06,12,19,24,11,17,03,32,,,,,0.87,0.52,0.70,1*01
$GNGSA,A,3,75,74,85,73,,,,,,,,,0.87,0.52,0.70,2*05
$GNGSA,A,3,21,13,15,27,26,04,06,09,,,,,0.87,0.52,0.70,3*03
$GNGSA,A,3,34,25,11,12,23,43,44,24,39,,,,0.87,0.52,0.70,4*02
$GPGSV,3,1,10,06,60,106,34,12,58,298,34,19,50,062,31,24,44,224,31,1*66
$GPGSV,3,2,10,25,43,301,,11,43,168,31,46,33,188,30,17,21,065,23,1*6B
$GPGSV,3,3,10,03,10,031,24,32,09,317,24,1*68
$GLGSV,2,1,07,84,72,053,22,75,61,320,34,74,60,138,20,85,48,207,27,1*7C
$GLGSV,2,2,07,73,15,139,25,67,09,012,20,66,08,323,,1*40
$GAGSV,3,1,09,21,86,070,32,13,58,130,31,15,36,050,27,27,31,112,24,7*7E
$GAGSV,3,2,09,26,22,185,21,04,14,288,17,06,12,313,23,09,08,335,19,7*7C
$GAGSV,3,3,09,19,03,235,15,7*41
$GBGSV,3,1,12,34,80,112,34,25,67,187,33,11,65,203,31,12,54,059,29,1*70
$GBGSV,3,2,12,23,46,300,30,43,42,220,30,44,28,055,31,24,19,146,24,1*76
$GBGSV,3,3,12,39,11,330,25,19,03,017,16,16,01,334,,48,01,353,,1*78
$GNRMC,004706.000,A,4910.428084,N,12304.402062,W,0.02,40.82,070125,,,D,V*2D
$GNVTG,40.82,T,,M,0.02,N,0.04,K,D*1E
$PAIRLOG,Full*51
$GNGGA,004707.000,4910.428102,N,12304.402032,W,2,29,0.52,-0.957,M,-16.816,M,,*6A
$GNGLL,4910.428102,N,12304.402032,W,004707.000,A,D*56
$GNGSA,A,3,06,12,19,24,11,17,03,32,,,,,0.87,0.52,0.70,1*01
$GNGSA,A,3,75,74,85,73,,,,,,,,,0.87,0.52,0.70,2*05
$GNGSA,A,3,21,13,15,27,26,04,06,09,,,,,0.87,0.52,0.70,3*03
$GNGSA,A,3,34,25,11,12,23,43,44,24,39,,,,0.87,0.52,0.70,4*02
$GPGSV,3,1,10,06,60,106,34,12,58,298,34,19,50,062,31,24,44,224,31,1*66
$GPGSV,3,2,10,25,43,301,,11,43,168,31,46,33,188,30,17,21,065,23,1*6B
$GPGSV,3,3,10,03,10,031,24,32,09,317,24,1*68
$GLGSV,2,1,07,84,72,053,23,75,61,320,34,74,60,138,21,85,48,207,27,1*7C
$GLGSV,2,2,07,73,15,139,25,67,09,012,20,66,08,323,,1*40
$GAGSV,3,1,09,21,86,070,32,13,58,130,31,15,36,050,28,27,31,112,24,7*71
$GAGSV,3,2,09,26,22,185,21,04,14,288,18,06,12,313,24,09,08,335,19,7*74
$GAGSV,3,3,09,19,03,235,16,7*42
$GBGSV,3,1,12,34,80,112,34,25,67,187,34,11,65,203,31,12,54,059,29,1*77
$GBGSV,3,2,12,23,46,300,31,43,42,220,31,44,28,055,31,24,19,146,27,1*75
$GBGSV,3,3,12,39,11,330,25,19,03,017,16,16,01,334,,48,01,353,,1*78
$GNRMC,004707.000,A,4910.428102,N,12304.402032,W,0.02,40.82,070125,,,D,V*26
$GNVTG,40.82,T,,M,0.02,N,0.04,K,D*1E
$PAIRLOG,Full*51
$GNGGA,004708.000,4910.428108,N,12304.402074,W,2,29,0.52,-0.778,M,-16.816,M,,*6E
$GNGLL,4910.428108,N,12304.402074,W,004708.000,A,D*51
$GNGSA,A,3,06,12,19,24,11,17,03,32,,,,,0.87,0.52,0.70,1*01
$GNGSA,A,3,75,74,85,73,,,,,,,,,0.87,0.52,0.70,2*05
$GNGSA,A,3,21,13,15,27,26,04,06,09,,,,,0.87,0.52,0.70,3*03
$GNGSA,A,3,34,25,11,12,23,43,44,24,39,,,,0.87,0.52,0.70,4*02
$GPGSV,3,1,10,06,60,106,34,12,58,298,34,19,50,062,31,24,44,224,31,1*66
$GPGSV,3,2,10,25,43,301,,11,43,168,31,46,33,188,30,17,21,065,23,1*6B
$GPGSV,3,3,10,03,10,031,24,32,09,317,25,1*69
$GLGSV,2,1,07,84,72,053,23,75,61,320,34,74,60,138,22,85,48,207,28,1*70
$GLGSV,2,2,07,73,15,139,25,67,09,012,20,66,08,323,,1*40
$GAGSV,3,1,09,21,86,070,32,13,58,130,31,15,36,050,28,27,31,112,24,7*71
$GAGSV,3,2,09,26,22,185,22,04,14,288,19,06,12,313,24,09,08,335,19,7*76
$GAGSV,3,3,09,19,03,235,16,7*42
$GBGSV,3,1,12,34,80,112,34,25,67,187,33,11,65,203,31,12,54,059,29,1*70
$GBGSV,3,2,12,23,46,300,31,43,42,220,31,44,28,055,31,24,19,146,25,1*77
$GBGSV,3,3,12,39,11,330,25,19,03,017,16,16,01,334,,48,01,353,,1*78
$GNRMC,004708.000,A,4910.428108,N,12304.402074,W,0.02,40.82,070125,,,D,V*21
$GNVTG,40.82,T,,M,0.02,N,0.04,K,D*1E
$PAIRLOG,Full*51
$GNGGA,004709.000,4910.428174,N,12304.402038,W,2,29,0.52,-0.591,M,-16.816,M,,*69
$GNGLL,4910.428174,N,12304.402038,W,004709.000,A,D*53
$GNGSA,A,3,06,12,19,24,11,17,03,32,,,,,0.87,0.52,0.70,1*01
$GNGSA,A,3,75,74,85,73,,,,,,,,,0.87,0.52,0.70,2*05
$GNGSA,A,3,21,13,15,27,26,04,06,09,,,,,0.87,0.52,0.70,3*03
$GNGSA,A,3,34,25,11,12,23,43,44,24,39,,,,0.87,0.52,0.70,4*02
$GPGSV,3,1,10,06,60,106,34,12,58,298,34,19,50,062,31,24,44,224,31,1*66
$GPGSV,3,2,10,25,43,301,,11,43,168,30,46,33,188,30,17,21,065,23,1*6A
$GPGSV,3,3,10,03,10,031,23,32,09,317,25,1*6E
$GLGSV,2,1,07,84,72,053,23,75,61,320,33,74,60,138,22,85,48,207,28,1*77
$GLGSV,2,2,07,73,15,139,25,67,09,012,20,66,08,323,,1*40
$GAGSV,3,1,09,21,86,070,32,13,58,130,31,15,36,050,28,27,31,112,24,7*71
$GAGSV,3,2,09,26,22,185,22,04,14,288,19,06,12,313,24,09,08,335,19,7*76
$GAGSV,3,3,09,19,03,235,16,7*42
$GBGSV,3,1,12,34,80,112,33,25,67,187,32,11,65,203,31,12,54,059,29,1*76
$GBGSV,3,2,12,23,46,300,31,43,42,220,30,44,28,055,31,24,19,146,24,1*77
$GBGSV,3,3,12,39,11,330,25,19,03,017,16,16,01,334,,48,01,353,,1*78
$GNRMC,004709.000,A,4910.428174,N,12304.402038,W,0.02,40.82,070125,,,D,V*23
$GNVTG,40.82,T,,M,0.02,N,0.03,K,D*19
$PAIRLOG,Full*51
$GNGGA,004710.000,4910.428276,N,12304.402032,W,2,29,0.52,-0.396,M,-16.816,M,,*6B
$GNGLL,4910.428276,N,12304.402032,W,004710.000,A,D*50
$GNGSA,A,3,06,12,19,24,11,17,03,32,,,,,0.87,0.52,0.70,1*01
$GNGSA,A,3,75,74,85,73,,,,,,,,,0.87,0.52,0.70,2*05
$GNGSA,A,3,21,13,15,27,26,04,06,09,,,,,0.87,0.52,0.70,3*03
$GNGSA,A,3,34,25,11,12,23,43,44,24,39,,,,0.87,0.52,0.70,4*02
$GPGSV,3,1,10,06,60,106,34,12,58,298,34,19,50,062,31,24,44,224,31,1*66
$GPGSV,3,2,10,25,43,301,,11,43,168,30,46,33,188,30,17,21,065,23,1*6A
$GPGSV,3,3,10,03,10,031,23,32,09,317,25,1*6E
$GLGSV,2,1,07,84,72,053,23,75,61,320,33,74,60,138,22,85,48,207,28,1*77
$GLGSV,2,2,07,73,15,139,25,67,09,012,20,66,08,323,,1*40
$GAGSV,3,1,09,21,86,070,32,13,58,130,31,15,36,050,28,27,31,112,24,7*71
$GAGSV,3,2,09,26,22,185,22,04,14,288,19,06,12,313,24,09,08,335,19,7*76
$GAGSV,3,3,09,19,03,235,16,7*42
$GBGSV,3,1,12,34,80,112,33,25,67,187,33,11,65,203,31,12,54,059,29,1*77
$GBGSV,3,2,12,23,46,300,31,43,42,220,30,44,28,055,31,24,19,146,27,1*74
$GBGSV,3,3,12,39,11,330,25,19,03,017,17,16,01,334,,48,01,353,,1*79
$GNRMC,004710.000,A,4910.428276,N,12304.402032,W,0.02,40.82,070125,,,D,V*20
$GNVTG,40.82,T,,M,0.02,N,0.03,K,D*19
$PAIRLOG,Full*51
$GNGGA,004711.000,4910.428348,N,12304.402044,W,2,29,0.52,-0.231,M,-16.816,M,,*6B
$GNGLL,4910.428348,N,12304.402044,W,004711.000,A,D*5C
$GNGSA,A,3,06,12,19,24,11,17,03,32,,,,,0.87,0.52,0.70,1*01
$GNGSA,A,3,75,74,85,73,,,,,,,,,0.87,0.52,0.70,2*05
$GNGSA,A,3,21,13,15,27,26,04,06,09,,,,,0.87,0.52,0.70,3*03
$GNGSA,A,3,34,25,11,12,23,43,44,24,39,,,,0.87,0.52,0.70,4*02
$GPGSV,3,1,10,06,60,106,34,12,58,298,34,19,50,062,31,24,44,224,31,1*66
$GPGSV,3,2,10,25,43,301,,11,43,168,30,46,33,188,30,17,21,065,23,1*6A
$GPGSV,3,3,10,03,10,031,24,32,09,317,25,1*69
$GLGSV,2,1,07,84,72,053,23,75,61,320,34,74,60,138,22,85,48,207,28,1*70
$GLGSV,2,2,07,73,15,139,25,67,09,012,20,66,08,323,,1*40
$GAGSV,3,1,09,21,86,070,32,13,58,130,31,15,36,050,28,27,31,112,24,7*71
$GAGSV,3,2,09,26,22,185,22,04,14,288,19,06,12,313,24,09,08,335,19,7*76
$GAGSV,3,3,09,19,03,235,16,7*42
$GBGSV,3,1,12,34,80,112,33,25,67,187,34,11,65,203,31,12,54,059,29,1*70
$GBGSV,3,2,12,23,46,300,31,43,42,220,30,44,28,055,31,24,19,146,26,1*75
$GBGSV,3,3,12,39,11,330,25,19,03,017,17,16,01,334,,48,01,353,,1*79
$GNRMC,004711.000,A,4910.428348,N,12304.402044,W,0.01,40.82,070125,,,D,V*2F
$GNVTG,40.82,T,,M,0.01,N,0.02,K,D*1B
$PAIRLOG,Full*51
$GNGGA,004712.000,4910.428432,N,12304.402074,W,2,29,0.52,-0.074,M,-16.816,M,,*62
$GNGLL,4910.428432,N,12304.402074,W,004712.000,A,D*56
$GNGSA,A,3,06,12,19,24,11,17,03,32,,,,,0.87,0.52,0.70,1*01
$GNGSA,A,3,75,74,85,73,,,,,,,,,0.87,0.52,0.70,2*05
$GNGSA,A,3,21,13,15,27,26,04,06,09,,,,,0.87,0.52,0.70,3*03
$GNGSA,A,3,34,25,11,12,23,43,44,24,39,,,,0.87,0.52,0.70,4*02
$GPGSV,3,1,10,06,60,106,34,12,58,298,34,19,50,062,30,24,44,224,31,1*67
$GPGSV,3,2,10,25,43,301,,11,43,168,30,46,33,188,30,17,21,065,23,1*6A
$GPGSV,3,3,10,03,10,031,24,32,09,317,24,1*68
$GLGSV,2,1,07,84,72,053,23,75,61,320,34,74,60,138,22,85,48,207,28,1*70
$GLGSV,2,2,07,73,15,139,25,67,09,012,21,66,08,323,,1*41
$GAGSV,3,1,09,21,86,070,31,13,58,130,30,15,36,050,27,27,31,112,24,7*7C
$GAGSV,3,2,09,26,22,185,21,04,14,288,19,06,12,313,24,09,08,335,19,7*75
$GAGSV,3,3,09,19,03,235,16,7*42
$GBGSV,3,1,12,34,80,112,33,25,67,187,34,11,66,204,31,12,54,059,29,1*74
$GBGSV,3,2,12,23,46,300,31,43,42,220,30,44,28,055,31,24,19,146,25,1*76
$GBGSV,3,3,12,39,11,330,25,19,03,017,17,16,01,334,,48,01,353,,1*79
$GNRMC,004712.000,A,4910.428432,N,12304.402074,W,0.01,40.82,070125,,,D,V*25
$GNVTG,40.82,T,,M,0.01,N,0.01,K,D*18
$PAIRLOG,Full*51
$GNGGA,004713.000,4910.428558,N,12304.402104,W,2,29,0.52,0.203,M,-16.817,M,,*46
$GNGLL,4910.428558,N,12304.402104,W,004713.000,A,D*5C
$GNGSA,A,3,06,12,19,24,11,17,03,32,,,,,0.87,0.52,0.70,1*01
$GNGSA,A,3,75,74,85,73,,,,,,,,,0.87,0.52,0.70,2*05
$GNGSA,A,3,21,13,15,27,26,04,06,09,,,,,0.87,0.52,0.70,3*03
$GNGSA,A,3,34,25,11,12,23,43,44,24,39,,,,0.87,0.52,0.70,4*02
$GPGSV,3,1,10,06,60,106,34,12,58,298,34,19,50,062,30,24,44,224,31,1*67
$GPGSV,3,2,10,25,43,301,,11,43,168,30,46,33,188,30,17,21,065,23,1*6A
$GPGSV,3,3,10,03,10,031,24,32,09,317,24,1*68
$GLGSV,2,1,07,84,72,053,23,75,61,320,34,74,60,138,22,85,48,207,28,1*70
$GLGSV,2,2,07,73,15,139,25,67,09,012,21,66,08,323,,1*41
$GAGSV,3,1,09,21,86,070,31,13,58,130,30,15,36,050,27,27,31,112,24,7*7C
$GAGSV,3,2,09,26,22,185,20,04,14,288,19,06,12,313,23,09,08,335,19,7*73
$GAGSV,3,3,09,19,03,235,16,7*42
$GBGSV,3,1,12,34,80,112,33,25,67,187,34,11,66,204,31,12,53,058,29,1*72
$GBGSV,3,2,12,23,46,300,31,43,42,220,30,44,28,055,31,24,19,146,26,1*75
$GBGSV,3,3,12,39,11,330,25,19,03,017,17,16,01,334,,48,01,353,,1*79
$GNRMC,004713.000,A,4910.428558,N,12304.402104,W,0.01,40.82,070125,,,D,V*2F
$GNVTG,40.82,T,,M,0.01,N,0.02,K,D*1B
$PAIRLOG,Full*51
$GNGGA,004714.000,4910.428654,N,12304.402152,W,2,29,0.52,0.441,M,-16.816,M,,*4C
$GNGLL,4910.428654,N,12304.402152,W,004714.000,A,D*57
$GNGSA,A,3,06,12,19,24,11,17,03,32,,,,,0.87,0.52,0.70,1*01
$GNGSA,A,3,75,74,85,73,,,,,,,,,0.87,0.52,0.70,2*05
$GNGSA,A,3,21,13,15,27,26,04,06,09,,,,,0.87,0.52,0.70,3*03
$GNGSA,A,3,34,25,11,12,23,43,44,24,39,,,,0.87,0.52,0.70,4*02
$GPGSV,3,1,10,06,60,106,34,12,58,298,34,19,50,062,30,24,44,224,30,1*66
$GPGSV,3,2,10,25,43,301,,11,43,168,29,46,33,188,30,17,21,065,23,1*62
$GPGSV,3,3,10,03,10,031,24,32,09,317,24,1*68
$GLGSV,2,1,07,84,72,053,22,75,61,320,34,74,60,138,22,85,48,207,27,1*7E
$GLGSV,2,2,07,73,15,139,25,67,09,012,21,66,08,323,,1*41
$GAGSV,3,1,09,21,86,070,31,13,58,130,30,15,36,050,27,27,31,112,24,7*7C
$GAGSV,3,2,09,26,22,185,20,04,14,288,19,06,12,313,22,09,08,335,19,7*72
$GAGSV,3,3,09,19,03,235,15,7*41
$GBGSV,3,1,12,34,80,112,33,25,67,187,34,11,66,204,31,12,53,058,29,1*72
$GBGSV,3,2,12,23,46,300,31,43,42,220,30,44,28,055,31,24,19,146,26,1*75
$GBGSV,3,3,12,39,11,330,25,19,03,017,17,16,01,334,,48,01,353,,1*79
$GNRMC,004714.000,A,4910.428654,N,12304.402152,W,0.02,40.82,070125,,,D,V*27
$GNVTG,40.82,T,,M,0.02,N,0.03,K,D*19
$PAIRLOG,Full*51
$GNGGA,004715.000,4910.428690,N,12304.402182,W,2,29,0.52,0.533,M,-16.816,M,,*4C
$GNGLL,4910.428690,N,12304.402182,W,004715.000,A,D*53
$GNGSA,A,3,06,12,19,24,11,17,03,32,,,,,0.87,0.52,0.70,1*01
$GNGSA,A,3,75,74,85,73,,,,,,,,,0.87,0.52,0.70,2*05
$GNGSA,A,3,21,13,15,27,26,04,06,09,,,,,0.87,0.52,0.70,3*03
$GNGSA,A,3,34,25,11,12,23,43,44,24,39,,,,0.87,0.52,0.70,4*02
$GPGSV,3,1,10,06,60,106,34,12,58,298,34,19,50,062,30,24,44,224,30,1*66
$GPGSV,3,2,10,25,43,301,,11,43,168,29,46,33,188,30,17,21,065,23,1*62
$GPGSV,3,3,10,03,10,031,24,32,09,317,24,1*68
$GLGSV,2,1,07,84,72,053,22,75,61,320,34,74,60,138,22,85,48,207,28,1*71
$GLGSV,2,2,07,73,15,139,24,67,09,012,20,66,08,323,,1*41
$GAGSV,3,1,09,21,86,070,32,13,58,130,31,15,36,050,27,27,31,112,25,7*7F
$GAGSV,3,2,09,26,22,185,20,04,14,288,19,06,12,313,22,09,08,335,19,7*72
$GAGSV,3,3,09,19,03,235,15,7*41
$GBGSV,3,1,12,34,80,112,33,25,67,187,34,11,66,204,31,12,53,058,30,1*7A
$GBGSV,3,2,12,23,46,300,31,43,42,220,30,44,28,055,31,24,19,146,26,1*75
$GBGSV,3,3,12,39,11,330,25,19,03,017,17,16,01,334,,48,01,353,,1*79
$GNRMC,004715.000,A,4910.428690,N,12304.402182,W,0.02,40.82,070125,,,D,V*23
$GNVTG,40.82,T,,M,0.02,N,0.03,K,D*19
$PAIRLOG,Full*51
$GNGGA,004716.000,4910.428726,N,12304.402278,W,2,29,0.52,0.673,M,-16.816,M,,*42
$GNGLL,4910.428726,N,12304.402278,W,004716.000,A,D*5A
$GNGSA,A,3,06,12,19,24,11,17,03,32,,,,,0.87,0.52,0.70,1*01
$GNGSA,A,3,75,74,85,73,,,,,,,,,0.87,0.52,0.70,2*05
$GNGSA,A,3,21,13,15,27,26,04,06,09,,,,,0.87,0.52,0.70,3*03
$GNGSA,A,3,34,25,11,12,23,43,44,24,39,,,,0.87,0.52,0.70,4*02
$GPGSV,3,1,10,06,60,106,33,12,58,298,34,19,50,062,30,24,44,224,30,1*61
$GPGSV,3,2,10,25,43,301,,11,43,168,29,46,33,188,30,17,21,065,23,1*62
$GPGSV,3,3,10,03,10,031,24,32,09,317,24,1*68
$GLGSV,2,1,07,84,72,053,22,75,61,320,34,74,60,138,22,85,48,207,28,1*71
$GLGSV,2,2,07,73,15,139,23,67,09,012,20,66,08,323,,1*46
$GAGSV,3,1,09,21,86,070,31,13,58,130,30,15,36,050,27,27,31,112,25,7*7D
$GAGSV,3,2,09,26,22,185,20,04,14,288,19,06,12,313,22,09,08,335,19,7*72
$GAGSV,3,3,09,19,03,235,15,7*41
$GBGSV,3,1,12,34,80,112,34,25,67,187,34,11,66,204,31,12,53,058,30,1*7D
$GBGSV,3,2,12,23,46,300,31,43,42,220,30,44,28,055,31,24,19,146,26,1*75
$GBGSV,3,3,12,39,11,330,25,19,03,017,18,16,01,334,,48,01,353,,1*76
$GNRMC,004716.000,A,4910.428726,N,12304.402278,W,0.02,40.82,070125,,,D,V*2A
$GNVTG,40.82,T,,M,0.02,N,0.04,K,D*1E
$PAIRLOG,Full*51
$GNGGA,004717.000,4910.428762,N,12304.402386,W,2,29,0.52,0.788,M,-16.816,M,,*46
$GNGLL,4910.428762,N,12304.402386,W,004717.000,A,D*5B
$GNGSA,A,3,06,12,19,24,11,17,03,32,,,,,0.87,0.52,0.70,1*01
$GNGSA,A,3,75,74,85,73,,,,,,,,,0.87,0.52,0.70,2*05
$GNGSA,A,3,21,13,15,27,26,04,06,09,,,,,0.87,0.52,0.70,3*03
$GNGSA,A,3,34,25,11,12,23,43,44,24,39,,,,0.87,0.52,0.70,4*02
$GPGSV,3,1,10,06,60,106,33,12,58,298,34,19,50,062,30,24,44,224,30,1*61
$GPGSV,3,2,10,25,43,301,,11,43,168,29,46,33,188,30,17,21,065,22,1*63
$GPGSV,3,3,10,03,10,031,23,32,09,317,24,1*6F
$GLGSV,2,1,07,84,72,053,22,75,61,320,34,74,60,138,22,85,48,207,28,1*71
$GLGSV,2,2,07,73,15,139,23,67,09,012,20,66,08,323,,1*46
$GAGSV,3,1,09,21,86,070,31,13,58,130,30,15,36,050,27,27,31,112,25,7*7D
$GAGSV,3,2,09,26,22,185,20,04,14,288,19,06,12,313,22,09,08,335,19,7*72
$GAGSV,3,3,09,19,03,235,16,7*42
$GBGSV,3,1,12,34,80,112,34,25,67,187,34,11,66,204,31,12,53,058,30,1*7D
$GBGSV,3,2,12,23,46,300,31,43,42,220,31,44,28,055,31,24,19,146,26,1*74
$GBGSV,3,3,12,39,11,330,25,19,03,017,18,16,02,334,,48,01,353,,1*75
$GNRMC,004717.000,A,4910.428762,N,12304.402386,W,0.02,40.82,070125,,,D,V*2B
$GNVTG,40.82,T,,M,0.02,N,0.04,K,D*1E
$PAIRLOG,Full*51
$GNGGA,004718.000,4910.428834,N,12304.402488,W,2,29,0.52,0.883,M,-16.816,M,,*48
$GNGLL,4910.428834,N,12304.402488,W,004718.000,A,D*51
$GNGSA,A,3,06,12,19,24,11,17,03,32,,,,,0.87,0.52,0.70,1*01
$GNGSA,A,3,75,74,85,73,,,,,,,,,0.87,0.52,0.70,2*05
$GNGSA,A,3,21,13,15,27,26,04,06,09,,,,,0.87,0.52,0.70,3*03
$GNGSA,A,3,34,25,11,12,23,43,44,24,39,,,,0.87,0.52,0.70,4*02
$GPGSV,3,1,10,06,60,106,32,12,58,298,33,19,50,062,30,24,44,224,30,1*67
$GPGSV,3,2,10,25,43,301,,11,43,168,28,46,33,188,29,17,21,065,21,1*69
$GPGSV,3,3,10,03,10,031,23,32,09,317,24,1*6F
$GLGSV,2,1,07,84,72,053,22,75,61,320,34,74,60,138,22,85,48,207,28,1*71
$GLGSV,2,2,07,73,15,139,23,67,09,012,20,66,08,323,,1*46
$GAGSV,3,1,09,21,86,070,30,13,58,130,29,15,36,050,27,27,31,112,25,7*74
$GAGSV,3,2,09,26,22,185,20,04,14,288,19,06,12,313,21,09,08,335,19,7*71
$GAGSV,3,3,09,19,03,235,16,7*42
$GBGSV,3,1,12,34,80,112,35,25,67,187,34,11,66,204,31,12,53,058,30,1*7C
$GBGSV,3,2,12,23,46,300,32,43,42,220,31,44,28,055,32,24,19,146,26,1*74
$GBGSV,3,3,12,39,11,330,25,19,03,017,18,16,02,334,,48,01,353,,1*75
$GNRMC,004718.000,A,4910.428834,N,12304.402488,W,0.02,40.82,070125,,,D,V*21
$GNVTG,40.82,T,,M,0.02,N,0.04,K,D*1E
$PAIRLOG,Full*51
$GNGGA,004719.000,4910.428912,N,12304.402614,W,2,29,0.52,1.019,M,-16.816,M,,*41
$GNGLL,4910.428912,N,12304.402614,W,004719.000,A,D*52
$GNGSA,A,3,06,12,19,24,11,17,03,32,,,,,0.87,0.52,0.70,1*01
$GNGSA,A,3,75,74,85,73,,,,,,,,,0.87,0.52,0.70,2*05
$GNGSA,A,3,21,13,15,27,26,04,06,09,,,,,0.87,0.52,0.70,3*03
$GNGSA,A,3,34,25,11,12,23,43,44,24,39,,,,0.87,0.52,0.70,4*02
$GPGSV,3,1,10,06,60,106,32,12,58,298,33,19,50,062,30,24,44,224,30,1*67
$GPGSV,3,2,10,25,43,301,,11,43,168,28,46,33,188,29,17,21,065,21,1*69
$GPGSV,3,3,10,03,10,031,23,32,09,317,24,1*6F
$GLGSV,2,1,07,84,72,053,22,75,61,320,34,74,60,138,22,85,48,207,28,1*71
$GLGSV,2,2,07,73,15,139,23,67,09,012,20,66,08,323,,1*46
$GAGSV,3,1,09,21,86,070,30,13,58,130,29,15,36,050,27,27,31,112,25,7*74
$GAGSV,3,2,09,26,22,185,19,04,14,288,19,06,12,313,21,09,08,335,19,7*7B
$GAGSV,3,3,09,19,03,235,16,7*42
$GBGSV,3,1,12,34,80,112,35,25,67,187,35,11,66,204,32,12,53,058,31,1*7F
$GBGSV,3,2,12,23,46,300,32,43,42,220,31,44,28,055,32,24,19,146,27,1*75
$GBGSV,3,3,12,39,11,330,26,19,03,017,18,16,02,334,,48,01,353,,1*76
$GNRMC,004719.000,A,4910.428912,N,12304.402614,W,0.02,40.82,070125,,,D,V*22
$GNVTG,40.82,T,,M,0.02,N,0.04,K,D*1E
$PAIRLOG,Full*51
$GNGGA,004720.000,4910.428984,N,12304.402710,W,2,29,0.52,1.240,M,-16.816,M,,*4F
$GNGLL,4910.428984,N,12304.402710,W,004720.000,A,D*52
$GNGSA,A,3,06,12,19,24,11,17,03,32,,,,,0.87,0.52,0.70,1*01
$GNGSA,A,3,75,74,85,73,,,,,,,,,0.87,0.52,0.70,2*05
$GNGSA,A,3,21,13,15,27,26,04,06,09,,,,,0.87,0.52,0.70,3*03
$GNGSA,A,3,34,25,11,12,23,43,44,24,39,,,,0.87,0.52,0.70,4*02
$GPGSV,3,1,10,06,60,106,33,12,58,298,33,19,50,062,31,24,44,224,31,1*66
$GPGSV,3,2,10,25,43,301,,11,43,168,29,46,33,188,30,17,21,065,21,1*60
$GPGSV,3,3,10,03,10,031,23,32,09,317,25,1*6E
$GLGSV,2,1,07,84,72,053,22,75,61,320,34,74,60,138,22,85,48,207,28,1*71
$GLGSV,2,2,07,73,15,139,24,67,09,012,21,66,08,323,,1*40
$GAGSV,3,1,09,21,86,070,31,13,58,130,30,15,36,050,27,27,31,112,26,7*7E
$GAGSV,3,2,09,26,22,185,19,04,14,288,19,06,12,313,21,09,08,335,19,7*7B
$GAGSV,3,3,09,19,03,235,16,7*42
$GBGSV,3,1,12,34,80,112,35,25,67,187,35,11,66,204,33,12,53,058,31,1*7E
$GBGSV,3,2,12,23,46,300,32,43,42,220,31,44,28,055,32,24,19,146,27,1*75
$GBGSV,3,3,12,39,11,330,26,19,03,016,18,16,02,334,,48,01,353,,1*77
$GNRMC,004720.000,A,4910.428984,N,12304.402710,W,0.03,40.82,070125,,,D,V*23
$GNVTG,40.82,T,,M,0.03,N,0.05,K,D*1E
$PAIRLOG,Full*51
$GNGGA,004721.000,4910.429026,N,12304.402770,W,2,29,0.52,1.411,M,-16.816,M,,*4A
$GNGLL,4910.429026,N,12304.402770,W,004721.000,A,D*55
$GNGSA,A,3,06,12,19,24,11,17,03,32,,,,,0.87,0.52,0.70,1*01
$GNGSA,A,3,75,74,85,73,,,,,,,,,0.87,0.52,0.70,2*05
$GNGSA,A,3,21,13,15,27,26,04,06,09,,,,,0.87,0.52,0.70,3*03
$GNGSA,A,3,34,25,11,12,23,43,44,24,39,,,,0.87,0.52,0.70,4*02
$GPGSV,3,1,10,06,60,106,33,12,58,298,33,19,50,062,31,24,44,224,30,1*67
$GPGSV,3,2,10,25,43,301,,11,43,168,29,46,33,188,30,17,21,065,21,1*60
$GPGSV,3,3,10,03,10,031,23,32,09,317,25,1*6E
$GLGSV,2,1,07,84,72,053,22,75,61,320,34,74,60,138,22,85,48,207,28,1*71
$GLGSV,2,2,07,73,15,139,24,67,09,012,21,66,08,323,,1*40
$GAGSV,3,1,09,21,86,070,31,13,58,130,30,15,36,050,27,27,31,112,26,7*7E
$GAGSV,3,2,09,26,22,185,19,04,14,288,19,06,12,313,21,09,08,335,19,7*7B
$GAGSV,3,3,09,19,03,235,16,7*42
$GBGSV,3,1,12,34,80,112,35,25,67,187,34,11,66,204,32,12,53,058,31,1*7E
$GBGSV,3,2,12,23,46,300,31,43,42,220,31,44,28,055,31,24,19,146,26,1*74
$GBGSV,3,3,12,39,11,330,26,19,03,016,18,16,02,334,,48,01,353,,1*77
$GNRMC,004721.000,A,4910.429026,N,12304.402770,W,0.03,40.82,070125,,,D,V*24
$GNVTG,40.82,T,,M,0.03,N,0.05,K,D*1E
$PAIRLOG,Full*51
$GNGGA,004722.000,4910.429074,N,12304.402866,W,2,29,0.52,1.640,M,-16.817,M,,*41
$GNGLL,4910.429074,N,12304.402866,W,004722.000,A,D*59
$GNGSA,A,3,06,12,19,24,11,17,03,32,,,,,0.87,0.52,0.70,1*01
$GNGSA,A,3,75,74,85,73,,,,,,,,,0.87,0.52,0.70,2*05
$GNGSA,A,3,21,13,15,27,26,04,06,09,,,,,0.87,0.52,0.70,3*03
$GNGSA,A,3,34,25,11,12,23,43,44,24,39,,,,0.87,0.52,0.70,4*02
$GPGSV,3,1,10,06,60,106,32,12,58,298,33,19,50,062,31,24,44,224,30,1*66
$GPGSV,3,2,10,25,43,301,,11,43,168,28,46,33,188,29,17,21,065,21,1*69
$GPGSV,3,3,10,03,10,031,23,32,09,317,23,1*68
$GLGSV,2,1,07,84,72,053,22,75,61,320,35,74,60,138,23,85,48,207,28,1*71
$GLGSV,2,2,07,73,15,139,24,67,09,012,21,66,08,323,,1*40
$GAGSV,3,1,09,21,86,070,30,13,58,130,29,15,36,050,27,27,31,112,26,7*77
$GAGSV,3,2,09,26,22,185,19,04,14,288,19,06,12,313,21,09,08,335,19,7*7B
$GAGSV,3,3,09,19,03,235,16,7*42
$GBGSV,3,1,12,34,80,112,36,25,67,187,35,11,66,204,33,12,53,058,31,1*7D
$GBGSV,3,2,12,23,46,300,32,43,42,220,32,44,28,055,32,24,19,146,27,1*76
$GBGSV,3,3,12,39,11,330,26,19,03,016,18,16,02,334,,48,01,353,,1*77
$GNRMC,004722.000,A,4910.429074,N,12304.402866,W,0.02,40.82,070125,,,D,V*29
$GNVTG,40.82,T,,M,0.02,N,0.04,K,D*1E
$PAIRLOG,Full*51
$GNGGA,004723.000,4910.429098,N,12304.402956,W,2,29,0.52,1.857,M,-16.816,M,,*49
$GNGLL,4910.429098,N,12304.402956,W,004723.000,A,D*58
$GNGSA,A,3,06,12,19,24,11,17,03,32,,,,,0.87,0.52,0.70,1*01
$GNGSA,A,3,75,74,85,73,,,,,,,,,0.87,0.52,0.70,2*05
$GNGSA,A,3,21,13,15,27,26,04,06,09,,,,,0.87,0.52,0.70,3*03
$GNGSA,A,3,34,25,11,12,23,43,44,24,39,,,,0.87,0.52,0.70,4*02
$GPGSV,3,1,10,06,60,106,32,12,58,298,33,19,50,062,31,24,44,224,30,1*66
$GPGSV,3,2,10,25,43,301,,11,43,168,28,46,33,188,29,17,21,065,21,1*69
$GPGSV,3,3,10,03,10,031,23,32,09,317,23,1*68
$GLGSV,2,1,07,84,72,053,22,75,61,320,35,74,60,138,22,85,48,207,28,1*70
$GLGSV,2,2,07,73,15,139,24,67,09,012,21,66,08,323,,1*40
$GAGSV,3,1,09,21,86,070,30,13,58,130,29,15,36,050,27,27,31,112,26,7*77
$GAGSV,3,2,09,26,22,185,19,04,14,288,19,06,12,313,21,09,08,335,19,7*7B
$GAGSV,3,3,09,19,03,235,16,7*42
$GBGSV,3,1,12,34,80,112,36,25,67,187,35,11,66,204,33,12,53,058,31,1*7D
$GBGSV,3,2,12,23,46,300,32,43,42,220,32,44,28,055,33,24,19,146,27,1*77
$GBGSV,3,3,12,39,11,330,26,19,03,016,18,16,02,334,,48,01,353,,1*77
$GNRMC,004723.000,A,4910.429098,N,12304.402956,W,0.02,40.82,070125,,,D,V*28
$GNVTG,40.82,T,,M,0.02,N,0.03,K,D*19
$PAIRLOG,Full*51
$GNGGA,004724.000,4910.429068,N,12304.403028,W,2,29,0.52,2.080,M,-16.816,M,,*41
$GNGLL,4910.429068,N,12304.403028,W,004724.000,A,D*51
$GNGSA,A,3,06,12,19,24,11,17,03,32,,,,,0.87,0.52,0.70,1*01
$GNGSA,A,3,75,74,85,73,,,,,,,,,0.87,0.52,0.70,2*05
$GNGSA,A,3,21,13,15,27,26,04,06,09,,,,,0.87,0.52,0.70,3*03
$GNGSA,A,3,34,25,11,12,23,43,44,24,39,,,,0.87,0.52,0.70,4*02
$GPGSV,3,1,10,06,60,106,32,12,58,298,33,19,50,062,31,24,44,224,30,1*66
$GPGSV,3,2,10,25,43,301,,11,43,168,28,46,33,188,29,17,21,065,20,1*68
$GPGSV,3,3,10,03,10,031,23,32,09,317,24,1*6F
$GLGSV,2,1,07,84,72,053,22,75,61,320,35,74,60,138,22,85,48,207,29,1*71
$GLGSV,2,2,07,73,15,139,24,67,09,012,21,66,08,323,,1*40
$GAGSV,3,1,09,21,86,070,30,13,58,130,29,15,36,050,27,27,31,112,26,7*77
$GAGSV,3,2,09,26,22,185,19,04,14,288,19,06,12,313,21,09,08,335,19,7*7B
$GAGSV,3,3,09,19,03,235,16,7*42
$GBGSV,3,1,12,34,80,112,35,25,67,187,34,11,66,204,32,12,53,058,30,1*7F
$GBGSV,3,2,12,23,47,299,32,43,42,220,31,44,28,055,32,24,19,146,26,1*74
$GBGSV,3,3,12,39,11,330,25,19,03,016,18,16,02,334,,48,01,353,,1*74
$GNRMC,004724.000,A,4910.429068,N,12304.403028,W,0.02,40.82,070125,,,D,V*21
$GNVTG,40.82,T,,M,0.02,N,0.03,K,D*19
$PAIRLOG,Full*51
$GNGGA,004725.000,4910.429116,N,12304.403244,W,2,29,0.52,2.335,M,-16.817,M,,*4C
$GNGLL,4910.429116,N,12304.403244,W,004725.000,A,D*50
$GNGSA,A,3,06,12,19,24,11,17,03,32,,,,,0.87,0.52,0.70,1*01
$GNGSA,A,3,75,74,85,73,,,,,,,,,0.87,0.52,0.70,2*05
$GNGSA,A,3,21,13,15,27,26,04,06,09,,,,,0.87,0.52,0.70,3*03
$GNGSA,A,3,34,25,11,12,23,43,44,24,39,,,,0.87,0.52,0.70,4*02
$GPGSV,3,1,10,06,60,106,32,12,58,298,33,19,50,062,31,24,44,224,30,1*66
$GPGSV,3,2,10,25,43,301,,11,43,168,29,46,33,188,29,17,21,065,20,1*69
$GPGSV,3,3,10,03,10,031,23,32,09,317,26,1*6D
$GLGSV,2,1,07,84,72,053,22,75,61,320,35,74,60,138,22,85,48,207,29,1*71
$GLGSV,2,2,07,73,15,139,24,67,09,012,21,66,08,323,,1*40
$GAGSV,3,1,09,21,86,070,30,13,58,130,29,15,36,050,28,27,31,112,26,7*78
$GAGSV,3,2,09,26,22,185,19,04,14,288,19,06,12,313,21,09,08,335,19,7*7B
$GAGSV,3,3,09,19,03,235,16,7*42
$GBGSV,3,1,12,34,80,112,35,25,67,187,34,11,66,204,33,12,53,058,31,1*7F
$GBGSV,3,2,12,23,47,299,32,43,42,220,31,44,28,055,32,24,18,147,26,1*74
$GBGSV,3,3,12,39,11,330,25,19,03,016,18,16,02,334,,48,01,353,,1*74
$GNRMC,004725.000,A,4910.429116,N,12304.403244,W,0.02,40.82,070125,,,D,V*20
$GNVTG,40.82,T,,M,0.02,N,0.04,K,D*1E
$PAIRLOG,Full*51
$GNGGA,004726.000,4910.429110,N,12304.403370,W,2,29,0.52,2.543,M,-16.816,M,,*49
$GNGLL,4910.429110,N,12304.403370,W,004726.000,A,D*53
$GNGSA,A,3,06,12,19,24,11,17,03,32,,,,,0.87,0.52,0.70,1*01
$GNGSA,A,3,75,74,85,73,,,,,,,,,0.87,0.52,0.70,2*05
$GNGSA,A,3,21,13,15,27,26,04,06,09,,,,,0.87,0.52,0.70,3*03
$GNGSA,A,3,34,25,11,12,23,43,44,24,39,,,,0.87,0.52,0.70,4*02
$GPGSV,3,1,10,06,60,106,32,12,58,298,33,19,50,062,31,24,44,224,29,1*6E
$GPGSV,3,2,10,25,43,301,,11,43,168,28,46,33,188,29,17,21,065,20,1*68
$GPGSV,3,3,10,03,10,031,23,32,09,317,23,1*68
$GLGSV,2,1,07,84,72,053,22,75,61,320,35,74,60,138,22,85,48,207,29,1*71
$GLGSV,2,2,07,73,15,139,24,67,09,012,21,66,08,323,,1*40
$GAGSV,3,1,09,21,86,070,30,13,58,130,29,15,36,050,28,27,31,112,25,7*7B
$GAGSV,3,2,09,26,22,185,19,04,14,288,19,06,12,313,21,09,08,335,19,7*7B
$GAGSV,3,3,09,19,03,235,16,7*42
$GBGSV,3,1,12,34,80,112,35,25,66,186,34,11,66,204,33,12,53,058,31,1*7F
$GBGSV,3,2,12,23,47,299,32,43,42,220,32,44,28,055,32,24,18,147,27,1*76
$GBGSV,3,3,12,39,11,330,25,19,03,016,18,16,02,334,,48,01,353,,1*74
$GNRMC,004726.000,A,4910.429110,N,12304.403370,W,0.03,40.82,070125,,,D,V*22
$GNVTG,40.82,T,,M,0.03,N,0.05,K,D*1E
$PAIRLOG,Full*51
$GNGGA,004727.000,4910.429110,N,12304.403400,W,2,29,0.52,2.721,M,-16.816,M,,*4E
