$GNGGA,000039.000,4910.430586,N,12304.396476,W,2,32,0.47,4.009,M,-16.817,M,,*4F
$GNGLL,4910.430586,N,12304.396476,W,000039.000,A,D*57
$GNGSA,A,3,22,14,17,13,19,30,15,02,24,21,,,0.85,0.47,0.71,1*00
$GNGSA,A,3,73,80,72,71,,,,,,,,,0.85,0.47,0.71,2*05
$GNGSA,A,3,25,03,24,08,02,10,05,33,,,,,0.85,0.47,0.71,3*07
$GNGSA,A,3,36,27,30,28,22,21,45,08,13,37,,,0.85,0.47,0.71,4*09
$GPGSV,4,1,13,22,84,346,31,14,66,067,31,17,66,155,32,13,45,229,31,1*64
$GPGSV,4,2,13,19,39,191,32,30,35,135,30,15,33,273,28,46,33,188,28,1*6A
$GPGSV,4,3,13,02,26,061,30,24,18,307,25,21,17,042,24,23,02,317,16,1*6B
$GPGSV,4,4,13,07,02,130,13,1*53
$GLGSV,2,1,07,73,68,337,27,82,44,061,,83,41,124,,80,38,082,26,1*7D
$GLGSV,2,2,07,72,31,306,19,74,29,293,,71,27,248,22,1*48
$GAGSV,3,1,10,25,79,293,28,03,45,242,26,24,43,071,25,08,31,308,21,7*7B
$GAGSV,3,2,10,12,26,079,19,02,26,262,21,10,24,105,20,05,18,189,18,7*75
$GAGSV,3,3,10,11,14,131,17,33,11,025,19,7*7D
$GBGSV,3,1,12,36,64,295,39,46,59,099,,27,48,089,40,30,37,160,36,1*73
$GBGSV,3,2,12,28,21,043,32,22,19,266,34,21,15,318,31,45,14,288,31,1*7D
$GBGSV,3,3,12,08,07,310,24,13,07,320,26,37,06,106,20,19,03,219,18,1*71
$GNRMC,000039.000,A,4910.430586,N,12304.396476,W,0.02,342.49,061224,,,D,V*13
$GNVTG,342.49,T,,M,0.02,N,0.03,K,D*2F
$GNGGA,000040.000,4910.430538,N,12304.396428,W,2,32,0.47,3.900,M,-16.816,M,,*49
$GNGLL,4910.430538,N,12304.396428,W,000040.000,A,D*57
$GNGSA,A,3,22,14,17,13,19,30,15,02,24,21,,,0.85,0.47,0.71,1*00
$GNGSA,A,3,73,80,72,71,,,,,,,,,0.85,0.47,0.71,2*05
$GNGSA,A,3,25,03,24,08,02,10,05,33,,,,,0.85,0.47,0.71,3*07
$GNGSA,A,3,36,27,30,28,22,21,45,08,13,37,,,0.85,0.47,0.71,4*09
$GPGSV,4,1,13,22,84,346,31,14,66,067,31,17,66,155,32,13,45,229,31,1*64
$GPGSV,4,2,13,19,39,191,32,30,35,135,30,15,33,273,28,46,33,188,28,1*6A
$GPGSV,4,3,13,02,26,061,30,24,18,307,25,21,17,042,25,23,02,317,16,1*6A
$GPGSV,4,4,13,07,02,130,10,1*50
$GLGSV,2,1,07,73,68,337,27,82,44,061,,83,41,124,,80,38,082,26,1*7D
$GLGSV,2,2,07,72,31,306,19,74,29,293,,71,27,248,22,1*48
$GAGSV,3,1,10,25,79,293,28,03,45,242,26,24,43,071,25,08,31,308,21,7*7B
$GAGSV,3,2,10,12,26,079,19,02,26,262,21,10,24,105,20,05,18,189,18,7*75
$GAGSV,3,3,10,11,14,131,17,33,11,025,19,7*7D
$GBGSV,3,1,12,36,64,295,39,46,59,099,,27,48,089,40,30,37,160,36,1*73
$GBGSV,3,2,12,28,21,043,32,22,19,266,34,21,15,318,31,45,14,288,31,1*7D
$GBGSV,3,3,12,08,07,310,24,13,07,320,26,37,06,106,20,19,03,219,18,1*71
$GNRMC,000040.000,A,4910.430538,N,12304.396428,W,0.02,342.49,061224,,,D,V*13
$GNVTG,342.49,T,,M,0.02,N,0.03,K,D*2F
$GNGGA,000041.000,4910.430430,N,12304.396416,W,2,32,0.47,3.761,M,-16.817,M,,*44
$GNGLL,4910.430430,N,12304.396416,W,000041.000,A,D*52
$GNGSA,A,3,22,14,17,13,19,30,15,02,24,21,,,0.85,0.47,0.71,1*00
$GNGSA,A,3,73,80,72,71,,,,,,,,,0.85,0.47,0.71,2*05
$GNGSA,A,3,25,03,24,08,02,10,05,33,,,,,0.85,0.47,0.71,3*07
$GNGSA,A,3,36,27,30,28,22,21,45,08,13,37,,,0.85,0.47,0.71,4*09
$GPGSV,4,1,13,22,84,346,31,14,66,067,31,17,66,155,32,13,45,229,31,1*64
$GPGSV,4,2,13,19,39,191,32,30,35,135,30,15,33,273,28,46,33,188,28,1*6A
$GPGSV,4,3,13,02,26,061,29,24,18,307,25,21,17,042,24,23,02,317,16,1*63
$GPGSV,4,4,13,07,02,130,,1*51
$GLGSV,2,1,07,73,68,337,27,82,44,061,,83,41,124,,80,38,082,26,1*7D
$GLGSV,2,2,07,72,31,306,19,74,29,293,,71,27,248,22,1*48
$GAGSV,3,1,10,25,79,293,28,03,45,242,26,24,43,071,25,08,31,308,21,7*7B
$GAGSV,3,2,10,12,26,079,19,02,26,262,21,10,24,105,20,05,18,189,18,7*75
$GAGSV,3,3,10,11,14,131,17,33,11,025,19,7*7D
$GBGSV,3,1,12,36,64,295,39,46,59,099,,27,48,089,40,30,37,160,36,1*73
$GBGSV,3,2,12,28,21,043,32,22,19,266,34,21,15,318,31,45,14,288,31,1*7D
$GBGSV,3,3,12,08,07,310,24,13,07,320,26,37,06,106,20,19,03,219,18,1*71
$GNRMC,000041.000,A,4910.430430,N,12304.396416,W,0.02,342.49,061224,,,D,V*16
$GNVTG,342.49,T,,M,0.02,N,0.03,K,D*2F
$GNGGA,000042.000,4910.430340,N,12304.396434,W,2,32,0.47,3.722,M,-16.816,M,,*41
$GNGLL,4910.430340,N,12304.396434,W,000042.000,A,D*51
$GNGSA,A,3,22,14,17,13,19,30,15,02,24,21,,,0.85,0.47,0.71,1*00
$GNGSA,A,3,73,80,72,71,,,,,,,,,0.85,0.47,0.71,2*05
$GNGSA,A,3,25,03,24,08,02,10,05,33,,,,,0.85,0.47,0.71,3*07
$GNGSA,A,3,36,27,30,28,22,21,45,08,13,37,,,0.85,0.47,0.71,4*09
$GPGSV,4,1,13,22,84,346,30,14,66,067,31,17,66,155,32,13,45,229,31,1*65
$GPGSV,4,2,13,19,39,191,32,30,35,135,30,15,33,273,27,46,33,188,28,1*65
$GPGSV,4,3,13,02,26,061,28,24,18,307,25,21,17,042,24,23,02,317,16,1*62
$GPGSV,4,4,13,07,02,130,,1*51
$GLGSV,2,1,07,73,68,337,27,82,44,061,,83,41,124,,80,38,082,26,1*7D
$GLGSV,2,2,07,72,31,306,19,74,29,293,,71,26,247,22,1*46
$GAGSV,3,1,10,25,79,293,27,03,45,242,26,24,43,071,25,08,31,308,21,7*74
$GAGSV,3,2,10,12,26,079,19,02,26,262,21,10,24,105,20,05,18,189,18,7*75
$GAGSV,3,3,10,11,14,131,17,33,11,025,19,7*7D
$GBGSV,3,1,12,36,64,295,39,46,59,099,,27,48,089,40,30,37,160,36,1*73
$GBGSV,3,2,12,28,21,043,32,22,19,266,34,21,15,318,31,45,14,288,31,1*7D
$GBGSV,3,3,12,08,07,310,24,13,07,320,26,37,06,106,20,19,03,219,18,1*71
$GNRMC,000042.000,A,4910.430340,N,12304.396434,W,0.02,342.49,061224,,,D,V*15
$GNVTG,342.49,T,,M,0.02,N,0.04,K,D*28
$GNGGA,000043.000,4910.430226,N,12304.396416,W,2,32,0.47,3.631,M,-16.816,M,,*42
$GNGLL,4910.430226,N,12304.396416,W,000043.000,A,D*51
$GNGSA,A,3,22,14,17,13,19,30,15,02,24,21,,,0.85,0.47,0.71,1*00
$GNGSA,A,3,73,80,72,71,,,,,,,,,0.85,0.47,0.71,2*05
$GNGSA,A,3,25,03,24,08,02,10,05,33,,,,,0.85,0.47,0.71,3*07
$GNGSA,A,3,36,27,30,28,22,21,45,08,13,37,,,0.85,0.47,0.71,4*09
$GPGSV,4,1,13,22,84,346,30,14,66,067,31,17,66,155,32,13,45,229,31,1*65
$GPGSV,4,2,13,19,39,191,32,30,35,135,30,15,33,273,27,46,33,188,28,1*65
$GPGSV,4,3,13,02,26,061,28,24,18,307,26,21,17,042,24,23,02,317,16,1*61
$GPGSV,4,4,13,07,02,130,,1*51
$GLGSV,2,1,07,73,68,337,26,82,44,061,,83,41,124,,80,38,082,25,1*7F
$GLGSV,2,2,07,72,31,304,18,74,29,293,,71,26,247,21,1*46
$GAGSV,3,1,10,25,79,293,27,03,45,242,26,24,43,071,25,08,31,308,20,7*75
$GAGSV,3,2,10,12,26,079,19,02,26,262,21,10,24,105,20,05,18,189,18,7*75
$GAGSV,3,3,10,11,14,131,17,33,11,025,19,7*7D
$GBGSV,3,1,12,36,64,295,39,46,59,099,,27,48,089,40,30,37,160,36,1*73
$GBGSV,3,2,12,28,21,043,32,22,19,266,34,21,15,318,31,45,14,288,31,1*7D
$GBGSV,3,3,12,08,07,310,24,13,07,320,26,37,06,106,20,19,03,219,19,1*70
$GNRMC,000043.000,A,4910.430226,N,12304.396416,W,0.02,342.49,061224,,,D,V*15
$GNVTG,342.49,T,,M,0.02,N,0.04,K,D*28
$GNGGA,000044.000,4910.430136,N,12304.396428,W,2,32,0.47,3.630,M,-16.816,M,,*4B
$GNGLL,4910.430136,N,12304.396428,W,000044.000,A,D*59
$GNGSA,A,3,22,14,17,13,19,30,15,02,24,21,,,0.85,0.47,0.71,1*00
$GNGSA,A,3,73,80,72,71,,,,,,,,,0.85,0.47,0.71,2*05
$GNGSA,A,3,25,03,24,08,02,10,05,33,,,,,0.85,0.47,0.71,3*07
$GNGSA,A,3,36,27,30,28,22,21,45,08,13,37,,,0.85,0.47,0.71,4*09
$GPGSV,3,1,12,22,84,346,30,14,66,067,31,17,66,155,32,13,45,229,31,1*63
$GPGSV,3,2,12,19,39,191,32,30,35,135,30,15,33,273,27,46,33,188,28,1*63
$GPGSV,3,3,12,02,26,061,28,24,18,307,25,21,17,042,25,23,02,317,16,1*65
$GLGSV,2,1,07,73,69,341,26,82,44,061,,83,41,124,,80,38,082,25,1*7F
$GLGSV,2,2,07,72,31,304,18,74,29,293,,71,26,247,21,1*46
$GAGSV,3,1,10,25,79,293,28,03,45,242,26,24,43,071,25,08,31,308,20,7*7A
$GAGSV,3,2,10,12,26,079,19,02,26,262,21,10,24,105,20,05,18,189,18,7*75
$GAGSV,3,3,10,11,14,131,17,33,11,025,19,7*7D
$GBGSV,4,1,13,36,64,295,39,46,59,099,,27,48,089,40,30,37,160,36,1*75
$GBGSV,4,2,13,28,21,043,32,22,19,266,33,57,18,080,,21,15,318,31,1*7B
$GBGSV,4,3,13,45,14,288,31,08,07,310,24,13,07,320,26,37,06,106,20,1*7B
$GBGSV,4,4,13,19,03,219,19,1*4D
$GNRMC,000044.000,A,4910.430136,N,12304.396428,W,0.03,342.49,061224,,,D,V*1C
$GNVTG,342.49,T,,M,0.03,N,0.05,K,D*28
$GNGGA,000045.000,4910.430010,N,12304.396518,W,2,32,0.47,3.650,M,-16.816,M,,*4B
$GNGLL,4910.430010,N,12304.396518,W,000045.000,A,D*5F
$GNGSA,A,3,22,14,17,13,19,30,15,02,24,21,,,0.85,0.47,0.71,1*00
$GNGSA,A,3,73,80,72,71,,,,,,,,,0.85,0.47,0.71,2*05
$GNGSA,A,3,25,03,24,08,02,10,05,33,,,,,0.85,0.47,0.71,3*07
$GNGSA,A,3,36,27,30,28,22,21,45,08,13,37,,,0.85,0.47,0.71,4*09
$GPGSV,3,1,12,22,84,346,30,14,66,067,31,17,66,155,32,13,45,229,31,1*63
$GPGSV,3,2,12,19,39,191,32,30,35,135,30,15,33,273,27,46,33,188,28,1*63
$GPGSV,3,3,12,02,26,061,28,24,18,307,25,21,17,042,23,23,02,317,16,1*63
$GLGSV,2,1,07,73,69,341,26,82,44,061,,83,41,124,,80,38,082,25,1*7F
$GLGSV,2,2,07,72,31,304,18,74,30,294,,71,26,247,21,1*49
$GAGSV,3,1,10,25,79,293,28,03,45,242,26,24,43,071,25,08,31,308,20,7*7A
$GAGSV,3,2,10,12,26,079,19,02,26,262,21,10,24,105,20,05,18,189,18,7*75
$GAGSV,3,3,10,11,14,131,16,33,11,025,19,7*7C
$GBGSV,4,1,13,36,64,295,39,46,59,099,,27,48,089,39,30,37,160,36,1*7B
$GBGSV,4,2,13,28,21,043,32,22,19,266,33,57,18,080,,21,15,318,31,1*7B
$GBGSV,4,3,13,45,14,288,31,08,07,310,24,13,07,320,26,37,06,106,20,1*7B
$GBGSV,4,4,13,19,03,219,19,1*4D
$GNRMC,000045.000,A,4910.430010,N,12304.396518,W,0.03,342.49,061224,,,D,V*1A
$GNVTG,342.49,T,,M,0.03,N,0.06,K,D*2B
$GNGGA,000046.000,4910.429830,N,12304.396596,W,2,32,0.47,3.578,M,-16.816,M,,*45
$GNGLL,4910.429830,N,12304.396596,W,000046.000,A,D*58
$GNGSA,A,3,22,14,17,13,19,30,15,02,24,21,,,0.85,0.47,0.71,1*00
$GNGSA,A,3,73,80,72,71,,,,,,,,,0.85,0.47,0.71,2*05
$GNGSA,A,3,25,03,24,08,02,10,05,33,,,,,0.85,0.47,0.71,3*07
$GNGSA,A,3,36,27,30,28,22,21,45,08,13,37,,,0.85,0.47,0.71,4*09
$GPGSV,3,1,12,22,84,346,30,14,66,067,31,17,66,155,32,13,45,229,31,1*63
$GPGSV,3,2,12,19,39,191,32,30,35,135,30,15,33,273,27,46,33,188,28,1*63
$GPGSV,3,3,12,02,26,061,28,24,18,307,25,21,17,042,23,23,02,317,16,1*63
$GLGSV,2,1,07,73,69,341,27,82,44,061,,83,41,124,,80,38,082,26,1*7D
$GLGSV,2,2,07,72,31,304,18,74,30,294,,71,26,247,21,1*49
$GAGSV,3,1,10,25,79,293,28,03,45,242,26,24,43,071,25,08,31,308,20,7*7A
$GAGSV,3,2,10,12,26,079,19,02,26,262,21,10,24,105,20,05,18,189,18,7*75
$GAGSV,3,3,10,11,14,131,16,33,11,025,19,7*7C
$GBGSV,4,1,13,36,64,295,39,46,59,099,,27,48,089,40,30,37,160,35,1*76
$GBGSV,4,2,13,28,21,043,32,22,19,266,33,57,18,080,,21,15,318,31,1*7B
$GBGSV,4,3,13,45,14,288,31,08,07,310,24,13,07,320,26,37,06,106,20,1*7B
$GBGSV,4,4,13,19,03,219,19,1*4D
$GNRMC,000046.000,A,4910.429830,N,12304.396596,W,0.03,342.49,061224,,,D,V*1D
$GNVTG,342.49,T,,M,0.03,N,0.06,K,D*2B
$GNGGA,000047.000,4910.429590,N,12304.396662,W,2,32,0.47,3.437,M,-16.817,M,,*40
$GNGLL,4910.429590,N,12304.396662,W,000047.000,A,D*56
$GNGSA,A,3,22,14,17,13,19,30,15,02,24,21,,,0.85,0.47,0.71,1*00
$GNGSA,A,3,73,80,72,71,,,,,,,,,0.85,0.47,0.71,2*05
$GNGSA,A,3,25,03,24,08,02,10,05,33,,,,,0.85,0.47,0.71,3*07
$GNGSA,A,3,36,27,30,28,22,21,45,08,13,37,,,0.85,0.47,0.71,4*09
$GPGSV,3,1,12,22,84,346,30,14,66,067,31,17,66,155,32,13,45,229,31,1*63
$GPGSV,3,2,12,19,39,191,32,30,35,135,30,15,33,273,27,46,33,188,28,1*63
$GPGSV,3,3,12,02,26,061,28,24,18,307,25,21,17,042,22,23,02,317,16,1*62
$GLGSV,2,1,07,73,69,341,27,82,44,061,,83,41,124,,80,38,082,26,1*7D
$GLGSV,2,2,07,72,31,304,18,74,30,294,,71,26,247,21,1*49
$GAGSV,3,1,10,25,79,293,28,03,45,242,26,24,43,071,25,08,31,308,20,7*7A
$GAGSV,3,2,10,12,26,079,19,02,26,262,21,10,24,105,20,05,18,189,18,7*75
$GAGSV,3,3,10,11,14,131,16,33,11,025,19,7*7C
$GBGSV,4,1,13,36,64,295,39,46,59,099,,27,48,089,40,30,37,160,35,1*76
$GBGSV,4,2,13,28,21,043,32,22,19,266,33,57,18,080,,21,15,318,31,1*7B
$GBGSV,4,3,13,45,14,288,31,08,07,310,24,13,07,320,26,37,06,106,20,1*7B
$GBGSV,4,4,13,19,03,219,19,1*4D
$GNRMC,000047.000,A,4910.429590,N,12304.396662,W,0.04,342.49,061224,,,D,V*14
$GNVTG,342.49,T,,M,0.04,N,0.08,K,D*22
$GNGGA,000048.000,4910.429380,N,12304.396812,W,2,32,0.47,3.432,M,-16.816,M,,*45
$GNGLL,4910.429380,N,12304.396812,W,000048.000,A,D*57
$GNGSA,A,3,22,14,17,13,19,30,15,02,24,21,,,0.85,0.47,0.71,1*00
$GNGSA,A,3,73,80,72,71,,,,,,,,,0.85,0.47,0.71,2*05
$GNGSA,A,3,25,03,24,08,02,10,05,33,,,,,0.85,0.47,0.71,3*07
$GNGSA,A,3,36,27,30,28,22,21,45,08,13,37,,,0.85,0.47,0.71,4*09
$GPGSV,3,1,12,22,84,346,30,14,66,067,31,17,66,155,32,13,45,229,31,1*63
$GPGSV,3,2,12,19,39,191,32,30,35,135,30,15,33,273,27,46,33,188,28,1*63
$GPGSV,3,3,12,02,26,061,27,24,18,307,25,21,17,042,23,23,02,317,15,1*6F
$GLGSV,2,1,07,73,69,341,27,82,44,061,,83,41,124,,80,38,082,26,1*7D
$GLGSV,2,2,07,72,31,304,18,74,30,294,,71,26,247,21,1*49
$GAGSV,3,1,10,25,79,293,29,03,45,242,26,24,43,071,26,08,31,308,20,7*78
$GAGSV,3,2,10,12,26,079,19,02,26,262,22,10,24,105,20,05,18,189,18,7*76
$GAGSV,3,3,10,11,14,131,16,33,11,025,19,7*7C
$GBGSV,4,1,13,36,64,295,39,46,59,099,,27,48,089,40,30,37,160,36,1*75
$GBGSV,4,2,13,28,21,043,32,22,19,266,33,57,18,080,,21,15,318,31,1*7B
$GBGSV,4,3,13,45,14,288,31,08,07,310,24,13,07,320,26,37,06,106,20,1*7B
$GBGSV,4,4,13,19,03,219,19,1*4D
$GNRMC,000048.000,A,4910.429380,N,12304.396812,W,0.05,342.49,061224,,,D,V*14
$GNVTG,342.49,T,,M,0.05,N,0.09,K,D*22
$GNGGA,000049.000,4910.429206,N,12304.396938,W,2,32,0.47,3.353,M,-16.816,M,,*42
$GNGLL,4910.429206,N,12304.396938,W,000049.000,A,D*50
$GNGSA,A,3,22,14,17,13,19,30,15,02,24,21,,,0.85,0.47,0.71,1*00
$GNGSA,A,3,73,80,72,71,,,,,,,,,0.85,0.47,0.71,2*05
$GNGSA,A,3,25,03,24,08,02,10,05,33,,,,,0.85,0.47,0.71,3*07
$GNGSA,A,3,36,27,30,28,22,21,45,08,13,37,,,0.85,0.47,0.71,4*09
$GPGSV,3,1,12,22,84,346,30,14,66,067,31,17,66,155,32,13,45,229,32,1*60
$GPGSV,3,2,12,19,39,191,32,30,35,135,30,15,33,273,28,46,33,188,29,1*6D
$GPGSV,3,3,12,02,26,061,27,24,18,307,27,21,17,042,24,23,02,317,17,1*68
$GLGSV,2,1,07,73,69,341,28,82,44,061,,83,41,124,,80,38,082,26,1*72
$GLGSV,2,2,07,72,31,304,18,74,30,294,,71,26,247,22,1*4A
$GAGSV,3,1,10,25,79,293,29,03,45,242,27,24,43,071,27,08,31,308,20,7*78
$GAGSV,3,2,10,12,26,079,19,02,26,262,23,10,24,105,21,05,18,189,19,7*77
$GAGSV,3,3,10,11,14,131,17,33,11,025,20,7*77
$GBGSV,4,1,13,36,64,295,39,46,59,099,,27,48,089,40,30,37,160,36,1*75
$GBGSV,4,2,13,28,21,043,32,22,19,266,33,57,18,080,,21,15,318,31,1*7B
$GBGSV,4,3,13,45,14,288,31,08,07,310,24,13,07,320,26,37,06,106,20,1*7B
$GBGSV,4,4,13,19,03,219,19,1*4D
$GNRMC,000049.000,A,4910.429206,N,12304.396938,W,0.04,342.49,061224,,,D,V*12
$GNVTG,342.49,T,,M,0.04,N,0.08,K,D*22
$GNGGA,000050.000,4910.429032,N,12304.397028,W,2,32,0.47,3.263,M,-16.816,M,,*44
$GNGLL,4910.429032,N,12304.397028,W,000050.000,A,D*54
$GNGSA,A,3,22,14,17,13,19,30,15,02,24,21,,,0.84,0.47,0.70,1*00
$GNGSA,A,3,73,80,72,71,,,,,,,,,0.84,0.47,0.70,2*05
$GNGSA,A,3,25,03,24,08,02,10,05,33,,,,,0.84,0.47,0.70,3*07
$GNGSA,A,3,36,27,30,28,22,21,45,08,13,37,,,0.84,0.47,0.70,4*09
$GPGSV,3,1,12,22,84,346,31,14,66,067,32,17,66,155,32,13,45,229,32,1*62
$GPGSV,3,2,12,19,39,191,32,30,35,135,30,15,33,273,28,46,33,188,29,1*6D
$GPGSV,3,3,12,02,26,061,27,24,18,307,26,21,17,042,24,23,02,317,17,1*69
$GLGSV,2,1,07,73,69,341,28,82,44,061,,83,41,124,,80,38,082,25,1*71
$GLGSV,2,2,07,72,31,304,18,74,30,294,,71,26,247,22,1*4A
$GAGSV,3,1,10,25,79,293,29,03,45,242,27,24,43,071,27,08,31,308,21,7*79
$GAGSV,3,2,10,12,26,079,19,02,26,262,23,10,24,105,21,05,18,189,19,7*77
$GAGSV,3,3,10,11,14,131,17,33,11,025,20,7*77
$GBGSV,4,1,13,36,64,295,39,46,59,099,,27,48,089,40,30,37,160,36,1*75
$GBGSV,4,2,13,28,21,043,32,22,19,266,33,57,18,080,,21,15,318,31,1*7B
$GBGSV,4,3,13,45,14,288,31,08,07,310,24,13,07,320,26,37,06,106,20,1*7B
$GBGSV,4,4,13,19,03,219,19,1*4D
$GNRMC,000050.000,A,4910.429032,N,12304.397028,W,0.04,342.49,061224,,,D,V*16
$GNVTG,342.49,T,,M,0.04,N,0.08,K,D*22
$GNGGA,000051.000,4910.428846,N,12304.397244,W,2,32,0.47,3.274,M,-16.816,M,,*41
$GNGLL,4910.428846,N,12304.397244,W,000051.000,A,D*57
$GNGSA,A,3,22,14,17,13,19,30,15,02,24,21,,,0.85,0.47,0.71,1*00
$GNGSA,A,3,73,80,72,71,,,,,,,,,0.85,0.47,0.71,2*05
$GNGSA,A,3,25,03,24,08,02,10,05,33,,,,,0.85,0.47,0.71,3*07
$GNGSA,A,3,36,27,30,28,22,21,45,08,13,37,,,0.85,0.47,0.71,4*09
$GPGSV,3,1,12,22,84,346,31,14,66,067,33,17,66,155,33,13,45,229,33,1*63
$GPGSV,3,2,12,19,39,191,32,30,35,135,30,15,33,273,29,46,33,188,30,1*64
$GPGSV,3,3,12,02,26,061,27,24,18,307,26,21,17,042,25,23,02,317,17,1*68
$GLGSV,2,1,07,73,69,341,28,82,44,061,,83,41,124,,80,37,083,25,1*7F
$GLGSV,2,2,07,72,31,304,18,74,30,294,,71,26,247,22,1*4A
$GAGSV,3,1,10,25,79,293,30,03,45,242,28,24,43,071,27,08,31,308,21,7*7E
$GAGSV,3,2,10,12,26,079,20,02,26,262,23,10,24,105,21,05,18,189,19,7*7D
$GAGSV,3,3,10,11,14,131,17,33,11,025,20,7*77
$GBGSV,4,1,13,36,64,295,39,46,59,099,,27,48,089,40,30,37,160,36,1*75
$GBGSV,4,2,13,28,21,043,32,22,19,266,33,57,18,080,,21,15,318,31,1*7B
$GBGSV,4,3,13,45,14,288,32,08,07,310,25,13,07,320,26,37,06,106,20,1*79
$GBGSV,4,4,13,19,03,219,19,1*4D
$GNRMC,000051.000,A,4910.428846,N,12304.397244,W,0.04,342.49,061224,,,D,V*15
$GNVTG,342.49,T,,M,0.04,N,0.08,K,D*22
$GNGGA,000052.000,4910.428738,N,12304.397430,W,2,32,0.47,3.312,M,-16.816,M,,*40
$GNGLL,4910.428738,N,12304.397430,W,000052.000,A,D*57
$GNGSA,A,3,22,14,17,13,19,30,15,02,24,21,,,0.84,0.47,0.70,1*00
$GNGSA,A,3,73,80,72,71,,,,,,,,,0.84,0.47,0.70,2*05
$GNGSA,A,3,25,03,24,08,02,10,05,33,,,,,0.84,0.47,0.70,3*07
$GNGSA,A,3,36,27,30,28,22,21,45,08,13,37,,,0.84,0.47,0.70,4*09
$GPGSV,3,1,12,22,84,346,31,14,66,067,32,17,66,155,32,13,45,229,32,1*62
$GPGSV,3,2,12,19,39,191,32,30,35,135,30,15,33,273,29,46,33,188,30,1*64
$GPGSV,3,3,12,02,26,061,27,24,18,307,25,21,17,042,23,23,02,317,17,1*6D
$GLGSV,2,1,07,73,69,341,27,82,44,061,,83,41,124,,80,37,083,25,1*70
$GLGSV,2,2,07,72,31,304,19,74,30,294,,71,26,247,22,1*4B
$GAGSV,3,1,10,25,79,293,30,03,45,242,28,24,43,071,27,08,31,308,21,7*7E
$GAGSV,3,2,10,12,26,079,20,02,26,262,22,10,24,105,20,05,18,189,19,7*7D
$GAGSV,3,3,10,11,14,131,17,33,11,025,20,7*77
$GBGSV,4,1,13,36,64,295,39,46,59,099,,27,48,089,40,30,37,160,36,1*75
$GBGSV,4,2,13,28,21,043,32,22,19,266,33,57,18,080,,21,15,318,31,1*7B
$GBGSV,4,3,13,45,14,288,32,08,07,310,25,13,07,320,27,37,06,106,20,1*78
$GBGSV,4,4,13,19,03,219,19,1*4D
$GNRMC,000052.000,A,4910.428738,N,12304.397430,W,0.03,342.49,061224,,,D,V*12
$GNVTG,342.49,T,,M,0.03,N,0.06,K,D*2B
$GNGGA,000053.000,4910.428576,N,12304.397592,W,2,32,0.47,3.372,M,-16.817,M,,*47
$GNGLL,4910.428576,N,12304.397592,W,000053.000,A,D*57
$GNGSA,A,3,22,14,17,13,19,30,15,02,24,21,,,0.84,0.47,0.70,1*00
$GNGSA,A,3,73,80,72,71,,,,,,,,,0.84,0.47,0.70,2*05
$GNGSA,A,3,25,03,24,08,02,10,05,33,,,,,0.84,0.47,0.70,3*07
$GNGSA,A,3,36,27,30,28,22,21,45,08,13,37,,,0.84,0.47,0.70,4*09
$GPGSV,3,1,12,22,84,346,31,14,66,067,32,17,66,155,32,13,45,229,32,1*62
$GPGSV,3,2,12,19,39,191,31,30,35,135,30,15,33,273,28,46,33,188,29,1*6E
$GPGSV,3,3,12,02,26,061,27,24,18,307,25,21,17,042,24,23,02,317,16,1*6B
$GLGSV,2,1,07,73,69,341,27,82,44,059,,83,41,124,,80,37,083,25,1*7B
$GLGSV,2,2,07,72,31,304,19,74,30,294,,71,26,247,22,1*4B
$GAGSV,3,1,10,25,79,293,30,03,45,242,28,24,43,071,27,08,31,308,20,7*7F
$GAGSV,3,2,10,12,26,079,20,02,26,262,21,10,24,105,20,05,18,189,19,7*7E
$GAGSV,3,3,10,11,14,131,17,33,11,025,20,7*77
$GBGSV,4,1,13,36,64,295,39,46,59,099,,27,48,089,40,30,37,160,36,1*75
$GBGSV,4,2,13,28,21,043,32,22,19,266,33,57,18,080,,21,15,318,31,1*7B
$GBGSV,4,3,13,45,14,288,32,08,07,310,25,13,07,320,27,37,06,106,20,1*78
$GBGSV,4,4,13,19,03,219,19,1*4D
$GNRMC,000053.000,A,4910.428576,N,12304.397592,W,0.03,342.49,061224,,,D,V*12
$GNVTG,342.49,T,,M,0.03,N,0.06,K,D*2B
$GNGGA,000054.000,4910.428420,N,12304.397748,W,2,32,0.47,3.514,M,-16.816,M,,*40
$GNGLL,4910.428420,N,12304.397748,W,000054.000,A,D*57
$GNGSA,A,3,22,14,17,13,19,30,15,02,24,21,,,0.84,0.47,0.70,1*00
$GNGSA,A,3,73,80,72,71,,,,,,,,,0.84,0.47,0.70,2*05
$GNGSA,A,3,25,03,24,08,02,10,05,33,,,,,0.84,0.47,0.70,3*07
$GNGSA,A,3,36,27,30,28,22,21,45,08,13,37,,,0.84,0.47,0.70,4*09
$GPGSV,3,1,12,22,84,346,31,14,66,067,32,17,66,155,31,13,45,229,32,1*61
$GPGSV,3,2,12,19,39,191,31,30,35,135,29,15,33,273,27,46,33,188,29,1*69
$GPGSV,3,3,12,02,26,061,26,24,18,307,24,21,17,042,23,23,02,317,16,1*6C
$GLGSV,2,1,07,73,69,341,27,82,44,059,,83,42,123,,80,37,083,25,1*7F
$GLGSV,2,2,07,72,31,304,20,74,30,294,,71,26,247,22,1*41
$GAGSV,3,1,10,25,79,293,30,03,45,242,28,24,43,071,27,08,31,308,20,7*7F
$GAGSV,3,2,10,12,26,079,20,02,26,262,21,10,24,105,19,05,18,189,19,7*74
$GAGSV,3,3,10,11,14,131,17,33,11,025,20,7*77
$GBGSV,4,1,13,36,64,295,39,46,59,099,,27,48,089,40,30,37,160,36,1*75
$GBGSV,4,2,13,28,21,043,32,22,19,266,33,57,18,080,,21,15,318,31,1*7B
$GBGSV,4,3,13,45,14,288,31,08,07,310,25,13,07,320,27,37,06,106,20,1*7B
$GBGSV,4,4,13,19,03,219,19,1*4D
$GNRMC,000054.000,A,4910.428420,N,12304.397748,W,0.03,342.49,061224,,,D,V*12
$GNVTG,342.49,T,,M,0.03,N,0.06,K,D*2B
$GNGGA,000055.000,4910.428228,N,12304.398030,W,2,32,0.47,3.645,M,-16.817,M,,*4E
$GNGLL,4910.428228,N,12304.398030,W,000055.000,A,D*5F
$GNGSA,A,3,22,14,17,13,19,30,15,02,24,21,,,0.84,0.47,0.70,1*00
$GNGSA,A,3,73,80,72,71,,,,,,,,,0.84,0.47,0.70,2*05
$GNGSA,A,3,25,03,24,08,02,10,05,33,,,,,0.84,0.47,0.70,3*07
$GNGSA,A,3,36,27,30,28,22,21,45,08,13,37,,,0.84,0.47,0.70,4*09
$GPGSV,3,1,12,22,84,346,31,14,66,067,32,17,66,155,31,13,45,229,32,1*61
$GPGSV,3,2,12,19,39,191,31,30,35,135,29,15,33,273,27,46,33,188,29,1*69
$GPGSV,3,3,12,02,26,061,26,24,18,307,25,21,17,042,24,23,02,317,16,1*6A
$GLGSV,2,1,07,73,69,341,27,82,44,059,,83,42,123,,80,37,083,26,1*7C
$GLGSV,2,2,07,72,31,304,20,74,30,294,,71,26,247,22,1*41
$GAGSV,3,1,10,25,79,293,30,03,45,242,28,24,43,071,27,08,31,308,20,7*7F
$GAGSV,3,2,10,12,26,079,20,02,26,262,21,10,24,105,19,05,18,189,19,7*74
$GAGSV,3,3,10,11,14,131,17,33,11,025,20,7*77
$GBGSV,4,1,13,36,64,295,39,46,59,099,,27,48,089,40,30,37,160,36,1*75
$GBGSV,4,2,13,28,21,043,32,22,19,266,33,57,18,080,,21,15,318,31,1*7B
$GBGSV,4,3,13,45,14,288,31,08,07,310,25,13,07,320,27,37,06,106,20,1*7B
$GBGSV,4,4,13,19,03,219,19,1*4D
$GNRMC,000055.000,A,4910.428228,N,12304.398030,W,0.03,342.49,061224,,,D,V*1A
$GNVTG,342.49,T,,M,0.03,N,0.06,K,D*2B
$GNGGA,000056.000,4910.428108,N,12304.398324,W,2,32,0.47,3.718,M,-16.817,M,,*43
$GNGLL,4910.428108,N,12304.398324,W,000056.000,A,D*5B
$GNGSA,A,3,22,14,17,13,19,30,15,02,24,21,,,0.84,0.47,0.70,1*00
$GNGSA,A,3,73,80,72,71,,,,,,,,,0.84,0.47,0.70,2*05
$GNGSA,A,3,25,03,24,08,02,10,05,33,,,,,0.84,0.47,0.70,3*07
$GNGSA,A,3,36,27,30,28,22,21,45,08,13,37,,,0.84,0.47,0.70,4*09
$GPGSV,3,1,12,22,84,346,31,14,66,067,32,17,66,155,32,13,45,229,32,1*62
$GPGSV,3,2,12,19,39,191,31,30,35,135,29,15,33,273,27,46,33,188,29,1*69
$GPGSV,3,3,12,02,26,061,26,24,18,307,26,21,17,042,24,23,02,317,17,1*68
$GLGSV,2,1,07,73,69,341,28,82,44,059,,83,42,123,,80,37,083,26,1*73
$GLGSV,2,2,07,72,31,304,20,74,30,294,,71,26,247,22,1*41
$GAGSV,3,1,10,25,79,293,30,03,45,242,28,24,43,071,27,08,31,308,20,7*7F
$GAGSV,3,2,10,12,26,079,20,02,26,262,21,10,24,105,19,05,18,189,19,7*74
$GAGSV,3,3,10,11,14,131,17,33,11,025,20,7*77
$GBGSV,4,1,13,36,64,295,39,46,59,099,,27,48,089,40,30,37,160,36,1*75
$GBGSV,4,2,13,28,21,043,32,22,19,266,33,57,18,080,,21,15,318,31,1*7B
$GBGSV,4,3,13,45,14,288,31,08,07,310,25,13,07,320,26,37,06,106,20,1*7A
$GBGSV,4,4,13,19,03,219,19,1*4D
$GNRMC,000056.000,A,4910.428108,N,12304.398324,W,0.03,342.49,061224,,,D,V*1E
$GNVTG,342.49,T,,M,0.03,N,0.06,K,D*2B
$GNGGA,000057.000,4910.428018,N,12304.398606,W,2,32,0.47,3.806,M,-16.816,M,,*46
$GNGLL,4910.428018,N,12304.398606,W,000057.000,A,D*5F
$GNGSA,A,3,22,14,17,13,19,30,15,02,24,21,,,0.84,0.47,0.70,1*00
$GNGSA,A,3,73,80,72,71,,,,,,,,,0.84,0.47,0.70,2*05
$GNGSA,A,3,25,03,24,08,02,10,05,33,,,,,0.84,0.47,0.70,3*07
$GNGSA,A,3,36,27,30,28,22,21,45,08,13,37,,,0.84,0.47,0.70,4*09
$GPGSV,3,1,12,22,84,346,31,14,66,067,32,17,66,155,31,13,45,229,32,1*61
$GPGSV,3,2,12,19,39,191,31,30,35,135,29,15,33,273,27,46,33,188,29,1*69
$GPGSV,3,3,12,02,26,061,26,24,18,307,26,21,17,042,24,23,02,317,16,1*69
$GLGSV,2,1,07,73,69,341,28,82,44,059,,83,42,123,,80,37,083,26,1*73
$GLGSV,2,2,07,72,31,304,19,74,30,294,,71,26,247,21,1*48
$GAGSV,3,1,10,25,79,293,30,03,45,242,28,24,43,071,26,08,31,308,20,7*7E
$GAGSV,3,2,10,12,26,079,20,02,26,262,21,10,24,105,19,05,18,189,19,7*74
$GAGSV,3,3,10,11,14,131,17,33,11,025,20,7*77
$GBGSV,4,1,13,36,64,295,39,46,59,099,,27,48,089,40,30,37,160,36,1*75
$GBGSV,4,2,13,28,21,043,32,22,19,266,33,57,18,080,,21,15,318,31,1*7B
$GBGSV,4,3,13,45,14,288,31,08,07,310,25,13,07,320,26,37,06,106,20,1*7A
$GBGSV,4,4,13,19,03,219,19,1*4D
$GNRMC,000057.000,A,4910.428018,N,12304.398606,W,0.04,342.49,061224,,,D,V*1D
$GNVTG,342.49,T,,M,0.04,N,0.07,K,D*2D
$GNGGA,000058.000,4910.427886,N,12304.398846,W,2,32,0.47,3.924,M,-16.816,M,,*42
$GNGLL,4910.427886,N,12304.398846,W,000058.000,A,D*5A
$GNGSA,A,3,22,14,17,13,19,30,15,02,24,21,,,0.84,0.47,0.70,1*00
$GNGSA,A,3,73,80,72,71,,,,,,,,,0.84,0.47,0.70,2*05
$GNGSA,A,3,25,03,24,08,02,10,05,33,,,,,0.84,0.47,0.70,3*07
$GNGSA,A,3,36,27,30,28,22,21,45,08,13,37,,,0.84,0.47,0.70,4*09
$GPGSV,3,1,12,22,84,346,30,14,66,067,32,17,66,155,31,13,45,229,31,1*63
$GPGSV,3,2,12,19,39,191,30,30,35,135,28,15,33,273,27,46,33,188,28,1*68
$GPGSV,3,3,12,02,26,061,24,24,18,307,25,21,17,042,23,23,02,317,16,1*6F
$GLGSV,2,1,07,73,69,341,28,82,44,059,,83,42,123,,80,37,083,26,1*73
$GLGSV,2,2,07,72,31,304,20,74,30,294,,71,26,247,22,1*41
$GAGSV,3,1,10,25,79,293,29,03,45,242,27,24,43,071,26,08,31,308,19,7*73
$GAGSV,3,2,10,12,26,079,20,02,26,262,21,10,24,105,19,05,18,189,19,7*74
$GAGSV,3,3,10,11,14,131,17,33,11,025,20,7*77
$GBGSV,4,1,13,36,64,295,39,46,59,099,,27,48,089,40,30,37,160,36,1*75
$GBGSV,4,2,13,28,21,043,32,22,19,266,33,57,18,080,,21,15,318,30,1*7A
$GBGSV,4,3,13,45,14,288,31,08,07,310,25,13,07,320,26,37,06,106,20,1*7A
$GBGSV,4,4,13,19,03,219,19,1*4D
$GNRMC,000058.000,A,4910.427886,N,12304.398846,W,0.04,342.49,061224,,,D,V*18
$GNVTG,342.49,T,,M,0.04,N,0.07,K,D*2D
$GNGGA,000059.000,4910.427754,N,12304.399026,W,2,32,0.47,4.085,M,-16.816,M,,*49
$GNGLL,4910.427754,N,12304.399026,W,000059.000,A,D*54
$GNGSA,A,3,22,14,17,13,19,30,15,02,24,21,,,0.84,0.47,0.70,1*00
$GNGSA,A,3,73,80,72,71,,,,,,,,,0.84,0.47,0.70,2*05
$GNGSA,A,3,25,03,24,08,02,10,05,33,,,,,0.84,0.47,0.70,3*07
$GNGSA,A,3,36,27,30,28,22,21,45,08,13,37,,,0.84,0.47,0.70,4*09
$GPGSV,3,1,12,22,84,346,30,14,66,067,32,17,66,155,31,13,45,229,31,1*63
$GPGSV,3,2,12,19,39,191,30,30,35,135,28,15,33,273,27,46,33,188,28,1*68
$GPGSV,3,3,12,02,26,061,23,24,18,307,25,21,17,042,24,23,02,317,17,1*6E
$GLGSV,2,1,07,73,69,341,28,82,44,059,,83,42,123,,80,37,083,26,1*73
$GLGSV,2,2,07,72,31,304,20,74,30,294,,71,26,247,22,1*41
$GAGSV,3,1,10,25,79,293,29,03,45,242,27,24,43,071,26,08,31,308,19,7*73
$GAGSV,3,2,10,12,26,079,20,02,26,262,21,10,24,105,19,05,18,189,19,7*74
$GAGSV,3,3,10,11,14,131,17,33,11,025,20,7*77
$GBGSV,4,1,13,36,64,295,39,46,59,099,,27,48,089,39,30,37,160,36,1*7B
$GBGSV,4,2,13,28,21,043,31,22,19,266,33,57,18,080,,21,15,318,30,1*79
$GBGSV,4,3,13,45,14,288,30,08,07,310,25,13,07,320,26,37,06,106,20,1*7B
$GBGSV,4,4,13,19,03,219,18,1*4C
$GNRMC,000059.000,A,4910.427754,N,12304.399026,W,0.04,342.49,061224,,,D,V*16
$GNVTG,342.49,T,,M,0.04,N,0.07,K,D*2D
$GNGGA,000100.000,4910.427688,N,12304.399242,W,2,32,0.47,4.279,M,-16.816,M,,*45
$GNGLL,4910.427688,N,12304.399242,W,000100.000,A,D*59
$GNGSA,A,3,22,14,17,13,19,30,15,02,24,21,,,0.84,0.47,0.70,1*00
$GNGSA,A,3,73,80,72,71,,,,,,,,,0.84,0.47,0.70,2*05
$GNGSA,A,3,25,03,24,08,02,10,05,33,,,,,0.84,0.47,0.70,3*07
$GNGSA,A,3,36,27,30,28,22,21,45,08,13,37,,,0.84,0.47,0.70,4*09
$GPGSV,3,1,12,22,84,346,30,14,66,067,32,17,66,155,31,13,45,229,31,1*63
$GPGSV,3,2,12,19,39,191,30,30,35,135,28,15,33,273,27,46,33,188,28,1*68
$GPGSV,3,3,12,02,26,061,23,24,18,307,25,21,17,042,23,23,02,317,17,1*69
$GLGSV,2,1,07,73,69,341,28,82,44,059,,83,42,123,,80,37,083,26,1*73
$GLGSV,2,2,07,72,31,304,20,74,30,294,,71,26,247,21,1*42
$GAGSV,3,1,10,25,79,293,29,03,45,242,26,24,43,071,26,08,31,308,18,7*73
$GAGSV,3,2,10,12,26,079,20,02,26,262,21,10,24,105,19,05,18,189,19,7*74
$GAGSV,3,3,10,11,14,131,17,33,11,025,20,7*77
$GBGSV,4,1,13,36,64,295,39,46,59,099,,27,48,089,39,30,37,160,35,1*78
$GBGSV,4,2,13,28,21,043,31,22,19,266,33,57,18,080,,21,15,318,30,1*79
$GBGSV,4,3,13,45,14,288,30,08,07,310,25,13,07,320,26,37,06,106,20,1*7B
$GBGSV,4,4,13,19,03,219,18,1*4C
$GNRMC,000100.000,A,4910.427688,N,12304.399242,W,0.03,342.49,061224,,,D,V*1C
$GNVTG,342.49,T,,M,0.03,N,0.06,K,D*2B
$GNGGA,000101.000,4910.427610,N,12304.399416,W,2,32,0.47,4.445,M,-16.816,M,,*4B
$GNGLL,4910.427610,N,12304.399416,W,000101.000,A,D*5E
$GNGSA,A,3,22,17,14,13,19,30,15,02,24,21,,,0.84,0.47,0.70,1*00
$GNGSA,A,3,73,80,72,71,,,,,,,,,0.84,0.47,0.70,2*05
$GNGSA,A,3,25,03,24,08,02,10,05,33,,,,,0.84,0.47,0.70,3*07
$GNGSA,A,3,36,27,30,28,22,21,45,08,13,37,,,0.84,0.47,0.70,4*09
$GPGSV,4,1,13,22,84,346,30,17,66,155,31,14,66,067,32,13,45,229,31,1*65
$GPGSV,4,2,13,19,39,191,30,30,35,135,28,15,33,273,27,46,33,188,28,1*6E
$GPGSV,4,3,13,02,26,061,22,24,18,307,25,21,17,042,23,10,02,354,,1*6F
$GPGSV,4,4,13,23,02,317,16,1*57
$GLGSV,2,1,07,73,69,341,27,82,44,059,,83,42,123,,80,37,083,26,1*7C
$GLGSV,2,2,07,72,31,304,20,74,30,294,,71,26,247,20,1*43
$GAGSV,3,1,10,25,79,293,29,03,45,242,26,24,43,071,26,08,31,308,18,7*73
$GAGSV,3,2,10,02,26,262,21,12,26,079,20,10,24,105,19,05,18,189,19,7*74
$GAGSV,3,3,10,11,14,131,17,33,11,025,20,7*77
$GBGSV,3,1,12,36,64,295,39,27,48,089,39,30,37,160,35,28,21,043,30,1*7D
$GBGSV,3,2,12,22,19,266,33,57,18,080,,21,15,318,30,45,14,288,30,1*76
$GBGSV,3,3,12,08,07,310,25,13,07,320,25,37,06,106,20,19,03,219,18,1*73
$GNRMC,000101.000,A,4910.427610,N,12304.399416,W,0.03,342.49,061224,,,D,V*1B
$GNVTG,342.49,T,,M,0.03,N,0.05,K,D*28
$GNGGA,000102.000,4910.427514,N,12304.399668,W,2,32,0.47,4.718,M,-16.816,M,,*4F
$GNGLL,4910.427514,N,12304.399668,W,000102.000,A,D*51
$GNGSA,A,3,22,17,14,13,19,30,15,02,24,21,,,0.84,0.47,0.70,1*00
$GNGSA,A,3,73,80,72,71,,,,,,,,,0.84,0.47,0.70,2*05
$GNGSA,A,3,25,03,24,08,02,10,05,33,,,,,0.84,0.47,0.70,3*07
$GNGSA,A,3,36,27,30,28,22,21,45,08,13,37,,,0.84,0.47,0.70,4*09
$GPGSV,4,1,13,22,84,346,30,17,66,155,32,14,66,067,32,13,45,229,31,1*66
$GPGSV,4,2,13,19,39,191,30,30,35,135,28,15,33,273,27,46,33,188,29,1*6F
$GPGSV,4,3,13,02,26,061,24,24,18,307,26,21,17,042,24,10,02,354,,1*6D
$GPGSV,4,4,13,23,02,317,15,1*54
$GLGSV,2,1,07,73,69,341,27,82,44,059,,83,42,123,,80,37,083,27,1*7D
$GLGSV,2,2,07,72,31,304,20,74,30,294,,71,26,247,20,1*43
$GAGSV,3,1,10,25,79,293,29,03,45,242,26,24,43,071,26,08,31,308,18,7*73
$GAGSV,3,2,10,02,26,262,21,12,26,079,20,10,24,105,19,05,18,189,19,7*74
$GAGSV,3,3,10,11,14,131,17,33,11,025,20,7*77
$GBGSV,3,1,12,36,64,295,39,27,48,089,39,30,37,160,35,28,21,043,30,1*7D
$GBGSV,3,2,12,22,19,266,33,57,18,080,,21,15,318,30,45,14,288,30,1*76
$GBGSV,3,3,12,08,07,310,25,13,07,320,25,37,06,106,20,19,03,219,18,1*73
$GNRMC,000102.000,A,4910.427514,N,12304.399668,W,0.03,342.49,061224,,,D,V*14
$GNVTG,342.49,T,,M,0.03,N,0.06,K,D*2B
$GNGGA,000103.000,4910.427466,N,12304.399884,W,2,32,0.47,4.992,M,-16.816,M,,*4A
$GNGLL,4910.427466,N,12304.399884,W,000103.000,A,D*58
$GNGSA,A,3,22,14,17,13,19,30,15,02,24,21,,,0.84,0.47,0.70,1*00
$GNGSA,A,3,73,80,72,71,,,,,,,,,0.84,0.47,0.70,2*05
$GNGSA,A,3,25,03,24,08,02,10,05,33,,,,,0.84,0.47,0.70,3*07
$GNGSA,A,3,36,27,30,28,22,21,45,08,13,37,,,0.84,0.47,0.70,4*09
$GPGSV,4,1,13,22,84,346,31,14,66,067,32,17,66,155,32,13,45,229,32,1*64
$GPGSV,4,2,13,19,39,191,31,30,35,135,28,15,33,273,27,46,33,188,29,1*6E
$GPGSV,4,3,13,02,26,061,25,24,18,307,27,21,17,042,25,10,02,354,,1*6C
$GPGSV,4,4,13,23,02,317,16,1*57
$GLGSV,2,1,07,73,69,341,27,82,44,059,,83,42,123,,80,37,083,27,1*7D
$GLGSV,2,2,07,72,31,304,20,74,30,294,,71,26,247,20,1*43
$GAGSV,3,1,10,25,79,293,29,03,45,242,27,24,43,071,26,08,31,308,18,7*72
$GAGSV,3,2,10,12,26,079,20,02,26,262,21,10,24,105,19,05,18,189,19,7*74
$GAGSV,3,3,10,11,14,131,17,33,11,025,20,7*77
$GBGSV,3,1,12,36,64,295,39,46,59,099,,27,48,089,39,30,37,160,35,1*7E
$GBGSV,3,2,12,28,21,043,30,22,19,266,33,21,15,318,30,45,14,288,30,1*78
$GBGSV,3,3,12,08,07,310,25,13,07,320,25,37,06,106,20,19,03,219,18,1*73
$GNRMC,000103.000,A,4910.427466,N,12304.399884,W,0.03,342.49,061224,,,D,V*1D
$GNVTG,342.49,T,,M,0.03,N,0.05,K,D*28
$GNGGA,000104.000,4910.427478,N,12304.400100,W,2,32,0.47,5.157,M,-16.816,M,,*40
$GNGLL,4910.427478,N,12304.400100,W,000104.000,A,D*52
$GNGSA,A,3,22,14,17,13,19,30,15,02,24,21,,,0.84,0.47,0.70,1*00
$GNGSA,A,3,73,80,72,71,,,,,,,,,0.84,0.47,0.70,2*05
$GNGSA,A,3,25,03,24,08,02,10,05,33,,,,,0.84,0.47,0.70,3*07
$GNGSA,A,3,36,27,30,28,22,21,45,08,13,37,,,0.84,0.47,0.70,4*09
$GPGSV,4,1,13,22,84,346,31,14,66,067,32,17,66,155,32,13,45,229,32,1*64
$GPGSV,4,2,13,19,39,191,31,30,35,135,28,15,33,273,27,46,33,188,29,1*6E
$GPGSV,4,3,13,02,26,061,25,24,18,307,27,21,17,042,26,10,02,354,,1*6F
$GPGSV,4,4,13,23,02,317,17,1*56
$GLGSV,2,1,07,73,69,341,27,82,44,059,,83,42,123,,80,37,083,27,1*7D
$GLGSV,2,2,07,72,31,304,21,74,30,294,,71,26,247,21,1*43
$GAGSV,3,1,10,25,79,293,29,03,45,242,27,24,43,071,26,08,31,308,18,7*72
$GAGSV,3,2,10,12,26,079,20,02,26,262,21,10,24,105,20,05,18,189,19,7*7E
$GAGSV,3,3,10,11,14,131,17,33,11,025,20,7*77
$GBGSV,3,1,12,36,64,295,39,46,59,099,,27,48,089,39,30,37,160,35,1*7E
$GBGSV,3,2,12,28,21,043,30,22,19,266,33,21,15,318,30,45,14,288,30,1*78
$GBGSV,3,3,12,08,07,310,25,13,07,320,25,37,06,106,20,19,03,219,18,1*73
$GNRMC,000104.000,A,4910.427478,N,12304.400100,W,0.03,342.49,061224,,,D,V*17
$GNVTG,342.49,T,,M,0.03,N,0.05,K,D*28
$GNGGA,000105.000,4910.427454,N,12304.400256,W,2,32,0.47,5.330,M,-16.816,M,,*4C
$GNGLL,4910.427454,N,12304.400256,W,000105.000,A,D*5D
$GNGSA,A,3,22,14,17,13,19,30,15,02,24,21,,,0.84,0.47,0.70,1*00
$GNGSA,A,3,73,80,72,71,,,,,,,,,0.84,0.47,0.70,2*05
$GNGSA,A,3,25,03,24,08,02,10,05,33,,,,,0.84,0.47,0.70,3*07
$GNGSA,A,3,36,27,30,28,22,21,45,08,13,37,,,0.84,0.47,0.70,4*09
$GPGSV,3,1,12,22,84,346,31,14,66,067,32,17,66,155,31,13,45,229,32,1*61
$GPGSV,3,2,12,19,39,191,31,30,35,135,28,15,33,273,27,46,33,188,29,1*68
$GPGSV,3,3,12,02,26,061,25,24,18,307,26,21,17,042,25,23,02,317,15,1*68
$GLGSV,2,1,07,73,69,341,27,82,44,059,,83,42,123,,80,37,083,27,1*7D
$GLGSV,2,2,07,72,31,304,21,74,30,294,,71,26,247,21,1*43
$GAGSV,3,1,10,25,79,293,29,03,45,242,27,24,43,071,26,08,31,308,18,7*72
$GAGSV,3,2,10,12,26,079,20,02,26,262,21,10,24,105,20,05,18,189,19,7*7E
$GAGSV,3,3,10,11,14,131,17,33,11,025,20,7*77
$GBGSV,4,1,13,36,64,295,39,46,59,099,,27,48,089,39,30,37,160,35,1*78
$GBGSV,4,2,13,28,21,043,30,22,19,266,33,57,18,080,,21,15,318,30,1*78
$GBGSV,4,3,13,45,14,288,30,08,07,310,25,13,07,320,25,37,06,106,19,1*72
$GBGSV,4,4,13,19,03,219,17,1*43
$GNRMC,000105.000,A,4910.427454,N,12304.400256,W,0.02,342.49,061224,,,D,V*19
$GNVTG,342.49,T,,M,0.02,N,0.03,K,D*2F
$GNGGA,000106.000,4910.427418,N,12304.400436,W,2,32,0.47,5.538,M,-16.816,M,,*49
$GNGLL,4910.427418,N,12304.400436,W,000106.000,A,D*56
$GNGSA,A,3,22,14,17,13,19,30,15,02,24,21,,,0.84,0.47,0.70,1*00
$GNGSA,A,3,73,80,72,71,,,,,,,,,0.84,0.47,0.70,2*05
$GNGSA,A,3,25,03,24,08,02,10,05,33,,,,,0.84,0.47,0.70,3*07
$GNGSA,A,3,36,27,30,28,22,21,45,08,13,37,,,0.84,0.47,0.70,4*09
$GPGSV,3,1,12,22,84,346,31,14,66,067,32,17,66,155,31,13,45,229,32,1*61
$GPGSV,3,2,12,19,39,191,31,30,35,135,28,15,33,273,27,46,33,188,28,1*69
$GPGSV,3,3,12,02,26,061,24,24,18,307,26,21,17,042,24,23,02,317,15,1*68
$GLGSV,2,1,07,73,69,341,27,82,44,059,,83,42,123,,80,37,083,27,1*7D
$GLGSV,2,2,07,72,31,304,21,74,30,294,,71,26,247,21,1*43
$GAGSV,3,1,10,25,79,293,29,03,45,242,27,24,43,071,26,08,31,308,18,7*72
$GAGSV,3,2,10,12,26,079,20,02,26,262,21,10,24,105,20,05,18,189,19,7*7E
$GAGSV,3,3,10,11,14,131,17,33,11,025,20,7*77
$GBGSV,4,1,13,36,64,295,39,46,59,099,,27,48,089,39,30,37,160,35,1*78
$GBGSV,4,2,13,28,21,043,30,22,19,266,33,57,18,080,,21,15,318,30,1*78
$GBGSV,4,3,13,45,14,288,30,08,07,310,25,13,07,320,25,37,06,106,19,1*72
$GBGSV,4,4,13,19,03,219,17,1*43
$GNRMC,000106.000,A,4910.427418,N,12304.400436,W,0.02,342.49,061224,,,D,V*12
$GNVTG,342.49,T,,M,0.02,N,0.04,K,D*28
$GNGGA,000107.000,4910.427394,N,12304.400580,W,2,32,0.47,5.756,M,-16.816,M,,*4D
$GNGLL,4910.427394,N,12304.400580,W,000107.000,A,D*58
$GNGSA,A,3,22,14,17,13,19,30,15,02,24,21,,,0.84,0.47,0.70,1*00
$GNGSA,A,3,73,80,72,71,,,,,,,,,0.84,0.47,0.70,2*05
$GNGSA,A,3,25,03,24,08,02,10,05,33,,,,,0.84,0.47,0.70,3*07
$GNGSA,A,3,36,27,30,28,22,21,45,08,13,37,,,0.84,0.47,0.70,4*09
$GPGSV,3,1,12,22,84,346,31,14,66,067,32,17,66,155,31,13,45,229,32,1*61
$GPGSV,3,2,12,19,39,191,31,30,35,135,28,15,33,273,27,46,33,188,28,1*69
$GPGSV,3,3,12,02,26,061,23,24,18,307,26,21,17,042,25,23,02,317,15,1*6E
$GLGSV,2,1,07,73,69,341,26,82,44,059,,83,42,123,,80,37,083,27,1*7C
$GLGSV,2,2,07,72,31,304,22,74,30,294,,71,26,247,21,1*40
$GAGSV,3,1,10,25,79,293,29,03,45,242,27,24,43,071,26,08,31,308,18,7*72
$GAGSV,3,2,10,12,26,079,20,02,26,262,21,10,24,105,20,05,18,189,19,7*7E
$GAGSV,3,3,10,11,14,131,17,33,11,025,19,7*7D
$GBGSV,4,1,13,36,64,295,39,46,59,099,,27,48,089,39,30,37,160,35,1*78
$GBGSV,4,2,13,28,21,043,30,22,19,266,33,57,18,080,,21,15,318,30,1*78
$GBGSV,4,3,13,45,14,288,31,08,07,309,25,13,07,320,25,37,06,106,19,1*7B
$GBGSV,4,4,13,19,03,219,17,1*43
$GNRMC,000107.000,A,4910.427394,N,12304.400580,W,0.02,342.49,061224,,,D,V*1C
$GNVTG,342.49,T,,M,0.02,N,0.03,K,D*2F
$GNGGA,000108.000,4910.427340,N,12304.400736,W,2,32,0.47,6.127,M,-16.817,M,,*46
$GNGLL,4910.427340,N,12304.400736,W,000108.000,A,D*51
$GNGSA,A,3,22,14,17,13,19,30,15,02,24,21,,,0.84,0.47,0.70,1*00
$GNGSA,A,3,73,80,72,71,,,,,,,,,0.84,0.47,0.70,2*05
$GNGSA,A,3,25,03,24,08,02,10,05,33,,,,,0.84,0.47,0.70,3*07
$GNGSA,A,3,36,27,30,28,22,21,45,08,13,37,,,0.84,0.47,0.70,4*09
$GPGSV,3,1,12,22,84,346,32,14,66,067,33,17,66,155,32,13,45,229,32,1*60
$GPGSV,3,2,12,19,39,191,31,30,35,135,28,15,33,273,27,46,33,188,28,1*69
$GPGSV,3,3,12,02,26,061,25,24,18,307,26,21,17,042,25,23,02,317,16,1*6B
$GLGSV,2,1,07,73,69,341,26,82,44,059,,83,42,123,,80,37,083,26,1*7D
$GLGSV,2,2,07,72,31,304,22,74,30,294,,71,26,247,21,1*40
$GAGSV,3,1,10,25,79,293,30,03,45,242,27,24,43,071,27,08,31,308,18,7*7B
$GAGSV,3,2,10,12,26,079,20,02,26,262,21,10,24,105,20,05,18,189,19,7*7E
$GAGSV,3,3,10,11,14,131,18,33,11,025,19,7*72
$GBGSV,4,1,13,36,64,295,39,46,59,099,,27,48,089,39,30,37,160,35,1*78
$GBGSV,4,2,13,28,21,043,30,22,19,266,33,57,18,080,,21,15,318,30,1*78
$GBGSV,4,3,13,45,14,288,31,08,07,309,25,13,07,320,25,37,06,106,19,1*7B
$GBGSV,4,4,13,19,03,219,17,1*43
$GNRMC,000108.000,A,4910.427340,N,12304.400736,W,0.02,342.49,061224,,,D,V*15
$GNVTG,342.49,T,,M,0.02,N,0.04,K,D*28
$GNGGA,000109.000,4910.427376,N,12304.400916,W,2,32,0.47,6.395,M,-16.816,M,,*44
$GNGLL,4910.427376,N,12304.400916,W,000109.000,A,D*59
$GNGSA,A,3,22,14,17,13,19,30,15,02,24,21,,,0.84,0.47,0.70,1*00
$GNGSA,A,3,73,80,72,71,,,,,,,,,0.84,0.47,0.70,2*05
$GNGSA,A,3,25,03,24,08,02,10,05,33,,,,,0.84,0.47,0.70,3*07
$GNGSA,A,3,36,27,30,28,22,21,45,08,13,37,,,0.84,0.47,0.70,4*09
$GPGSV,3,1,12,22,84,346,33,14,66,067,33,17,66,155,33,13,45,229,32,1*60
$GPGSV,3,2,12,19,39,191,32,30,35,135,29,15,33,273,28,46,33,188,29,1*65
$GPGSV,3,3,12,02,26,061,28,24,18,307,27,21,17,042,27,23,02,317,17,1*64
$GLGSV,2,1,07,73,69,341,26,82,44,059,,83,42,123,,80,37,083,26,1*7D
$GLGSV,2,2,07,72,31,304,21,74,30,294,,71,26,247,21,1*43
$GAGSV,3,1,10,25,79,293,31,03,45,242,28,24,43,071,28,08,31,308,19,7*7B
$GAGSV,3,2,10,12,26,079,21,02,26,262,21,10,24,105,21,05,18,189,20,7*74
$GAGSV,3,3,10,11,14,131,18,33,11,025,20,7*78
$GBGSV,4,1,13,36,64,295,39,46,59,099,,27,48,089,39,30,37,160,35,1*78
$GBGSV,4,2,13,28,21,043,31,22,19,266,33,57,18,080,,21,15,318,30,1*79
$GBGSV,4,3,13,45,14,288,31,08,07,309,25,13,07,320,25,37,06,106,19,1*7B
$GBGSV,4,4,13,19,03,219,17,1*43
$GNRMC,000109.000,A,4910.427376,N,12304.400916,W,0.02,342.49,061224,,,D,V*1D
$GNVTG,342.49,T,,M,0.02,N,0.04,K,D*28
$GNGGA,000110.000,4910.427292,N,12304.401072,W,2,32,0.47,6.710,M,-16.816,M,,*44
$GNGLL,4910.427292,N,12304.401072,W,000110.000,A,D*50
$GNGSA,A,3,22,14,17,13,19,30,15,02,24,21,,,0.84,0.47,0.70,1*00
$GNGSA,A,3,73,80,72,71,,,,,,,,,0.84,0.47,0.70,2*05
$GNGSA,A,3,25,03,24,08,02,10,05,33,,,,,0.84,0.47,0.70,3*07
$GNGSA,A,3,36,27,30,28,22,21,45,08,13,37,,,0.84,0.47,0.70,4*09
$GPGSV,3,1,12,22,84,346,33,14,66,067,33,17,66,155,34,13,45,229,32,1*67
$GPGSV,3,2,12,19,39,191,32,30,35,135,29,15,33,273,28,46,33,188,29,1*65
$GPGSV,3,3,12,02,26,061,27,24,18,307,27,21,17,042,26,23,02,317,16,1*6B
$GLGSV,2,1,07,73,69,341,25,82,44,059,,83,42,123,,80,37,083,26,1*7E
$GLGSV,2,2,07,72,31,304,22,74,30,294,,71,26,247,21,1*40
$GAGSV,3,1,10,25,79,293,31,03,45,242,29,24,43,071,28,08,31,308,19,7*7A
$GAGSV,3,2,10,12,26,079,22,02,26,262,21,10,24,105,22,05,18,189,21,7*75
$GAGSV,3,3,10,11,14,131,19,33,11,025,20,7*79
$GBGSV,4,1,13,36,64,295,39,46,59,099,,27,48,089,39,30,37,160,35,1*78
$GBGSV,4,2,13,28,21,043,31,22,19,266,33,57,18,080,,21,15,318,30,1*79
$GBGSV,4,3,13,45,14,288,31,08,07,309,25,13,07,320,26,37,06,106,19,1*78
$GBGSV,4,4,13,19,03,219,17,1*43
$GNRMC,000110.000,A,4910.427292,N,12304.401072,W,0.02,342.49,061224,,,D,V*14
$GNVTG,342.49,T,,M,0.02,N,0.04,K,D*28
$GNGGA,000111.000,4910.427214,N,12304.401168,W,2,32,0.47,6.955,M,-16.816,M,,*4E
$GNGLL,4910.427214,N,12304.401168,W,000111.000,A,D*55
$GNGSA,A,3,22,14,17,13,19,30,15,02,24,21,,,0.84,0.47,0.70,1*00
$GNGSA,A,3,73,80,72,71,,,,,,,,,0.84,0.47,0.70,2*05
$GNGSA,A,3,25,03,24,08,02,10,05,33,,,,,0.84,0.47,0.70,3*07
$GNGSA,A,3,36,27,30,28,22,21,45,08,13,37,,,0.84,0.47,0.70,4*09
$GPGSV,3,1,12,22,84,346,34,14,66,067,33,17,66,155,34,13,45,229,33,1*61
$GPGSV,3,2,12,19,39,191,33,30,35,135,30,15,33,273,29,46,33,188,29,1*6D
$GPGSV,3,3,12,02,26,061,29,24,18,307,28,21,17,042,28,23,02,317,17,1*65
$GLGSV,2,1,07,73,69,341,25,82,44,059,,83,42,123,,80,37,083,25,1*7D
$GLGSV,2,2,07,72,31,304,22,74,30,294,,71,26,247,21,1*40
$GAGSV,3,1,10,25,79,293,32,03,45,242,29,24,43,071,28,08,31,308,19,7*79
$GAGSV,3,2,10,12,26,079,22,02,26,262,22,10,24,105,22,05,18,189,21,7*76
$GAGSV,3,3,10,11,14,131,19,33,11,025,21,7*78
$GBGSV,4,1,13,36,64,295,39,46,59,099,,27,48,089,39,30,37,160,35,1*78
$GBGSV,4,2,13,28,21,043,31,22,19,266,33,57,18,080,,21,15,318,30,1*79
$GBGSV,4,3,13,45,14,288,31,08,07,309,25,13,07,320,26,37,06,106,19,1*78
$GBGSV,4,4,13,19,03,219,17,1*43
$GNRMC,000111.000,A,4910.427214,N,12304.401168,W,0.02,342.49,061224,,,D,V*11
$GNVTG,342.49,T,,M,0.02,N,0.04,K,D*28
$GNGGA,000112.000,4910.427058,N,12304.401390,W,2,32,0.47,7.360,M,-16.816,M,,*4F
$GNGLL,4910.427058,N,12304.401390,W,000112.000,A,D*59
$GNGSA,A,3,22,14,17,13,19,30,15,02,24,21,,,0.84,0.47,0.70,1*00
$GNGSA,A,3,73,80,72,71,,,,,,,,,0.84,0.47,0.70,2*05
$GNGSA,A,3,25,03,24,08,02,10,05,33,,,,,0.84,0.47,0.70,3*07
$GNGSA,A,3,36,27,30,28,22,21,45,08,13,37,,,0.84,0.47,0.70,4*09
$GPGSV,3,1,12,22,84,346,34,14,66,067,33,17,66,155,34,13,45,229,33,1*61
$GPGSV,3,2,12,19,39,191,33,30,35,135,30,15,33,273,29,46,33,188,29,1*6D
$GPGSV,3,3,12,02,26,061,27,24,18,307,28,21,17,042,27,23,02,317,17,1*64
$GLGSV,2,1,07,73,69,341,26,82,44,059,,83,42,123,,80,37,083,27,1*7C
$GLGSV,2,2,07,72,31,304,23,74,30,294,,71,26,247,22,1*42
$GAGSV,3,1,10,25,79,293,32,03,45,242,29,24,43,071,28,08,31,308,20,7*73
$GAGSV,3,2,10,12,26,079,22,02,26,262,22,10,24,105,22,05,18,189,21,7*76
$GAGSV,3,3,10,11,14,131,19,33,11,025,21,7*78
$GBGSV,4,1,13,36,64,295,39,46,59,099,,27,48,089,39,30,37,160,35,1*78
$GBGSV,4,2,13,28,21,043,31,22,19,266,33,57,18,080,,21,15,318,30,1*79
$GBGSV,4,3,13,45,14,288,31,08,07,309,25,13,06,320,26,37,06,106,19,1*79
$GBGSV,4,4,13,19,03,219,17,1*43
$GNRMC,000112.000,A,4910.427058,N,12304.401390,W,0.02,342.49,061224,,,D,V*1D
$GNVTG,342.49,T,,M,0.02,N,0.04,K,D*28
$GNGGA,000113.000,4910.427052,N,12304.401378,W,2,32,0.47,7.532,M,-16.817,M,,*42
$GNGLL,4910.427052,N,12304.401378,W,000113.000,A,D*54
$GNGSA,A,3,22,14,17,13,19,30,15,02,24,21,,,0.84,0.47,0.70,1*00
$GNGSA,A,3,73,80,72,71,,,,,,,,,0.84,0.47,0.70,2*05
$GNGSA,A,3,25,03,24,08,02,10,05,33,,,,,0.84,0.47,0.70,3*07
$GNGSA,A,3,36,27,30,28,22,21,45,08,13,37,,,0.84,0.47,0.70,4*09
$GPGSV,3,1,12,22,84,346,34,14,66,067,33,17,66,155,34,13,45,229,33,1*61
$GPGSV,3,2,12,19,39,191,33,30,35,135,30,15,33,273,29,46,33,188,30,1*65
$GPGSV,3,3,12,02,26,061,26,24,18,307,28,21,17,042,25,23,02,317,17,1*67
$GLGSV,2,1,07,73,69,341,25,82,44,059,,83,42,123,,80,37,083,27,1*7F
$GLGSV,2,2,07,72,31,304,23,74,30,294,,71,26,247,24,1*44
$GAGSV,3,1,10,25,79,293,32,03,45,242,29,24,43,071,28,08,31,308,20,7*73
$GAGSV,3,2,10,12,26,079,22,02,26,262,22,10,24,105,22,05,18,189,21,7*76
$GAGSV,3,3,10,11,14,131,19,33,11,025,21,7*78
$GBGSV,4,1,13,36,64,295,39,46,59,099,,27,48,089,39,30,37,160,36,1*7B
$GBGSV,4,2,13,28,21,043,31,22,19,266,33,57,18,080,,21,15,318,30,1*79
$GBGSV,4,3,13,45,14,288,32,08,07,309,25,13,06,320,26,37,06,106,19,1*7A
$GBGSV,4,4,13,19,03,219,17,1*43
$GNRMC,000113.000,A,4910.427052,N,12304.401378,W,0.02,342.49,061224,,,D,V*10
$GNVTG,342.49,T,,M,0.02,N,0.03,K,D*2F
$GNGGA,000114.000,4910.427070,N,12304.401414,W,2,32,0.47,7.656,M,-16.817,M,,*49
$GNGLL,4910.427070,N,12304.401414,W,000114.000,A,D*5E
$GNGSA,A,3,22,14,17,13,19,30,15,02,24,21,,,0.84,0.47,0.70,1*00
$GNGSA,A,3,73,80,72,71,,,,,,,,,0.84,0.47,0.70,2*05
$GNGSA,A,3,25,03,24,08,02,10,05,33,,,,,0.84,0.47,0.70,3*07
$GNGSA,A,3,36,27,30,28,22,21,45,08,13,37,,,0.84,0.47,0.70,4*09
$GPGSV,3,1,12,22,84,346,33,14,66,067,32,17,66,155,33,13,45,229,33,1*60
$GPGSV,3,2,12,19,39,191,33,30,35,135,29,15,33,273,29,46,33,188,30,1*6D
$GPGSV,3,3,12,02,26,061,24,24,18,307,28,21,17,042,25,23,02,317,17,1*65
$GLGSV,2,1,07,73,69,341,25,82,44,059,,83,42,123,,80,37,083,27,1*7F
$GLGSV,2,2,07,72,31,304,23,74,30,294,,71,26,247,23,1*43
$GAGSV,3,1,10,25,79,293,32,03,45,242,29,24,43,071,28,08,31,308,20,7*73
$GAGSV,3,2,10,12,26,079,22,02,26,262,22,10,24,105,22,05,18,189,21,7*76
$GAGSV,3,3,10,11,14,131,19,33,11,025,21,7*78
$GBGSV,4,1,13,36,64,295,39,46,59,099,,27,48,089,39,30,37,160,36,1*7B
$GBGSV,4,2,13,28,21,043,32,22,19,266,33,57,18,080,,21,15,318,31,1*7B
$GBGSV,4,3,13,45,14,288,32,08,07,309,25,13,06,320,26,37,06,106,19,1*7A
$GBGSV,4,4,13,19,03,219,18,1*4C
$GNRMC,000114.000,A,4910.427070,N,12304.401414,W,0.01,342.49,061224,,,D,V*19
$GNVTG,342.49,T,,M,0.01,N,0.03,K,D*2C
$GNGGA,000115.000,4910.427100,N,12304.401462,W,2,32,0.47,7.755,M,-16.816,M,,*4C
$GNGLL,4910.427100,N,12304.401462,W,000115.000,A,D*58
$GNGSA,A,3,22,14,17,13,19,30,15,02,24,21,,,0.84,0.47,0.70,1*00
$GNGSA,A,3,73,80,72,71,,,,,,,,,0.84,0.47,0.70,2*05
$GNGSA,A,3,25,03,24,08,02,10,05,33,,,,,0.84,0.47,0.70,3*07
$GNGSA,A,3,36,27,30,28,22,21,45,08,13,37,,,0.84,0.47,0.70,4*09
$GPGSV,3,1,12,22,84,346,33,14,66,067,32,17,66,155,33,13,45,229,33,1*60
$GPGSV,3,2,12,19,39,191,32,30,35,135,29,15,33,273,29,46,33,188,30,1*6C
$GPGSV,3,3,12,02,26,061,25,24,18,307,28,21,17,042,25,23,02,317,17,1*64
$GLGSV,2,1,07,73,69,341,25,82,44,059,,83,42,123,,80,37,083,28,1*70
$GLGSV,2,2,07,72,31,304,23,74,30,294,,71,26,247,23,1*43
$GAGSV,3,1,10,25,79,293,31,03,45,242,28,24,43,071,28,08,31,308,19,7*7B
$GAGSV,3,2,10,12,26,079,22,02,26,262,21,10,24,105,22,05,18,189,20,7*74
$GAGSV,3,3,10,11,14,131,19,33,11,025,21,7*78
$GBGSV,4,1,13,36,64,295,39,46,59,099,,27,48,089,39,30,37,160,36,1*7B
$GBGSV,4,2,13,28,21,043,32,22,19,266,33,57,18,080,,21,15,318,31,1*7B
$GBGSV,4,3,13,45,14,288,32,08,07,309,26,13,06,320,26,37,06,106,19,1*79
$GBGSV,4,4,13,19,03,219,19,1*4D
$GNRMC,000115.000,A,4910.427100,N,12304.401462,W,0.01,342.49,061224,,,D,V*1F
$GNVTG,342.49,T,,M,0.01,N,0.03,K,D*2C
$GNGGA,000116.000,4910.427148,N,12304.401492,W,2,32,0.47,7.924,M,-16.816,M,,*44
$GNGLL,4910.427148,N,12304.401492,W,000116.000,A,D*58
$GNGSA,A,3,22,17,14,13,19,30,15,02,24,21,,,0.84,0.47,0.70,1*00
$GNGSA,A,3,73,80,72,71,,,,,,,,,0.84,0.47,0.70,2*05
$GNGSA,A,3,25,03,24,08,02,10,05,33,,,,,0.84,0.47,0.70,3*07
$GNGSA,A,3,36,27,30,28,22,21,45,08,37,13,,,0.84,0.47,0.70,4*09
$GPGSV,4,1,13,22,84,346,33,17,66,155,33,14,66,067,33,13,45,229,33,1*67
$GPGSV,4,2,13,19,39,191,32,30,35,135,29,15,33,273,29,46,33,188,30,1*6A
$GPGSV,4,3,13,02,26,061,27,24,18,307,29,21,17,042,25,10,02,354,,1*60
$GPGSV,4,4,13,23,02,317,17,1*56
$GLGSV,2,1,07,73,69,341,25,82,44,059,,83,42,123,,80,37,083,27,1*7F
$GLGSV,2,2,07,72,31,304,23,74,30,294,,71,26,247,23,1*43
$GAGSV,3,1,10,25,79,293,31,03,45,242,28,24,43,071,28,08,31,308,19,7*7B
$GAGSV,3,2,10,02,26,262,21,12,26,079,22,10,24,105,23,05,18,189,21,7*74
$GAGSV,3,3,10,11,14,131,19,33,11,025,20,7*79
$GBGSV,3,1,12,36,64,295,39,27,48,089,39,30,37,160,36,28,21,043,31,1*7F
$GBGSV,3,2,12,22,19,266,33,57,18,080,,21,15,318,31,45,14,288,32,1*75
$GBGSV,3,3,12,08,07,309,26,37,06,106,19,13,06,320,26,19,03,219,19,1*71
$GNRMC,000116.000,A,4910.427148,N,12304.401492,W,0.02,342.49,061224,,,D,V*1C
$GNVTG,342.49,T,,M,0.02,N,0.04,K,D*28
$GNGGA,000117.000,4910.427184,N,12304.401558,W,2,32,0.47,8.062,M,-16.816,M,,*46
$GNGLL,4910.427184,N,12304.401558,W,000117.000,A,D*5E
$GNGSA,A,3,22,17,14,13,19,30,15,02,24,21,,,0.84,0.47,0.70,1*00
$GNGSA,A,3,73,80,72,71,,,,,,,,,0.84,0.47,0.70,2*05
$GNGSA,A,3,25,03,24,08,02,10,05,33,,,,,0.84,0.47,0.70,3*07
$GNGSA,A,3,36,27,30,28,22,21,45,08,37,13,,,0.84,0.47,0.70,4*09
$GPGSV,4,1,13,22,84,346,34,17,66,155,33,14,66,067,33,13,45,229,34,1*67
$GPGSV,4,2,13,19,39,191,32,30,35,135,29,15,33,273,29,46,33,188,30,1*6A
$GPGSV,4,3,13,02,26,061,29,24,18,307,29,21,17,042,26,10,02,354,,1*6D
$GPGSV,4,4,13,23,02,317,17,1*56
$GLGSV,2,1,07,73,69,341,25,82,44,059,,83,42,123,,80,37,083,25,1*7D
$GLGSV,2,2,07,72,31,304,22,74,30,294,,71,26,247,22,1*43
$GAGSV,3,1,10,25,79,293,31,03,45,242,29,24,43,071,28,08,31,308,20,7*70
$GAGSV,3,2,10,02,26,262,21,12,26,079,23,10,24,105,23,05,18,189,21,7*75
$GAGSV,3,3,10,11,14,131,19,33,11,025,21,7*78
$GBGSV,3,1,12,36,64,295,39,27,48,089,39,30,37,160,36,28,21,043,32,1*7C
$GBGSV,3,2,12,22,19,266,33,57,18,080,,21,15,318,31,45,14,288,32,1*75
$GBGSV,3,3,12,08,07,309,26,37,06,106,20,13,06,320,26,19,03,219,19,1*7B
$GNRMC,000117.000,A,4910.427184,N,12304.401558,W,0.02,342.49,061224,,,D,V*1A
$GNVTG,342.49,T,,M,0.02,N,0.04,K,D*28
$GNGGA,000118.000,4910.427190,N,12304.401618,W,2,32,0.47,8.154,M,-16.816,M,,*4F
$GNGLL,4910.427190,N,12304.401618,W,000118.000,A,D*53
$GNGSA,A,3,22,17,14,13,19,30,15,02,24,21,,,0.84,0.47,0.70,1*00
$GNGSA,A,3,73,80,72,71,,,,,,,,,0.84,0.47,0.70,2*05
$GNGSA,A,3,25,03,24,08,02,10,05,33,,,,,0.84,0.47,0.70,3*07
$GNGSA,A,3,36,27,30,28,22,21,45,08,37,13,,,0.84,0.47,0.70,4*09
$GPGSV,4,1,13,22,84,346,33,17,66,155,32,14,66,067,32,13,45,229,33,1*67
$GPGSV,4,2,13,19,39,191,32,30,35,135,28,15,33,273,28,46,33,188,29,1*62
$GPGSV,4,3,13,02,26,061,26,24,18,307,29,21,17,042,25,10,02,354,,1*61
$GPGSV,4,4,13,23,02,317,17,1*56
$GLGSV,2,1,07,73,69,341,26,82,44,059,,83,42,123,,80,37,083,26,1*7D
$GLGSV,2,2,07,72,31,304,23,74,30,294,,71,26,247,24,1*44
$GAGSV,3,1,10,25,79,293,30,03,45,242,28,24,43,071,28,08,31,308,19,7*7A
$GAGSV,3,2,10,02,26,262,21,12,26,079,22,10,24,105,23,05,18,189,21,7*74
$GAGSV,3,3,10,11,14,131,19,33,11,025,21,7*78
$GBGSV,3,1,12,36,64,295,40,27,48,089,39,30,37,160,36,28,21,043,32,1*72
$GBGSV,3,2,12,22,19,266,33,57,18,080,,21,15,318,32,45,14,288,32,1*76
$GBGSV,3,3,12,08,07,309,26,37,06,106,20,13,06,320,26,19,02,218,19,1*7B
$GNRMC,000118.000,A,4910.427190,N,12304.401618,W,0.02,342.49,061224,,,D,V*17
$GNVTG,342.49,T,,M,0.02,N,0.04,K,D*28
$GNGGA,000119.000,4910.427082,N,12304.401798,W,2,32,0.47,8.359,M,-16.816,M,,*4A
$GNGLL,4910.427082,N,12304.401798,W,000119.000,A,D*59
$GNGSA,A,3,22,17,14,13,19,30,15,02,24,21,,,0.84,0.47,0.70,1*00
$GNGSA,A,3,73,80,72,71,,,,,,,,,0.84,0.47,0.70,2*05
$GNGSA,A,3,25,03,24,08,02,10,05,33,,,,,0.84,0.47,0.70,3*07
$GNGSA,A,3,36,27,30,28,22,21,45,08,37,13,,,0.84,0.47,0.70,4*09
$GPGSV,4,1,13,22,84,346,32,17,66,155,32,14,66,067,31,13,45,229,32,1*64
$GPGSV,4,2,13,19,39,191,32,30,35,135,26,15,33,273,27,46,33,188,29,1*63
$GPGSV,4,3,13,02,26,061,25,24,18,307,28,21,17,042,25,10,02,354,,1*63
$GPGSV,4,4,13,23,02,317,17,1*56
$GLGSV,2,1,07,73,69,341,26,82,44,059,,83,42,123,,80,37,083,26,1*7D
$GLGSV,2,2,07,72,31,304,23,74,30,294,,71,26,247,24,1*44
$GAGSV,3,1,10,25,79,293,30,03,45,242,27,24,43,071,27,08,31,308,19,7*7A
$GAGSV,3,2,10,02,26,262,20,12,26,079,21,10,24,105,22,05,18,189,20,7*76
$GAGSV,3,3,10,11,14,131,19,33,11,025,20,7*79
$GBGSV,3,1,12,36,64,295,40,27,48,089,39,30,37,160,36,28,21,043,32,1*72
$GBGSV,3,2,12,22,19,266,33,57,18,080,,21,15,318,32,45,14,288,31,1*75
$GBGSV,3,3,12,08,07,309,26,37,06,106,20,13,06,320,26,19,02,218,19,1*7B
$GNRMC,000119.000,A,4910.427082,N,12304.401798,W,0.02,342.49,061224,,,D,V*1D
$GNVTG,342.49,T,,M,0.02,N,0.04,K,D*28
$GNGGA,000120.000,4910.427070,N,12304.401918,W,2,32,0.47,8.519,M,-16.817,M,,*48
$GNGLL,4910.427070,N,12304.401918,W,000120.000,A,D*58
$GNGSA,A,3,22,14,17,13,19,30,15,02,24,21,,,0.84,0.47,0.70,1*00
$GNGSA,A,3,73,80,72,71,,,,,,,,,0.84,0.47,0.70,2*05
$GNGSA,A,3,25,03,24,08,02,10,05,33,,,,,0.84,0.47,0.70,3*07
$GNGSA,A,3,36,27,30,28,22,21,45,08,13,37,,,0.84,0.47,0.70,4*09
$GPGSV,4,1,13,22,84,346,32,14,66,067,31,17,66,155,31,13,45,229,32,1*67
$GPGSV,4,2,13,19,39,191,31,30,35,135,27,46,33,188,29,15,33,273,27,1*61
$GPGSV,4,3,13,02,26,061,25,24,18,307,28,21,17,042,25,23,02,317,17,1*62
$GPGSV,4,4,13,10,02,354,,1*57
$GLGSV,2,1,06,73,69,341,27,83,42,123,,80,37,083,26,72,31,304,23,1*7A
$GLGSV,2,2,06,74,30,294,,71,26,247,24,1*74
$GAGSV,3,1,10,25,79,293,30,03,45,242,27,24,43,071,26,08,31,308,19,7*7B
$GAGSV,3,2,10,12,26,079,21,02,26,262,19,10,24,105,21,05,18,189,20,7*7F
$GAGSV,3,3,10,11,14,131,19,33,11,025,19,7*73
$GBGSV,3,1,12,36,64,295,40,27,48,089,39,30,37,160,36,28,21,043,33,1*73
$GBGSV,3,2,12,22,19,266,33,57,18,080,,21,15,317,32,45,14,288,31,1*7A
$GBGSV,3,3,12,08,07,309,26,13,06,320,26,37,06,106,20,19,02,218,19,1*7B
$GNRMC,000120.000,A,4910.427070,N,12304.401918,W,0.02,342.49,061224,,,D,V*1C
$GNVTG,342.49,T,,M,0.02,N,0.03,K,D*2F
$GNGGA,000121.000,4910.426962,N,12304.402296,W,2,32,0.47,8.853,M,-16.816,M,,*4E
$GNGLL,4910.426962,N,12304.402296,W,000121.000,A,D*5C
$GNGSA,A,3,22,17,14,13,19,30,15,02,24,21,,,0.84,0.47,0.70,1*00
$GNGSA,A,3,73,80,72,71,,,,,,,,,0.84,0.47,0.70,2*05
$GNGSA,A,3,25,03,24,08,02,10,05,33,,,,,0.84,0.47,0.70,3*07
$GNGSA,A,3,36,27,30,28,22,21,45,08,37,13,,,0.84,0.47,0.70,4*09
$GPGSV,4,1,13,22,84,346,32,17,66,155,31,14,66,067,31,13,45,229,32,1*67
$GPGSV,4,2,13,19,39,191,31,30,35,135,29,15,33,273,27,46,33,188,29,1*6F
$GPGSV,4,3,13,02,26,061,27,24,18,307,28,21,17,042,25,10,02,354,,1*61
$GPGSV,4,4,13,23,02,317,17,1*56
$GLGSV,2,1,07,73,69,341,28,82,44,059,,83,42,123,,80,37,083,27,1*72
$GLGSV,2,2,07,72,31,304,23,74,30,294,,71,26,247,24,1*44
$GAGSV,3,1,10,25,79,293,30,03,45,242,27,24,43,071,26,08,31,308,19,7*7B
$GAGSV,3,2,10,02,26,262,19,12,26,079,21,10,24,105,21,05,18,189,20,7*7F
$GAGSV,3,3,10,11,14,131,19,33,11,025,19,7*73
$GBGSV,3,1,12,36,64,295,40,27,48,089,39,30,37,160,36,28,21,043,33,1*73
$GBGSV,3,2,12,22,19,265,33,57,18,080,,21,15,317,32,45,14,288,31,1*79
$GBGSV,3,3,12,08,07,309,26,37,06,106,20,13,06,320,26,19,02,218,19,1*7B
$GNRMC,000121.000,A,4910.426962,N,12304.402296,W,0.02,342.49,061224,,,D,V*18
$GNVTG,342.49,T,,M,0.02,N,0.04,K,D*28
$GNGGA,000122.000,4910.427010,N,12304.402500,W,2,32,0.47,9.019,M,-16.816,M,,*4F
$GNGLL,4910.427010,N,12304.402500,W,000122.000,A,D*5A
$GNGSA,A,3,22,14,17,13,19,30,15,02,24,21,,,0.84,0.47,0.70,1*00
$GNGSA,A,3,73,80,72,71,,,,,,,,,0.84,0.47,0.70,2*05
$GNGSA,A,3,25,03,24,08,02,10,05,33,,,,,0.84,0.47,0.70,3*07
$GNGSA,A,3,36,27,30,28,22,21,45,08,37,13,,,0.84,0.47,0.70,4*09
$GPGSV,4,1,13,22,84,346,32,14,66,067,31,17,66,155,32,13,45,229,32,1*64
$GPGSV,4,2,13,19,39,191,31,30,35,135,27,15,33,273,27,46,33,188,29,1*61
$GPGSV,4,3,13,02,26,061,27,24,18,307,28,21,17,042,25,10,02,354,,1*61
$GPGSV,4,4,13,23,02,317,17,1*56
$GLGSV,2,1,07,73,69,341,28,82,44,059,,83,42,123,,80,37,083,27,1*72
$GLGSV,2,2,07,72,31,304,23,74,30,294,,71,26,247,23,1*43
$GAGSV,3,1,10,25,79,293,30,03,45,242,27,24,43,071,26,08,31,308,19,7*7B
$GAGSV,3,2,10,12,26,079,21,02,26,262,19,10,24,105,21,05,18,189,20,7*7F
$GAGSV,3,3,10,11,14,131,19,33,11,025,19,7*73
$GBGSV,3,1,12,36,64,295,39,46,59,099,,27,48,089,39,30,37,160,36,1*7D
$GBGSV,3,2,12,28,21,043,33,22,19,265,33,21,15,317,32,45,14,288,31,1*74
$GBGSV,3,3,12,08,07,309,26,37,06,106,20,13,06,320,25,19,02,218,19,1*78
$GNRMC,000122.000,A,4910.427010,N,12304.402500,W,0.02,342.49,061224,,,D,V*1E
$GNVTG,342.49,T,,M,0.02,N,0.04,K,D*28
$GNGGA,000123.000,4910.427076,N,12304.402584,W,2,32,0.47,9.170,M,-16.817,M,,*4D
$GNGLL,4910.427076,N,12304.402584,W,000123.000,A,D*57
$GNGSA,A,3,22,14,17,13,19,30,15,02,24,21,,,0.84,0.47,0.70,1*00
$GNGSA,A,3,73,80,72,71,,,,,,,,,0.84,0.47,0.70,2*05
$GNGSA,A,3,25,03,24,08,02,10,05,33,,,,,0.84,0.47,0.70,3*07
$GNGSA,A,3,36,27,30,28,22,21,45,08,37,13,,,0.84,0.47,0.70,4*09
$GPGSV,4,1,13,22,84,346,32,14,66,067,31,17,66,155,32,13,45,229,32,1*64
$GPGSV,4,2,13,19,39,191,31,30,35,135,27,15,33,273,24,46,33,188,29,1*62
$GPGSV,4,3,13,02,26,061,27,24,18,307,27,21,17,042,25,10,02,354,,1*6E
$GPGSV,4,4,13,23,02,317,17,1*56
$GLGSV,2,1,07,73,69,341,28,82,44,059,,83,42,123,,80,37,083,28,1*7D
$GLGSV,2,2,07,72,31,304,23,74,30,294,,71,26,247,23,1*43
$GAGSV,3,1,10,25,79,293,29,03,45,242,27,24,43,071,26,08,31,308,19,7*73
$GAGSV,3,2,10,12,26,079,21,02,26,262,19,10,24,105,21,05,18,189,19,7*75
$GAGSV,3,3,10,11,14,131,19,33,11,025,19,7*73
$GBGSV,3,1,12,36,64,295,39,46,59,099,,27,48,089,39,30,37,160,36,1*7D
$GBGSV,3,2,12,28,21,043,33,22,19,265,33,21,15,317,31,45,14,288,31,1*77
$GBGSV,3,3,12,08,07,309,26,37,06,106,20,13,06,320,25,19,02,218,19,1*78
$GNRMC,000123.000,A,4910.427076,N,12304.402584,W,0.02,342.49,061224,,,D,V*13
$GNVTG,342.49,T,,M,0.02,N,0.04,K,D*28
$GNGGA,000124.000,4910.427160,N,12304.402674,W,2,32,0.47,9.293,M,-16.816,M,,*4F
$GNGLL,4910.427160,N,12304.402674,W,000124.000,A,D*5A
$GNGSA,A,3,22,14,17,13,19,30,15,02,24,21,,,0.84,0.47,0.70,1*00
$GNGSA,A,3,73,80,72,71,,,,,,,,,0.84,0.47,0.70,2*05
$GNGSA,A,3,25,03,24,08,02,10,05,33,,,,,0.84,0.47,0.70,3*07
$GNGSA,A,3,36,27,30,28,22,21,45,08,37,13,,,0.84,0.47,0.70,4*09
$GPGSV,4,1,13,22,84,346,32,14,66,067,31,17,66,155,31,13,45,229,32,1*67
$GPGSV,4,2,13,19,39,191,31,30,35,135,26,15,33,273,24,46,33,188,29,1*63
$GPGSV,4,3,13,02,26,061,26,24,18,307,26,21,17,042,24,10,02,354,,1*6F
$GPGSV,4,4,13,23,02,317,16,1*57
$GLGSV,2,1,07,73,69,341,28,82,44,059,,83,42,123,,80,37,083,27,1*72
$GLGSV,2,2,07,72,31,304,23,74,30,294,,71,26,247,23,1*43
$GAGSV,3,1,10,25,79,293,29,03,45,242,26,24,43,071,26,08,31,308,19,7*72
$GAGSV,3,2,10,12,26,079,20,02,26,262,18,10,24,105,21,05,18,189,19,7*75
$GAGSV,3,3,10,11,14,131,19,33,11,025,19,7*73
$GBGSV,3,1,12,36,64,295,39,46,59,099,,27,48,089,39,30,37,160,36,1*7D
$GBGSV,3,2,12,28,21,043,33,22,19,265,33,21,15,317,31,45,14,288,31,1*77
$GBGSV,3,3,12,08,07,309,25,37,06,106,20,13,06,320,25,19,02,218,19,1*7B
$GNRMC,000124.000,A,4910.427160,N,12304.402674,W,0.02,342.49,061224,,,D,V*1E
$GNVTG,342.49,T,,M,0.02,N,0.04,K,D*28
$GNGGA,000125.000,4910.427214,N,12304.402758,W,2,32,0.47,9.383,M,-16.816,M,,*41
$GNGLL,4910.427214,N,12304.402758,W,000125.000,A,D*54
$GNGSA,A,3,22,14,17,13,19,30,15,02,24,21,,,0.84,0.47,0.70,1*00
$GNGSA,A,3,73,80,72,71,,,,,,,,,0.84,0.47,0.70,2*05
$GNGSA,A,3,25,03,24,08,02,10,05,33,,,,,0.84,0.47,0.70,3*07
$GNGSA,A,3,36,27,30,28,22,21,45,08,13,37,,,0.84,0.47,0.70,4*09
$GPGSV,3,1,12,22,84,346,32,14,66,067,31,17,66,155,31,13,45,229,32,1*61
$GPGSV,3,2,12,19,39,191,31,30,35,135,28,15,33,273,25,46,33,188,29,1*6A
$GPGSV,3,3,12,02,26,061,26,24,18,307,26,21,17,042,25,23,02,317,16,1*68
$GLGSV,2,1,07,73,69,341,28,82,44,059,,83,42,123,,80,37,083,27,1*72
$GLGSV,2,2,07,72,31,304,22,74,30,294,,71,26,247,23,1*42
$GAGSV,3,1,10,25,79,293,29,03,45,242,26,24,43,071,26,08,31,308,19,7*72
$GAGSV,3,2,10,12,26,079,20,02,26,262,18,10,24,105,21,05,18,189,19,7*75
$GAGSV,3,3,10,11,14,131,19,33,11,025,19,7*73
$GBGSV,4,1,13,36,64,295,39,46,59,099,,27,48,089,39,30,37,160,36,1*7B
$GBGSV,4,2,13,28,21,043,33,22,19,265,33,57,18,080,,21,15,317,31,1*76
$GBGSV,4,3,13,45,14,288,31,08,07,309,25,13,06,320,24,37,06,106,19,1*7B
$GBGSV,4,4,13,19,02,218,19,1*4D
$GNRMC,000125.000,A,4910.427214,N,12304.402758,W,0.02,342.49,061224,,,D,V*10
$GNVTG,342.49,T,,M,0.02,N,0.04,K,D*28
$GNGGA,000126.000,4910.427352,N,12304.402812,W,2,32,0.47,9.475,M,-16.816,M,,*4E
$GNGLL,4910.427352,N,12304.402812,W,000126.000,A,D*55
$GNGSA,A,3,22,14,17,13,19,30,15,02,24,21,,,0.84,0.47,0.70,1*00
$GNGSA,A,3,73,80,72,71,,,,,,,,,0.84,0.47,0.70,2*05
$GNGSA,A,3,25,03,24,08,02,10,05,33,,,,,0.84,0.47,0.70,3*07
$GNGSA,A,3,36,27,30,28,22,21,45,08,13,37,,,0.84,0.47,0.70,4*09
$GPGSV,3,1,12,22,84,346,32,14,66,067,31,17,66,155,32,13,45,229,32,1*62
$GPGSV,3,2,12,19,39,191,31,30,35,135,28,46,33,188,29,15,33,273,24,1*6B
$GPGSV,3,3,12,02,26,061,26,24,18,307,26,21,17,042,25,23,02,317,16,1*68
$GLGSV,2,1,06,73,69,341,28,83,42,123,,80,37,083,27,72,31,304,22,1*75
$GLGSV,2,2,06,74,30,294,,71,26,247,23,1*73
$GAGSV,3,1,10,25,79,293,29,03,45,242,26,24,43,071,26,08,31,308,19,7*72
$GAGSV,3,2,10,12,26,079,20,02,26,262,18,10,24,105,20,05,18,189,19,7*74
$GAGSV,3,3,10,11,14,131,18,33,11,025,19,7*72
$GBGSV,4,1,13,36,64,295,39,46,59,099,,27,48,087,39,30,37,160,36,1*75
$GBGSV,4,2,13,28,21,043,33,22,19,265,32,57,18,080,,21,15,317,31,1*77
$GBGSV,4,3,13,45,14,288,31,08,07,309,25,13,06,320,23,37,06,106,18,1*7D
$GBGSV,4,4,13,19,02,218,19,1*4D
$GNRMC,000126.000,A,4910.427352,N,12304.402812,W,0.02,342.49,061224,,,D,V*11
$GNVTG,342.49,T,,M,0.02,N,0.04,K,D*28
