$GNGGA,000039.000,4910.425636,N,12304.402212,W,2,32,0.48,-0.692,M,-16.816,M,,*6E
$GNGLL,4910.425636,N,12304.402212,W,000039.000,A,D*55
$GNGSA,A,3,22,14,17,13,19,30,15,02,24,21,,,0.88,0.48,0.74,1*07
$GNGSA,A,3,82,83,80,72,71,81,,,,,,,0.88,0.48,0.74,2*0E
$GNGSA,A,3,25,03,24,08,05,33,,,,,,,0.88,0.48,0.74,3*03
$GNGSA,A,3,36,27,30,28,22,21,45,08,13,37,,,0.88,0.48,0.74,4*0E
$GPGSV,3,1,12,22,84,347,26,14,66,067,28,17,66,154,28,13,45,229,25,1*62
$GPGSV,3,2,12,19,39,191,28,30,34,135,21,46,33,188,,15,33,273,19,1*6E
$GPGSV,3,3,12,02,26,061,22,24,18,307,18,21,17,042,16,10,02,354,,1*61
$GLGSV,2,1,07,82,44,060,33,83,42,124,22,80,37,082,37,72,31,305,27,1*7C
$GLGSV,2,2,07,74,29,294,,71,26,248,32,81,12,020,27,1*48
$GAGSV,3,1,09,25,79,294,25,03,45,242,23,24,43,071,23,08,31,308,16,7*7E
$GAGSV,3,2,09,12,26,079,,02,26,262,18,10,24,105,,05,18,189,14,7*71
$GAGSV,3,3,09,33,11,026,17,7*48
$GBGSV,4,1,14,36,64,295,38,46,58,099,,27,48,088,37,30,37,160,34,1*71
$GBGSV,4,2,14,28,21,043,31,58,20,114,,22,19,265,31,57,18,080,,1*7A
$GBGSV,4,3,14,21,15,317,29,45,14,288,29,08,07,309,22,13,07,320,26,1*75
$GBGSV,4,4,14,37,06,106,19,19,02,218,16,1*78
$GNRMC,000039.000,A,4910.425636,N,12304.402212,W,0.10,26.11,061224,,,D,V*2E
$GNVTG,26.11,T,,M,0.10,N,0.18,K,D*1A
$PAIRLOG,Full*51
$GNGGA,000040.000,4910.425786,N,12304.402206,W,2,29,0.49,-0.508,M,-16.816,M,,*64
$GNGLL,4910.425786,N,12304.402206,W,000040.000,A,D*54
$GNGSA,A,3,22,14,17,13,19,30,15,02,24,21,,,0.91,0.49,0.76,1*0C
$GNGSA,A,3,82,83,80,72,71,81,,,,,,,0.91,0.49,0.76,2*05
$GNGSA,A,3,25,03,24,05,,,,,,,,,0.91,0.49,0.76,3*00
$GNGSA,A,3,36,27,30,28,22,21,08,13,37,,,,0.91,0.49,0.76,4*04
$GPGSV,3,1,12,22,84,347,27,14,66,067,27,17,66,154,29,13,45,229,27,1*6F
$GPGSV,3,2,12,19,39,191,28,30,34,135,22,46,33,188,,15,33,273,19,1*6D
$GPGSV,3,3,12,02,26,061,24,24,18,307,19,21,17,042,19,10,02,354,,1*69
$GLGSV,2,1,07,82,44,060,32,83,42,124,22,80,37,082,37,72,31,305,27,1*7D
$GLGSV,2,2,07,74,29,294,,71,26,248,32,81,12,020,27,1*48
$GAGSV,3,1,09,25,79,294,26,03,45,242,23,24,43,071,25,08,31,308,,7*7C
$GAGSV,3,2,09,12,26,079,,02,26,262,,10,24,105,,05,18,189,15,7*79
$GAGSV,3,3,09,33,11,026,,7*4E
$GBGSV,4,1,14,36,64,295,38,46,58,099,,27,48,088,37,30,37,160,34,1*71
$GBGSV,4,2,14,28,21,043,31,58,20,114,,22,19,265,31,57,18,080,,1*7A
$GBGSV,4,3,14,21,15,317,29,45,14,288,,08,07,309,22,13,07,320,26,1*7E
$GBGSV,4,4,14,37,06,106,19,19,02,218,15,1*7B
$GNRMC,000040.000,A,4910.425786,N,12304.402206,W,0.11,26.11,061224,,,D,V*2E
$GNVTG,26.11,T,,M,0.11,N,0.21,K,D*11
$PAIRLOG,Full*51
$GNGGA,000041.000,4910.425768,N,12304.402200,W,2,29,0.49,-0.455,M,-16.816,M,,*6A
$GNGLL,4910.425768,N,12304.402200,W,000041.000,A,D*53
$GNGSA,A,3,22,14,17,13,19,30,15,02,24,21,,,0.91,0.49,0.76,1*0C
$GNGSA,A,3,82,83,80,72,71,81,,,,,,,0.91,0.49,0.76,2*05
$GNGSA,A,3,25,03,24,05,,,,,,,,,0.91,0.49,0.76,3*00
$GNGSA,A,3,36,27,30,28,22,21,08,13,37,,,,0.91,0.49,0.76,4*04
$GPGSV,3,1,11,22,84,347,27,14,66,067,29,17,66,154,30,13,45,229,27,1*6A
$GPGSV,3,2,11,19,39,191,29,30,34,135,23,15,33,273,21,46,33,188,,1*65
$GPGSV,3,3,11,02,26,061,25,24,18,307,20,21,17,042,19,1*50
$GLGSV,2,1,08,82,44,060,32,83,42,124,22,80,37,082,37,72,31,305,27,1*72
$GLGSV,2,2,08,74,29,294,,71,26,248,32,81,12,020,27,65,04,354,,1*72
$GAGSV,1,1,04,25,79,294,29,03,45,242,23,24,43,071,25,05,18,189,15,7*75
$GBGSV,3,1,10,36,64,295,38,27,48,088,37,30,37,160,34,28,21,043,31,1*71
$GBGSV,3,2,10,22,19,265,31,21,15,317,29,08,07,309,22,13,07,320,26,1*71
$GBGSV,3,3,10,37,06,106,19,19,02,218,16,1*7C
$GNRMC,000041.000,A,4910.425768,N,12304.402200,W,0.12,26.11,061224,,,D,V*2A
$GNVTG,26.11,T,,M,0.12,N,0.22,K,D*11
$PAIRLOG,Full*51
$GNGGA,000042.000,4910.425858,N,12304.402200,W,2,29,0.49,-0.109,M,-16.816,M,,*69
$GNGLL,4910.425858,N,12304.402200,W,000042.000,A,D*5C
$GNGSA,A,3,22,14,17,13,19,30,15,02,24,21,,,0.91,0.49,0.76,1*0C
$GNGSA,A,3,82,83,80,72,71,81,,,,,,,0.91,0.49,0.76,2*05
$GNGSA,A,3,25,03,24,05,,,,,,,,,0.91,0.49,0.76,3*00
$GNGSA,A,3,36,27,30,28,22,21,08,13,37,,,,0.91,0.49,0.76,4*04
$GPGSV,3,1,11,22,84,347,27,14,66,067,29,17,66,154,27,13,45,229,27,1*6C
$GPGSV,3,2,11,19,39,191,29,30,34,135,23,15,33,273,20,46,33,188,,1*64
$GPGSV,3,3,11,02,26,061,24,24,18,307,20,21,17,042,20,1*5B
$GLGSV,2,1,08,82,44,060,32,83,42,124,23,80,37,082,37,72,31,305,27,1*73
$GLGSV,2,2,08,74,29,294,,71,26,248,32,81,12,020,27,65,04,354,,1*72
$GAGSV,1,1,04,25,79,294,25,03,45,242,23,24,43,071,23,05,18,189,15,7*7F
$GBGSV,3,1,10,36,64,295,38,27,48,088,37,30,37,160,34,28,21,043,31,1*71
$GBGSV,3,2,10,22,19,265,31,21,15,317,29,08,07,309,22,13,07,320,26,1*71
$GBGSV,3,3,10,37,06,106,19,19,02,218,17,1*7D
$GNRMC,000042.000,A,4910.425858,N,12304.402200,W,0.13,26.11,061224,,,D,V*24
$GNVTG,26.11,T,,M,0.13,N,0.25,K,D*17
$PAIRLOG,Full*51
$GNGGA,000043.000,4910.425900,N,12304.402194,W,2,29,0.49,0.052,M,-16.817,M,,*49
$GNGLL,4910.425900,N,12304.402194,W,000043.000,A,D*5F
$GNGSA,A,3,22,14,17,13,19,30,15,02,24,21,,,0.91,0.49,0.76,1*0C
$GNGSA,A,3,82,83,80,72,71,81,,,,,,,0.91,0.49,0.76,2*05
$GNGSA,A,3,25,03,24,05,,,,,,,,,0.91,0.49,0.76,3*00
$GNGSA,A,3,36,27,30,28,22,21,08,13,37,,,,0.91,0.49,0.76,4*04
$GPGSV,3,1,12,22,84,347,27,14,66,067,29,17,66,154,29,13,45,229,28,1*6E
$GPGSV,3,2,12,19,39,191,29,30,34,135,25,46,33,188,,15,33,273,19,1*6B
$GPGSV,3,3,12,02,26,061,24,24,18,307,20,21,17,042,19,10,02,354,,1*63
$GLGSV,2,1,08,82,44,060,33,83,42,124,23,80,37,082,37,72,31,305,27,1*72
$GLGSV,2,2,08,74,29,294,,71,26,248,32,81,12,020,27,65,04,354,,1*72
$GAGSV,3,1,09,25,79,294,27,03,45,242,23,24,43,071,25,08,31,308,,7*7D
$GAGSV,3,2,09,12,26,079,,02,26,262,,10,24,105,,05,18,189,15,7*79
$GAGSV,3,3,09,33,11,026,,7*4E
$GBGSV,4,1,14,36,64,295,38,46,58,099,,27,48,088,37,30,37,160,34,1*71
$GBGSV,4,2,14,28,21,043,31,58,20,114,,22,19,265,31,57,18,080,,1*7A
$GBGSV,4,3,14,21,15,317,29,45,14,288,,08,07,309,22,13,07,320,26,1*7E
$GBGSV,4,4,14,37,06,106,19,19,02,218,17,1*79
$GNRMC,000043.000,A,4910.425900,N,12304.402194,W,0.15,26.11,061224,,,D,V*21
$GNVTG,26.11,T,,M,0.15,N,0.27,K,D*13
$PAIRLOG,Full*51
$GNGGA,000044.000,4910.425912,N,12304.402176,W,2,29,0.49,0.222,M,-16.817,M,,*44
$GNGLL,4910.425912,N,12304.402176,W,000044.000,A,D*57
$GNGSA,A,3,22,14,17,13,19,30,15,02,24,21,,,0.91,0.49,0.76,1*0C
$GNGSA,A,3,82,83,80,72,71,81,,,,,,,0.91,0.49,0.76,2*05
$GNGSA,A,3,25,03,24,05,,,,,,,,,0.91,0.49,0.76,3*00
$GNGSA,A,3,36,27,30,28,22,21,08,13,37,,,,0.91,0.49,0.76,4*04
$GPGSV,3,1,12,22,84,347,26,14,66,067,28,17,66,154,25,13,45,229,28,1*62
$GPGSV,3,2,12,19,39,191,28,30,34,135,23,46,33,188,,15,33,273,17,1*62
$GPGSV,3,3,12,02,26,061,22,24,18,307,20,21,17,042,17,10,02,354,,1*6B
$GLGSV,2,1,08,82,44,060,33,83,42,124,23,80,37,082,37,72,31,305,26,1*73
$GLGSV,2,2,08,74,29,294,,71,26,248,32,81,12,020,26,65,04,354,,1*73
$GAGSV,3,1,09,25,79,294,26,03,45,242,23,24,43,071,24,08,31,308,,7*7D
$GAGSV,3,2,09,12,26,079,,02,26,262,,10,24,105,,05,18,189,15,7*79
$GAGSV,3,3,09,33,11,026,,7*4E
$GBGSV,4,1,14,36,64,295,38,46,58,099,,27,48,088,37,30,37,160,34,1*71
$GBGSV,4,2,14,28,21,043,31,58,20,114,,22,19,265,31,57,18,080,,1*7A
$GBGSV,4,3,14,21,15,317,29,45,14,288,,08,07,309,22,13,07,320,27,1*7F
$GBGSV,4,4,14,37,06,106,19,19,02,218,17,1*79
$GNRMC,000044.000,A,4910.425912,N,12304.402176,W,0.15,26.11,061224,,,D,V*29
$GNVTG,26.11,T,,M,0.15,N,0.28,K,D*1C
$PAIRLOG,Full*51
$GNGGA,000045.000,4910.425966,N,12304.402176,W,2,30,0.49,0.459,M,-16.816,M,,*45
$GNGLL,4910.425966,N,12304.402176,W,000045.000,A,D*55
$GNGSA,A,3,22,14,17,13,19,30,15,02,24,21,,,0.90,0.49,0.75,1*0E
$GNGSA,A,3,82,83,80,72,71,81,,,,,,,0.90,0.49,0.75,2*07
$GNGSA,A,3,25,03,24,05,,,,,,,,,0.90,0.49,0.75,3*02
$GNGSA,A,3,36,27,30,28,22,21,45,08,13,37,,,0.90,0.49,0.75,4*07
$GPGSV,3,1,12,22,84,347,24,14,66,067,28,17,66,154,24,13,45,229,27,1*6E
$GPGSV,3,2,12,19,39,191,25,30,34,135,21,46,33,188,,15,33,273,17,1*6D
$GPGSV,3,3,12,02,26,061,21,24,18,307,20,21,17,042,17,10,02,354,,1*68
$GLGSV,2,1,08,82,44,060,33,83,42,124,23,80,37,082,37,72,31,305,27,1*72
$GLGSV,2,2,08,74,29,294,,71,26,248,32,81,12,020,26,65,04,354,,1*73
$GAGSV,3,1,09,25,79,294,25,03,45,242,22,24,43,071,24,08,31,308,,7*7F
$GAGSV,3,2,09,12,26,079,,02,26,262,,10,24,105,,05,18,189,16,7*7A
$GAGSV,3,3,09,33,11,025,,7*4D
$GBGSV,4,1,14,36,64,295,38,46,58,099,,27,48,088,37,30,37,160,33,1*76
$GBGSV,4,2,14,28,21,043,31,58,20,114,,22,19,265,30,57,18,080,,1*7B
$GBGSV,4,3,14,21,15,317,28,45,14,288,28,08,07,309,22,13,07,320,25,1*76
$GBGSV,4,4,14,37,06,106,18,19,02,218,17,1*78
$GNRMC,000045.000,A,4910.425966,N,12304.402176,W,0.15,26.11,061224,,,D,V*2B
$GNVTG,26.11,T,,M,0.15,N,0.28,K,D*1C
$PAIRLOG,Full*51
$GNGGA,000046.000,4910.426026,N,12304.402182,W,2,29,0.49,0.447,M,-16.816,M,,*44
$GNGLL,4910.426026,N,12304.402182,W,000046.000,A,D*53
$GNGSA,A,3,22,14,17,13,19,30,15,02,24,21,,,0.91,0.49,0.76,1*0C
$GNGSA,A,3,82,83,80,72,71,81,,,,,,,0.91,0.49,0.76,2*05
$GNGSA,A,3,25,03,05,,,,,,,,,,0.91,0.49,0.76,3*06
$GNGSA,A,3,36,27,30,28,22,21,45,08,13,37,,,0.91,0.49,0.76,4*05
$GPGSV,3,1,12,22,84,347,22,14,66,067,26,17,66,154,22,13,45,229,26,1*61
$GPGSV,3,2,12,19,39,191,25,30,34,135,20,46,33,188,,15,33,273,13,1*68
$GPGSV,3,3,12,02,26,061,18,24,18,307,19,21,17,042,13,10,02,354,,1*6C
$GLGSV,2,1,08,82,44,060,33,83,42,124,23,80,37,082,37,72,31,305,27,1*72
$GLGSV,2,2,08,74,29,294,,71,26,248,31,81,12,020,26,65,04,354,,1*70
$GAGSV,3,1,09,25,79,294,24,03,45,242,21,24,43,071,,08,31,308,,7*7B
$GAGSV,3,2,09,12,26,079,,02,26,262,,10,24,105,,05,18,189,15,7*79
$GAGSV,3,3,09,33,11,025,,7*4D
$GBGSV,4,1,14,36,64,295,38,46,58,099,,27,48,088,37,30,37,160,33,1*76
$GBGSV,4,2,14,28,21,043,31,58,20,114,,22,19,265,30,57,18,080,,1*7B
$GBGSV,4,3,14,21,15,317,28,45,14,288,29,08,07,309,22,13,07,320,25,1*77
$GBGSV,4,4,14,37,06,106,18,19,02,218,17,1*78
$GNRMC,000046.000,A,4910.426026,N,12304.402182,W,0.16,26.11,061224,,,D,V*2E
$GNVTG,26.11,T,,M,0.16,N,0.29,K,D*1E
$PAIRLOG,Full*51
$GNGGA,000047.000,4910.426050,N,12304.402284,W,2,29,0.49,0.643,M,-16.817,M,,*46
$GNGLL,4910.426050,N,12304.402284,W,000047.000,A,D*56
$GNGSA,A,3,22,14,17,13,19,30,15,02,24,21,,,0.91,0.49,0.76,1*0C
$GNGSA,A,3,82,83,80,72,71,81,,,,,,,0.91,0.49,0.76,2*05
$GNGSA,A,3,25,03,24,05,,,,,,,,,0.91,0.49,0.76,3*00
$GNGSA,A,3,36,27,30,28,22,21,08,13,37,,,,0.91,0.49,0.76,4*04
$GPGSV,3,1,10,22,84,347,26,14,66,067,28,17,66,154,25,13,45,229,26,1*6E
$GPGSV,3,2,10,19,39,191,26,30,34,135,20,15,33,273,13,02,26,061,19,1*63
$GPGSV,3,3,10,24,18,307,18,21,17,042,14,1*61
$GLGSV,2,1,08,82,44,060,33,83,42,124,22,80,37,082,37,72,31,305,27,1*73
$GLGSV,2,2,08,74,29,294,,71,26,248,31,81,12,020,26,65,04,354,,1*70
$GAGSV,1,1,04,25,79,294,24,03,45,242,21,24,43,071,23,05,18,189,14,7*7D
$GBGSV,3,1,10,36,64,295,38,27,48,088,37,30,37,160,33,28,21,043,31,1*76
$GBGSV,3,2,10,22,19,265,30,21,15,317,28,08,07,309,22,13,07,320,25,1*72
$GBGSV,3,3,10,37,06,106,18,19,02,218,17,1*7C
$GNRMC,000047.000,A,4910.426050,N,12304.402284,W,0.16,26.11,061224,,,D,V*2B
$GNVTG,26.11,T,,M,0.16,N,0.30,K,D*16
$PAIRLOG,Full*51
$GNGGA,000048.000,4910.426080,N,12304.402350,W,2,29,0.49,0.821,M,-16.816,M,,*47
$GNGLL,4910.426080,N,12304.402350,W,000048.000,A,D*5C
$GNGSA,A,3,22,14,17,13,19,30,15,02,24,21,,,0.91,0.49,0.76,1*0C
$GNGSA,A,3,82,83,80,72,71,81,,,,,,,0.91,0.49,0.76,2*05
$GNGSA,A,3,25,03,24,05,,,,,,,,,0.91,0.49,0.76,3*00
$GNGSA,A,3,36,27,30,28,22,21,08,13,37,,,,0.91,0.49,0.76,4*04
$GPGSV,3,1,10,22,84,347,27,14,66,067,28,17,66,154,27,13,45,229,26,1*6D
$GPGSV,3,2,10,19,39,191,28,30,34,135,21,15,33,273,17,02,26,061,23,1*61
$GPGSV,3,3,10,24,18,307,19,21,17,042,17,1*63
$GLGSV,2,1,08,82,44,060,33,83,42,124,22,80,37,082,37,72,31,305,27,1*73
$GLGSV,2,2,08,74,29,294,,71,26,248,31,81,12,020,26,65,04,354,,1*70
$GAGSV,1,1,04,25,79,294,25,03,45,242,21,24,43,071,24,05,18,189,14,7*7B
$GBGSV,3,1,10,36,64,295,38,27,48,088,37,30,37,160,33,28,21,043,31,1*76
$GBGSV,3,2,10,22,19,265,30,21,15,317,29,08,07,309,22,13,07,320,25,1*73
$GBGSV,3,3,10,37,06,106,18,19,02,218,17,1*7C
$GNRMC,000048.000,A,4910.426080,N,12304.402350,W,0.16,26.11,061224,,,D,V*21
$GNVTG,26.11,T,,M,0.16,N,0.30,K,D*16
$PAIRLOG,Full*51
$GNGGA,000049.000,4910.426170,N,12304.402302,W,2,29,0.49,0.993,M,-16.816,M,,*47
$GNGLL,4910.426170,N,12304.402302,W,000049.000,A,D*54
$GNGSA,A,3,22,14,17,13,19,30,15,02,24,21,,,0.91,0.49,0.76,1*0C
$GNGSA,A,3,82,83,80,72,71,81,,,,,,,0.91,0.49,0.76,2*05
$GNGSA,A,3,25,03,24,05,,,,,,,,,0.91,0.49,0.76,3*00
$GNGSA,A,3,36,27,30,28,22,21,08,13,37,,,,0.91,0.49,0.76,4*04
$GPGSV,3,1,12,22,84,347,25,14,66,067,28,17,66,154,26,13,45,229,26,1*6C
$GPGSV,3,2,12,19,39,191,26,30,34,135,21,48,33,182,,15,33,273,15,1*68
$GPGSV,3,3,12,02,26,061,22,24,18,307,19,21,17,042,14,10,02,354,,1*62
$GLGSV,2,1,08,82,44,060,33,83,42,124,22,80,37,082,37,72,31,305,27,1*73
$GLGSV,2,2,08,74,29,294,,71,26,248,31,81,12,020,26,65,04,354,,1*70
$GAGSV,3,1,09,25,79,294,25,03,45,242,21,24,43,071,25,08,31,308,,7*7D
$GAGSV,3,2,09,12,26,079,,02,26,262,,10,24,105,,05,18,189,14,7*78
$GAGSV,3,3,09,33,11,025,,7*4D
$GBGSV,4,1,14,36,64,295,38,46,58,099,,27,48,088,37,30,37,160,32,1*77
$GBGSV,4,2,14,28,21,043,31,58,20,114,,22,19,265,30,57,18,080,,1*7B
$GBGSV,4,3,14,21,15,317,29,45,14,288,,08,07,309,22,13,07,320,25,1*7D
$GBGSV,4,4,14,37,06,106,18,19,02,218,17,1*78
$GNRMC,000049.000,A,4910.426170,N,12304.402302,W,0.17,26.11,061224,,,D,V*28
$GNVTG,26.11,T,,M,0.17,N,0.31,K,D*16
$PAIRLOG,Full*51
$GNGGA,000050.000,4910.426272,N,12304.402308,W,2,29,0.49,1.304,M,-16.816,M,,*41
$GNGLL,4910.426272,N,12304.402308,W,000050.000,A,D*57
$GNGSA,A,3,22,14,17,13,19,30,15,02,24,21,,,0.91,0.49,0.76,1*0C
$GNGSA,A,3,82,83,80,72,71,81,,,,,,,0.91,0.49,0.76,2*05
$GNGSA,A,3,25,03,24,05,,,,,,,,,0.91,0.49,0.76,3*00
$GNGSA,A,3,36,27,30,28,22,21,08,13,37,,,,0.91,0.49,0.76,4*04
$GPGSV,3,1,12,22,84,347,25,14,66,067,28,17,66,154,27,13,45,229,26,1*6D
$GPGSV,3,2,12,19,39,191,29,30,34,135,22,48,33,182,,15,33,273,17,1*66
$GPGSV,3,3,12,02,26,061,21,24,18,307,19,21,17,042,17,10,02,354,,1*62
$GLGSV,2,1,08,82,44,060,33,83,42,124,22,80,37,082,37,72,31,305,27,1*73
$GLGSV,2,2,08,74,29,294,,71,26,248,31,81,12,020,26,65,04,354,,1*70
$GAGSV,3,1,09,25,79,294,24,03,45,242,22,24,43,071,23,08,31,308,,7*79
$GAGSV,3,2,09,12,26,079,,02,26,262,,10,24,105,,05,18,189,14,7*78
$GAGSV,3,3,09,33,11,025,,7*4D
$GBGSV,4,1,14,36,64,295,38,46,58,099,,27,48,088,37,30,37,160,32,1*77
$GBGSV,4,2,14,28,21,043,31,58,20,114,,22,19,265,30,57,18,080,,1*7B
$GBGSV,4,3,14,21,15,317,29,45,14,288,,08,07,309,22,13,07,320,25,1*7D
$GBGSV,4,4,14,37,06,106,19,19,02,218,17,1*79
$GNRMC,000050.000,A,4910.426272,N,12304.402308,W,0.17,26.11,061224,,,D,V*2B
$GNVTG,26.11,T,,M,0.17,N,0.32,K,D*15
$PAIRLOG,Full*51
$GNGGA,000051.000,4910.426488,N,12304.402236,W,2,29,0.49,1.802,M,-16.816,M,,*42
$GNGLL,4910.426488,N,12304.402236,W,000051.000,A,D*59
$GNGSA,A,3,22,14,17,13,19,30,15,02,24,21,,,0.91,0.49,0.76,1*0C
$GNGSA,A,3,82,83,80,72,71,81,,,,,,,0.91,0.49,0.76,2*05
$GNGSA,A,3,25,03,24,05,,,,,,,,,0.91,0.49,0.76,3*00
$GNGSA,A,3,36,27,30,28,22,21,08,13,37,,,,0.91,0.49,0.76,4*04
$GPGSV,3,1,11,22,84,347,26,14,66,067,31,17,66,154,30,13,45,229,27,1*62
$GPGSV,3,2,11,19,39,191,30,30,34,135,23,15,33,273,19,48,33,182,,1*62
$GPGSV,3,3,11,02,26,061,23,24,18,307,20,21,17,042,19,1*56
$GLGSV,2,1,08,82,44,060,32,83,42,124,22,80,37,082,37,72,31,305,26,1*73
$GLGSV,2,2,08,74,29,294,,71,26,248,31,81,12,020,27,65,04,354,,1*71
$GAGSV,1,1,04,25,79,294,25,03,45,242,22,24,43,071,24,05,18,189,15,7*79
$GBGSV,3,1,10,36,64,295,38,27,48,088,37,30,37,160,32,28,21,043,31,1*77
$GBGSV,3,2,10,22,19,265,30,21,15,317,29,08,07,309,23,13,07,320,25,1*72
$GBGSV,3,3,10,37,06,106,19,19,02,218,17,1*7D
$GNRMC,000051.000,A,4910.426488,N,12304.402236,W,0.19,340.57,061224,,,D,V*1A
$GNVTG,340.57,T,,M,0.19,N,0.35,K,D*2D
$PAIRLOG,Full*51
$GNGGA,000052.000,4910.426530,N,12304.402278,W,2,29,0.49,2.079,M,-16.816,M,,*4E
$GNGLL,4910.426530,N,12304.402278,W,000052.000,A,D*52
$GNGSA,A,3,22,14,17,13,19,30,15,02,24,21,,,0.91,0.49,0.76,1*0C
$GNGSA,A,3,82,83,80,72,71,81,,,,,,,0.91,0.49,0.76,2*05
$GNGSA,A,3,25,03,24,05,,,,,,,,,0.91,0.49,0.76,3*00
$GNGSA,A,3,36,27,30,28,22,21,08,13,37,,,,0.91,0.49,0.76,4*04
$GPGSV,3,1,11,22,84,347,26,14,66,067,28,17,66,154,26,13,45,229,27,1*6D
$GPGSV,3,2,11,19,39,191,28,30,34,135,23,15,33,273,18,48,33,182,,1*6A
$GPGSV,3,3,11,02,26,061,20,24,18,307,20,21,17,042,18,1*54
$GLGSV,2,1,08,82,44,060,32,83,42,124,22,80,37,082,37,72,31,305,26,1*73
$GLGSV,2,2,08,74,29,294,,71,26,248,31,81,12,020,27,65,04,354,,1*71
$GAGSV,1,1,04,25,79,294,24,03,45,242,21,24,43,071,24,05,18,189,15,7*7B
$GBGSV,3,1,10,36,64,295,38,27,48,088,37,30,37,160,32,28,21,043,31,1*77
$GBGSV,3,2,10,22,19,265,30,21,15,317,29,08,07,309,23,13,07,320,25,1*72
$GBGSV,3,3,10,37,06,106,19,19,02,218,17,1*7D
$GNRMC,000052.000,A,4910.426530,N,12304.402278,W,0.20,340.21,061224,,,D,V*1A
$GNVTG,340.21,T,,M,0.20,N,0.37,K,D*24
$PAIRLOG,Full*51
$GNGGA,000053.000,4910.426608,N,12304.402320,W,2,29,0.49,2.490,M,-16.816,M,,*48
$GNGLL,4910.426608,N,12304.402320,W,000053.000,A,D*57
$GNGSA,A,3,22,14,17,13,19,30,15,02,24,21,,,0.91,0.49,0.76,1*0C
$GNGSA,A,3,82,83,80,72,71,81,,,,,,,0.91,0.49,0.76,2*05
$GNGSA,A,3,25,03,24,05,,,,,,,,,0.91,0.49,0.76,3*00
$GNGSA,A,3,36,27,30,28,22,21,08,13,37,,,,0.91,0.49,0.76,4*04
$GPGSV,3,1,12,22,84,347,26,14,66,067,29,17,66,154,28,13,45,229,27,1*61
$GPGSV,3,2,12,19,39,191,29,30,34,135,23,48,33,182,,15,33,273,18,1*68
$GPGSV,3,3,12,02,26,061,22,24,18,307,20,21,17,042,17,10,02,354,,1*6B
$GLGSV,2,1,08,82,44,060,32,83,42,124,22,80,37,082,37,72,31,305,26,1*73
$GLGSV,2,2,08,74,29,294,,71,26,248,31,81,12,020,28,65,04,354,,1*7E
$GAGSV,3,1,09,25,79,294,24,03,45,242,21,24,43,071,25,08,31,308,,7*7C
$GAGSV,3,2,09,12,26,079,,02,26,262,,10,24,105,,05,18,189,16,7*7A
$GAGSV,3,3,09,33,11,025,,7*4D
$GBGSV,4,1,14,36,64,295,38,46,58,099,,27,48,088,37,30,37,160,31,1*74
$GBGSV,4,2,14,28,21,043,30,58,20,114,,22,19,265,30,57,18,080,,1*7A
$GBGSV,4,3,14,21,15,317,29,45,14,288,,08,07,309,23,13,07,320,25,1*7C
$GBGSV,4,4,14,37,06,106,19,19,02,218,17,1*79
$GNRMC,000053.000,A,4910.426608,N,12304.402320,W,0.21,340.29,061224,,,D,V*16
$GNVTG,340.29,T,,M,0.21,N,0.39,K,D*23
$PAIRLOG,Full*51
$GNGGA,000054.000,4910.426794,N,12304.402284,W,2,30,0.49,2.660,M,-16.816,M,,*41
$GNGLL,4910.426794,N,12304.402284,W,000054.000,A,D*5B
$GNGSA,A,3,22,14,17,13,19,30,15,02,24,21,,,0.90,0.49,0.75,1*0E
$GNGSA,A,3,82,83,80,72,71,81,,,,,,,0.90,0.49,0.75,2*07
$GNGSA,A,3,25,03,24,05,,,,,,,,,0.90,0.49,0.75,3*02
$GNGSA,A,3,36,27,30,28,22,21,45,08,13,37,,,0.90,0.49,0.75,4*07
$GPGSV,3,1,12,22,84,347,26,14,66,067,29,17,66,154,28,13,45,229,27,1*61
$GPGSV,3,2,12,19,39,191,30,30,34,135,24,48,33,182,,15,33,273,20,1*6C
$GPGSV,3,3,12,02,26,061,24,24,18,307,20,21,17,042,19,10,02,354,,1*63
$GLGSV,2,1,08,82,44,060,32,83,42,124,22,80,37,082,37,72,31,305,26,1*73
$GLGSV,2,2,08,74,29,294,,71,26,248,31,81,12,020,28,65,04,354,,1*7E
$GAGSV,3,1,09,25,79,294,25,03,45,242,21,24,43,071,24,08,31,308,,7*7C
$GAGSV,3,2,09,12,26,079,,02,26,262,,10,24,105,,05,18,189,17,7*7B
$GAGSV,3,3,09,33,11,025,,7*4D
$GBGSV,4,1,14,36,64,295,38,46,58,099,,27,48,088,37,30,37,160,31,1*74
$GBGSV,4,2,14,28,21,043,30,58,20,114,,22,19,265,30,57,18,080,,1*7A
$GBGSV,4,3,14,21,15,317,29,45,14,288,29,08,07,309,23,13,07,320,25,1*77
$GBGSV,4,4,14,37,06,106,19,19,02,218,17,1*79
$GNRMC,000054.000,A,4910.426794,N,12304.402284,W,0.22,341.77,061224,,,D,V*13
$GNVTG,341.77,T,,M,0.22,N,0.41,K,D*25
$PAIRLOG,Full*51
$GNGGA,000055.000,4910.426920,N,12304.402272,W,2,33,0.46,2.785,M,-16.816,M,,*4E
$GNGLL,4910.426920,N,12304.402272,W,000055.000,A,D*52
$GNGSA,A,3,22,14,17,13,19,30,15,02,24,21,,,0.86,0.46,0.73,1*00
$GNGSA,A,3,82,83,80,72,71,81,,,,,,,0.86,0.46,0.73,2*09
$GNGSA,A,3,25,03,24,08,10,05,33,,,,,,0.86,0.46,0.73,3*05
$GNGSA,A,3,36,27,30,28,22,21,45,08,13,37,,,0.86,0.46,0.73,4*09
$GPGSV,3,1,12,22,84,347,26,14,66,067,29,17,66,154,28,13,45,229,27,1*61
$GPGSV,3,2,12,19,39,191,28,30,34,135,24,48,33,182,,15,33,273,17,1*61
$GPGSV,3,3,12,02,26,061,24,24,18,307,20,21,17,042,19,10,02,354,,1*63
$GLGSV,2,1,07,82,44,060,32,83,42,124,22,80,37,082,37,72,31,305,26,1*7C
$GLGSV,2,2,07,74,29,294,,71,26,247,31,81,12,020,28,1*4B
$GAGSV,3,1,09,25,79,294,26,03,45,242,21,24,43,071,24,08,31,308,18,7*76
$GAGSV,3,2,09,12,26,079,,02,26,262,,10,24,105,18,05,18,189,17,7*72
$GAGSV,3,3,09,33,11,025,17,7*4B
$GBGSV,4,1,14,36,64,295,38,46,58,099,,27,48,088,37,30,37,160,32,1*77
$GBGSV,4,2,14,28,21,043,30,58,20,114,,22,19,265,30,57,18,080,,1*7A
$GBGSV,4,3,14,21,15,317,29,45,14,288,29,08,07,309,23,13,07,320,25,1*77
$GBGSV,4,4,14,37,06,106,19,19,02,218,17,1*79
$GNRMC,000055.000,A,4910.426920,N,12304.402272,W,0.24,343.32,061224,,,D,V*1F
$GNVTG,343.32,T,,M,0.24,N,0.44,K,D*25
$PAIRLOG,Full*51
$GNGGA,000056.000,4910.426944,N,12304.402296,W,2,33,0.46,2.906,M,-16.816,M,,*40
$GNGLL,4910.426944,N,12304.402296,W,000056.000,A,D*59
$GNGSA,A,3,22,14,17,13,19,30,15,02,24,21,,,0.86,0.46,0.73,1*00
$GNGSA,A,3,82,83,80,72,71,81,,,,,,,0.86,0.46,0.73,2*09
$GNGSA,A,3,25,03,24,08,10,05,33,,,,,,0.86,0.46,0.73,3*05
$GNGSA,A,3,36,27,30,28,22,21,45,08,13,37,,,0.86,0.46,0.73,4*09
$GPGSV,3,1,12,22,84,347,26,14,66,067,29,17,66,154,28,13,45,229,27,1*61
$GPGSV,3,2,12,19,39,191,29,30,34,135,23,48,33,182,,15,33,273,18,1*68
$GPGSV,3,3,12,02,26,061,23,24,18,307,20,21,17,042,19,10,02,354,,1*64
$GLGSV,2,1,07,82,44,060,32,83,42,124,21,80,37,082,37,72,31,304,26,1*7E
$GLGSV,2,2,07,74,29,294,,71,26,247,31,81,12,020,27,1*44
$GAGSV,3,1,09,25,79,294,26,03,45,242,21,24,43,071,25,08,31,308,17,7*78
$GAGSV,3,2,09,12,26,079,,02,26,262,,10,24,105,20,05,18,189,17,7*79
$GAGSV,3,3,09,33,11,025,16,7*4A
$GBGSV,4,1,14,36,64,295,38,46,58,099,,27,48,088,37,30,37,160,32,1*77
$GBGSV,4,2,14,28,21,043,30,58,20,114,,22,19,265,30,57,18,080,,1*7A
$GBGSV,4,3,14,21,15,317,29,45,14,288,28,08,07,309,23,13,07,320,24,1*77
$GBGSV,4,4,14,37,06,106,18,19,02,218,17,1*78
$GNRMC,000056.000,A,4910.426944,N,12304.402296,W,0.25,343.77,061224,,,D,V*14
$GNVTG,343.77,T,,M,0.25,N,0.46,K,D*27
$PAIRLOG,Full*51
$GNGGA,000057.000,4910.426866,N,12304.402398,W,2,29,0.49,2.902,M,-16.816,M,,*4F
$GNGLL,4910.426866,N,12304.402398,W,000057.000,A,D*56
$GNGSA,A,3,22,17,14,13,19,30,15,02,24,21,,,0.91,0.49,0.76,1*0C
$GNGSA,A,3,82,83,80,72,71,81,,,,,,,0.91,0.49,0.76,2*05
$GNGSA,A,3,25,03,24,05,,,,,,,,,0.91,0.49,0.76,3*00
$GNGSA,A,3,36,27,30,28,22,21,08,13,37,,,,0.91,0.49,0.76,4*04
$GPGSV,3,1,11,22,84,347,27,17,66,154,28,14,66,067,29,13,45,229,28,1*6C
$GPGSV,3,2,11,19,39,191,30,30,34,135,25,15,33,273,18,02,26,061,25,1*64
$GPGSV,3,3,11,24,18,307,20,21,17,042,22,10,02,354,,1*5F
$GLGSV,2,1,07,82,44,060,32,83,42,124,21,80,37,082,37,72,31,304,26,1*7E
$GLGSV,2,2,07,74,29,294,,71,26,247,31,81,12,020,27,1*44
$GAGSV,3,1,09,25,79,294,26,03,45,242,22,24,43,071,25,08,31,308,,7*7D
$GAGSV,3,2,09,12,26,079,,02,26,262,,10,24,105,,05,18,189,17,7*7B
$GAGSV,3,3,09,33,11,025,,7*4D
$GBGSV,4,1,14,36,64,295,38,46,58,099,,27,48,088,37,30,37,160,32,1*77
$GBGSV,4,2,14,28,21,043,30,58,20,114,,22,19,265,30,57,18,080,,1*7A
$GBGSV,4,3,14,21,15,317,29,45,14,288,,08,07,309,23,13,07,320,24,1*7D
$GBGSV,4,4,14,37,06,106,18,19,02,218,17,1*78
$GNRMC,000057.000,A,4910.426866,N,12304.402398,W,0.25,341.88,061224,,,D,V*19
$GNVTG,341.88,T,,M,0.25,N,0.46,K,D*25
$PAIRLOG,Full*51
$GNGGA,000058.000,4910.426818,N,12304.402416,W,2,29,0.49,2.678,M,-16.816,M,,*4A
$GNGLL,4910.426818,N,12304.402416,W,000058.000,A,D*51
$GNGSA,A,3,22,14,17,13,19,30,15,02,24,21,,,0.91,0.49,0.76,1*0C
$GNGSA,A,3,82,83,80,72,71,81,,,,,,,0.91,0.49,0.76,2*05
$GNGSA,A,3,25,03,24,05,,,,,,,,,0.91,0.49,0.76,3*00
$GNGSA,A,3,36,27,30,28,22,21,08,13,37,,,,0.91,0.49,0.76,4*04
$GPGSV,3,1,11,22,84,347,27,14,66,067,28,17,66,154,28,13,45,229,28,1*6D
$GPGSV,3,2,11,19,39,191,30,30,34,135,24,15,33,273,20,44,33,171,,1*6F
$GPGSV,3,3,11,02,26,061,24,24,18,307,20,21,17,042,20,1*5B
$GLGSV,2,1,08,82,44,060,32,83,42,124,21,80,37,082,36,72,31,304,27,1*71
$GLGSV,2,2,08,74,30,295,,71,26,247,31,81,12,020,27,65,04,354,,1*77
$GAGSV,1,1,04,25,79,294,26,03,45,242,23,24,43,071,25,05,18,189,16,7*79
$GBGSV,3,1,10,36,64,295,37,27,48,088,37,30,37,160,31,28,21,043,30,1*7A
$GBGSV,3,2,10,22,19,265,30,21,15,317,28,08,07,309,23,13,07,320,24,1*72
$GBGSV,3,3,10,37,06,106,18,19,02,218,17,1*7C
$GNRMC,000058.000,A,4910.426818,N,12304.402416,W,0.25,340.09,061224,,,D,V*16
$GNVTG,340.09,T,,M,0.25,N,0.46,K,D*2D
$PAIRLOG,Full*51
$GNGGA,000059.000,4910.426788,N,12304.402374,W,2,29,0.49,2.592,M,-16.816,M,,*49
$GNGLL,4910.426788,N,12304.402374,W,000059.000,A,D*55
$GNGSA,A,3,22,14,17,13,19,30,15,02,24,21,,,0.91,0.49,0.76,1*0C
$GNGSA,A,3,82,83,80,72,71,81,,,,,,,0.91,0.49,0.76,2*05
$GNGSA,A,3,25,03,24,05,,,,,,,,,0.91,0.49,0.76,3*00
$GNGSA,A,3,36,27,30,28,22,21,08,13,37,,,,0.91,0.49,0.76,4*04
$GPGSV,3,1,11,22,84,347,26,14,66,067,27,17,66,154,28,13,45,229,27,1*6C
$GPGSV,3,2,11,19,39,191,29,30,34,135,22,15,33,273,19,44,33,171,,1*6B
$GPGSV,3,3,11,02,26,061,24,24,18,307,20,21,17,042,19,1*51
$GLGSV,2,1,08,82,44,060,32,83,42,124,20,80,37,082,36,72,31,304,27,1*70
$GLGSV,2,2,08,74,30,295,,71,26,247,31,81,12,020,27,65,04,354,,1*77
$GAGSV,1,1,04,25,79,294,25,03,45,242,23,24,43,071,25,05,18,189,16,7*7A
$GBGSV,3,1,10,36,64,295,37,27,48,088,37,30,37,160,31,28,21,043,30,1*7A
$GBGSV,3,2,10,22,19,265,30,21,15,317,27,08,07,309,22,13,07,320,24,1*7C
$GBGSV,3,3,10,37,06,106,18,19,02,218,17,1*7C
$GNRMC,000059.000,A,4910.426788,N,12304.402374,W,0.24,339.38,061224,,,D,V*1F
$GNVTG,339.38,T,,M,0.24,N,0.44,K,D*22
$PAIRLOG,Full*51
$GNGGA,000100.000,4910.426848,N,12304.402404,W,2,29,0.49,2.730,M,-16.816,M,,*4D
$GNGLL,4910.426848,N,12304.402404,W,000100.000,A,D*5B
$GNGSA,A,3,22,14,17,13,19,30,15,02,24,21,,,0.91,0.49,0.76,1*0C
$GNGSA,A,3,82,83,80,72,71,81,,,,,,,0.91,0.49,0.76,2*05
$GNGSA,A,3,25,03,24,05,,,,,,,,,0.91,0.49,0.76,3*00
$GNGSA,A,3,36,27,30,28,22,21,08,13,37,,,,0.91,0.49,0.76,4*04
$GPGSV,3,1,11,22,84,347,25,14,66,067,27,17,66,154,27,13,45,229,26,1*61
$GPGSV,3,2,11,19,39,191,29,30,34,135,21,15,33,273,17,44,33,171,,1*66
$GPGSV,3,3,11,02,26,061,23,24,18,307,19,21,17,042,17,1*52
$GLGSV,2,1,08,82,44,060,31,83,42,124,20,80,37,082,35,72,31,304,27,1*70
$GLGSV,2,2,08,74,30,295,,71,26,247,31,81,12,020,28,65,04,354,,1*78
$GAGSV,1,1,04,25,79,294,25,03,45,242,22,24,43,071,25,05,18,189,16,7*7B
$GBGSV,3,1,10,36,64,295,37,27,48,088,37,30,37,160,31,28,21,043,30,1*7A
$GBGSV,3,2,10,22,19,265,30,21,15,317,27,08,07,309,22,13,07,320,24,1*7C
$GBGSV,3,3,10,37,06,106,18,19,02,218,17,1*7C
$GNRMC,000100.000,A,4910.426848,N,12304.402404,W,0.22,339.25,061224,,,D,V*1B
$GNVTG,339.25,T,,M,0.22,N,0.41,K,D*2D
$PAIRLOG,Full*51
$GNGGA,000101.000,4910.426932,N,12304.402428,W,2,30,0.49,2.870,M,-16.816,M,,*4D
$GNGLL,4910.426932,N,12304.402428,W,000101.000,A,D*58
$GNGSA,A,3,22,14,17,13,19,30,15,02,24,21,,,0.90,0.49,0.75,1*0E
$GNGSA,A,3,82,83,80,72,71,81,,,,,,,0.90,0.49,0.75,2*07
$GNGSA,A,3,25,03,24,05,,,,,,,,,0.90,0.49,0.75,3*02
$GNGSA,A,3,36,27,30,28,22,21,45,08,13,37,,,0.90,0.49,0.75,4*07
$GPGSV,3,1,12,22,84,347,25,14,66,067,27,17,66,154,27,13,45,229,26,1*62
$GPGSV,3,2,12,19,39,191,28,30,34,135,21,44,33,171,,15,33,273,17,1*64
$GPGSV,3,3,12,02,26,061,23,24,18,307,19,21,17,042,17,10,02,354,,1*60
$GLGSV,2,1,08,82,44,060,31,83,42,124,20,80,37,082,35,72,31,304,27,1*70
$GLGSV,2,2,08,74,30,295,20,71,26,247,31,81,12,020,28,65,04,354,,1*7A
$GAGSV,3,1,09,25,79,294,25,03,45,242,21,24,43,071,25,08,31,308,,7*7D
$GAGSV,3,2,09,12,26,079,,02,26,262,,10,24,105,,05,18,189,16,7*7A
$GAGSV,3,3,09,33,11,025,,7*4D
$GBGSV,4,1,14,36,64,295,37,46,58,099,,27,48,088,37,30,37,160,31,1*7B
$GBGSV,4,2,14,28,21,043,30,58,20,114,,22,19,265,30,57,18,080,,1*7A
$GBGSV,4,3,14,21,15,317,26,45,14,288,27,08,07,309,22,13,07,320,24,1*76
$GBGSV,4,4,14,37,06,106,18,19,02,218,17,1*78
$GNRMC,000101.000,A,4910.426932,N,12304.402428,W,0.22,339.80,061224,,,D,V*17
$GNVTG,339.80,T,,M,0.22,N,0.40,K,D*23
$PAIRLOG,Full*51
$GNGGA,000102.000,4910.426914,N,12304.402458,W,2,31,0.48,2.784,M,-16.816,M,,*49
$GNGLL,4910.426914,N,12304.402458,W,000102.000,A,D*58
$GNGSA,A,3,22,14,17,13,19,30,15,02,24,21,,,0.88,0.48,0.74,1*07
$GNGSA,A,3,82,83,80,72,71,81,,,,,,,0.88,0.48,0.74,2*0E
$GNGSA,A,3,25,03,24,10,05,,,,,,,,0.88,0.48,0.74,3*0A
$GNGSA,A,3,36,27,30,28,22,21,45,08,13,37,,,0.88,0.48,0.74,4*0E
$GPGSV,3,1,12,22,84,347,25,14,66,067,27,17,66,154,27,13,45,229,25,1*61
$GPGSV,3,2,12,19,39,191,28,30,34,135,22,44,33,171,,15,33,273,17,1*67
$GPGSV,3,3,12,02,26,061,24,24,18,307,19,21,17,042,20,10,02,354,,1*63
$GLGSV,2,1,07,82,44,060,31,83,42,124,20,80,37,082,35,72,31,304,27,1*7F
$GLGSV,2,2,07,74,30,295,,71,26,247,31,81,12,020,28,1*42
$GAGSV,3,1,09,25,79,294,25,03,45,242,21,24,43,071,26,08,31,308,,7*7E
$GAGSV,3,2,09,12,26,079,,02,26,262,,10,24,105,15,05,18,189,16,7*7E
$GAGSV,3,3,09,33,11,025,,7*4D
$GBGSV,4,1,14,36,64,295,37,46,58,099,,27,48,088,36,30,37,160,31,1*7A
$GBGSV,4,2,14,28,21,043,29,58,20,114,,22,19,265,30,57,18,080,,1*72
$GBGSV,4,3,14,21,15,317,26,45,14,288,27,08,07,309,21,13,07,320,24,1*75
$GBGSV,4,4,14,37,06,106,18,19,02,218,17,1*78
$GNRMC,000102.000,A,4910.426914,N,12304.402458,W,0.21,339.97,061224,,,D,V*12
$GNVTG,339.97,T,,M,0.21,N,0.40,K,D*26
$PAIRLOG,Full*51
$GNGGA,000103.000,4910.426812,N,12304.402494,W,2,31,0.48,2.650,M,-16.816,M,,*47
$GNGLL,4910.426812,N,12304.402494,W,000103.000,A,D*5E
$GNGSA,A,3,22,14,17,13,19,30,15,02,24,21,,,0.88,0.48,0.74,1*07
$GNGSA,A,3,82,83,80,72,71,81,,,,,,,0.88,0.48,0.74,2*0E
$GNGSA,A,3,25,03,24,10,05,,,,,,,,0.88,0.48,0.74,3*0A
$GNGSA,A,3,36,27,30,28,22,21,45,08,13,37,,,0.88,0.48,0.74,4*0E
$GPGSV,3,1,12,22,84,347,29,14,66,067,28,17,66,154,28,13,45,229,28,1*60
$GPGSV,3,2,12,19,39,191,29,30,34,135,23,44,33,171,,15,33,273,19,1*69
$GPGSV,3,3,12,02,26,061,27,24,18,307,22,21,17,042,22,10,02,354,,1*6A
$GLGSV,2,1,07,82,44,060,32,83,42,124,21,80,37,082,35,72,31,304,27,1*7D
$GLGSV,2,2,07,74,30,295,,71,26,247,30,81,12,020,28,1*43
$GAGSV,3,1,09,25,79,294,26,03,45,242,22,24,43,071,26,08,31,308,,7*7E
$GAGSV,3,2,09,12,26,079,,02,26,262,,10,24,105,19,05,18,189,17,7*73
$GAGSV,3,3,09,33,11,025,,7*4D
$GBGSV,4,1,14,36,64,295,37,46,58,099,,27,48,088,37,30,37,160,31,1*7B
$GBGSV,4,2,14,28,21,043,29,58,20,114,,22,19,265,30,57,18,080,,1*72
$GBGSV,4,3,14,21,15,317,27,45,14,288,29,08,07,309,21,13,07,320,24,1*7A
$GBGSV,4,4,14,37,06,106,18,19,02,218,15,1*7A
$GNRMC,000103.000,A,4910.426812,N,12304.402494,W,0.21,339.06,061224,,,D,V*1C
$GNVTG,339.06,T,,M,0.21,N,0.39,K,D*20
$PAIRLOG,Full*51
$GNGGA,000104.000,4910.426908,N,12304.402560,W,2,31,0.47,2.771,M,-16.817,M,,*4C
$GNGLL,4910.426908,N,12304.402560,W,000104.000,A,D*59
$GNGSA,A,3,22,17,14,13,19,30,15,02,24,21,,,0.92,0.47,0.79,1*0E
$GNGSA,A,3,82,83,80,72,71,81,,,,,,,0.92,0.47,0.79,2*07
$GNGSA,A,3,03,08,10,05,33,,,,,,,,0.92,0.47,0.79,3*0A
$GNGSA,A,3,36,27,30,28,22,21,45,08,13,37,,,0.92,0.47,0.79,4*07
$GPGSV,3,1,11,22,84,347,27,17,66,154,28,14,66,067,28,13,45,229,28,1*6D
$GPGSV,3,2,11,19,39,191,29,30,34,135,24,15,33,273,20,02,26,061,27,1*64
$GPGSV,3,3,11,24,18,307,22,21,17,042,21,10,02,354,,1*5E
$GLGSV,2,1,07,82,44,060,32,83,42,124,21,80,37,083,35,72,31,304,27,1*7C
$GLGSV,2,2,07,74,30,295,,71,26,247,30,81,12,020,28,1*43
$GAGSV,3,1,09,25,79,294,,03,45,242,22,24,43,071,,08,31,308,18,7*77
$GAGSV,3,2,09,12,26,079,15,02,26,262,,10,24,105,23,05,18,189,18,7*71
$GAGSV,3,3,09,33,11,025,17,7*4B
$GBGSV,4,1,14,36,64,295,37,46,58,099,,27,48,088,37,30,37,160,31,1*7B
$GBGSV,4,2,14,28,21,043,29,58,20,114,,22,19,265,30,57,18,080,,1*72
$GBGSV,4,3,14,21,15,317,27,45,14,288,29,08,07,309,22,13,07,320,24,1*79
$GBGSV,4,4,14,37,06,106,18,19,02,218,15,1*7A
$GNRMC,000104.000,A,4910.426908,N,12304.402560,W,0.21,337.90,061224,,,D,V*1A
$GNVTG,337.90,T,,M,0.21,N,0.39,K,D*21
$PAIRLOG,Full*51
$GNGGA,000105.000,4910.426956,N,12304.402578,W,2,28,0.50,3.048,M,-16.816,M,,*4C
$GNGLL,4910.426956,N,12304.402578,W,000105.000,A,D*5A
$GNGSA,A,3,22,14,17,13,19,30,15,02,24,21,,,0.91,0.50,0.76,1*04
$GNGSA,A,3,82,83,80,72,71,81,,,,,,,0.91,0.50,0.76,2*0D
$GNGSA,A,3,25,03,05,,,,,,,,,,0.91,0.50,0.76,3*0E
$GNGSA,A,3,36,27,30,28,22,21,08,13,37,,,,0.91,0.50,0.76,4*0C
$GPGSV,3,1,11,22,84,347,29,14,66,067,29,17,66,154,29,13,45,229,28,1*63
$GPGSV,3,2,11,19,39,191,29,30,34,135,26,15,33,273,22,44,33,171,,1*67
$GPGSV,3,3,11,02,26,061,28,24,18,307,22,21,17,042,20,1*55
$GLGSV,2,1,07,82,44,060,32,83,42,124,21,80,37,083,34,72,31,304,27,1*7D
$GLGSV,2,2,07,74,30,295,,71,26,247,30,81,11,019,28,1*4A
$GAGSV,1,1,04,25,79,294,26,03,45,242,22,24,43,071,,05,18,189,18,7*71
$GBGSV,3,1,10,36,64,295,37,27,48,088,37,30,37,160,31,28,21,043,29,1*72
$GBGSV,3,2,10,22,19,265,30,21,15,317,27,08,07,309,22,13,07,320,24,1*7C
$GBGSV,3,3,10,37,06,106,18,19,02,218,17,1*7C
$GNRMC,000105.000,A,4910.426956,N,12304.402578,W,0.21,336.44,061224,,,D,V*11
$GNVTG,336.44,T,,M,0.21,N,0.38,K,D*28
$PAIRLOG,Full*51
$GNGGA,000106.000,4910.427094,N,12304.402614,W,2,29,0.49,3.114,M,-16.816,M,,*41
$GNGLL,4910.427094,N,12304.402614,W,000106.000,A,D*56
$GNGSA,A,3,22,14,17,13,19,30,15,02,24,21,,,0.91,0.49,0.76,1*0C
$GNGSA,A,3,82,83,80,72,71,81,,,,,,,0.91,0.49,0.76,2*05
$GNGSA,A,3,25,03,24,05,,,,,,,,,0.91,0.49,0.76,3*00
$GNGSA,A,3,36,27,30,28,22,21,08,13,37,,,,0.91,0.49,0.76,4*04
$GPGSV,3,1,11,22,84,347,25,14,66,067,29,17,66,154,29,13,45,229,25,1*62
$GPGSV,3,2,11,19,39,191,28,30,34,135,25,15,33,273,18,44,33,171,,1*6C
$GPGSV,3,3,11,02,26,061,25,24,18,307,20,21,17,042,20,1*5A
$GLGSV,2,1,08,82,44,059,32,83,42,124,21,80,37,083,34,72,31,304,27,1*78
$GLGSV,2,2,08,74,30,295,,71,26,247,30,81,11,019,28,65,04,354,,1*70
$GAGSV,1,1,04,25,79,294,24,03,45,242,22,24,43,071,25,05,18,189,17,7*7B
$GBGSV,3,1,10,36,64,295,37,27,48,088,37,30,37,160,31,28,21,043,29,1*72
$GBGSV,3,2,10,22,19,265,30,21,15,317,27,08,07,309,22,13,07,320,24,1*7C
$GBGSV,3,3,10,37,06,106,18,19,02,218,16,1*7D
$GNRMC,000106.000,A,4910.427094,N,12304.402614,W,0.21,335.08,061224,,,D,V*16
$GNVTG,335.08,T,,M,0.21,N,0.39,K,D*22
$PAIRLOG,Full*51
$GNGGA,000107.000,4910.427196,N,12304.402590,W,2,29,0.49,3.116,M,-16.816,M,,*4E
$GNGLL,4910.427196,N,12304.402590,W,000107.000,A,D*5B
$GNGSA,A,3,22,14,17,13,19,30,15,02,24,21,,,0.91,0.49,0.76,1*0C
$GNGSA,A,3,82,83,80,72,71,81,,,,,,,0.91,0.49,0.76,2*05
$GNGSA,A,3,25,03,24,05,,,,,,,,,0.91,0.49,0.76,3*00
$GNGSA,A,3,36,27,30,28,22,21,08,13,37,,,,0.91,0.49,0.76,4*04
$GPGSV,3,1,10,22,84,347,25,14,66,067,28,17,66,154,29,13,45,229,26,1*61
$GPGSV,3,2,10,19,39,191,28,30,34,135,23,15,33,273,17,02,26,061,25,1*65
$GPGSV,3,3,10,24,18,307,20,21,17,042,20,1*6D
$GLGSV,2,1,08,82,44,059,32,83,43,123,21,80,37,083,34,72,31,304,27,1*7E
$GLGSV,2,2,08,74,30,295,,71,26,247,30,81,11,019,28,65,04,354,,1*70
$GAGSV,1,1,04,25,79,294,25,03,45,242,21,24,43,071,26,05,18,189,17,7*7A
$GBGSV,3,1,10,36,64,295,37,27,48,088,37,30,37,160,31,28,21,043,29,1*72
$GBGSV,3,2,10,22,19,265,30,21,15,317,27,08,07,309,22,13,07,320,24,1*7C
$GBGSV,3,3,10,37,06,106,18,19,02,218,15,1*7E
$GNRMC,000107.000,A,4910.427196,N,12304.402590,W,0.22,334.20,061224,,,D,V*13
$GNVTG,334.20,T,,M,0.22,N,0.40,K,D*24
$PAIRLOG,Full*51
$GNGGA,000108.000,4910.427256,N,12304.402590,W,2,29,0.49,3.177,M,-16.817,M,,*48
$GNGLL,4910.427256,N,12304.402590,W,000108.000,A,D*5B
$GNGSA,A,3,22,14,17,13,19,30,15,02,24,21,,,0.91,0.49,0.76,1*0C
$GNGSA,A,3,82,83,80,72,71,81,,,,,,,0.91,0.49,0.76,2*05
$GNGSA,A,3,25,03,24,05,,,,,,,,,0.91,0.49,0.76,3*00
$GNGSA,A,3,36,27,30,28,22,21,08,13,37,,,,0.91,0.49,0.76,4*04
$GPGSV,3,1,12,22,84,347,24,14,66,067,27,17,66,154,28,13,45,229,23,1*69
$GPGSV,3,2,12,19,39,191,27,30,34,135,20,15,33,273,18,51,31,159,,1*69
$GPGSV,3,3,12,02,26,061,24,24,18,307,19,21,17,042,19,10,02,354,,1*69
$GLGSV,2,1,08,82,44,059,33,83,43,123,21,80,37,083,34,72,31,304,27,1*7F
$GLGSV,2,2,08,74,30,295,,71,26,247,30,81,11,019,28,65,04,354,,1*70
$GAGSV,3,1,09,25,79,294,20,03,45,242,20,24,43,071,26,08,31,308,,7*7A
$GAGSV,3,2,09,12,26,079,,02,26,262,,10,24,105,,05,18,189,17,7*7B
$GAGSV,3,3,09,33,11,025,,7*4D
$GBGSV,4,1,14,36,64,295,37,46,58,099,,27,48,088,37,30,37,160,31,1*7B
$GBGSV,4,2,14,28,21,043,29,58,20,114,,22,19,265,30,57,18,080,,1*72
$GBGSV,4,3,14,21,15,317,27,45,14,288,,08,07,309,22,13,07,320,24,1*72
$GBGSV,4,4,14,37,06,106,18,19,02,218,16,1*79
$GNRMC,000108.000,A,4910.427256,N,12304.402590,W,0.23,333.65,061224,,,D,V*14
$GNVTG,333.65,T,,M,0.23,N,0.42,K,D*21
$PAIRLOG,Full*51
$GNGGA,000109.000,4910.427238,N,12304.402560,W,2,29,0.49,3.138,M,-16.816,M,,*44
$GNGLL,4910.427238,N,12304.402560,W,000109.000,A,D*5D
$GNGSA,A,3,22,14,17,13,19,30,15,02,24,21,,,0.91,0.49,0.76,1*0C
$GNGSA,A,3,82,83,80,72,71,81,,,,,,,0.91,0.49,0.76,2*05
$GNGSA,A,3,25,03,24,05,,,,,,,,,0.91,0.49,0.76,3*00
$GNGSA,A,3,36,27,30,28,22,21,08,13,37,,,,0.91,0.49,0.76,4*04
$GPGSV,3,1,12,22,84,347,27,14,66,067,24,17,66,154,28,13,45,229,25,1*6F
$GPGSV,3,2,12,19,39,191,27,30,34,135,20,15,33,273,18,51,31,159,,1*69
$GPGSV,3,3,12,02,26,061,25,24,18,307,20,21,17,042,20,10,02,354,,1*68
$GLGSV,2,1,08,82,44,059,32,83,43,123,21,80,37,083,34,72,31,304,27,1*7E
$GLGSV,2,2,08,74,30,295,,71,26,247,29,81,11,019,28,65,04,354,,1*78
$GAGSV,3,1,09,25,79,294,20,03,45,242,20,24,43,071,28,08,31,308,,7*74
$GAGSV,3,2,09,12,26,079,,02,26,262,,10,24,105,,05,18,189,16,7*7A
$GAGSV,3,3,09,33,11,025,,7*4D
$GBGSV,4,1,14,36,64,295,37,46,58,099,,27,48,088,37,30,37,160,32,1*78
$GBGSV,4,2,14,28,21,043,29,58,20,114,,22,19,265,30,57,18,080,,1*72
$GBGSV,4,3,14,21,15,317,27,45,14,288,,08,07,309,22,13,07,320,24,1*72
$GBGSV,4,4,14,37,06,106,18,19,02,218,16,1*79
$GNRMC,000109.000,A,4910.427238,N,12304.402560,W,0.23,333.50,061224,,,D,V*14
$GNVTG,333.50,T,,M,0.23,N,0.42,K,D*27
$PAIRLOG,Full*51
$GNGGA,000110.000,4910.427256,N,12304.402596,W,2,29,0.49,3.196,M,-16.816,M,,*49
$GNGLL,4910.427256,N,12304.402596,W,000110.000,A,D*54
$GNGSA,A,3,22,14,17,13,19,30,15,02,24,21,,,0.91,0.49,0.76,1*0C
$GNGSA,A,3,82,83,80,72,71,81,,,,,,,0.91,0.49,0.76,2*05
$GNGSA,A,3,25,03,24,05,,,,,,,,,0.91,0.49,0.76,3*00
$GNGSA,A,3,36,27,30,28,22,21,08,13,37,,,,0.91,0.49,0.76,4*04
$GPGSV,3,1,11,22,84,347,25,14,66,067,25,17,66,154,28,13,45,229,26,1*6C
$GPGSV,3,2,11,19,39,191,27,30,34,135,20,15,33,273,20,51,31,159,,1*61
$GPGSV,3,3,11,02,26,061,25,24,18,307,19,21,17,042,19,1*5A
$GLGSV,2,1,08,82,44,059,32,83,43,123,21,80,37,083,33,72,31,304,27,1*79
$GLGSV,2,2,08,74,30,295,,71,26,247,29,81,11,019,28,65,04,354,,1*78
$GAGSV,1,1,04,25,79,294,20,03,45,242,20,24,43,071,27,05,18,189,16,7*7E
$GBGSV,3,1,10,36,64,295,37,27,48,088,37,30,37,160,32,28,21,043,29,1*71
$GBGSV,3,2,10,22,19,265,30,21,15,317,27,08,07,309,22,13,07,320,24,1*7C
$GBGSV,3,3,10,37,06,106,18,19,02,218,16,1*7D
$GNRMC,000110.000,A,4910.427256,N,12304.402596,W,0.24,329.60,061224,,,D,V*12
$GNVTG,329.60,T,,M,0.24,N,0.44,K,D*2E
$PAIRLOG,Full*51
$GNGGA,000111.000,4910.427250,N,12304.402590,W,2,29,0.49,3.167,M,-16.816,M,,*46
$GNGLL,4910.427250,N,12304.402590,W,000111.000,A,D*55
$GNGSA,A,3,22,14,17,13,19,30,15,02,24,21,,,0.91,0.49,0.76,1*0C
$GNGSA,A,3,82,83,80,72,71,81,,,,,,,0.91,0.49,0.76,2*05
$GNGSA,A,3,25,03,24,05,,,,,,,,,0.91,0.49,0.76,3*00
$GNGSA,A,3,36,27,30,28,22,21,08,13,37,,,,0.91,0.49,0.76,4*04
$GPGSV,3,1,11,22,84,347,26,14,66,067,26,17,66,154,28,13,45,229,25,1*6F
$GPGSV,3,2,11,19,39,191,27,30,34,135,21,15,33,273,20,51,31,159,,1*60
$GPGSV,3,3,11,02,26,061,27,24,18,307,19,21,17,042,19,1*58
$GLGSV,2,1,08,82,44,059,31,83,43,123,21,80,37,083,32,72,31,304,27,1*7B
$GLGSV,2,2,08,74,30,295,,71,26,247,28,81,11,019,27,65,04,354,,1*76
$GAGSV,1,1,04,25,79,294,20,03,45,242,20,24,43,071,25,05,18,189,16,7*7C
$GBGSV,3,1,10,36,64,295,37,27,48,088,37,30,37,160,32,28,21,043,29,1*71
$GBGSV,3,2,10,22,19,265,30,21,15,317,27,08,07,309,22,13,07,320,24,1*7C
$GBGSV,3,3,10,37,06,106,18,19,02,218,16,1*7D
$GNRMC,000111.000,A,4910.427250,N,12304.402590,W,0.05,329.60,061224,,,D,V*10
$GNVTG,329.60,T,,M,0.05,N,0.10,K,D*2C
$PAIRLOG,Full*51
$GNGGA,000112.000,4910.427268,N,12304.402572,W,2,29,0.49,3.112,M,-16.816,M,,*40
$GNGLL,4910.427268,N,12304.402572,W,000112.000,A,D*51
$GNGSA,A,3,22,14,17,13,19,30,15,02,24,21,,,0.91,0.49,0.76,1*0C
$GNGSA,A,3,82,83,80,72,71,81,,,,,,,0.91,0.49,0.76,2*05
$GNGSA,A,3,25,03,24,05,,,,,,,,,0.91,0.49,0.76,3*00
$GNGSA,A,3,36,27,30,28,22,21,08,13,37,,,,0.91,0.49,0.76,4*04
$GPGSV,3,1,11,22,84,347,25,14,66,067,24,17,66,154,28,13,45,229,25,1*6E
$GPGSV,3,2,11,19,39,191,26,30,34,135,21,15,33,273,20,51,31,159,,1*61
$GPGSV,3,3,11,02,26,061,25,24,18,307,19,21,17,042,19,1*5A
$GLGSV,2,1,08,82,44,059,32,83,43,123,21,80,37,083,32,72,31,304,27,1*78
$GLGSV,2,2,08,74,30,295,,71,26,247,28,81,11,019,26,65,04,354,,1*77
$GAGSV,1,1,04,25,79,294,21,03,45,242,20,24,43,071,26,05,18,189,16,7*7E
$GBGSV,3,1,10,36,64,295,37,27,48,088,37,30,37,160,32,28,21,043,29,1*71
$GBGSV,3,2,10,22,19,265,30,21,15,317,27,08,07,309,22,13,07,320,24,1*7C
$GBGSV,3,3,10,37,06,106,18,19,02,218,16,1*7D
$GNRMC,000112.000,A,4910.427268,N,12304.402572,W,0.08,329.60,061224,,,D,V*19
$GNVTG,329.60,T,,M,0.08,N,0.15,K,D*24
$PAIRLOG,Full*51
$GNGGA,000113.000,4910.427274,N,12304.402554,W,2,29,0.49,3.038,M,-16.816,M,,*41
$GNGLL,4910.427274,N,12304.402554,W,000113.000,A,D*59
$GNGSA,A,3,22,14,17,13,19,30,15,02,24,21,,,0.91,0.49,0.76,1*0C
$GNGSA,A,3,82,83,80,72,71,81,,,,,,,0.91,0.49,0.76,2*05
$GNGSA,A,3,25,03,24,05,,,,,,,,,0.91,0.49,0.76,3*00
$GNGSA,A,3,36,27,30,28,22,21,08,13,37,,,,0.91,0.49,0.76,4*04
$GPGSV,3,1,12,22,84,347,25,14,66,067,25,17,66,154,28,13,45,229,26,1*6F
$GPGSV,3,2,12,19,39,191,26,30,34,135,20,15,33,273,20,51,31,159,,1*63
$GPGSV,3,3,12,02,26,061,25,24,18,307,19,21,17,042,20,10,02,354,,1*62
$GLGSV,2,1,08,82,44,059,32,83,43,123,21,80,37,083,32,72,31,304,27,1*78
$GLGSV,2,2,08,74,30,295,,71,26,247,28,81,11,019,26,65,04,354,,1*77
$GAGSV,3,1,09,25,79,294,22,03,45,242,20,24,43,071,27,08,31,308,,7*79
$GAGSV,3,2,09,12,26,079,,02,26,262,,10,24,105,,05,18,189,16,7*7A
$GAGSV,3,3,09,33,11,025,,7*4D
$GBGSV,4,1,14,36,64,295,37,46,58,099,,27,48,088,37,30,37,160,32,1*78
$GBGSV,4,2,14,28,21,043,29,58,20,114,,22,19,265,30,57,18,080,,1*72
$GBGSV,4,3,14,21,15,317,27,45,14,288,,08,07,309,22,13,07,320,24,1*72
$GBGSV,4,4,14,37,06,106,18,19,02,218,16,1*79
$GNRMC,000113.000,A,4910.427274,N,12304.402554,W,0.10,329.60,061224,,,D,V*18
$GNVTG,329.60,T,,M,0.10,N,0.19,K,D*21
$PAIRLOG,Full*51
$GNGGA,000114.000,4910.427298,N,12304.402554,W,2,30,0.49,2.963,M,-16.817,M,,*4B
$GNGLL,4910.427298,N,12304.402554,W,000114.000,A,D*5C
$GNGSA,A,3,22,14,17,13,19,30,15,02,24,21,,,0.90,0.49,0.75,1*0E
$GNGSA,A,3,82,83,80,72,71,81,,,,,,,0.90,0.49,0.75,2*07
$GNGSA,A,3,25,03,24,05,,,,,,,,,0.90,0.49,0.75,3*02
$GNGSA,A,3,36,27,30,28,22,21,45,08,13,37,,,0.90,0.49,0.75,4*07
$GPGSV,3,1,12,22,84,347,25,14,66,067,25,17,66,154,27,13,45,229,25,1*63
$GPGSV,3,2,12,19,39,191,26,30,34,135,23,15,33,273,19,51,31,159,,1*6A
$GPGSV,3,3,12,02,26,061,25,24,18,307,18,21,17,042,20,10,02,354,,1*63
$GLGSV,2,1,08,82,44,059,32,83,43,123,21,80,37,083,32,72,31,304,26,1*79
$GLGSV,2,2,08,74,30,295,,71,26,247,28,81,11,019,26,65,04,354,,1*77
$GAGSV,3,1,09,25,79,294,22,03,45,242,20,24,43,071,26,08,31,308,,7*78
$GAGSV,3,2,09,12,26,079,,02,26,262,,10,24,105,,05,18,189,16,7*7A
$GAGSV,3,3,09,33,11,025,,7*4D
$GBGSV,4,1,14,36,64,295,37,46,58,099,,27,48,088,37,30,37,160,32,1*78
$GBGSV,4,2,14,28,21,043,29,58,20,114,,22,19,265,30,57,18,080,,1*72
$GBGSV,4,3,14,21,15,317,27,45,14,288,28,08,07,309,22,13,07,320,24,1*78
$GBGSV,4,4,14,37,06,106,18,19,02,218,16,1*79
$GNRMC,000114.000,A,4910.427298,N,12304.402554,W,0.12,329.60,061224,,,D,V*1F
$GNVTG,329.60,T,,M,0.12,N,0.23,K,D*2A
$PAIRLOG,Full*51
$GNGGA,000115.000,4910.427322,N,12304.402584,W,2,31,0.49,2.978,M,-16.816,M,,*4D
$GNGLL,4910.427322,N,12304.402584,W,000115.000,A,D*50
$GNGSA,A,3,22,14,17,13,19,30,15,02,24,21,,,0.89,0.49,0.75,1*06
$GNGSA,A,3,82,83,80,72,71,81,,,,,,,0.89,0.49,0.75,2*0F
$GNGSA,A,3,25,03,24,08,05,,,,,,,,0.89,0.49,0.75,3*02
$GNGSA,A,3,36,27,30,28,22,21,45,08,13,37,,,0.89,0.49,0.75,4*0F
$GPGSV,3,1,12,22,84,347,23,14,66,067,22,17,66,154,26,13,45,229,25,1*63
$GPGSV,3,2,12,19,39,191,26,30,34,135,19,15,33,273,18,51,31,159,,1*62
$GPGSV,3,3,12,02,26,061,24,24,18,307,18,21,17,042,20,10,02,354,,1*62
$GLGSV,2,1,07,82,44,059,32,83,43,123,21,80,37,083,33,72,31,304,26,1*77
$GLGSV,2,2,07,74,30,295,,71,26,247,27,81,11,019,26,1*42
$GAGSV,3,1,09,25,79,294,22,03,45,242,20,24,43,071,26,08,31,308,15,7*7C
$GAGSV,3,2,09,12,26,079,,02,26,262,18,10,24,105,,05,18,189,16,7*73
$GAGSV,3,3,09,33,11,025,,7*4D
$GBGSV,4,1,14,36,64,295,37,46,58,099,,27,48,088,37,30,37,160,32,1*78
$GBGSV,4,2,14,28,21,043,29,58,20,114,,22,19,265,29,57,18,080,,1*7A
$GBGSV,4,3,14,21,15,317,27,45,14,288,27,08,07,309,22,13,07,320,24,1*77
$GBGSV,4,4,14,37,06,106,18,19,02,218,16,1*79
$GNRMC,000115.000,A,4910.427322,N,12304.402584,W,0.14,329.60,061224,,,D,V*15
$GNVTG,329.60,T,,M,0.14,N,0.26,K,D*29
$PAIRLOG,Full*51
$GNGGA,000116.000,4910.427298,N,12304.402626,W,2,32,0.47,2.949,M,-16.816,M,,*4A
$GNGLL,4910.427298,N,12304.402626,W,000116.000,A,D*58
$GNGSA,A,3,22,17,14,13,19,30,15,02,24,21,,,0.88,0.47,0.74,1*08
$GNGSA,A,3,82,83,80,72,71,81,,,,,,,0.88,0.47,0.74,2*01
$GNGSA,A,3,25,03,24,08,10,05,,,,,,,0.88,0.47,0.74,3*0D
$GNGSA,A,3,36,27,30,28,22,21,45,08,13,37,,,0.88,0.47,0.74,4*01
$GPGSV,3,1,11,22,84,347,28,17,66,154,27,14,66,067,25,13,45,229,29,1*61
$GPGSV,3,2,11,19,39,191,26,30,34,135,22,15,33,273,18,02,26,061,27,1*66
$GPGSV,3,3,11,24,18,307,20,21,17,042,21,10,02,354,,1*5C
$GLGSV,2,1,07,82,44,059,32,83,43,123,21,80,37,083,33,72,31,304,26,1*77
$GLGSV,2,2,07,74,30,295,,71,26,247,27,81,11,019,26,1*42
$GAGSV,3,1,09,25,79,294,23,03,45,242,20,24,43,071,26,08,31,308,16,7*7E
$GAGSV,3,2,09,12,26,079,,02,26,262,19,10,24,105,17,05,18,189,16,7*74
$GAGSV,3,3,09,33,11,025,,7*4D
$GBGSV,4,1,14,36,64,295,36,46,58,099,,27,48,088,37,30,37,160,32,1*79
$GBGSV,4,2,14,28,21,043,29,58,20,114,,22,19,265,29,57,18,080,,1*7A
$GBGSV,4,3,14,21,15,317,27,45,14,288,26,08,07,309,22,13,07,320,24,1*76
$GBGSV,4,4,14,37,06,106,18,19,02,218,16,1*79
$GNRMC,000116.000,A,4910.427298,N,12304.402626,W,0.14,329.60,061224,,,D,V*1D
$GNVTG,329.60,T,,M,0.14,N,0.26,K,D*29
$PAIRLOG,Full*51
$GNGGA,000117.000,4910.427286,N,12304.402620,W,2,29,0.49,2.830,M,-16.817,M,,*48
$GNGLL,4910.427286,N,12304.402620,W,000117.000,A,D*50
$GNGSA,A,3,22,14,17,13,19,30,15,02,24,21,,,0.91,0.49,0.76,1*0C
$GNGSA,A,3,82,83,80,72,71,81,,,,,,,0.91,0.49,0.76,2*05
$GNGSA,A,3,25,03,24,05,,,,,,,,,0.91,0.49,0.76,3*00
$GNGSA,A,3,36,27,30,28,22,21,08,13,37,,,,0.91,0.49,0.76,4*04
$GPGSV,3,1,12,22,84,347,26,14,66,067,25,17,66,154,27,13,45,229,27,1*62
$GPGSV,3,2,12,19,39,191,26,30,34,135,22,15,33,273,19,02,26,061,27,1*64
$GPGSV,3,3,12,24,18,307,20,21,17,042,21,10,02,354,,33,,,,1*5F
$GLGSV,2,1,07,82,44,059,32,83,43,123,21,80,37,083,33,72,31,304,26,1*77
$GLGSV,2,2,07,74,30,295,,71,26,247,27,81,11,019,26,1*42
$GAGSV,3,1,09,25,79,294,24,03,45,242,20,24,43,071,26,08,31,308,,7*7E
$GAGSV,3,2,09,12,26,079,,02,26,262,,10,24,105,,05,18,189,16,7*7A
$GAGSV,3,3,09,33,11,025,,7*4D
$GBGSV,4,1,14,36,64,295,36,46,58,099,,27,48,088,37,30,37,160,32,1*79
$GBGSV,4,2,14,28,21,043,29,58,20,114,,22,19,265,29,57,18,080,,1*7A
$GBGSV,4,3,14,21,15,317,27,45,14,288,,08,07,309,22,13,07,320,24,1*72
$GBGSV,4,4,14,37,06,106,18,19,02,218,16,1*79
$GNRMC,000117.000,A,4910.427286,N,12304.402620,W,0.15,329.60,061224,,,D,V*14
$GNVTG,329.60,T,,M,0.15,N,0.27,K,D*29
$PAIRLOG,Full*51
$GNGGA,000118.000,4910.427232,N,12304.402632,W,2,29,0.49,2.780,M,-16.817,M,,*4F
$GNGLL,4910.427232,N,12304.402632,W,000118.000,A,D*53
$GNGSA,A,3,22,14,17,13,19,30,15,02,24,21,,,0.91,0.49,0.76,1*0C
$GNGSA,A,3,82,83,80,72,71,81,,,,,,,0.91,0.49,0.76,2*05
$GNGSA,A,3,25,03,24,05,,,,,,,,,0.91,0.49,0.76,3*00
$GNGSA,A,3,36,27,30,28,22,21,08,13,37,,,,0.91,0.49,0.76,4*04
$GPGSV,3,1,11,22,84,347,23,14,66,067,20,17,66,154,27,13,45,229,25,1*63
$GPGSV,3,2,11,19,39,191,26,30,34,135,19,15,33,273,19,02,26,061,25,1*6D
$GPGSV,3,3,11,24,18,307,17,21,17,042,20,33,,,,1*68
$GLGSV,2,1,08,82,44,059,32,83,43,123,21,80,37,083,33,72,31,304,27,1*79
$GLGSV,2,2,08,74,30,295,,71,26,247,27,81,11,019,26,65,05,354,,1*79
$GAGSV,1,1,04,25,79,294,23,03,45,242,19,24,43,071,26,05,18,189,16,7*76
$GBGSV,3,1,10,36,64,295,36,27,48,088,37,30,37,160,32,28,21,043,29,1*70
$GBGSV,3,2,10,22,19,265,29,21,15,317,27,08,07,309,21,13,07,320,24,1*77
$GBGSV,3,3,10,37,06,106,18,19,02,218,16,1*7D
$GNRMC,000118.000,A,4910.427232,N,12304.402632,W,0.13,329.60,061224,,,D,V*11
$GNVTG,329.60,T,,M,0.13,N,0.24,K,D*2C
$PAIRLOG,Full*51
$GNGGA,000119.000,4910.427232,N,12304.402674,W,2,29,0.49,2.793,M,-16.816,M,,*4F
$GNGLL,4910.427232,N,12304.402674,W,000119.000,A,D*50
$GNGSA,A,3,22,14,17,13,19,30,15,02,24,21,,,0.91,0.49,0.76,1*0C
$GNGSA,A,3,82,83,80,72,71,81,,,,,,,0.91,0.49,0.76,2*05
$GNGSA,A,3,25,03,24,05,,,,,,,,,0.91,0.49,0.76,3*00
$GNGSA,A,3,36,27,30,28,22,21,08,13,37,,,,0.91,0.49,0.76,4*04
$GPGSV,3,1,11,22,84,347,19,14,66,067,19,17,66,154,26,13,45,229,25,1*61
$GPGSV,3,2,11,19,39,191,25,30,34,135,17,15,33,273,18,02,26,061,23,1*67
$GPGSV,3,3,11,24,18,307,15,21,17,042,19,33,,,,1*60
$GLGSV,2,1,08,82,44,059,32,83,43,123,21,80,37,083,33,72,31,304,27,1*79
$GLGSV,2,2,08,74,30,295,,71,26,247,27,81,11,019,26,65,05,354,,1*79
$GAGSV,1,1,04,25,79,294,23,03,45,242,18,24,43,071,26,05,18,189,15,7*74
$GBGSV,3,1,10,36,64,295,36,27,48,088,37,30,37,160,32,28,21,043,29,1*70
$GBGSV,3,2,10,22,19,265,29,21,15,317,27,08,07,309,21,13,07,320,24,1*77
$GBGSV,3,3,10,37,06,106,18,19,02,218,16,1*7D
$GNRMC,000119.000,A,4910.427232,N,12304.402674,W,0.12,329.60,061224,,,D,V*13
$GNVTG,329.60,T,,M,0.12,N,0.22,K,D*2B
$PAIRLOG,Full*51
$GNGGA,000120.000,4910.427256,N,12304.402614,W,2,29,0.49,2.721,M,-16.816,M,,*48
$GNGLL,4910.427256,N,12304.402614,W,000120.000,A,D*5E
$GNGSA,A,3,22,14,17,13,19,30,15,02,24,21,,,0.91,0.49,0.76,1*0C
$GNGSA,A,3,82,83,80,72,71,81,,,,,,,0.91,0.49,0.76,2*05
$GNGSA,A,3,25,03,24,05,,,,,,,,,0.91,0.49,0.76,3*00
$GNGSA,A,3,36,27,30,28,22,21,08,13,37,,,,0.91,0.49,0.76,4*04
$GPGSV,3,1,11,22,84,347,21,14,66,067,19,17,66,154,24,13,45,229,25,1*68
$GPGSV,3,2,11,19,39,191,23,30,34,135,18,15,33,273,18,02,26,061,25,1*68
$GPGSV,3,3,11,24,18,307,17,21,17,042,19,33,,,,1*62
$GLGSV,2,1,08,82,44,059,33,83,43,123,21,80,37,083,33,72,31,304,28,1*77
$GLGSV,2,2,08,74,30,295,,71,26,247,27,81,11,019,27,65,05,354,,1*78
$GAGSV,1,1,04,25,79,294,24,03,45,242,18,24,43,071,26,05,18,189,16,7*70
$GBGSV,3,1,10,36,64,295,36,27,48,088,37,30,37,160,33,28,21,043,29,1*71
$GBGSV,3,2,10,22,19,265,29,21,15,317,28,08,07,309,21,13,07,320,24,1*78
$GBGSV,3,3,10,37,06,106,18,19,02,218,16,1*7D
$GNRMC,000120.000,A,4910.427256,N,12304.402614,W,0.10,329.60,061224,,,D,V*1F
$GNVTG,329.60,T,,M,0.10,N,0.19,K,D*21
$PAIRLOG,Full*51
$GNGGA,000121.000,4910.427328,N,12304.402620,W,2,30,0.49,2.887,M,-16.816,M,,*4D
$GNGLL,4910.427328,N,12304.402620,W,000121.000,A,D*50
$GNGSA,A,3,22,14,17,13,19,30,15,02,24,21,,,0.90,0.49,0.75,1*0E
$GNGSA,A,3,82,83,80,72,71,81,,,,,,,0.90,0.49,0.75,2*07
$GNGSA,A,3,25,03,24,05,,,,,,,,,0.90,0.49,0.75,3*02
$GNGSA,A,3,36,27,30,28,22,21,45,08,13,37,,,0.90,0.49,0.75,4*07
$GPGSV,3,1,12,22,84,347,20,14,66,067,18,17,66,154,22,13,45,229,24,1*6C
$GPGSV,3,2,12,19,39,191,23,30,34,135,17,15,33,273,18,02,26,061,24,1*65
$GPGSV,3,3,12,24,18,307,16,21,17,042,19,10,02,354,,33,,,,1*51
$GLGSV,2,1,08,82,44,059,33,83,43,123,22,80,37,083,34,72,31,304,28,1*73
$GLGSV,2,2,08,74,30,295,,71,26,247,28,81,11,019,27,65,05,354,,1*77
$GAGSV,3,1,09,25,79,294,24,03,45,242,17,24,43,071,26,08,31,308,,7*7A
$GAGSV,3,2,09,12,26,079,,02,26,262,,10,24,105,,05,18,189,16,7*7A
$GAGSV,3,3,09,33,11,025,,7*4D
$GBGSV,4,1,14,36,64,295,36,46,58,099,,27,48,088,37,30,37,160,33,1*78
$GBGSV,4,2,14,28,21,043,29,58,20,114,,22,19,265,29,57,18,080,,1*7A
$GBGSV,4,3,14,21,15,317,28,45,14,288,27,08,07,309,21,13,07,320,24,1*7B
$GBGSV,4,4,14,37,06,106,17,19,02,218,16,1*76
$GNRMC,000121.000,A,4910.427328,N,12304.402620,W,0.10,329.60,061224,,,D,V*11
$GNVTG,329.60,T,,M,0.10,N,0.19,K,D*21
$PAIRLOG,Full*51
$GNGGA,000122.000,4910.427388,N,12304.402590,W,2,30,0.49,2.972,M,-16.816,M,,*47
$GNGLL,4910.427388,N,12304.402590,W,000122.000,A,D*51
$GNGSA,A,3,22,14,17,13,19,30,15,02,24,21,,,0.90,0.49,0.75,1*0E
$GNGSA,A,3,82,83,80,72,71,81,,,,,,,0.90,0.49,0.75,2*07
$GNGSA,A,3,25,03,24,05,,,,,,,,,0.90,0.49,0.75,3*02
$GNGSA,A,3,36,27,30,28,22,21,45,08,13,37,,,0.90,0.49,0.75,4*07
$GPGSV,3,1,12,22,84,347,22,14,66,067,22,17,66,154,23,13,45,229,25,1*67
$GPGSV,3,2,12,19,39,191,19,30,34,135,22,15,33,273,17,02,26,061,25,1*64
$GPGSV,3,3,12,24,18,307,18,21,17,042,18,10,02,354,,33,,,,1*5E
$GLGSV,2,1,08,82,44,059,33,83,43,123,22,80,37,083,34,72,31,304,28,1*73
$GLGSV,2,2,08,74,30,295,,71,26,247,28,81,11,019,27,65,05,354,,1*77
$GAGSV,3,1,09,25,79,294,25,03,45,242,18,24,43,071,25,08,31,308,,7*77
$GAGSV,3,2,09,12,26,079,,02,26,262,,10,24,105,,05,18,189,17,7*7B
$GAGSV,3,3,09,33,11,025,,7*4D
$GBGSV,4,1,14,36,64,295,35,46,58,099,,27,48,088,37,30,37,160,33,1*7B
$GBGSV,4,2,14,28,21,043,28,58,20,114,,22,19,265,29,57,18,080,,1*7B
$GBGSV,4,3,14,21,15,317,28,45,14,288,26,08,07,309,21,13,07,320,24,1*7A
$GBGSV,4,4,14,37,06,106,16,19,02,218,16,1*77
$GNRMC,000122.000,A,4910.427388,N,12304.402590,W,0.11,329.60,061224,,,D,V*11
$GNVTG,329.60,T,,M,0.11,N,0.20,K,D*2A
$PAIRLOG,Full*51
$GNGGA,000123.000,4910.427472,N,12304.402578,W,2,31,0.48,2.974,M,-16.816,M,,*44
$GNGLL,4910.427472,N,12304.402578,W,000123.000,A,D*54
$GNGSA,A,3,22,14,13,19,30,15,02,24,21,,,,0.90,0.48,0.76,1*0A
$GNGSA,A,3,82,83,80,72,71,81,,,,,,,0.90,0.48,0.76,2*05
$GNGSA,A,3,25,03,24,08,05,33,,,,,,,0.90,0.48,0.76,3*08
$GNGSA,A,3,36,27,30,28,22,21,45,08,13,37,,,0.90,0.48,0.76,4*05
$GPGSV,3,1,11,22,84,347,24,17,66,154,,14,66,067,22,13,45,229,25,1*63
$GPGSV,3,2,11,19,39,191,22,30,34,135,22,15,33,273,17,02,26,061,25,1*6F
$GPGSV,3,3,11,24,18,307,19,21,17,042,18,10,02,354,,1*5C
$GLGSV,2,1,07,82,44,059,33,83,43,123,23,80,37,083,35,72,31,304,28,1*7C
$GLGSV,2,2,07,74,30,295,,71,26,247,28,81,11,019,27,1*4C
$GAGSV,3,1,09,25,79,294,26,03,45,242,19,24,43,071,25,08,31,308,17,7*73
$GAGSV,3,2,09,12,26,079,18,02,26,262,,10,24,105,,05,18,189,17,7*72
$GAGSV,3,3,09,33,11,025,18,7*44
$GBGSV,4,1,14,36,64,295,35,46,58,099,,27,48,088,37,30,37,160,33,1*7B
$GBGSV,4,2,14,28,21,043,28,58,20,114,,22,19,265,29,57,18,080,,1*7B
$GBGSV,4,3,14,21,15,317,28,45,14,288,28,08,07,309,21,13,07,320,24,1*74
$GBGSV,4,4,14,37,06,106,16,19,02,218,16,1*77
$GNRMC,000123.000,A,4910.427472,N,12304.402578,W,0.12,329.60,061224,,,D,V*17
$GNVTG,329.60,T,,M,0.12,N,0.23,K,D*2A
$PAIRLOG,Full*51
$GNGGA,000124.000,4910.427478,N,12304.402608,W,2,28,0.49,2.844,M,-16.816,M,,*46
$GNGLL,4910.427478,N,12304.402608,W,000124.000,A,D*5D
$GNGSA,A,3,22,14,13,19,30,15,02,24,21,,,,0.92,0.49,0.78,1*07
$GNGSA,A,3,82,83,80,72,71,81,,,,,,,0.92,0.49,0.78,2*08
$GNGSA,A,3,25,03,24,05,,,,,,,,,0.92,0.49,0.78,3*0D
$GNGSA,A,3,36,27,30,28,22,21,08,13,37,,,,0.92,0.49,0.78,4*09
$GPGSV,3,1,12,22,84,347,26,14,66,067,24,17,66,154,,13,45,229,27,1*66
$GPGSV,3,2,12,19,39,191,22,30,34,135,22,15,33,273,17,02,26,061,27,1*6E
$GPGSV,3,3,12,24,18,307,20,21,17,042,19,10,02,354,,34,,,,1*53
$GLGSV,2,1,07,82,44,059,33,83,43,123,24,80,37,083,35,72,31,304,28,1*7B
$GLGSV,2,2,07,74,30,295,,71,26,247,28,81,11,019,27,1*4C
$GAGSV,3,1,09,25,79,294,27,03,45,242,20,24,43,071,25,08,31,308,,7*7E
$GAGSV,3,2,09,12,26,079,,02,26,262,,10,24,105,,05,18,189,17,7*7B
$GAGSV,3,3,09,33,11,025,,7*4D
$GBGSV,4,1,14,36,64,295,35,46,58,099,,27,48,088,37,30,37,160,33,1*7B
$GBGSV,4,2,14,28,21,043,28,58,20,114,,22,19,265,29,57,18,080,,1*7B
$GBGSV,4,3,14,21,15,317,28,45,14,288,,08,07,309,21,13,07,320,24,1*7E
$GBGSV,4,4,14,37,06,106,16,19,02,218,16,1*77
$GNRMC,000124.000,A,4910.427478,N,12304.402608,W,0.14,329.60,061224,,,D,V*18
$GNVTG,329.60,T,,M,0.14,N,0.26,K,D*29
$PAIRLOG,Full*51
$GNGGA,000125.000,4910.427460,N,12304.402686,W,2,29,0.49,2.676,M,-16.817,M,,*47
$GNGLL,4910.427460,N,12304.402686,W,000125.000,A,D*53
$GNGSA,A,3,22,14,17,13,19,30,15,02,24,21,,,0.91,0.49,0.76,1*0C
$GNGSA,A,3,82,83,80,72,71,81,,,,,,,0.91,0.49,0.76,2*05
$GNGSA,A,3,25,03,24,05,,,,,,,,,0.91,0.49,0.76,3*00
$GNGSA,A,3,36,27,30,28,22,21,08,13,37,,,,0.91,0.49,0.76,4*04
$GPGSV,3,1,12,22,84,347,27,14,66,067,25,17,66,154,27,13,45,229,29,1*6D
$GPGSV,3,2,12,19,39,191,25,30,34,135,22,15,33,273,19,02,26,061,27,1*67
$GPGSV,3,3,12,24,18,307,20,21,17,042,22,10,02,354,,34,,,,1*5B
$GLGSV,2,1,08,82,44,059,33,83,43,123,24,80,37,083,35,72,31,304,28,1*74
$GLGSV,2,2,08,74,30,295,,71,26,247,28,81,11,019,27,65,05,354,,1*77
$GAGSV,3,1,09,25,79,294,27,03,45,242,21,24,43,071,25,08,31,308,,7*7F
$GAGSV,3,2,09,12,26,079,,02,26,262,,10,24,105,,05,18,189,17,7*7B
$GAGSV,3,3,09,33,11,025,,7*4D
$GBGSV,4,1,14,36,64,295,35,46,58,099,,27,48,088,37,30,37,160,33,1*7B
$GBGSV,4,2,14,28,21,043,28,58,20,114,,22,19,265,29,57,18,080,,1*7B
$GBGSV,4,3,14,21,15,317,28,45,14,288,,08,07,309,21,13,06,320,23,1*78
$GBGSV,4,4,14,37,06,106,16,19,02,218,16,1*77
$GNRMC,000125.000,A,4910.427460,N,12304.402686,W,0.15,329.60,061224,,,D,V*17
$GNVTG,329.60,T,,M,0.15,N,0.27,K,D*29
$PAIRLOG,Full*51
$GNGGA,000126.000,4910.427478,N,12304.402740,W,2,29,0.49,2.672,M,-16.816,M,,*43
$GNGLL,4910.427478,N,12304.402740,W,000126.000,A,D*52
$GNGSA,A,3,22,14,17,13,19,30,15,02,24,21,,,0.91,0.49,0.76,1*0C
$GNGSA,A,3,82,83,80,72,71,81,,,,,,,0.91,0.49,0.76,2*05
$GNGSA,A,3,25,03,24,05,,,,,,,,,0.91,0.49,0.76,3*00
$GNGSA,A,3,36,27,30,28,22,21,08,37,13,,,,0.91,0.49,0.76,4*04
$GPGSV,3,1,11,22,84,347,26,14,66,067,26,17,66,154,27,13,45,229,28,1*6D
$GPGSV,3,2,11,19,39,191,27,30,34,135,23,15,33,273,20,02,26,061,28,1*62
$GPGSV,3,3,11,24,18,307,20,21,17,042,21,34,,,,1*6A
$GLGSV,2,1,08,82,44,059,33,83,43,123,24,80,37,083,35,72,31,304,28,1*74
$GLGSV,2,2,08,74,30,295,,71,26,247,28,81,11,019,27,65,05,354,,1*77
$GAGSV,1,1,04,25,79,294,26,03,45,242,22,24,43,071,26,05,18,189,17,7*7A
$GBGSV,3,1,10,36,64,295,35,27,48,088,37,30,37,160,32,28,21,043,28,1*72
$GBGSV,3,2,10,22,19,265,29,21,15,317,27,08,07,309,21,37,06,106,15,1*74
$GBGSV,3,3,10,13,06,320,23,19,02,218,16,1*75
$GNRMC,000126.000,A,4910.427478,N,12304.402740,W,0.15,329.60,061224,,,D,V*16
$GNVTG,329.60,T,,M,0.15,N,0.28,K,D*26
$PAIRLOG,Full*51
$GNGGA,000127.000,4910.427460,N,12304.402758,W,2,29,0.49,2.671,M,-16.816,M,,*41
$GNGLL,4910.427460,N,12304.402758,W,000127.000,A,D*53
$GNGSA,A,3,22,14,17,13,19,30,15,02,24,21,,,0.91,0.49,0.76,1*0C
$GNGSA,A,3,82,83,80,72,71,81,,,,,,,0.91,0.49,0.76,2*05
$GNGSA,A,3,25,03,24,05,,,,,,,,,0.91,0.49,0.76,3*00
$GNGSA,A,3,36,27,30,28,22,21,08,37,13,,,,0.91,0.49,0.76,4*04
$GPGSV,3,1,11,22,84,347,25,14,66,067,26,17,66,154,27,13,45,229,27,1*61
$GPGSV,3,2,11,19,39,191,27,30,34,135,23,15,33,273,21,02,26,061,27,1*6C
$GPGSV,3,3,11,24,18,307,20,21,17,042,23,34,,,,1*68
$GLGSV,2,1,08,82,44,059,33,83,43,123,24,80,37,083,35,72,31,304,28,1*74
$GLGSV,2,2,08,74,30,295,,71,26,247,29,81,11,019,27,65,05,354,20,1*74
$GAGSV,1,1,04,25,79,294,25,03,45,242,22,24,43,071,26,05,18,189,17,7*79
$GBGSV,3,1,10,36,64,295,35,27,48,088,37,30,37,160,32,28,21,043,28,1*72
$GBGSV,3,2,10,22,19,265,29,21,15,317,27,08,07,309,21,37,06,106,15,1*74
$GBGSV,3,3,10,13,06,320,23,19,02,218,16,1*75
$GNRMC,000127.000,A,4910.427460,N,12304.402758,W,0.15,329.60,061224,,,D,V*17
$GNVTG,329.60,T,,M,0.15,N,0.27,K,D*29
$PAIRLOG,Full*51
$GNGGA,000128.000,4910.427460,N,12304.402818,W,2,29,0.49,2.663,M,-16.816,M,,*46
$GNGLL,4910.427460,N,12304.402818,W,000128.000,A,D*57
$GNGSA,A,3,22,14,17,13,19,30,15,02,24,21,,,0.91,0.49,0.76,1*0C
$GNGSA,A,3,82,83,80,72,71,81,,,,,,,0.91,0.49,0.76,2*05
$GNGSA,A,3,25,03,24,05,,,,,,,,,0.91,0.49,0.76,3*00
$GNGSA,A,3,36,27,30,28,22,21,08,37,13,,,,0.91,0.49,0.76,4*04
$GPGSV,3,1,11,22,84,347,25,14,66,067,26,17,66,154,28,13,45,229,26,1*6F
$GPGSV,3,2,11,19,39,191,27,30,34,135,21,15,33,273,20,02,26,061,27,1*6F
$GPGSV,3,3,11,24,18,307,20,21,17,042,22,34,,,,1*69
$GLGSV,2,1,08,82,44,059,33,83,43,123,25,80,37,083,35,72,31,304,28,1*75
$GLGSV,2,2,08,74,30,295,,71,26,247,29,81,11,019,28,65,05,354,23,1*78
$GAGSV,1,1,04,25,79,294,25,03,45,242,21,24,43,071,26,05,18,189,16,7*7B
$GBGSV,3,1,10,36,64,295,35,27,48,088,37,30,37,160,32,28,21,043,28,1*72
$GBGSV,3,2,10,22,19,265,29,21,15,317,27,08,07,309,21,37,06,106,16,1*77
$GBGSV,3,3,10,13,06,320,23,19,02,218,16,1*75
$GNRMC,000128.000,A,4910.427460,N,12304.402818,W,0.14,329.60,061224,,,D,V*12
$GNVTG,329.60,T,,M,0.14,N,0.27,K,D*28
$PAIRLOG,Full*51
$GNGGA,000129.000,4910.427412,N,12304.402860,W,2,29,0.49,2.467,M,-16.816,M,,*4B
$GNGLL,4910.427412,N,12304.402860,W,000129.000,A,D*5C
$GNGSA,A,3,22,17,14,13,19,30,15,02,24,21,,,0.91,0.49,0.76,1*0C
$GNGSA,A,3,82,83,80,72,71,81,,,,,,,0.91,0.49,0.76,2*05
$GNGSA,A,3,25,03,24,05,,,,,,,,,0.91,0.49,0.76,3*00
$GNGSA,A,3,36,27,30,28,22,21,08,13,37,,,,0.91,0.49,0.76,4*04
$GPGSV,3,1,11,22,84,347,26,17,66,154,27,14,66,067,27,13,45,229,28,1*6C
$GPGSV,3,2,11,19,39,191,28,30,34,135,23,15,33,273,20,02,26,061,28,1*6D
$GPGSV,3,3,11,24,18,307,19,21,17,042,22,10,02,354,,1*55
$GLGSV,2,1,08,82,44,059,33,83,43,123,25,80,37,083,35,72,31,304,28,1*75
$GLGSV,2,2,08,74,30,295,,71,26,247,29,81,11,019,28,65,05,354,21,1*7A
$GAGSV,3,1,09,25,79,294,22,03,45,242,21,24,43,071,26,08,31,308,,7*79
