$GNGGA,202832.000,4910.427106,N,12304.399020,W,2,24,0.54,3.427,M,-16.816,M,,*45
$GNGLL,4910.427106,N,12304.399020,W,202832.000,A,D*56
$GNGSA,A,3,03,04,31,26,09,16,06,28,,,,,1.00,0.54,0.84,1*0E
$GNGSA,A,3,72,73,,,,,,,,,,,1.00,0.54,0.84,2*0F
$GNGSA,A,3,03,05,15,24,13,25,31,34,,,,,1.00,0.54,0.84,3*0B
$GNGSA,A,3,19,20,37,22,36,44,,,,,,,1.00,0.54,0.84,4*03
$GPGSV,3,1,11,03,70,183,34,04,65,291,32,31,49,060,33,26,39,095,30,1*6B
$GPGSV,3,2,11,46,33,188,29,09,32,280,28,16,26,134,28,06,25,308,27,1*65
$GPGSV,3,3,11,28,17,052,26,07,04,225,23,02,02,203,12,1*5E
$GLGSV,2,1,07,72,65,074,22,74,60,083,,65,43,311,,75,36,169,,1*79
$GLGSV,2,2,07,73,27,035,18,88,20,273,,81,20,328,,1*47
$GAGSV,3,1,09,03,72,295,30,05,50,081,28,15,35,250,26,24,35,080,26,7*7D
$GAGSV,3,2,09,13,26,311,25,25,25,140,24,08,21,275,19,31,12,031,19,7*72
$GAGSV,3,3,09,34,11,202,22,7*4D
$GBGSV,3,1,12,19,86,320,33,46,59,140,,20,41,117,31,37,36,055,28,1*72
$GBGSV,3,2,12,22,30,300,29,36,22,192,22,12,10,317,15,44,08,294,22,1*74
$GBGSV,3,3,12,31,06,328,,34,03,342,20,04,01,261,,35,01,252,,1*79
$GNRMC,202832.000,A,4910.427106,N,12304.399020,W,0.03,348.30,151024,,,D,V*17
$GNVTG,348.30,T,,M,0.03,N,0.05,K,D*2C
$GNGGA,202833.000,4910.426980,N,12304.399296,W,2,24,0.54,3.458,M,-16.816,M,,*44
$GNGLL,4910.426980,N,12304.399296,W,202833.000,A,D*5F
$GNGSA,A,3,03,04,31,26,09,16,06,28,,,,,1.00,0.54,0.84,1*0E
$GNGSA,A,3,72,73,,,,,,,,,,,1.00,0.54,0.84,2*0F
$GNGSA,A,3,03,05,15,24,13,25,31,34,,,,,1.00,0.54,0.84,3*0B
$GNGSA,A,3,19,20,37,22,36,44,,,,,,,1.00,0.54,0.84,4*03
$GPGSV,3,1,11,03,70,183,34,04,65,291,33,31,49,060,33,26,39,095,30,1*6A
$GPGSV,3,2,11,46,33,188,29,09,32,280,28,16,26,134,28,06,25,308,27,1*65
$GPGSV,3,3,11,28,17,052,27,07,04,225,23,02,02,203,15,1*58
$GLGSV,2,1,06,72,65,074,22,74,60,083,,65,43,311,,75,36,169,,1*78
$GLGSV,2,2,06,73,27,035,18,81,20,328,,1*72
$GAGSV,3,1,09,03,72,295,30,05,50,081,28,15,35,250,26,24,35,080,26,7*7D
$GAGSV,3,2,09,13,26,311,25,25,25,140,24,08,21,275,19,31,12,031,19,7*72
$GAGSV,3,3,09,34,11,202,22,7*4D
$GBGSV,3,1,12,19,86,320,33,46,59,140,,20,41,117,31,37,36,055,28,1*72
$GBGSV,3,2,12,22,30,300,29,36,22,192,22,12,10,317,15,44,08,294,22,1*74
$GBGSV,3,3,12,31,06,328,,34,03,342,20,04,01,261,,35,01,252,,1*79
$GNRMC,202833.000,A,4910.426980,N,12304.399296,W,0.03,348.30,151024,,,D,V*1E
$GNVTG,348.30,T,,M,0.03,N,0.05,K,D*2C
$GNGGA,202834.000,4910.426944,N,12304.399410,W,2,24,0.54,3.467,M,-16.816,M,,*4F
$GNGLL,4910.426944,N,12304.399410,W,202834.000,A,D*58
$GNGSA,A,3,03,04,31,26,09,16,06,28,,,,,1.00,0.54,0.84,1*0E
$GNGSA,A,3,72,73,,,,,,,,,,,1.00,0.54,0.84,2*0F
$GNGSA,A,3,03,05,15,24,13,25,31,34,,,,,1.00,0.54,0.84,3*0B
$GNGSA,A,3,19,20,37,22,36,44,,,,,,,1.00,0.54,0.84,4*03
$GPGSV,3,1,11,03,70,183,34,04,65,291,33,31,49,060,33,26,39,095,30,1*6A
$GPGSV,3,2,11,46,33,188,29,09,32,280,28,16,26,134,28,06,25,308,27,1*65
$GPGSV,3,3,11,28,17,052,27,07,04,225,23,02,02,203,13,1*5E
$GLGSV,2,1,05,72,65,074,21,75,36,169,,73,27,035,18,81,20,328,,1*7D
$GLGSV,2,2,05,88,20,273,,1*49
$GAGSV,3,1,09,03,72,295,30,05,50,081,28,15,35,250,26,24,35,080,26,7*7D
$GAGSV,3,2,09,13,26,311,25,25,25,140,24,08,21,275,19,31,12,031,19,7*72
$GAGSV,3,3,09,34,11,202,22,7*4D
$GBGSV,3,1,12,19,86,320,33,46,59,140,,20,41,117,32,37,36,055,28,1*71
$GBGSV,3,2,12,22,30,300,29,36,22,192,22,12,10,317,16,44,08,294,22,1*77
$GBGSV,3,3,12,31,06,328,,34,03,342,21,04,01,261,,35,01,252,,1*78
$GNRMC,202834.000,A,4910.426944,N,12304.399410,W,0.03,348.30,151024,,,D,V*19
$GNVTG,348.30,T,,M,0.03,N,0.05,K,D*2C
$GNGGA,202835.000,4910.426854,N,12304.399590,W,2,24,0.54,3.575,M,-16.816,M,,*45
$GNGLL,4910.426854,N,12304.399590,W,202835.000,A,D*50
$GNGSA,A,3,03,04,31,26,09,16,06,28,,,,,1.00,0.54,0.84,1*0E
$GNGSA,A,3,72,73,,,,,,,,,,,1.00,0.54,0.84,2*0F
$GNGSA,A,3,03,05,15,24,13,25,31,34,,,,,1.00,0.54,0.84,3*0B
$GNGSA,A,3,19,20,37,22,36,44,,,,,,,1.00,0.54,0.84,4*03
$GPGSV,3,1,11,03,70,183,34,04,65,291,33,31,49,060,33,26,39,095,30,1*6A
$GPGSV,3,2,11,46,33,188,29,09,32,280,28,16,26,134,28,06,25,308,27,1*65
$GPGSV,3,3,11,28,17,052,27,07,04,225,23,02,02,203,14,1*59
$GLGSV,2,1,07,72,65,074,21,74,60,083,,65,43,311,,75,36,169,,1*7A
$GLGSV,2,2,07,73,27,035,18,88,20,273,,81,20,328,,1*47
$GAGSV,3,1,09,03,72,295,30,05,50,081,28,15,35,250,26,24,35,080,26,7*7D
$GAGSV,3,2,09,13,26,311,25,25,25,140,24,08,21,275,19,31,12,031,19,7*72
$GAGSV,3,3,09,34,11,202,22,7*4D
$GBGSV,3,1,12,19,86,320,33,46,59,140,,20,41,117,32,37,36,055,28,1*71
$GBGSV,3,2,12,22,30,300,29,36,22,192,22,12,10,317,16,44,08,294,22,1*77
$GBGSV,3,3,12,31,06,328,,34,03,342,21,04,01,261,,35,01,252,,1*78
$GNRMC,202835.000,A,4910.426854,N,12304.399590,W,0.03,348.30,151024,,,D,V*11
$GNVTG,348.30,T,,M,0.03,N,0.05,K,D*2C
$GNGGA,202836.000,4910.426794,N,12304.399782,W,2,24,0.54,3.567,M,-16.817,M,,*46
$GNGLL,4910.426794,N,12304.399782,W,202836.000,A,D*51
$GNGSA,A,3,03,04,31,26,09,16,06,28,,,,,1.00,0.54,0.84,1*0E
$GNGSA,A,3,72,73,,,,,,,,,,,1.00,0.54,0.84,2*0F
$GNGSA,A,3,03,05,15,24,13,25,31,34,,,,,1.00,0.54,0.84,3*0B
$GNGSA,A,3,19,20,37,22,36,44,,,,,,,1.00,0.54,0.84,4*03
$GPGSV,3,1,11,03,70,183,34,04,65,291,33,31,49,060,33,26,39,095,30,1*6A
$GPGSV,3,2,11,46,33,188,29,09,32,280,28,16,26,134,28,06,25,308,27,1*65
$GPGSV,3,3,11,28,17,052,26,07,04,225,23,02,02,203,14,1*58
$GLGSV,2,1,07,72,65,074,21,74,60,083,,65,43,311,,75,36,169,,1*7A
$GLGSV,2,2,07,73,27,035,18,88,20,273,,81,20,328,,1*47
$GAGSV,3,1,09,03,72,295,30,05,50,081,28,15,35,250,26,24,35,080,26,7*7D
$GAGSV,3,2,09,13,26,311,25,25,25,140,24,08,21,275,19,31,12,031,19,7*72
$GAGSV,3,3,09,34,11,202,22,7*4D
$GBGSV,3,1,12,19,86,320,33,46,59,140,,20,41,117,32,37,36,055,28,1*71
$GBGSV,3,2,12,22,30,300,29,36,22,192,22,12,10,317,16,44,08,294,22,1*77
$GBGSV,3,3,12,31,06,328,,34,03,342,22,04,01,261,,35,01,252,,1*7B
$GNRMC,202836.000,A,4910.426794,N,12304.399782,W,0.03,348.30,151024,,,D,V*10
$GNVTG,348.30,T,,M,0.03,N,0.06,K,D*2F
$GNGGA,202837.000,4910.426704,N,12304.400040,W,2,24,0.54,3.619,M,-16.817,M,,*4A
$GNGLL,4910.426704,N,12304.400040,W,202837.000,A,D*57
$GNGSA,A,3,03,04,31,26,09,16,06,28,,,,,1.00,0.54,0.84,1*0E
$GNGSA,A,3,72,73,,,,,,,,,,,1.00,0.54,0.84,2*0F
$GNGSA,A,3,03,05,15,24,13,25,31,34,,,,,1.00,0.54,0.84,3*0B
$GNGSA,A,3,19,20,37,22,36,44,,,,,,,1.00,0.54,0.84,4*03
$GPGSV,3,1,11,03,70,183,34,04,65,291,33,31,49,060,33,26,39,095,30,1*6A
$GPGSV,3,2,11,46,33,188,29,09,32,280,29,16,26,134,28,06,25,308,27,1*64
$GPGSV,3,3,11,28,17,052,26,07,04,225,23,02,02,203,17,1*5B
$GLGSV,2,1,05,72,65,074,21,75,36,169,,73,27,035,18,81,20,328,,1*7D
$GLGSV,2,2,05,88,20,273,,1*49
$GAGSV,3,1,09,03,72,295,30,05,50,081,28,15,35,250,26,24,35,080,26,7*7D
$GAGSV,3,2,09,13,26,311,25,25,25,140,24,08,21,275,19,31,12,031,19,7*72
$GAGSV,3,3,09,34,11,202,22,7*4D
$GBGSV,3,1,12,19,86,320,34,46,59,140,,20,41,117,33,37,36,055,29,1*76
$GBGSV,3,2,12,22,30,300,30,36,22,192,23,12,10,317,16,44,08,294,22,1*7E
$GBGSV,3,3,12,31,06,328,,34,03,342,22,04,01,261,,35,01,252,,1*7B
$GNRMC,202837.000,A,4910.426704,N,12304.400040,W,0.03,348.30,151024,,,D,V*16
$GNVTG,348.30,T,,M,0.03,N,0.06,K,D*2F
$GNGGA,202838.000,4910.426662,N,12304.400196,W,2,24,0.54,3.691,M,-16.816,M,,*4F
$GNGLL,4910.426662,N,12304.400196,W,202838.000,A,D*53
$GNGSA,A,3,03,04,31,26,09,16,06,28,,,,,1.00,0.54,0.84,1*0E
$GNGSA,A,3,72,73,,,,,,,,,,,1.00,0.54,0.84,2*0F
$GNGSA,A,3,03,05,15,24,13,25,31,34,,,,,1.00,0.54,0.84,3*0B
$GNGSA,A,3,19,20,37,22,36,44,,,,,,,1.00,0.54,0.84,4*03
$GPGSV,3,1,11,03,70,183,34,04,65,291,33,31,49,060,33,26,39,095,30,1*6A
$GPGSV,3,2,11,46,33,188,29,09,32,280,29,16,26,134,28,06,25,308,27,1*64
$GPGSV,3,3,11,28,17,052,26,07,04,225,23,02,02,203,16,1*5A
$GLGSV,2,1,06,72,65,074,21,65,43,311,,75,36,169,,73,27,035,18,1*7B
$GLGSV,2,2,06,81,20,328,,88,20,273,,1*78
$GAGSV,3,1,09,03,72,295,30,05,50,081,28,15,35,250,26,24,35,080,26,7*7D
$GAGSV,3,2,09,13,26,311,25,25,25,140,24,08,21,275,19,31,12,031,19,7*72
$GAGSV,3,3,09,34,11,202,22,7*4D
$GBGSV,3,1,12,19,86,320,34,46,59,140,,20,41,117,33,37,36,055,29,1*76
$GBGSV,3,2,12,22,30,300,30,36,22,192,23,12,10,317,16,44,08,294,22,1*7E
$GBGSV,3,3,12,31,06,328,,34,03,342,22,04,01,261,,35,01,252,,1*7B
$GNRMC,202838.000,A,4910.426662,N,12304.400196,W,0.03,348.30,151024,,,D,V*12
$GNVTG,348.30,T,,M,0.03,N,0.06,K,D*2F
$GNGGA,202839.000,4910.426620,N,12304.400382,W,2,24,0.54,3.733,M,-16.816,M,,*46
$GNGLL,4910.426620,N,12304.400382,W,202839.000,A,D*53
$GNGSA,A,3,03,04,31,26,09,16,06,28,,,,,1.00,0.54,0.84,1*0E
$GNGSA,A,3,72,73,,,,,,,,,,,1.00,0.54,0.84,2*0F
$GNGSA,A,3,03,05,15,24,13,25,31,34,,,,,1.00,0.54,0.84,3*0B
$GNGSA,A,3,19,20,37,22,36,44,,,,,,,1.00,0.54,0.84,4*03
$GPGSV,3,1,11,03,70,183,34,04,65,291,33,31,49,060,33,26,39,094,30,1*6B
$GPGSV,3,2,11,46,33,188,29,09,32,280,29,16,26,134,28,06,25,308,27,1*64
$GPGSV,3,3,11,28,17,052,26,07,04,225,23,02,02,203,15,1*59
$GLGSV,2,1,05,72,65,074,21,74,60,083,,75,36,169,,73,27,035,18,1*71
$GLGSV,2,2,05,88,20,273,,1*49
$GAGSV,3,1,09,03,72,295,30,05,50,081,28,15,35,250,26,24,35,080,26,7*7D
$GAGSV,3,2,09,13,26,311,24,25,25,140,24,08,21,275,19,31,12,031,19,7*73
$GAGSV,3,3,09,34,11,202,21,7*4E
$GBGSV,3,1,12,19,86,320,34,46,59,140,,20,41,117,33,37,36,055,29,1*76
$GBGSV,3,2,12,22,30,300,30,36,22,192,23,12,10,317,17,44,08,294,22,1*7F
$GBGSV,3,3,12,31,06,328,,34,03,342,21,04,01,261,,35,01,252,,1*78
$GNRMC,202839.000,A,4910.426620,N,12304.400382,W,0.03,348.30,151024,,,D,V*12
$GNVTG,348.30,T,,M,0.03,N,0.05,K,D*2C
$GNGGA,202840.000,4910.426518,N,12304.400508,W,2,24,0.54,3.789,M,-16.816,M,,*45
$GNGLL,4910.426518,N,12304.400508,W,202840.000,A,D*51
$GNGSA,A,3,03,04,31,26,09,16,06,28,,,,,1.00,0.54,0.84,1*0E
$GNGSA,A,3,72,73,,,,,,,,,,,1.00,0.54,0.84,2*0F
$GNGSA,A,3,03,05,15,24,13,25,31,34,,,,,1.00,0.54,0.84,3*0B
$GNGSA,A,3,19,20,37,22,36,44,,,,,,,1.00,0.54,0.84,4*03
$GPGSV,3,1,11,03,70,183,34,04,65,291,33,31,49,060,33,26,39,094,30,1*6B
$GPGSV,3,2,11,46,33,188,29,09,32,280,29,16,26,134,28,06,25,308,27,1*64
$GPGSV,3,3,11,28,17,052,26,07,04,225,23,02,02,203,14,1*58
$GLGSV,2,1,05,72,65,074,21,75,36,169,,73,27,035,18,81,20,328,,1*7D
$GLGSV,2,2,05,88,20,273,,1*49
$GAGSV,3,1,09,03,72,295,30,05,50,081,28,15,35,250,26,24,35,080,26,7*7D
$GAGSV,3,2,09,13,26,311,24,25,25,140,23,08,21,275,19,31,12,031,19,7*74
$GAGSV,3,3,09,34,11,202,21,7*4E
$GBGSV,3,1,12,19,86,320,34,46,59,140,,20,41,117,33,37,36,055,29,1*76
$GBGSV,3,2,12,22,30,300,31,36,22,192,23,12,10,317,17,44,08,294,22,1*7E
$GBGSV,3,3,12,31,06,328,,34,03,342,21,04,01,261,,35,01,252,,1*78
$GNRMC,202840.000,A,4910.426518,N,12304.400508,W,0.03,348.30,151024,,,D,V*10
$GNVTG,348.30,T,,M,0.03,N,0.05,K,D*2C
$GNGGA,202841.000,4910.426446,N,12304.400640,W,2,24,0.54,3.816,M,-16.816,M,,*48
$GNGLL,4910.426446,N,12304.400640,W,202841.000,A,D*55
$GNGSA,A,3,03,04,31,26,09,16,06,28,,,,,1.00,0.54,0.84,1*0E
$GNGSA,A,3,72,73,,,,,,,,,,,1.00,0.54,0.84,2*0F
$GNGSA,A,3,03,05,15,24,13,25,31,34,,,,,1.00,0.54,0.84,3*0B
$GNGSA,A,3,19,20,37,22,36,44,,,,,,,1.00,0.54,0.84,4*03
$GPGSV,3,1,11,03,70,183,34,04,65,291,32,31,49,060,32,26,39,094,30,1*6B
$GPGSV,3,2,11,46,33,188,28,09,32,280,28,16,26,134,27,06,25,308,27,1*6B
$GPGSV,3,3,11,28,17,052,25,07,04,225,22,02,02,203,10,1*5E
$GLGSV,2,1,06,72,65,074,21,74,60,083,,65,43,311,,75,36,169,,1*7B
$GLGSV,2,2,06,73,27,035,18,81,20,328,,1*72
$GAGSV,3,1,09,03,72,295,30,05,50,081,27,15,35,250,26,24,35,080,26,7*72
$GAGSV,3,2,09,13,26,311,24,25,25,140,23,08,21,275,19,31,12,031,19,7*74
$GAGSV,3,3,09,34,11,202,21,7*4E
$GBGSV,3,1,12,19,86,320,34,46,59,140,,20,41,117,33,37,36,055,29,1*76
$GBGSV,3,2,12,22,30,300,31,36,22,192,23,12,10,317,17,44,08,294,22,1*7E
$GBGSV,3,3,12,31,06,328,,34,03,342,21,04,01,261,,35,01,252,,1*78
$GNRMC,202841.000,A,4910.426446,N,12304.400640,W,0.02,348.30,151024,,,D,V*15
$GNVTG,348.30,T,,M,0.02,N,0.04,K,D*2C
$GNGGA,202842.000,4910.426416,N,12304.400742,W,2,24,0.54,3.804,M,-16.816,M,,*4E
