,1,1,00,1*65
$GQGSV,1,1,00,8*6C
$GNGGA,202832.000,4910.426995,N,12304.402020,W,1,24,0.65,8.731,M,-16.817,M,,*4C
$GNRMC,202832.000,A,4910.426995,N,12304.402020,W,0.007,126.46,151024,,,A,V*2B
$GNGLL,4910.426995,N,12304.402020,W,202832.000,A,A*55
$GNVTG,126.46,T,,M,0.007,N,0.013,K,A*21
$GNGSA,A,3,03,04,06,09,16,26,28,31,,,,,1.12,0.65,0.92,1*08
$GNGSA,A,3,72,,,,,,,,,,,,1.12,0.65,0.92,2*0D
$GNGSA,A,3,03,05,13,15,24,25,31,34,,,,,1.12,0.65,0.92,3*0D
$GNGSA,A,3,12,19,20,22,36,37,44,,,,,,1.12,0.65,0.92,4*06
$GNGSA,A,3,,,,,,,,,,,,,1.12,0.65,0.92,5*0F
$GPGSV,3,1,10,03,70,183,31,04,65,290,30,06,24,307,25,07,,,20,1*52
$GPGSV,3,2,10,09,31,280,25,16,25,133,25,26,39,094,28,28,16,052,25,1*60
$GPGSV,3,3,10,31,49,060,29,44,33,172,27,1*66
$GPGSV,2,1,05,03,70,183,27,04,65,290,26,06,24,307,19,09,31,280,21,8*66
$GPGSV,2,2,05,26,39,094,23,8*5A
$GLGSV,1,1,02,65,,,13,72,64,074,21,1*4C
$GAGSV,2,1,08,03,72,295,28,05,49,081,27,13,26,311,21,15,34,250,24,7*7A
$GAGSV,2,2,08,24,34,080,22,25,25,139,21,31,12,031,20,34,10,201,21,7*7D
$GAGSV,2,1,07,03,72,295,23,05,49,081,24,13,26,311,19,15,34,250,21,1*75
$GAGSV,2,2,07,24,34,080,17,25,25,139,16,34,10,201,17,1*42
$GBGSV,2,1,08,12,10,316,24,19,85,319,40,20,41,117,37,22,30,299,36,1*77
$GBGSV,2,2,08,34,03,342,25,36,21,192,29,37,35,054,36,44,07,293,29,1*7D
$GBGSV,1,1,04,19,85,319,24,20,41,117,23,22,30,299,19,37,35,054,22,5*75
$GQGSV,1,1,00,1*65
$GQGSV,1,1,00,8*6C
$GNGGA,202833.000,4910.426994,N,12304.402018,W,1,24,0.66,8.730,M,-16.817,M,,*45
$GNRMC,202833.000,A,4910.426994,N,12304.402018,W,0.004,126.46,151024,,,A,V*23
$GNGLL,4910.426994,N,12304.402018,W,202833.000,A,A*5E
$GNVTG,126.46,T,,M,0.004,N,0.008,K,A*28
$GNGSA,A,3,03,04,06,09,16,26,28,31,,,,,1.13,0.66,0.92,1*0A
$GNGSA,A,3,72,,,,,,,,,,,,1.13,0.66,0.92,2*0F
$GNGSA,A,3,03,05,13,15,24,25,31,34,,,,,1.13,0.66,0.92,3*0F
$GNGSA,A,3,12,19,20,22,36,37,44,,,,,,1.13,0.66,0.92,4*04
$GNGSA,A,3,,,,,,,,,,,,,1.13,0.66,0.92,5*0D
$GPGSV,3,1,10,03,70,183,30,04,65,290,30,06,24,307,25,07,,,21,1*52
$GPGSV,3,2,10,09,31,280,27,16,25,133,25,26,39,094,28,28,16,052,25,1*62
$GPGSV,3,3,10,31,49,060,29,44,33,172,27,1*66
$GPGSV,2,1,05,03,70,183,27,04,65,290,27,06,24,307,20,09,31,280,22,8*6E
$GPGSV,2,2,05,26,39,094,24,8*5D
$GLGSV,1,1,02,65,,,10,72,64,074,20,1*4E
$GAGSV,2,1,08,03,72,295,27,05,49,081,25,13,26,311,22,15,34,250,23,7*73
$GAGSV,2,2,08,24,34,080,23,25,25,139,23,31,12,031,21,34,10,201,21,7*7F
$GAGSV,2,1,07,03,72,295,24,05,49,081,23,13,26,311,20,15,34,250,20,1*7E
$GAGSV,2,2,07,24,34,080,18,25,25,139,16,34,10,201,15,1*4F
$GBGSV,2,1,08,12,10,316,24,19,85,319,40,20,41,117,38,22,30,299,36,1*78
$GBGSV,2,2,08,34,03,342,26,36,21,192,29,37,35,054,35,44,07,293,29,1*7D
$GBGSV,1,1,04,19,85,319,25,20,41,117,24,22,30,299,19,37,35,054,21,5*70
$GQGSV,1,1,00,1*65
$GQGSV,1,1,00,8*6C
$GNGGA,202834.000,4910.426995,N,12304.402015,W,1,24,0.65,8.729,M,-16.817,M,,*45
$GNRMC,202834.000,A,4910.426995,N,12304.402015,W,0.009,126.46,151024,,,A,V*25
$GNGLL,4910.426995,N,12304.402015,W,202834.000,A,A*55
$GNVTG,126.46,T,,M,0.009,N,0.017,K,A*2B
$GNGSA,A,3,03,04,06,09,16,26,28,31,,,,,1.12,0.65,0.92,1*08
$GNGSA,A,3,72,,,,,,,,,,,,1.12,0.65,0.92,2*0D
$GNGSA,A,3,03,05,13,15,24,25,31,34,,,,,1.12,0.65,0.92,3*0D
$GNGSA,A,3,12,19,20,22,36,37,44,,,,,,1.12,0.65,0.92,4*06
$GNGSA,A,3,,,,,,,,,,,,,1.12,0.65,0.92,5*0F
$GPGSV,3,1,10,03,70,183,31,04,65,290,30,06,24,307,25,07,,,22,1*50
$GPGSV,3,2,10,09,32,280,26,16,25,133,25,26,39,094,28,28,16,052,25,1*60
$GPGSV,3,3,10,31,49,060,29,44,33,172,27,1*66
$GPGSV,2,1,05,03,70,183,28,04,65,290,28,06,24,307,19,09,32,280,22,8*67
$GPGSV,2,2,05,26,39,094,23,8*5A
$GLGSV,1,1,02,65,,,12,72,64,074,21,1*4D
$GAGSV,2,1,08,03,72,295,29,05,49,081,26,13,26,311,23,15,34,250,24,7*78
$GAGSV,2,2,08,24,34,080,23,25,25,139,22,31,12,031,20,34,10,201,22,7*7C
$GAGSV,2,1,07,03,72,295,25,05,49,081,24,13,26,311,21,15,34,250,21,1*78
$GAGSV,2,2,07,24,34,080,18,25,25,139,17,34,10,201,15,1*4E
$GBGSV,2,1,08,12,10,316,23,19,85,319,40,20,41,117,38,22,30,299,36,1*7F
$GBGSV,2,2,08,34,03,342,25,36,21,192,29,37,35,054,36,44,07,293,29,1*7D
$GBGSV,1,1,04,19,85,319,24,20,41,117,24,22,30,299,20,37,35,054,22,5*78
$GQGSV,1,1,00,1*65
$GQGSV,1,1,00,8*6C
$GNGGA,202835.000,4910.426996,N,12304.402015,W,1,24,0.58,8.727,M,-16.816,M,,*46
$GNRMC,202835.000,A,4910.426996,N,12304.402015,W,0.002,126.46,151024,,,A,V*2C
$GNGLL,4910.426996,N,12304.402015,W,202835.000,A,A*57
$GNVTG,126.46,T,,M,0.002,N,0.003,K,A*25
$GNGSA,A,3,03,04,06,09,16,26,28,31,,,,,1.04,0.58,0.86,1*04
$GNGSA,A,3,72,,,,,,,,,,,,1.04,0.58,0.86,2*01
$GNGSA,A,3,03,05,13,15,24,25,31,34,,,,,1.04,0.58,0.86,3*01
$GNGSA,A,3,12,19,20,22,36,37,44,,,,,,1.04,0.58,0.86,4*0A
$GNGSA,A,3,,,,,,,,,,,,,1.04,0.58,0.86,5*03
$GPGSV,3,1,10,03,70,183,31,04,65,290,30,06,24,307,25,07,,,21,1*53
$GPGSV,3,2,10,09,32,280,26,16,25,133,25,26,39,094,28,28,16,052,25,1*60
$GPGSV,3,3,10,31,49,060,29,44,33,172,27,1*66
$GPGSV,2,1,05,03,70,183,28,04,65,290,26,06,24,307,19,09,32,280,21,8*6A
$GPGSV,2,2,05,26,39,094,23,8*5A
$GLGSV,1,1,02,65,,,12,72,64,074,21,1*4D
$GAGSV,2,1,08,03,72,295,29,05,49,081,27,13,26,311,22,15,34,250,24,7*78
$GAGSV,2,2,08,24,34,080,24,25,25,139,21,31,12,031,20,34,10,201,21,7*7B
$GAGSV,2,1,07,03,72,295,24,05,49,081,24,13,26,311,21,15,34,250,23,1*7B
$GAGSV,2,2,07,24,34,080,19,25,25,139,17,34,10,201,16,1*4C
$GBGSV,2,1,08,12,10,316,24,19,85,319,40,20,41,117,39,22,30,299,36,1*79
$GBGSV,2,2,08,34,03,342,27,36,21,192,30,37,35,054,36,44,07,293,29,1*77
$GBGSV,1,1,04,19,85,319,25,20,41,117,24,22,30,299,19,37,35,054,21,5*70
$GQGSV,1,1,00,1*65
$GQGSV,1,1,00,8*6C
$GNGGA,202836.000,4910.426996,N,12304.402015,W,1,24,0.61,8.725,M,-16.816,M,,*4D
$GNRMC,202836.000,A,4910.426996,N,12304.402015,W,0.006,126.46,151024,,,A,V*2B
$GNGLL,4910.426996,N,12304.402015,W,202836.000,A,A*54
$GNVTG,126.46,T,,M,0.006,N,0.011,K,A*22
$GNGSA,A,3,03,04,06,09,16,26,28,31,,,,,1.05,0.61,0.86,1*0F
$GNGSA,A,3,72,,,,,,,,,,,,1.05,0.61,0.86,2*0A
$GNGSA,A,3,03,05,13,15,24,25,31,34,,,,,1.05,0.61,0.86,3*0A
$GNGSA,A,3,12,19,20,22,36,37,44,,,,,,1.05,0.61,0.86,4*01
$GNGSA,A,3,,,,,,,,,,,,,1.05,0.61,0.86,5*08
$GPGSV,3,1,10,03,70,183,30,04,65,290,29,06,24,307,24,07,,,22,1*58
$GPGSV,3,2,10,09,32,280,26,16,25,133,23,26,39,094,28,28,16,052,25,1*66
$GPGSV,3,3,10,31,49,060,28,44,33,172,27,1*67
$GPGSV,2,1,05,03,70,183,29,04,65,290,27,06,24,307,20,09,32,280,20,8*61
$GPGSV,2,2,05,26,39,094,24,8*5D
$GLGSV,1,1,02,65,,,12,72,64,074,21,1*4D
$GAGSV,2,1,08,03,72,295,27,05,49,081,25,13,26,311,22,15,34,250,24,7*74
$GAGSV,2,2,08,24,34,080,23,25,25,139,20,31,12,031,20,34,10,201,20,7*7C
$GAGSV,2,1,07,03,72,295,24,05,49,081,25,13,26,311,22,15,34,250,24,1*7E
$GAGSV,2,2,07,24,34,080,21,25,25,139,18,34,10,201,17,1*49
$GBGSV,2,1,08,12,10,316,24,19,85,319,41,20,41,117,38,22,30,299,37,1*78
$GBGSV,2,2,08,34,03,342,27,36,21,192,30,37,35,054,36,44,07,293,30,1*7F
$GBGSV,1,1,04,19,85,319,25,20,41,117,24,22,30,299,19,37,35,054,23,5*72
$GQGSV,1,1,00,1*65
$GQGSV,1,1,00,8*6C
$GNGGA,202837.000,4910.426997,N,12304.402012,W,1,24,0.68,8.723,M,-16.816,M,,*45
$GNRMC,202837.000,A,4910.426997,N,12304.402012,W,0.006,126.46,151024,,,A,V*2C
$GNGLL,4910.426997,N,12304.402012,W,202837.000,A,A*53
$GNVTG,126.46,T,,M,0.006,N,0.012,K,A*21
$GNGSA,A,3,03,04,06,09,16,26,28,31,,,,,1.13,0.68,0.90,1*06
$GNGSA,A,3,72,,,,,,,,,,,,1.13,0.68,0.90,2*03
$GNGSA,A,3,03,05,13,15,24,25,31,34,,,,,1.13,0.68,0.90,3*03
$GNGSA,A,3,12,19,20,22,36,37,44,,,,,,1.13,0.68,0.90,4*08
$GNGSA,A,3,,,,,,,,,,,,,1.13,0.68,0.90,5*01
$GPGSV,3,1,10,03,70,183,30,04,65,290,29,06,24,307,25,07,,,21,1*5A
$GPGSV,3,2,10,09,32,280,25,16,25,133,25,26,39,094,27,28,16,052,25,1*6C
$GPGSV,3,3,10,31,49,060,29,44,33,172,27,1*66
$GPGSV,2,1,05,03,70,183,27,04,65,290,25,06,24,307,18,09,32,280,20,8*66
$GPGSV,2,2,05,26,39,094,21,8*58
$GLGSV,1,1,02,65,,,14,72,64,074,22,1*48
$GAGSV,2,1,08,03,72,295,28,05,49,081,26,13,26,311,23,15,34,250,25,7*78
$GAGSV,2,2,08,24,34,080,23,25,25,139,20,31,12,031,19,34,10,201,20,7*76
$GAGSV,2,1,07,03,72,295,23,05,49,081,22,13,26,311,20,15,34,250,21,1*79
$GAGSV,2,2,07,24,34,080,19,25,25,139,16,34,10,201,17,1*4C
$GBGSV,2,1,08,12,10,316,23,19,85,319,40,20,41,117,38,22,30,299,36,1*7F
$GBGSV,2,2,08,34,03,342,27,36,21,192,30,37,35,054,36,44,07,293,29,1*77
$GBGSV,1,1,04,19,85,319,24,20,41,117,24,22,30,299,19,37,35,054,20,5*70
$GQGSV,1,1,00,1*65
$GQGSV,1,1,00,8*6C
$GNGGA,202838.000,4910.426997,N,12304.402008,W,1,24,0.69,8.721,M,-16.816,M,,*42
$GNRMC,202838.000,A,4910.426997,N,12304.402008,W,0.009,126.46,151024,,,A,V*27
$GNGLL,4910.426997,N,12304.402008,W,202838.000,A,A*57
$GNVTG,126.46,T,,M,0.009,N,0.017,K,A*2B
$GNGSA,A,3,03,04,06,09,16,26,28,31,,,,,1.15,0.69,0.93,1*02
$GNGSA,A,3,72,,,,,,,,,,,,1.15,0.69,0.93,2*07
$GNGSA,A,3,03,05,13,15,24,25,31,34,,,,,1.15,0.69,0.93,3*07
$GNGSA,A,3,12,19,20,22,36,37,44,,,,,,1.15,0.69,0.93,4*0C
$GNGSA,A,3,,,,,,,,,,,,,1.15,0.69,0.93,5*05
$GPGSV,3,1,10,03,70,183,33,04,65,290,29,06,24,307,24,07,,,21,1*58
$GPGSV,3,2,10,09,32,280,27,16,25,133,25,26,39,094,27,28,16,052,25,1*6E
$GPGSV,3,3,10,31,49,060,30,44,33,172,27,1*6E
$GPGSV,2,1,05,03,70,183,28,04,65,290,25,06,24,307,19,09,32,280,20,8*68
$GPGSV,2,2,05,26,39,094,23,8*5A
$GLGSV,1,1,02,65,,,14,72,64,074,21,1*4B
$GAGSV,2,1,08,03,72,295,28,05,49,081,27,13,26,311,23,15,34,249,25,7*71
$GAGSV,2,2,08,24,34,080,24,25,25,139,21,31,12,031,20,34,10,201,22,7*78
$GAGSV,2,1,07,03,72,295,23,05,49,081,24,13,26,311,20,15,34,249,22,1*74
$GAGSV,2,2,07,24,34,080,20,25,25,139,18,34,10,201,17,1*48
$GBGSV,2,1,08,12,10,316,25,19,85,319,41,20,41,117,39,22,30,299,36,1*79
$GBGSV,2,2,08,34,03,342,27,36,21,192,30,37,35,054,36,44,07,293,29,1*77
$GBGSV,1,1,04,19,85,319,23,20,41,117,22,22,30,299,20,37,35,054,21,5*7A
$GQGSV,1,1,00,1*65
$GQGSV,1,1,00,8*6C
$GNGGA,202839.000,4910.426996,N,12304.402004,W,1,24,0.63,8.721,M,-16.816,M,,*44
$GNRMC,202839.000,A,4910.426996,N,12304.402004,W,0.007,126.46,151024,,,A,V*25
$GNGLL,4910.426996,N,12304.402004,W,202839.000,A,A*5B
$GNVTG,126.46,T,,M,0.007,N,0.013,K,A*21
$GNGSA,A,3,03,04,06,09,16,26,28,31,,,,,1.08,0.63,0.87,1*01
$GNGSA,A,3,72,,,,,,,,,,,,1.08,0.63,0.87,2*04
$GNGSA,A,3,03,05,13,15,24,25,31,34,,,,,1.08,0.63,0.87,3*04
$GNGSA,A,3,12,19,20,22,36,37,44,,,,,,1.08,0.63,0.87,4*0F
$GNGSA,A,3,,,,,,,,,,,,,1.08,0.63,0.87,5*06
$GPGSV,3,1,10,03,70,183,33,04,65,290,30,06,24,307,26,07,,,22,1*51
$GPGSV,3,2,10,09,32,280,27,16,25,133,25,26,39,094,28,28,16,052,25,1*61
$GPGSV,3,3,10,31,49,060,31,44,33,172,27,1*6F
$GPGSV,2,1,05,03,70,183,27,04,65,290,25,06,24,307,18,09,32,280,20,8*66
$GPGSV,2,2,05,26,39,094,22,8*5B
$GLGSV,1,1,02,65,,,13,72,64,074,23,1*4E
$GAGSV,2,1,08,03,72,295,30,05,49,081,28,13,26,311,24,15,34,249,24,7*71
$GAGSV,2,2,08,24,34,080,23,25,25,139,22,31,12,031,20,34,10,201,21,7*7F
$GAGSV,2,1,07,03,72,295,23,05,49,081,24,13,26,311,20,15,34,249,21,1*77
$GAGSV,2,2,07,24,34,080,20,25,25,139,17,34,10,201,17,1*47
$GBGSV,2,1,08,12,10,316,25,19,85,319,41,20,41,117,38,22,30,299,36,1*78
$GBGSV,2,2,08,34,03,342,26,36,21,192,30,37,35,054,35,44,07,293,29,1*75
$GBGSV,1,1,04,19,85,319,23,20,41,117,22,22,30,299,19,37,35,054,20,5*71
$GQGSV,1,1,00,1*65
$GQGSV,1,1,00,8*6C
$GNGGA,202840.000,4910.426993,N,12304.402000,W,1,24,0.68,8.720,M,-16.816,M,,*41
$GNRMC,202840.000,A,4910.426993,N,12304.402000,W,0.006,126.46,151024,,,A,V*2B
$GNGLL,4910.426993,N,12304.402000,W,202840.000,A,A*54
$GNVTG,126.46,T,,M,0.006,N,0.011,K,A*22
$GNGSA,A,3,03,04,06,09,16,26,28,31,,,,,1.13,0.68,0.90,1*06
$GNGSA,A,3,72,,,,,,,,,,,,1.13,0.68,0.90,2*03
$GNGSA,A,3,03,05,13,15,24,25,31,34,,,,,1.13,0.68,0.90,3*03
$GNGSA,A,3,12,19,20,22,36,37,44,,,,,,1.13,0.68,0.90,4*08
$GNGSA,A,3,,,,,,,,,,,,,1.13,0.68,0.90,5*01
$GPGSV,3,1,10,03,70,183,32,04,65,290,30,06,24,307,25,07,,,22,1*53
$GPGSV,3,2,10,09,32,280,26,16,25,133,24,26,39,094,28,28,16,052,25,1*61
$GPGSV,3,3,10,31,49,060,30,44,33,172,27,1*6E
$GPGSV,2,1,05,03,70,183,28,04,65,290,27,06,24,307,20,09,32,280,23,8*63
$GPGSV,2,2,05,26,39,094,24,8*5D
$GLGSV,1,1,02,65,,,14,72,64,074,22,1*48
$GAGSV,2,1,08,03,72,295,29,05,49,081,29,13,26,311,24,15,34,249,25,7*79
$GAGSV,2,2,08,24,34,080,23,25,25,139,21,31,12,031,20,34,10,201,20,7*7D
$GAGSV,2,1,07,03,72,295,24,05,49,081,24,13,26,311,22,15,34,249,24,1*77
$GAGSV,2,2,07,24,34,080,20,25,25,139,17,34,10,201,17,1*47
$GBGSV,2,1,08,12,10,316,25,19,85,319,40,20,41,117,38,22,30,299,37,1*78
$GBGSV,2,2,08,34,03,342,28,36,21,192,30,37,35,054,36,44,07,293,29,1*78
$GBGSV,1,1,04,19,85,319,25,20,41,117,25,22,30,299,21,37,35,054,23,5*78
$GQGSV,1,1,00,1*65
$GQGSV,1,1,00,8*6C
$GNGGA,202841.000,4910.426992,N,12304.401994,W,1,24,0.77,8.721,M,-16.817,M,,*48
$GNRMC,202841.000,A,4910.426992,N,12304.401994,W,0.006,126.46,151024,,,A,V*2C
$GNGLL,4910.426992,N,12304.401994,W,202841.000,A,A*53
$GNVTG,126.46,T,,M,0.006,N,0.011,K,A*22
$GNGSA,A,3,03,04,06,09,16,26,28,31,,,,,1.35,0.77,1.10,1*05
$GNGSA,A,3,72,,,,,,,,,,,,1.35,0.77,1.10,2*00
$GNGSA,A,3,03,05,13,15,24,25,31,34,,,,,1.35,0.77,1.10,3*00
$GNGSA,A,3,12,19,20,22,36,37,44,,,,,,1.35,0.77,1.10,4*0B
$GNGSA,A,3,,,,,,,,,,,,,1.35,0.77,1.10,5*02
$GPGSV,3,1,10,03,70,183,33,04,65,290,31,06,24,307,24,07,,,22,1*52
$GPGSV,3,2,10,09,32,280,26,16,25,133,24,26,39,094,28,28,16,052,24,1*60
$GPGSV,3,3,10,31,49,060,30,44,33,172,27,1*6E
$GPGSV,2,1,05,03,70,183,28,04,65,290,26,06,24,307,20,09,32,280,22,8*63
$GPGSV,2,2,05,26,39,094,24,8*5D
$GLGSV,1,1,02,65,,,13,72,64,074,23,1*4E
$GAGSV,2,1,08,03,72,295,29,05,49,081,26,13,26,311,23,15,34,249,24,7*70
$GAGSV,2,2,08,24,34,080,23,25,25,139,21,31,12,031,21,34,10,201,22,7*7E
$GAGSV,2,1,07,03,72,295,24,05,49,081,25,13,26,311,20,15,34,249,22,1*72
$GAGSV,2,2,07,24,34,080,20,25,25,139,17,34,10,201,15,1*45
$GBGSV,2,1,08,12,10,316,24,19,85,319,40,20,41,117,38,22,30,299,37,1*79
$GBGSV,2,2,08,34,03,342,27,36,21,192,29,37,35,054,36,44,07,293,30,1*77
$GBGSV,1,1,04,19,85,319,24,20,41,117,24,22,30,299,20,37,35,054,22,5*78
$GQGSV,1,1,00,1*65
$GQGSV,1,1,00,8*6C
$GNGGA,202842.000,4910.426992,N,12304.401990,W,1,24,0.55,8.722,M,-16.817,M,,*4C
$GNRMC,202842.000,A,4910.426992,N,12304.401990,W,0.006,126.46,151024,,,A,V*2B
$GNGLL,4910.426992,N,12304.401990,W,202842.000,A,A*54
$GNVTG,126.46,T,,M,0.006,N,0.011,K,A*22
$GNGSA,A,3,03,04,06,09,16,26,28,31,,,,,0.94,0.55,0.76,1*0E
$GNGSA,A,3,72,,,,,,,,,,,,0.94,0.55,0.76,2*0B
$GNGSA,A,3,03,05,13,15,24,25,31,34,,,,,0.94,0.55,0.76,3*0B
$GNGSA,A,3,12,19,20,22,36,37,44,,,,,,0.94,0.55,0.76,4*00
$GNGSA,A,3,,,,,,,,,,,,,0.94,0.55,0.76,5*09
$GPGSV,3,1,10,03,70,183,32,04,65,290,29,06,24,307,24,07,,,21,1*59
$GPGSV,3,2,10,09,32,280,26,16,25,133,23,26,39,094,28,28,16,052,25,1*66
$GPGSV,3,3,10,31,49,059,30,44,33,172,27,1*64
$GPGSV,2,1,05,03,70,183,28,04,65,290,27,06,24,307,21,09,32,280,23,8*62
$GPGSV,2,2,05,26,39,094,24,8*5D
$GLGSV,1,1,02,65,,,13,72,64,074,21,1*4C
$GAGSV,2,1,08,03,72,295,29,05,49,081,26,13,26,311,23,15,34,249,25,7*71
$GAGSV,2,2,08,24,34,080,22,25,25,139,21,31,12,031,19,34,10,201,21,7*77
$GAGSV,2,1,07,03,72,295,25,05,49,081,24,13,26,311,22,15,34,249,23,1*71
$GAGSV,2,2,07,24,34,080,21,25,25,139,17,34,10,201,17,1*46
$GBGSV,2,1,08,12,10,316,25,19,85,319,40,20,41,117,38,22,30,299,37,1*78
$GBGSV,2,2,08,34,03,342,27,36,21,192,30,37,35,054,37,44,07,293,29,1*76
$GBGSV,1,1,04,19,85,319,26,20,41,117,25,22,30,299,21,37,35,054,23,5*7B
$GQGSV,1,1,00,1*65
$GQGSV,1,1,00,8*6C
$GNGGA,202843.000,4910.426991,N,12304.401984,W,1,24,0.79,8.720,M,-16.816,M,,*46
$GNRMC,202843.000,A,4910.426991,N,12304.401984,W,0.008,126.46,151024,,,A,V*22
$GNGLL,4910.426991,N,12304.401984,W,202843.000,A,A*53
$GNVTG,126.46,T,,M,0.008,N,0.014,K,A*29
$GNGSA,A,3,03,04,06,09,16,26,28,31,,,,,1.23,0.79,0.94,1*01
$GNGSA,A,3,72,,,,,,,,,,,,1.23,0.79,0.94,2*04
$GNGSA,A,3,03,05,13,15,24,25,31,34,,,,,1.23,0.79,0.94,3*04
$GNGSA,A,3,12,19,20,22,36,37,44,,,,,,1.23,0.79,0.94,4*0F
$GNGSA,A,3,,,,,,,,,,,,,1.23,0.79,0.94,5*06
$GPGSV,3,1,10,03,70,183,31,04,65,290,29,06,24,307,24,07,,,21,1*5A
$GPGSV,3,2,10,09,32,280,25,16,25,133,23,26,39,094,27,28,16,052,23,1*6C
$GPGSV,3,3,10,31,49,059,30,44,33,172,27,1*64
$GPGSV,2,1,05,03,70,183,27,04,65,290,26,06,24,307,20,09,32,280,22,8*6C
$GPGSV,2,2,05,26,39,094,25,8*5C
$GLGSV,1,1,02,65,,,14,72,64,074,22,1*48
$GAGSV,2,1,08,03,72,295,29,05,49,081,25,13,26,311,23,15,34,249,24,7*73
$GAGSV,2,2,08,24,34,080,23,25,25,139,22,31,12,031,20,34,10,201,21,7*7F
$GAGSV,2,1,07,03,72,295,24,05,49,081,23,13,26,311,21,15,34,249,24,1*73
$GAGSV,2,2,07,24,34,080,19,25,25,139,17,34,10,201,17,1*4D
$GBGSV,2,1,08,12,10,316,24,19,85,319,40,20,41,117,38,22,30,299,37,1*79
$GBGSV,2,2,08,34,03,342,28,36,21,192,29,37,35,054,36,44,07,293,29,1*70
$GBGSV,1,1,04,19,85,319,25,20,41,117,23,22,30,299,21,37,35,054,23,5*7E
$GQGSV,1,1,00,1*65
$GQGSV,1,1,00,8*6C
$GNGGA,202844.000,4910.426990,N,12304.401980,W,1,24,0.55,8.717,M,-16.816,M,,*4E
$GNRMC,202844.000,A,4910.426990,N,12304.401980,W,0.006,126.46,151024,,,A,V*2E
$GNGLL,4910.426990,N,12304.401980,W,202844.000,A,A*51
$GNVTG,126.46,T,,M,0.006,N,0.010,K,A*23
$GNGSA,A,3,03,04,06,09,16,26,28,31,,,,,0.94,0.55,0.76,1*0E
$GNGSA,A,3,72,,,,,,,,,,,,0.94,0.55,0.76,2*0B
$GNGSA,A,3,03,05,13,15,24,25,31,34,,,,,0.94,0.55,0.76,3*0B
$GNGSA,A,3,12,19,20,22,36,37,44,,,,,,0.94,0.55,0.76,4*00
$GNGSA,A,3,,,,,,,,,,,,,0.94,0.55,0.76,5*09
$GPGSV,3,1,10,03,70,183,32,04,65,290,29,06,24,307,25,07,,,20,1*59
$GPGSV,3,2,10,09,32,280,25,16,25,133,23,26,39,094,27,28,16,052,23,1*6C
$GPGSV,3,3,10,31,49,059,29,44,33,172,27,1*6C
$GPGSV,2,1,05,03,70,183,28,04,65,290,27,06,24,307,19,09,32,280,22,8*68
$GPGSV,2,2,05,26,39,094,23,8*5A
$GLGSV,1,1,02,65,,,15,72,64,074,21,1*4A
$GAGSV,2,1,08,03,72,295,26,05,49,081,25,13,26,311,24,15,34,249,24,7*7B
$GAGSV,2,2,08,24,34,080,22,25,25,139,20,31,12,031,19,34,10,201,20,7*77
$GAGSV,2,1,07,03,72,295,24,05,49,081,24,13,26,311,21,15,34,249,23,1*73
$GAGSV,2,2,07,24,34,080,20,25,25,139,17,34,10,201,17,1*47
$GBGSV,2,1,08,12,10,316,25,19,85,319,41,20,41,117,39,22,30,299,37,1*78
$GBGSV,2,2,08,34,03,342,29,36,21,192,29,37,35,054,37,44,07,293,30,1*78
$GBGSV,1,1,04,19,85,319,26,20,41,117,24,22,30,299,20,37,35,054,23,5*7B
$GQGSV,1,1,00,1*65
$GQGSV,1,1,00,8*6C
$GNGGA,202845.000,4910.426989,N,12304.401976,W,1,24,0.53,8.716,M,-16.816,M,,*49
$GNRMC,202845.000,A,4910.426989,N,12304.401976,W,0.015,126.46,151024,,,A,V*2C
$GNGLL,4910.426989,N,12304.401976,W,202845.000,A,A*51
$GNVTG,126.46,T,,M,0.015,N,0.027,K,A*25
$GNGSA,A,3,03,04,06,09,16,26,28,31,,,,,0.93,0.53,0.76,1*0F
$GNGSA,A,3,72,,,,,,,,,,,,0.93,0.53,0.76,2*0A
$GNGSA,A,3,03,05,13,15,24,25,31,34,,,,,0.93,0.53,0.76,3*0A
$GNGSA,A,3,12,19,20,22,36,37,44,,,,,,0.93,0.53,0.76,4*01
$GNGSA,A,3,,,,,,,,,,,,,0.93,0.53,0.76,5*08
$GPGSV,3,1,10,03,70,183,32,04,65,290,30,06,24,307,24,07,,,20,1*50
$GPGSV,3,2,10,09,32,280,26,16,25,133,21,26,39,094,27,28,16,052,22,1*6C
$GPGSV,3,3,10,31,49,059,29,44,33,172,27,1*6C
$GPGSV,2,1,05,03,70,183,28,04,65,290,27,06,24,307,20,09,32,280,22,8*62
$GPGSV,2,2,05,26,39,094,24,8*5D
$GLGSV,1,1,02,65,,,16,72,64,074,23,1*4B
$GAGSV,2,1,08,03,72,295,28,05,49,081,26,13,26,311,24,15,34,249,23,7*71
$GAGSV,2,2,08,24,34,080,23,25,25,139,21,31,12,031,20,34,10,201,23,7*7E
$GAGSV,2,1,07,03,72,295,23,05,49,081,25,13,26,311,21,15,34,249,23,1*75
$GAGSV,2,2,07,24,34,080,19,25,25,139,17,34,10,201,17,1*4D
$GBGSV,2,1,08,12,10,316,25,19,85,319,41,20,41,117,39,22,30,299,38,1*77
$GBGSV,2,2,08,34,03,342,28,36,21,192,29,37,35,054,38,44,07,293,30,1*76
$GBGSV,1,1,04,19,85,319,25,20,41,117,24,22,30,299,21,37,35,054,22,5*78
$GQGSV,1,1,00,1*65
$GQGSV,1,1,00,8*6C
$GNGGA,202846.000,4910.426990,N,12304.401973,W,1,24,0.53,8.717,M,-16.817,M,,*47
$GNRMC,202846.000,A,4910.426990,N,12304.401973,W,0.014,126.46,151024,,,A,V*23
$GNGLL,4910.426990,N,12304.401973,W,202846.000,A,A*5F
$GNVTG,126.46,T,,M,0.014,N,0.026,K,A*25
$GNGSA,A,3,03,04,06,09,16,26,28,31,,,,,0.93,0.53,0.76,1*0F
$GNGSA,A,3,72,,,,,,,,,,,,0.93,0.53,0.76,2*0A
$GNGSA,A,3,03,05,13,15,24,25,31,34,,,,,0.93,0.53,0.76,3*0A
$GNGSA,A,3,12,19,20,22,36,37,44,,,,,,0.93,0.53,0.76,4*01
$GNGSA,A,3,,,,,,,,,,,,,0.93,0.53,0.76,5*08
$GPGSV,3,1,10,03,70,183,33,04,65,290,30,06,24,307,24,07,,,21,1*50
$GPGSV,3,2,10,09,32,280,25,16,25,133,24,26,39,094,28,28,16,052,23,1*64
$GPGSV,3,3,10,31,49,059,29,44,33,172,27,1*6C
$GPGSV,2,1,05,03,70,183,28,04,65,290,27,06,24,307,20,09,32,280,22,8*62
$GPGSV,2,2,05,26,39,094,22,8*5B
$GLGSV,1,1,02,65,,,15,72,64,074,20,1*4B
$GAGSV,2,1,08,03,72,295,29,05,49,081,26,13,26,311,24,15,34,249,25,7*76
$GAGSV,2,2,08,24,34,080,24,25,25,139,22,31,12,031,19,34,10,201,21,7*72
$GAGSV,2,1,07,03,72,295,23,05,49,081,24,13,26,311,20,15,34,249,24,1*72
$GAGSV,2,2,07,24,34,080,20,25,25,139,16,34,10,201,17,1*46
$GBGSV,2,1,08,12,10,316,25,19,85,319,41,20,41,117,39,22,30,299,38,1*77
$GBGSV,2,2,08,34,03,342,30,36,21,192,30,37,35,054,37,44,07,293,30,1*78
$GBGSV,1,1,04,19,85,319,25,20,41,117,25,22,30,299,20,37,35,054,22,5*78
$GQGSV,1,1,00,1*65
$GQGSV,1,1,00,8*6C
$GNGGA,202847.000,4910.426986,N,12304.401969,W,1,24,0.53,8.716,M,-16.816,M,,*4A
$GNRMC,202847.000,A,4910.426986,N,12304.401969,W,0.006,126.46,151024,,,A,V*2D
$GNGLL,4910.426986,N,12304.401969,W,202847.000,A,A*52
$GNVTG,126.46,T,,M,0.006,N,0.012,K,A*21
$GNGSA,A,3,03,04,06,09,16,26,28,31,,,,,0.93,0.53,0.76,1*0F
$GNGSA,A,3,72,,,,,,,,,,,,0.93,0.53,0.76,2*0A
$GNGSA,A,3,03,05,13,15,24,25,31,34,,,,,0.93,0.53,0.76,3*0A
$GNGSA,A,3,12,19,20,22,36,37,44,,,,,,0.93,0.53,0.76,4*01
$GNGSA,A,3,,,,,,,,,,,,,0.93,0.53,0.76,5*08
$GPGSV,3,1,10,03,70,183,32,04,65,290,28,06,24,307,24,07,,,22,1*5B
$GPGSV,3,2,10,09,32,280,25,16,25,133,23,26,39,094,28,28,16,052,24,1*64
$GPGSV,3,3,10,31,49,059,30,44,33,172,27,1*64
$GPGSV,2,1,05,03,70,183,27,04,65,290,26,06,24,307,19,09,32,280,21,8*65
$GPGSV,2,2,05,26,39,094,24,8*5D
$GLGSV,1,1,02,65,,,16,72,64,074,20,1*48
$GAGSV,2,1,08,03,72,295,29,05,49,081,25,13,26,311,23,15,34,249,25,7*72
$GAGSV,2,2,08,24,34,080,23,25,25,139,21,31,12,031,19,34,10,201,20,7*77
$GAGSV,2,1,07,03,72,295,23,05,49,081,23,13,26,311,20,15,34,249,22,1*73
$GAGSV,2,2,07,24,34,080,19,25,25,139,16,34,10,201,16,1*4D
$GBGSV,2,1,08,12,10,316,25,19,85,319,41,20,41,117,39,22,30,299,38,1*77
$GBGSV,2,2,08,34,03,342,28,36,21,192,30,37,35,054,38,44,07,293,30,1*7E
$GBGSV,1,1,04,19,85,319,24,20,41,117,24,22,30,299,19,37,35,054,23,5*73
$GQGSV,1,1,00,1*65
$GQGSV,1,1,00,8*6C
$GNGGA,202848.000,4910.426983,N,12304.401963,W,1,24,0.73,8.718,M,-16.816,M,,*46
$GNRMC,202848.000,A,4910.426983,N,12304.401963,W,0.009,126.46,151024,,,A,V*22
$GNGLL,4910.426983,N,12304.401963,W,202848.000,A,A*52
$GNVTG,126.46,T,,M,0.009,N,0.017,K,A*2B
$GNGSA,A,3,03,04,06,09,16,26,28,31,,,,,1.27,0.73,1.04,1*07
$GNGSA,A,3,72,,,,,,,,,,,,1.27,0.73,1.04,2*02
$GNGSA,A,3,03,05,13,15,24,25,31,34,,,,,1.27,0.73,1.04,3*02
$GNGSA,A,3,12,19,20,22,36,37,44,,,,,,1.27,0.73,1.04,4*09
$GNGSA,A,3,,,,,,,,,,,,,1.27,0.73,1.04,5*00
$GPGSV,3,1,10,03,70,183,32,04,65,290,30,06,24,307,25,07,,,23,1*52
$GPGSV,3,2,10,09,32,280,26,16,25,133,23,26,39,094,28,28,16,052,22,1*61
$GPGSV,3,3,10,31,49,059,30,44,33,172,27,1*64
$GPGSV,2,1,05,03,70,183,27,04,65,290,25,06,24,307,20,09,32,280,22,8*6F
$GPGSV,2,2,05,26,39,094,23,8*5A
$GLGSV,1,1,02,65,,,15,72,64,074,20,1*4B
$GAGSV,2,1,08,03,72,295,28,05,49,081,25,13,26,311,24,15,34,249,24,7*75
$GAGSV,2,2,08,24,34,080,23,25,25,139,22,31,12,031,19,34,10,201,21,7*75
$GAGSV,2,1,07,03,72,295,23,05,49,081,23,13,26,311,20,15,34,249,22,1*73
$GAGSV,2,2,07,24,34,080,20,25,25,139,17,34,10,201,17,1*47
$GBGSV,2,1,08,12,10,316,25,19,85,320,41,20,41,117,39,22,30,299,37,1*72
$GBGSV,2,2,08,34,03,342,29,36,21,192,30,37,35,054,37,44,07,293,30,1*70
$GBGSV,1,1,04,19,85,320,24,20,41,117,24,22,30,299,20,37,35,054,23,5*73
$GQGSV,1,1,00,1*65
$GQGSV,1,1,00,8*6C
$GNGGA,202849.000,4910.426980,N,12304.401961,W,1,24,0.56,8.719,M,-16.816,M,,*40
$GNRMC,202849.000,A,4910.426980,N,12304.401961,W,0.009,126.46,151024,,,A,V*22
$GNGLL,4910.426980,N,12304.401961,W,202849.000,A,A*52
$GNVTG,126.46,T,,M,0.009,N,0.016,K,A*2A
$GNGSA,A,3,03,04,06,09,16,26,28,31,,,,,0.97,0.56,0.80,1*07
$GNGSA,A,3,72,,,,,,,,,,,,0.97,0.56,0.80,2*02
$GNGSA,A,3,03,05,13,15,24,25,31,34,,,,,0.97,0.56,0.80,3*02
$GNGSA,A,3,12,19,20,22,36,37,44,,,,,,0.97,0.56,0.80,4*09
$GNGSA,A,3,,,,,,,,,,,,,0.97,0.56,0.80,5*00
$GPGSV,3,1,10,03,70,183,32,04,65,290,30,06,24,307,24,07,,,22,1*52
$GPGSV,3,2,10,09,32,280,27,16,25,133,22,26,39,094,28,28,16,052,21,1*62
$GPGSV,3,3,10,31,49,059,29,44,33,172,27,1*6C
$GPGSV,2,1,05,03,70,183,27,04,65,290,27,06,24,307,20,09,32,280,21,8*6E
$GPGSV,2,2,05,26,39,094,23,8*5A
$GLGSV,1,1,02,65,,,14,72,64,074,21,1*4B
$GAGSV,2,1,08,03,72,295,29,05,49,081,25,13,26,311,23,15,34,249,25,7*72
$GAGSV,2,2,08,24,34,080,22,25,25,139,22,31,12,031,19,34,10,201,20,7*75
$GAGSV,2,1,07,03,72,295,22,05,49,081,24,13,26,311,20,15,34,249,23,1*74
$GAGSV,2,2,07,24,34,080,19,25,25,139,17,34,10,201,17,1*4D
$GBGSV,2,1,08,12,10,316,25,19,85,320,41,20,41,117,39,22,30,299,37,1*72
$GBGSV,2,2,08,34,03,342,29,36,21,192,29,37,35,054,37,44,07,293,30,1*78
$GBGSV,1,1,04,19,85,320,24,20,41,117,24,22,30,299,20,37,35,054,22,5*72
$GQGSV,1,1,00,1*65
$GQGSV,1,1,00,8*6C
$GNGGA,202850.000,4910.426978,N,12304.401959,W,1,24,0.61,8.720,M,-16.817,M,,*4B
$GNRMC,202850.000,A,4910.426978,N,12304.401959,W,0.004,126.46,151024,,,A,V*2B
$GNGLL,4910.426978,N,12304.401959,W,202850.000,A,A*56
$GNVTG,126.46,T,,M,0.004,N,0.007,K,A*27
$GNGSA,A,3,03,04,06,09,16,26,28,31,,,,,1.22,0.61,1.05,1*00
$GNGSA,A,3,72,,,,,,,,,,,,1.22,0.61,1.05,2*05
$GNGSA,A,3,03,05,13,15,24,25,31,34,,,,,1.22,0.61,1.05,3*05
$GNGSA,A,3,12,19,20,22,36,37,44,,,,,,1.22,0.61,1.05,4*0E
$GNGSA,A,3,,,,,,,,,,,,,1.22,0.61,1.05,5*07
$GPGSV,3,1,10,03,70,182,32,04,65,290,30,06,24,307,24,07,,,22,1*53
$GPGSV,3,2,10,09,32,280,25,16,25,133,23,26,39,094,27,28,16,052,22,1*6D
$GPGSV,3,3,10,31,49,059,27,44,33,172,27,1*62
$GPGSV,2,1,05,03,70,182,26,04,65,290,25,06,24,307,19,09,32,280,20,8*67
$GPGSV,2,2,05,26,39,094,21,8*58
$GLGSV,1,1,02,65,,,16,72,64,074,20,1*48
$GAGSV,2,1,08,03,72,295,28,05,49,081,24,13,26,311,22,15,34,249,26,7*70
$GAGSV,2,2,08,24,34,080,22,25,25,139,21,31,12,031,19,34,10,201,21,7*77
$GAGSV,2,1,07,03,72,295,23,05,49,081,22,13,26,311,20,15,34,249,23,1*73
$GAGSV,2,2,07,24,34,080,19,25,25,139,15,34,10,201,17,1*4F
$GBGSV,2,1,08,12,10,316,25,19,85,320,40,20,41,117,39,22,30,299,37,1*73
$GBGSV,2,2,08,34,03,342,28,36,21,192,30,37,35,054,37,44,07,293,29,1*79
$GBGSV,1,1,04,19,85,320,24,20,41,117,23,22,30,299,20,37,35,054,22,5*75
$GQGSV,1,1,00,1*65
$GQGSV,1,1,00,8*6C
$GNGGA,202851.000,4910.426975,N,12304.401955,W,1,24,0.53,8.721,M,-16.816,M,,*4A
$GNRMC,202851.000,A,4910.426975,N,12304.401955,W,0.013,126.46,151024,,,A,V*2D
$GNGLL,4910.426975,N,12304.401955,W,202851.000,A,A*56
$GNVTG,126.46,T,,M,0.013,N,0.025,K,A*21
$GNGSA,A,3,03,04,06,09,16,26,28,31,,,,,0.93,0.53,0.76,1*0F
$GNGSA,A,3,72,,,,,,,,,,,,0.93,0.53,0.76,2*0A
$GNGSA,A,3,03,05,13,15,24,25,31,34,,,,,0.93,0.53,0.76,3*0A
$GNGSA,A,3,12,19,20,22,36,37,44,,,,,,0.93,0.53,0.76,4*01
$GNGSA,A,3,,,,,,,,,,,,,0.93,0.53,0.76,5*08
$GPGSV,3,1,10,03,70,182,32,04,65,290,29,06,24,307,25,07,,,22,1*5A
$GPGSV,3,2,10,09,32,280,26,16,25,133,22,26,39,094,26,28,16,052,22,1*6E
$GPGSV,3,3,10,31,49,059,29,44,33,172,27,1*6C
$GPGSV,2,1,05,03,70,182,26,04,65,290,24,06,24,307,19,09,32,280,20,8*66
