$GNGGA,003524.000,4910.426032,N,12304.398258,W,2,29,0.52,-1.511,M,-16.817,M,,*66
$GNGLL,4910.426032,N,12304.398258,W,003524.000,A,D*54
$GNGSA,A,3,06,19,12,24,11,17,03,32,,,,,0.89,0.52,0.72,1*0D
$GNGSA,A,3,84,75,85,73,66,,,,,,,,0.89,0.52,0.72,2*06
$GNGSA,A,3,21,13,15,27,26,04,06,,,,,,0.89,0.52,0.72,3*06
$GNGSA,A,3,34,25,11,12,23,43,44,24,39,,,,0.89,0.52,0.72,4*0E
$GPGSV,3,1,11,06,59,116,35,19,55,061,33,12,54,297,34,24,48,229,33,1*69
$GPGSV,3,2,11,11,38,169,31,25,38,301,,46,33,188,32,17,24,063,30,1*68
$GPGSV,3,3,11,03,11,035,28,32,09,321,21,14,01,114,16,1*57
$GLGSV,2,1,07,84,77,072,18,74,66,131,18,75,55,320,30,85,41,204,26,1*7F
$GLGSV,2,2,07,73,20,136,24,83,14,033,,66,10,328,21,1*4E
$GAGSV,3,1,09,21,86,005,33,13,54,135,31,15,38,054,31,27,35,109,30,7*72
$GAGSV,3,2,09,26,17,185,25,04,16,292,23,06,13,317,24,09,07,338,22,7*78
$GAGSV,3,3,09,19,07,237,18,7*4A
$GBGSV,3,1,11,34,80,136,32,25,71,193,32,11,60,203,29,12,57,061,29,1*74
$GBGSV,3,2,11,23,42,302,28,43,38,218,28,44,32,055,28,24,23,145,23,1*7B
$GBGSV,3,3,11,39,09,330,17,19,02,020,,48,01,356,,1*46
$GNRMC,003524.000,A,4910.426032,N,12304.398258,W,0.03,40.82,070125,,,D,V*25
$GNVTG,40.82,T,,M,0.03,N,0.05,K,D*1E
$PAIRLOG,Full*51
$GNGGA,003525.000,4910.426098,N,12304.398372,W,2,29,0.52,-1.415,M,-16.816,M,,*6A
$GNGLL,4910.426098,N,12304.398372,W,003525.000,A,D*5C
$GNGSA,A,3,06,19,12,24,11,17,03,32,,,,,0.89,0.52,0.72,1*0D
$GNGSA,A,3,84,75,85,73,66,,,,,,,,0.89,0.52,0.72,2*06
$GNGSA,A,3,21,13,15,27,26,04,06,,,,,,0.89,0.52,0.72,3*06
$GNGSA,A,3,34,25,11,12,23,43,44,24,39,,,,0.89,0.52,0.72,4*0E
$GPGSV,3,1,11,06,59,116,35,19,55,061,33,12,54,297,34,24,48,229,33,1*69
$GPGSV,3,2,11,11,38,169,31,25,38,301,,46,33,188,32,17,24,063,30,1*68
$GPGSV,3,3,11,03,11,035,28,32,09,321,23,14,01,114,16,1*55
$GLGSV,2,1,07,84,77,072,18,74,66,131,18,75,55,320,30,85,41,204,26,1*7F
$GLGSV,2,2,07,73,20,136,24,83,14,033,,66,10,328,21,1*4E
$GAGSV,3,1,09,21,86,005,33,13,54,135,31,15,38,054,31,27,35,109,30,7*72
$GAGSV,3,2,09,26,17,185,24,04,16,292,23,06,13,317,24,09,07,338,22,7*79
$GAGSV,3,3,09,19,07,237,17,7*45
$GBGSV,3,1,11,34,80,136,32,25,71,193,32,11,60,203,29,12,57,061,29,1*74
$GBGSV,3,2,11,23,42,302,28,43,38,218,28,44,32,055,28,24,23,145,23,1*7B
$GBGSV,3,3,11,39,09,330,17,19,02,020,,48,01,356,,1*46
$GNRMC,003525.000,A,4910.426098,N,12304.398372,W,0.03,40.82,070125,,,D,V*2D
$GNVTG,40.82,T,,M,0.03,N,0.05,K,D*1E
$PAIRLOG,Full*51
$GNGGA,003526.000,4910.426134,N,12304.398612,W,2,29,0.52,-1.306,M,-16.816,M,,*68
$GNGLL,4910.426134,N,12304.398612,W,003526.000,A,D*5B
$GNGSA,A,3,06,19,12,24,11,17,03,32,,,,,0.89,0.52,0.72,1*0D
$GNGSA,A,3,84,75,85,73,66,,,,,,,,0.89,0.52,0.72,2*06
$GNGSA,A,3,21,13,15,27,26,04,06,,,,,,0.89,0.52,0.72,3*06
$GNGSA,A,3,34,25,11,12,23,43,44,24,39,,,,0.89,0.52,0.72,4*0E
$GPGSV,3,1,11,06,59,116,35,19,55,061,33,12,54,297,34,24,48,229,33,1*69
$GPGSV,3,2,11,11,38,169,31,25,38,301,,46,33,188,32,17,24,063,30,1*68
$GPGSV,3,3,11,03,11,035,28,32,09,321,23,14,01,114,16,1*55
$GLGSV,2,1,07,84,77,072,18,74,66,131,18,75,55,320,31,85,41,204,26,1*7E
$GLGSV,2,2,07,73,20,136,24,83,14,033,,66,10,328,21,1*4E
$GAGSV,3,1,09,21,86,005,33,13,54,135,31,15,38,054,31,27,35,109,30,7*72
$GAGSV,3,2,09,26,17,185,24,04,16,292,23,06,13,317,24,09,07,338,22,7*79
$GAGSV,3,3,09,19,07,237,17,7*45
$GBGSV,3,1,11,34,80,136,33,25,71,193,32,11,60,203,29,12,57,061,29,1*75
$GBGSV,3,2,11,23,42,302,29,43,38,218,28,44,32,055,28,24,23,145,23,1*7A
$GBGSV,3,3,11,39,09,330,17,19,02,020,,48,01,356,,1*46
$GNRMC,003526.000,A,4910.426134,N,12304.398612,W,0.03,40.82,070125,,,D,V*2A
$GNVTG,40.82,T,,M,0.03,N,0.05,K,D*1E
$PAIRLOG,Full*51
$GNGGA,003527.000,4910.426170,N,12304.398828,W,2,29,0.52,-1.200,M,-16.817,M,,*68
$GNGLL,4910.426170,N,12304.398828,W,003527.000,A,D*5D
$GNGSA,A,3,06,19,12,24,11,17,03,32,,,,,0.89,0.52,0.72,1*0D
$GNGSA,A,3,84,75,85,73,66,,,,,,,,0.89,0.52,0.72,2*06
$GNGSA,A,3,21,13,15,27,26,04,06,,,,,,0.89,0.52,0.72,3*06
$GNGSA,A,3,34,25,11,12,23,43,44,24,39,,,,0.89,0.52,0.72,4*0E
$GPGSV,3,1,11,06,59,116,35,19,55,061,33,12,54,297,34,24,48,229,33,1*69
$GPGSV,3,2,11,11,38,169,31,25,38,301,,46,33,188,32,17,24,063,30,1*68
$GPGSV,3,3,11,03,11,035,28,32,09,321,23,14,01,114,16,1*55
$GLGSV,2,1,07,84,77,072,18,74,66,131,18,75,55,320,31,85,41,204,26,1*7E
$GLGSV,2,2,07,73,20,136,24,83,14,033,,66,10,328,21,1*4E
$GAGSV,3,1,09,21,86,005,33,13,54,135,31,15,38,054,31,27,35,109,30,7*72
$GAGSV,3,2,09,26,17,185,24,04,16,292,23,06,13,317,24,09,07,338,22,7*79
$GAGSV,3,3,09,19,07,237,17,7*45
$GBGSV,3,1,11,34,80,136,33,25,71,193,32,11,60,203,29,12,57,061,29,1*75
$GBGSV,3,2,11,23,42,302,29,43,38,218,28,44,32,055,28,24,23,145,23,1*7A
$GBGSV,3,3,11,39,09,330,17,19,02,020,,48,01,356,,1*46
$GNRMC,003527.000,A,4910.426170,N,12304.398828,W,0.02,40.82,070125,,,D,V*2D
$GNVTG,40.82,T,,M,0.02,N,0.04,K,D*1E
$PAIRLOG,Full*51
$GNGGA,003528.000,4910.426242,N,12304.399002,W,2,29,0.52,-1.077,M,-16.816,M,,*67
