$GNGGA,235258.000,4910.426398,N,12304.400646,W,2,34,0.42,7.888,M,-16.817,M,,*48
$GNGLL,4910.426398,N,12304.400646,W,235258.000,A,D*51
$GNGSA,A,3,17,19,14,24,13,15,02,30,06,12,21,,0.80,0.42,0.68,1*0D
$GNGSA,A,3,88,79,87,69,81,,,,,,,,0.80,0.42,0.68,2*05
$GNGSA,A,3,02,25,08,11,07,30,36,10,03,,,,0.80,0.42,0.68,3*0D
$GNGSA,A,3,45,29,30,26,36,35,42,14,33,,,,0.80,0.42,0.68,4*09
$GPGSV,3,1,12,17,72,090,31,19,62,190,29,14,47,083,24,24,37,303,25,1*6C
$GPGSV,3,2,12,46,33,187,29,13,27,214,27,15,24,252,27,02,20,042,18,1*69
$GPGSV,3,3,12,30,15,143,24,06,11,158,25,12,07,270,15,21,07,028,18,1*6F
$GLGSV,2,1,07,78,69,060,,88,57,118,35,79,43,308,31,87,30,034,25,1*7A
$GLGSV,2,2,07,69,25,276,30,81,20,174,20,70,15,341,,1*49
$GAGSV,3,1,10,02,80,321,32,25,40,080,28,08,36,239,27,11,33,074,26,7*7D
$GAGSV,3,2,10,07,29,303,28,30,28,272,26,36,25,130,25,10,23,044,26,7*7C
$GAGSV,3,3,10,12,10,025,17,03,08,193,19,7*79
$GBGSV,3,1,12,45,87,100,32,29,58,140,31,30,35,054,30,26,34,297,26,1*74
$GBGSV,3,2,12,36,34,115,28,35,15,194,22,42,13,291,22,14,11,317,22,1*79
$GBGSV,3,3,12,50,09,267,19,57,09,027,,33,06,341,18,21,04,246,17,1*74
$GNRMC,235258.000,A,4910.426398,N,12304.400646,W,0.02,58.05,181224,,,D,V*2A
$GNVTG,58.05,T,,M,0.02,N,0.03,K,D*1F
$PAIRLOG,Full*51
$GNGGA,235259.000,4910.426368,N,12304.400616,W,2,34,0.42,7.844,M,-16.816,M,,*42
$GNGLL,4910.426368,N,12304.400616,W,235259.000,A,D*5A
$GNGSA,A,3,17,19,14,24,13,15,02,30,06,12,21,,0.80,0.42,0.68,1*0D
$GNGSA,A,3,88,79,87,69,81,,,,,,,,0.80,0.42,0.68,2*05
$GNGSA,A,3,02,25,08,11,07,30,36,10,03,,,,0.80,0.42,0.68,3*0D
$GNGSA,A,3,45,29,30,26,36,35,42,14,33,,,,0.80,0.42,0.68,4*09
$GPGSV,3,1,12,17,72,090,31,19,62,190,29,14,47,083,24,24,37,303,25,1*6C
$GPGSV,3,2,12,46,33,187,29,13,27,214,27,15,24,252,27,02,20,042,18,1*69
$GPGSV,3,3,12,30,15,143,24,06,11,158,25,12,07,270,14,21,07,028,18,1*6E
$GLGSV,2,1,07,78,69,060,,88,57,118,35,79,43,308,32,87,30,034,25,1*79
$GLGSV,2,2,07,69,25,276,30,81,20,174,21,70,15,341,,1*48
$GAGSV,3,1,10,02,80,321,32,25,40,080,28,08,36,239,27,11,33,074,25,7*7E
$GAGSV,3,2,10,07,30,301,28,30,28,272,25,36,25,130,25,10,23,044,26,7*75
$GAGSV,3,3,10,12,10,025,17,03,08,193,19,7*79
$GBGSV,3,1,12,45,87,100,32,29,58,140,31,30,35,054,30,26,34,297,26,1*74
$GBGSV,3,2,12,36,34,115,29,35,15,194,22,42,13,291,22,14,11,317,22,1*78
$GBGSV,3,3,12,50,09,267,19,57,09,027,,33,06,341,18,21,04,246,17,1*74
$GNRMC,235259.000,A,4910.426368,N,12304.400616,W,0.01,58.05,181224,,,D,V*22
$GNVTG,58.05,T,,M,0.01,N,0.02,K,D*1D
$PAIRLOG,Full*51
$GNGGA,235300.000,4910.426314,N,12304.400622,W,2,34,0.42,7.823,M,-16.816,M,,*42
$GNGLL,4910.426314,N,12304.400622,W,235300.000,A,D*5B
$GNGSA,A,3,17,19,14,24,13,15,02,30,06,12,21,,0.80,0.42,0.68,1*0D
$GNGSA,A,3,88,79,87,69,81,,,,,,,,0.80,0.42,0.68,2*05
$GNGSA,A,3,02,25,08,11,07,30,36,10,03,,,,0.80,0.42,0.68,3*0D
$GNGSA,A,3,45,29,30,26,36,35,42,14,33,,,,0.80,0.42,0.68,4*09
$GPGSV,3,1,12,17,72,090,30,19,62,190,29,14,47,083,24,24,37,303,24,1*6C
$GPGSV,3,2,12,46,33,187,28,13,27,214,27,15,24,252,26,02,20,042,18,1*69
$GPGSV,3,3,12,30,15,143,24,06,11,158,25,12,07,270,14,21,07,028,17,1*61
$GLGSV,2,1,07,78,69,060,,88,57,118,35,79,43,308,31,87,30,034,25,1*7A
$GLGSV,2,2,07,69,25,276,30,81,20,174,21,70,15,341,,1*48
$GAGSV,3,1,10,02,80,321,32,25,40,080,28,08,35,239,27,11,33,074,25,7*7D
$GAGSV,3,2,10,07,30,301,28,30,28,272,25,36,25,130,25,10,23,044,26,7*75
$GAGSV,3,3,10,12,10,025,17,03,08,193,19,7*79
$GBGSV,3,1,12,45,87,100,32,29,58,140,31,30,35,054,30,26,34,297,26,1*74
$GBGSV,3,2,12,36,34,115,29,35,15,194,21,42,13,291,22,14,11,317,22,1*7B
$GBGSV,3,3,12,50,09,267,19,57,09,027,,33,06,341,19,21,04,246,17,1*75
$GNRMC,235300.000,A,4910.426314,N,12304.400622,W,0.01,58.05,181224,,,D,V*23
$GNVTG,58.05,T,,M,0.01,N,0.02,K,D*1D
$PAIRLOG,Full*51
$GNGGA,235301.000,4910.426248,N,12304.400634,W,2,34,0.42,7.799,M,-16.816,M,,*42
$GNGLL,4910.426248,N,12304.400634,W,235301.000,A,D*55
$GNGSA,A,3,17,19,14,24,13,15,02,30,06,12,21,,0.80,0.42,0.68,1*0D
$GNGSA,A,3,88,79,87,69,81,,,,,,,,0.80,0.42,0.68,2*05
$GNGSA,A,3,02,25,08,11,07,30,36,10,03,,,,0.80,0.42,0.68,3*0D
$GNGSA,A,3,45,29,30,26,36,35,42,14,33,,,,0.80,0.42,0.68,4*09
$GPGSV,3,1,12,17,72,090,30,19,62,190,29,14,47,083,24,24,37,303,24,1*6C
$GPGSV,3,2,12,46,33,187,28,13,27,214,27,15,24,252,27,02,20,042,18,1*68
$GPGSV,3,3,12,30,15,143,24,06,11,158,24,12,07,270,16,21,07,028,17,1*62
$GLGSV,2,1,07,78,69,060,,88,57,118,35,79,43,308,31,87,30,034,25,1*7A
$GLGSV,2,2,07,69,25,276,30,81,20,174,21,70,15,341,,1*48
$GAGSV,3,1,10,02,80,321,32,25,40,080,28,08,35,239,27,11,33,074,25,7*7D
$GAGSV,3,2,10,07,30,301,28,30,28,272,25,36,25,130,25,10,23,044,26,7*75
$GAGSV,3,3,10,12,10,025,17,03,08,193,19,7*79
$GBGSV,3,1,12,45,87,100,32,29,58,140,31,30,35,054,29,26,34,297,26,1*7C
$GBGSV,3,2,12,36,34,115,29,35,15,194,21,42,13,291,22,14,11,317,22,1*7B
$GBGSV,3,3,12,50,09,267,19,57,09,027,,33,06,341,19,21,04,246,17,1*75
$GNRMC,235301.000,A,4910.426248,N,12304.400634,W,0.01,58.05,181224,,,D,V*2D
$GNVTG,58.05,T,,M,0.01,N,0.03,K,D*1C
$PAIRLOG,Full*51
$PAIR010,0,1,2345,345199*39
$GNGGA,235302.000,4910.426218,N,12304.400676,W,2,34,0.42,7.718,M,-16.816,M,,*4B
$GNGLL,4910.426218,N,12304.400676,W,235302.000,A,D*55
$GNGSA,A,3,17,19,14,24,13,15,02,30,06,12,21,,0.80,0.42,0.68,1*0D
$GNGSA,A,3,88,79,87,69,81,,,,,,,,0.80,0.42,0.68,2*05
$GNGSA,A,3,02,25,08,11,07,30,36,10,03,,,,0.80,0.42,0.68,3*0D
$GNGSA,A,3,45,29,30,26,36,35,42,14,33,,,,0.80,0.42,0.68,4*09
$GPGSV,3,1,12,17,72,090,31,19,62,190,30,14,47,083,25,24,37,303,26,1*66
$GPGSV,3,2,12,46,33,187,28,13,27,214,28,15,24,252,29,02,20,042,19,1*68
$GPGSV,3,3,12,30,15,143,24,06,11,158,26,12,07,270,15,21,07,028,17,1*63
$GLGSV,2,1,07,78,69,060,,88,57,118,34,79,43,308,31,87,30,034,25,1*7B
$GLGSV,2,2,07,69,25,276,30,81,20,174,20,70,15,341,,1*49
$GAGSV,3,1,10,02,80,321,33,25,40,080,28,08,35,239,27,11,33,074,25,7*7C
$GAGSV,3,2,10,07,30,301,28,30,28,272,25,36,25,130,25,10,23,044,26,7*75
$GAGSV,3,3,10,12,10,025,17,03,08,193,20,7*73
$GBGSV,3,1,12,45,87,100,32,29,58,140,31,30,35,054,29,26,34,297,26,1*7C
$GBGSV,3,2,12,36,34,115,29,35,15,194,21,42,13,291,22,14,11,317,22,1*7B
$GBGSV,3,3,12,50,09,267,19,57,09,027,,33,06,341,19,21,04,246,17,1*75
$GNRMC,235302.000,A,4910.426218,N,12304.400676,W,0.01,58.05,181224,,,D,V*2D
$GNVTG,58.05,T,,M,0.01,N,0.03,K,D*1C
$PAIRLOG,Full*51
$GNGGA,235303.000,4910.426146,N,12304.400748,W,2,34,0.42,7.640,M,-16.817,M,,*43
$GNGLL,4910.426146,N,12304.400748,W,235303.000,A,D*50
$GNGSA,A,3,17,19,14,24,13,15,02,30,06,12,21,,0.80,0.42,0.68,1*0D
$GNGSA,A,3,88,79,87,69,81,,,,,,,,0.80,0.42,0.68,2*05
$GNGSA,A,3,02,25,08,11,07,30,36,10,03,,,,0.80,0.42,0.68,3*0D
$GNGSA,A,3,45,29,30,26,36,35,42,14,33,,,,0.80,0.42,0.68,4*09
$GPGSV,3,1,12,17,72,090,31,19,62,190,31,14,47,083,25,24,37,303,24,1*65
$GPGSV,3,2,12,46,33,187,28,13,27,214,28,15,24,252,27,02,20,042,19,1*66
$GPGSV,3,3,12,30,15,143,24,06,11,158,26,12,07,270,13,21,07,028,17,1*65
$GLGSV,2,1,07,78,69,060,,88,57,118,34,79,43,308,31,87,30,034,25,1*7B
$GLGSV,2,2,07,69,25,276,30,81,20,174,20,70,15,341,,1*49
$GAGSV,3,1,10,02,80,321,33,25,40,080,28,08,35,239,27,11,33,073,25,7*7B
$GAGSV,3,2,10,07,30,301,28,30,28,272,25,36,25,130,26,10,23,044,26,7*76
$GAGSV,3,3,10,12,10,025,17,03,08,193,20,7*73
$GBGSV,3,1,12,45,87,100,32,29,58,140,31,30,35,054,29,26,34,297,26,1*7C
$GBGSV,3,2,12,36,34,115,29,35,15,194,21,42,13,291,22,14,11,317,22,1*7B
$GBGSV,3,3,12,50,09,267,19,57,09,027,,33,06,341,19,21,04,246,18,1*7A
$GNRMC,235303.000,A,4910.426146,N,12304.400748,W,0.02,58.05,181224,,,D,V*2B
$GNVTG,58.05,T,,M,0.02,N,0.03,K,D*1F
$PAIRLOG,Full*51
$GNGGA,235304.000,4910.426122,N,12304.400778,W,2,34,0.42,7.511,M,-16.816,M,,*43
$GNGLL,4910.426122,N,12304.400778,W,235304.000,A,D*56
$GNGSA,A,3,17,19,14,24,13,15,02,30,06,12,21,,0.80,0.42,0.68,1*0D
$GNGSA,A,3,88,79,87,69,81,,,,,,,,0.80,0.42,0.68,2*05
$GNGSA,A,3,02,25,08,11,07,30,36,10,03,,,,0.80,0.42,0.68,3*0D
$GNGSA,A,3,45,29,30,26,36,35,42,14,33,,,,0.80,0.42,0.68,4*09
$GPGSV,3,1,12,17,72,090,31,19,62,190,31,14,47,083,26,24,37,303,24,1*66
$GPGSV,3,2,12,46,33,187,28,13,27,214,28,15,24,252,28,02,20,042,19,1*69
$GPGSV,3,3,12,30,15,143,24,06,11,158,27,12,07,270,14,21,07,028,17,1*63
$GLGSV,2,1,07,78,69,060,,88,57,118,34,79,43,308,32,87,30,034,25,1*78
$GLGSV,2,2,07,69,25,276,30,81,20,174,20,70,15,341,,1*49
$GAGSV,3,1,10,02,80,321,33,25,40,080,28,08,35,239,27,11,33,073,25,7*7B
$GAGSV,3,2,10,07,30,301,28,30,28,272,25,36,25,130,26,10,23,044,26,7*76
$GAGSV,3,3,10,12,09,024,17,03,08,193,20,7*7A
$GBGSV,3,1,12,45,87,100,32,29,58,140,30,30,35,054,29,26,34,297,26,1*7D
$GBGSV,3,2,12,36,34,115,29,35,15,194,21,42,13,291,22,14,11,317,21,1*78
$GBGSV,3,3,12,50,09,267,18,57,09,027,,33,06,341,19,21,04,246,18,1*7B
$GNRMC,235304.000,A,4910.426122,N,12304.400778,W,0.02,58.05,181224,,,D,V*2D
$GNVTG,58.05,T,,M,0.02,N,0.03,K,D*1F
$PAIRLOG,Full*51
$GNGGA,235305.000,4910.426074,N,12304.400832,W,2,34,0.42,7.497,M,-16.817,M,,*4F
$GNGLL,4910.426074,N,12304.400832,W,235305.000,A,D*54
$GNGSA,A,3,17,19,14,24,13,15,02,30,06,12,21,,0.80,0.42,0.68,1*0D
$GNGSA,A,3,88,79,87,69,81,,,,,,,,0.80,0.42,0.68,2*05
$GNGSA,A,3,02,25,08,11,07,30,36,10,03,,,,0.80,0.42,0.68,3*0D
$GNGSA,A,3,45,29,30,26,36,35,42,14,33,,,,0.80,0.42,0.68,4*09
$GPGSV,3,1,12,17,72,090,31,19,62,190,31,14,47,083,27,24,37,303,24,1*67
$GPGSV,3,2,12,46,33,187,28,13,27,214,28,15,24,252,28,02,20,042,19,1*69
$GPGSV,3,3,12,30,15,143,24,06,11,158,25,12,07,270,15,21,07,028,17,1*60
$GLGSV,2,1,07,78,69,060,,88,57,118,34,79,43,308,33,87,30,034,25,1*79
$GLGSV,2,2,07,69,25,276,30,81,20,174,20,70,15,341,,1*49
$GAGSV,3,1,10,02,80,321,33,25,40,080,28,08,35,239,27,11,33,073,25,7*7B
$GAGSV,3,2,10,07,30,301,28,30,28,272,25,36,25,130,26,10,23,044,26,7*76
$GAGSV,3,3,10,12,09,024,17,03,08,193,20,7*7A
$GBGSV,3,1,12,45,87,100,32,29,58,140,30,30,35,054,29,26,34,297,26,1*7D
$GBGSV,3,2,12,36,34,115,29,35,15,194,21,42,13,291,22,14,11,317,21,1*78
$GBGSV,3,3,12,50,09,267,18,57,09,027,,33,06,341,19,21,04,246,18,1*7B
$GNRMC,235305.000,A,4910.426074,N,12304.400832,W,0.01,58.05,181224,,,D,V*2C
$GNVTG,58.05,T,,M,0.01,N,0.03,K,D*1C
$PAIRLOG,Full*51
$GNGGA,235306.000,4910.426014,N,12304.400826,W,2,34,0.42,7.303,M,-16.816,M,,*44
$GNGLL,4910.426014,N,12304.400826,W,235306.000,A,D*54
$GNGSA,A,3,17,19,14,24,13,15,02,30,06,12,21,,0.80,0.42,0.68,1*0D
$GNGSA,A,3,88,79,87,69,81,,,,,,,,0.80,0.42,0.68,2*05
$GNGSA,A,3,02,25,08,11,07,30,36,10,03,,,,0.80,0.42,0.68,3*0D
$GNGSA,A,3,45,29,30,26,36,35,42,14,33,,,,0.80,0.42,0.68,4*09
$GPGSV,3,1,12,17,72,090,31,19,62,190,31,14,47,083,27,24,37,303,24,1*67
$GPGSV,3,2,12,46,33,187,28,13,27,214,28,15,24,252,27,02,20,042,19,1*66
$GPGSV,3,3,12,30,15,143,24,06,11,158,25,12,07,270,15,21,07,028,17,1*60
$GLGSV,2,1,07,78,69,060,,88,57,118,34,79,43,308,33,87,30,034,25,1*79
$GLGSV,2,2,07,69,25,276,30,81,20,174,20,70,15,341,,1*49
$GAGSV,3,1,10,02,80,321,33,25,40,080,28,08,35,239,27,11,33,073,24,7*7A
$GAGSV,3,2,10,07,30,301,28,30,28,272,25,36,25,130,26,10,23,044,26,7*76
$GAGSV,3,3,10,12,09,024,17,03,08,193,20,7*7A
$GBGSV,3,1,12,45,87,100,32,29,58,140,30,30,35,054,29,26,34,297,26,1*7D
$GBGSV,3,2,12,36,34,115,29,35,15,194,20,42,13,291,22,14,11,317,22,1*7A
$GBGSV,3,3,12,50,09,267,18,57,09,027,,33,06,341,19,21,04,246,19,1*7A
