$GNGGA,235258.000,4910.415838,N,12304.385166,W,1,16,0.65,-34.612,M,-16.816,M,,*51
$GNGLL,4910.415838,N,12304.385166,W,235258.000,A,A*5A
$GNGSA,A,3,17,19,14,24,13,15,02,30,21,,,,0.96,0.65,0.70,1*03
$GNGSA,A,3,79,,,,,,,,,,,,0.96,0.65,0.70,2*07
$GNGSA,A,3,,,,,,,,,,,,,0.96,0.65,0.70,3*08
$GNGSA,A,3,45,29,30,36,26,35,,,,,,,0.96,0.65,0.70,4*01
$GPGSV,3,1,11,17,72,090,25,19,62,190,26,14,47,082,25,24,37,303,17,1*64
$GPGSV,3,2,11,13,27,214,20,15,24,252,18,02,20,042,19,30,15,143,20,1*64
$GPGSV,3,3,11,06,11,158,,21,07,028,16,12,07,270,12,1*55
$GLGSV,2,1,08,88,57,118,,79,43,308,25,87,30,034,,69,25,276,19,1*74
$GLGSV,2,2,08,81,20,173,20,77,15,103,,70,14,341,,68,06,231,,1*76
$GAGSV,1,1,00,7*73
$GBGSV,3,1,11,45,87,099,29,29,58,140,28,30,36,055,24,36,34,115,28,1*75
$GBGSV,3,2,11,26,34,296,19,35,15,194,18,42,13,291,20,14,11,317,18,1*73
$GBGSV,3,3,11,50,09,267,16,33,06,341,18,21,04,246,18,1*49
$GNRMC,235258.000,A,4910.415838,N,12304.385166,W,0.41,111.28,181224,,,A,V*15
$GNVTG,111.28,T,,M,0.41,N,0.77,K,A*2D
$GNGGA,235259.000,4910.415784,N,12304.385268,W,1,16,0.65,-34.570,M,-16.817,M,,*53
$GNGLL,4910.415784,N,12304.385268,W,235259.000,A,A*5E
$GNGSA,A,3,17,19,14,24,13,15,02,30,21,,,,0.96,0.65,0.70,1*03
$GNGSA,A,3,79,,,,,,,,,,,,0.96,0.65,0.70,2*07
$GNGSA,A,3,,,,,,,,,,,,,0.96,0.65,0.70,3*08
$GNGSA,A,3,45,29,30,26,36,35,,,,,,,0.96,0.65,0.70,4*01
$GPGSV,3,1,11,17,72,090,26,19,62,190,27,14,47,082,25,24,37,303,17,1*66
$GPGSV,3,2,11,13,27,214,21,15,24,252,18,02,20,042,19,30,15,143,21,1*64
$GPGSV,3,3,11,06,11,158,,12,07,270,,21,07,028,16,1*56
$GLGSV,1,1,04,79,43,308,25,69,25,276,19,81,20,173,20,68,06,231,,1*7E
$GAGSV,1,1,00,7*73
$GBGSV,3,1,11,45,87,099,29,29,58,140,28,30,36,055,24,26,34,296,19,1*7E
$GBGSV,3,2,11,36,34,115,28,35,15,194,18,42,13,291,20,14,11,317,18,1*78
$GBGSV,3,3,11,50,09,267,16,33,06,341,18,21,04,246,18,1*49
$GNRMC,235259.000,A,4910.415784,N,12304.385268,W,0.24,111.28,181224,,,A,V*12
$GNVTG,111.28,T,,M,0.24,N,0.44,K,A*2E
$GNGGA,235300.000,4910.415766,N,12304.385328,W,1,16,0.65,-34.469,M,-16.816,M,,*5F
$GNGLL,4910.415766,N,12304.385328,W,235300.000,A,A*5A
$GNGSA,A,3,17,19,14,24,13,15,02,30,21,,,,0.96,0.65,0.70,1*03
$GNGSA,A,3,79,,,,,,,,,,,,0.96,0.65,0.70,2*07
$GNGSA,A,3,,,,,,,,,,,,,0.96,0.65,0.70,3*08
$GNGSA,A,3,45,29,30,26,36,35,,,,,,,0.96,0.65,0.70,4*01
$GPGSV,3,1,12,17,72,090,26,19,62,190,28,14,47,082,27,24,37,303,18,1*67
$GPGSV,3,2,12,44,33,171,,13,27,214,23,15,24,252,18,02,20,042,19,1*60
$GPGSV,3,3,12,30,15,143,22,06,11,158,,12,07,270,,21,07,028,16,1*64
$GLGSV,1,1,04,79,43,308,25,69,25,276,19,81,20,173,20,68,06,231,,1*7E
$GAGSV,1,1,00,7*73
$GBGSV,3,1,11,45,87,099,28,29,58,140,27,30,36,055,24,26,34,296,19,1*70
$GBGSV,3,2,11,36,34,115,28,35,15,194,18,42,13,291,19,14,11,317,18,1*72
$GBGSV,3,3,11,50,09,267,16,33,06,341,18,21,04,246,18,1*49
$GNRMC,235300.000,A,4910.415766,N,12304.385328,W,0.28,111.28,181224,,,A,V*1A
$GNVTG,111.28,T,,M,0.28,N,0.51,K,A*26
$GNGGA,235301.000,4910.415772,N,12304.385286,W,1,16,0.65,-34.538,M,-16.816,M,,*5B
$GNGLL,4910.415772,N,12304.385286,W,235301.000,A,A*5B
$GNGSA,A,3,17,19,14,24,13,15,02,30,21,,,,0.96,0.65,0.70,1*03
$GNGSA,A,3,79,,,,,,,,,,,,0.96,0.65,0.70,2*07
$GNGSA,A,3,,,,,,,,,,,,,0.96,0.65,0.70,3*08
$GNGSA,A,3,45,29,30,26,36,35,,,,,,,0.96,0.65,0.70,4*01
$GPGSV,3,1,12,17,72,090,27,19,62,190,28,14,47,082,27,24,37,303,19,1*67
$GPGSV,3,2,12,44,33,171,,13,27,214,23,15,24,252,19,02,20,042,20,1*6B
$GPGSV,3,3,12,30,15,143,22,06,11,158,,12,07,270,,21,07,028,16,1*64
$GLGSV,1,1,04,79,43,308,26,69,25,276,19,81,20,173,20,68,06,231,,1*7D
$GAGSV,1,1,00,7*73
$GBGSV,3,1,11,45,87,099,28,29,58,140,27,30,36,055,24,26,34,296,21,1*7B
$GBGSV,3,2,11,36,34,115,28,35,15,194,18,42,13,291,19,14,11,317,18,1*72
$GBGSV,3,3,11,50,09,267,16,33,06,341,18,21,04,246,18,1*49
$GNRMC,235301.000,A,4910.415772,N,12304.385286,W,0.14,111.28,181224,,,A,V*14
$GNVTG,111.28,T,,M,0.14,N,0.27,K,A*28
$GNGGA,235302.000,4910.415778,N,12304.385334,W,1,16,0.65,-34.498,M,-16.816,M,,*51
$GNGLL,4910.415778,N,12304.385334,W,235302.000,A,A*5A
$GNGSA,A,3,17,19,14,24,13,15,02,30,21,,,,0.96,0.65,0.70,1*03
$GNGSA,A,3,79,,,,,,,,,,,,0.96,0.65,0.70,2*07
$GNGSA,A,3,,,,,,,,,,,,,0.96,0.65,0.70,3*08
$GNGSA,A,3,45,29,30,26,36,35,,,,,,,0.96,0.65,0.70,4*01
$GPGSV,3,1,12,17,72,090,27,19,62,190,28,14,47,082,25,24,37,303,19,1*65
$GPGSV,3,2,12,44,33,171,,13,27,214,23,15,24,252,20,02,20,042,20,1*61
$GPGSV,3,3,12,30,15,143,22,06,11,158,,12,07,270,,21,07,028,16,1*64
$GLGSV,1,1,03,79,43,308,26,69,25,276,19,81,20,173,20,1*42
$GAGSV,1,1,00,7*73
$GBGSV,3,1,11,45,87,099,28,29,58,140,27,30,36,055,24,26,34,296,20,1*7A
$GBGSV,3,2,11,36,34,115,27,35,15,194,18,42,13,291,19,14,11,317,18,1*7D
$GBGSV,3,3,11,50,09,267,16,33,06,341,18,21,04,246,18,1*49
$GNRMC,235302.000,A,4910.415778,N,12304.385334,W,0.20,111.28,181224,,,A,V*12
$GNVTG,111.28,T,,M,0.20,N,0.37,K,A*2E
$GNGGA,235303.000,4910.415778,N,12304.385322,W,1,16,0.65,-34.508,M,-16.816,M,,*5F
$GNGLL,4910.415778,N,12304.385322,W,235303.000,A,A*5C
$GNGSA,A,3,17,19,14,24,13,15,02,30,21,,,,0.96,0.65,0.70,1*03
$GNGSA,A,3,79,,,,,,,,,,,,0.96,0.65,0.70,2*07
$GNGSA,A,3,,,,,,,,,,,,,0.96,0.65,0.70,3*08
$GNGSA,A,3,45,29,30,26,36,35,,,,,,,0.96,0.65,0.70,4*01
$GPGSV,3,1,12,17,72,090,28,19,62,190,28,14,47,082,25,24,37,303,19,1*6A
$GPGSV,3,2,12,44,33,171,,13,27,214,22,15,24,252,19,02,20,042,20,1*6A
$GPGSV,3,3,12,30,15,143,22,06,11,158,,12,07,270,,21,07,028,16,1*64
$GLGSV,1,1,03,79,43,308,26,69,25,276,19,81,20,173,20,1*42
$GAGSV,1,1,00,7*73
$GBGSV,3,1,11,45,87,099,28,29,58,140,27,30,36,055,24,26,34,296,21,1*7B
$GBGSV,3,2,11,36,34,115,27,35,15,194,18,42,13,291,19,14,11,317,18,1*7D
$GBGSV,3,3,11,50,09,267,16,33,06,341,18,21,04,246,18,1*49
$GNRMC,235303.000,A,4910.415778,N,12304.385322,W,0.65,295.65,181224,,,A,V*13
$GNVTG,295.65,T,,M,0.65,N,1.21,K,A*2F
$GNGGA,235304.000,4910.415814,N,12304.385424,W,1,16,0.65,-34.520,M,-16.816,M,,*56
$GNGLL,4910.415814,N,12304.385424,W,235304.000,A,A*5F
$GNGSA,A,3,17,19,14,24,13,15,02,30,21,,,,0.96,0.65,0.70,1*03
$GNGSA,A,3,79,,,,,,,,,,,,0.96,0.65,0.70,2*07
$GNGSA,A,3,,,,,,,,,,,,,0.96,0.65,0.70,3*08
$GNGSA,A,3,45,29,30,26,36,35,,,,,,,0.96,0.65,0.70,4*01
$GPGSV,3,1,12,17,72,090,28,19,62,190,28,14,47,082,25,24,37,303,19,1*6A
$GPGSV,3,2,12,44,33,171,,13,27,214,24,15,24,252,20,02,20,042,21,1*67
$GPGSV,3,3,12,30,15,143,21,06,11,158,,12,07,270,,21,07,028,16,1*67
$GLGSV,1,1,03,79,43,308,26,69,25,276,19,81,20,173,20,1*42
$GAGSV,1,1,00,7*73
$GBGSV,3,1,11,45,87,099,28,29,58,140,27,30,36,055,24,26,34,296,20,1*7A
$GBGSV,3,2,11,36,34,115,27,35,15,194,18,42,13,291,19,14,11,317,18,1*7D
$GBGSV,3,3,11,50,09,267,16,33,06,341,18,21,04,246,18,1*49
$GNRMC,235304.000,A,4910.415814,N,12304.385424,W,0.45,295.65,181224,,,A,V*12
$GNVTG,295.65,T,,M,0.45,N,0.83,K,A*24
$PAIR010,0,0,2345,345202*39
$PAIR010,0,1,2345,345202*38
$GNGGA,235305.000,4910.415814,N,12304.385544,W,1,16,0.65,-34.515,M,-16.817,M,,*57
$GNGLL,4910.415814,N,12304.385544,W,235305.000,A,A*59
$GNGSA,A,3,17,19,14,24,13,15,02,30,21,,,,0.96,0.65,0.70,1*03
$GNGSA,A,3,79,,,,,,,,,,,,0.96,0.65,0.70,2*07
$GNGSA,A,3,,,,,,,,,,,,,0.96,0.65,0.70,3*08
$GNGSA,A,3,45,29,30,26,36,35,,,,,,,0.96,0.65,0.70,4*01
$GPGSV,3,1,11,17,72,090,29,19,62,190,29,14,47,082,26,24,37,303,20,1*60
$GPGSV,3,2,11,13,27,214,24,15,24,252,21,02,20,042,22,30,15,143,24,1*66
$GPGSV,3,3,11,06,11,158,,12,07,270,,21,07,028,16,1*56
$GLGSV,1,1,03,79,43,308,26,69,25,276,19,81,20,173,19,1*48
$GAGSV,1,1,00,7*73
$GBGSV,3,1,11,45,87,099,28,29,58,140,27,30,36,055,24,26,34,296,20,1*7A
$GBGSV,3,2,11,36,34,115,27,35,15,194,18,42,13,291,19,14,11,317,18,1*7D
$GBGSV,3,3,11,50,09,267,16,33,06,341,18,21,04,246,18,1*49
$GNRMC,235305.000,A,4910.415814,N,12304.385544,W,0.44,295.65,181224,,,A,V*15
$GNVTG,295.65,T,,M,0.44,N,0.81,K,A*27
$GNGGA,235306.000,4910.415760,N,12304.385670,W,1,16,0.65,-34.495,M,-16.816,M,,*54
$GNGLL,4910.415760,N,12304.385670,W,235306.000,A,A*52
$GNGSA,A,3,17,19,14,24,13,15,02,30,21,,,,0.96,0.65,0.70,1*03
$GNGSA,A,3,79,,,,,,,,,,,,0.96,0.65,0.70,2*07
$GNGSA,A,3,,,,,,,,,,,,,0.96,0.65,0.70,3*08
$GNGSA,A,3,45,29,30,26,36,35,,,,,,,0.96,0.65,0.70,4*01
$GPGSV,3,1,11,17,72,090,29,19,62,190,29,14,47,082,26,24,37,303,21,1*61
$GPGSV,3,2,11,13,27,214,24,15,24,252,22,02,20,042,23,30,15,143,23,1*63
$GPGSV,3,3,11,06,11,158,,12,07,270,,21,07,028,16,1*56
$GLGSV,1,1,03,79,43,308,26,69,25,276,19,81,20,173,19,1*48
$GAGSV,1,1,00,7*73
$GBGSV,3,1,11,45,87,099,28,29,58,140,27,30,36,055,24,26,34,296,20,1*7A
$GBGSV,3,2,11,36,34,115,27,35,15,194,18,42,13,291,19,14,11,317,18,1*7D
$GBGSV,3,3,11,50,09,267,16,33,06,341,18,21,04,246,18,1*49
$GNRMC,235306.000,A,4910.415760,N,12304.385670,W,0.43,295.65,181224,,,A,V*19
$GNVTG,295.65,T,,M,0.43,N,0.80,K,A*21
$GNGGA,235307.000,4910.415778,N,12304.385784,W,1,16,0.65,-34.468,M,-16.816,M,,*54
