$GNGGA,000238.305,,,,,0,00,99.99,,M,,M,,*47
$GNRMC,000238.305,V,,,,,,,090180,,,N,V*26
$GNGLL,,,,,000238.305,V,N*6B
$GNVTG,,T,,M,,N,,K,N*32
$GNGSA,A,1,,,,,,,,,,,,,99.99,99.99,99.99,1*33
$GNGSA,A,1,,,,,,,,,,,,,99.99,99.99,99.99,2*30
$GNGSA,A,1,,,,,,,,,,,,,99.99,99.99,99.99,3*31
$GNGSA,A,1,,,,,,,,,,,,,99.99,99.99,99.99,4*36
$GNGSA,A,1,,,,,,,,,,,,,99.99,99.99,99.99,5*37
$GPGSV,1,1,03,07,,,32,08,,,31,30,,,36,1*6D
$GPGSV,1,1,00,8*6D
$GLGSV,1,1,00,1*78
$GAGSV,1,1,00,7*73
$GAGSV,1,1,00,1*75
$GBGSV,1,1,00,1*76
$GBGSV,1,1,00,5*72
$GQGSV,1,1,00,1*65
$GQGSV,1,1,00,8*6C
$PQTMDRCAL,1,0,0*5D
$PQTMDRPVA,1,15253,000238.305,0,,,,,,,,,,,*45
$GNGGA,000239.305,,,,,0,00,99.99,,M,,M,,*46
$GNRMC,000239.305,V,,,,,,,090180,,,N,V*27
$GNGLL,,,,,000239.305,V,N*6A
$GNVTG,,T,,M,,N,,K,N*32
$GNGSA,A,1,,,,,,,,,,,,,99.99,99.99,99.99,1*33
$GNGSA,A,1,,,,,,,,,,,,,99.99,99.99,99.99,2*30
$GNGSA,A,1,,,,,,,,,,,,,99.99,99.99,99.99,3*31
$GNGSA,A,1,,,,,,,,,,,,,99.99,99.99,99.99,4*36
$GNGSA,A,1,,,,,,,,,,,,,99.99,99.99,99.99,5*37
$GPGSV,1,1,03,07,,,32,08,,,31,30,,,36,1*6D
$GPGSV,1,1,00,8*6D
$GLGSV,1,1,00,1*78
$GAGSV,1,1,00,7*73
$GAGSV,1,1,00,1*75
$GBGSV,1,1,00,1*76
$GBGSV,1,1,00,5*72
$GQGSV,1,1,00,1*65
$GQGSV,1,1,00,8*6C
$PQTMDRCAL,1,0,0*5D
$PQTMDRPVA,1,16254,000239.305,0,,,,,,,,,,,*40
$GNGGA,000240.305,,,,,0,00,99.99,,M,,M,,*48
$GNRMC,000240.305,V,,,,,,,090180,,,N,V*29
$GNGLL,,,,,000240.305,V,N*64
$GNVTG,,T,,M,,N,,K,N*32
$GNGSA,A,1,,,,,,,,,,,,,99.99,99.99,99.99,1*33
$GNGSA,A,1,,,,,,,,,,,,,99.99,99.99,99.99,2*30
$GNGSA,A,1,,,,,,,,,,,,,99.99,99.99,99.99,3*31
$GNGSA,A,1,,,,,,,,,,,,,99.99,99.99,99.99,4*36
$GNGSA,A,1,,,,,,,,,,,,,99.99,99.99,99.99,5*37
$GPGSV,1,1,03,07,,,30,08,,,28,30,,,33,1*62
$GPGSV,1,1,00,8*6D
$GLGSV,1,1,00,1*78
$GAGSV,1,1,00,7*73
$GAGSV,1,1,00,1*75
$GBGSV,1,1,00,1*76
$GBGSV,1,1,00,5*72
$GQGSV,1,1,00,1*65
$GQGSV,1,1,00,8*6C
$PQTMDRCAL,1,0,0*5D
$PQTMDRPVA,1,17244,000240.305,0,,,,,,,,,,,*4E
$GNGGA,000241.305,,,,,0,00,99.99,,M,,M,,*49
$GNRMC,000241.305,V,,,,,,,090180,,,N,V*28
$GNGLL,,,,,000241.305,V,N*65
$GNVTG,,T,,M,,N,,K,N*32
$GNGSA,A,1,,,,,,,,,,,,,99.99,99.99,99.99,1*33
$GNGSA,A,1,,,,,,,,,,,,,99.99,99.99,99.99,2*30
$GNGSA,A,1,,,,,,,,,,,,,99.99,99.99,99.99,3*31
$GNGSA,A,1,,,,,,,,,,,,,99.99,99.99,99.99,4*36
$GNGSA,A,1,,,,,,,,,,,,,99.99,99.99,99.99,5*37
$GPGSV,1,1,03,07,,,31,08,,,29,30,,,35,1*64
$GPGSV,1,1,00,8*6D
$GLGSV,1,1,00,1*78
$GAGSV,1,1,00,7*73
$GAGSV,1,1,00,1*75
$GBGSV,1,1,00,1*76
$GBGSV,1,1,00,5*72
$GQGSV,1,1,00,1*65
$GQGSV,1,1,00,8*6C
$PQTMDRCAL,1,0,0*5D
$PQTMDRPVA,1,18245,000241.305,0,,,,,,,,,,,*41
$GNGGA,000242.305,,,,,0,00,99.99,,M,,M,,*4A
$GNRMC,000242.305,V,,,,,,,090180,,,N,V*2B
$GNGLL,,,,,000242.305,V,N*66
$GNVTG,,T,,M,,N,,K,N*32
$GNGSA,A,1,,,,,,,,,,,,,99.99,99.99,99.99,1*33
$GNGSA,A,1,,,,,,,,,,,,,99.99,99.99,99.99,2*30
$GNGSA,A,1,,,,,,,,,,,,,99.99,99.99,99.99,3*31
$GNGSA,A,1,,,,,,,,,,,,,99.99,99.99,99.99,4*36
$GNGSA,A,1,,,,,,,,,,,,,99.99,99.99,99.99,5*37
$GPGSV,1,1,03,07,,,32,08,,,29,30,,,35,1*67
$GPGSV,1,1,00,8*6D
$GLGSV,1,1,00,1*78
$GAGSV,1,1,00,7*73
$GAGSV,1,1,00,1*75
$GBGSV,1,1,00,1*76
$GBGSV,1,1,00,5*72
$GQGSV,1,1,00,1*65
$GQGSV,1,1,00,8*6C
$PQTMDRCAL,1,0,0*5D
$PQTMDRPVA,1,19046,000242.305,0,,,,,,,,,,,*42
$GNGGA,000243.104,,,,,0,00,99.99,,M,,M,,*48
$GNRMC,000243.104,V,,,,,,,090180,,,N,V*29
$GNGLL,,,,,000243.104,V,N*64
$GNVTG,,T,,M,,N,,K,N*32
$GNGSA,A,1,,,,,,,,,,,,,99.99,99.99,99.99,1*33
$GNGSA,A,1,,,,,,,,,,,,,99.99,99.99,99.99,2*30
$GNGSA,A,1,,,,,,,,,,,,,99.99,99.99,99.99,3*31
$GNGSA,A,1,,,,,,,,,,,,,99.99,99.99,99.99,4*36
$GNGSA,A,1,,,,,,,,,,,,,99.99,99.99,99.99,5*37
$GPGSV,1,1,03,07,,,32,08,,,31,30,,,37,1*6C
$GPGSV,1,1,00,8*6D
$GLGSV,1,1,00,1*78
$GAGSV,1,1,00,7*73
$GAGSV,1,1,00,1*75
$GBGSV,1,1,00,1*76
$GBGSV,1,1,00,5*72
$GQGSV,1,1,00,1*65
$GQGSV,1,1,00,8*6C
$PQTMDRCAL,1,0,0*5D
$PQTMDRPVA,1,20047,000243.104,0,,,,,,,,,,,*4B
$GNGGA,000244.104,,,,,0,00,99.99,,M,,M,,*4F
$GNRMC,000244.104,V,,,,,,,090180,,,N,V*2E
$GNGLL,,,,,000244.104,V,N*63
$GNVTG,,T,,M,,N,,K,N*32
$GNGSA,A,1,,,,,,,,,,,,,99.99,99.99,99.99,1*33
$GNGSA,A,1,,,,,,,,,,,,,99.99,99.99,99.99,2*30
$GNGSA,A,1,,,,,,,,,,,,,99.99,99.99,99.99,3*31
$GNGSA,A,1,,,,,,,,,,,,,99.99,99.99,99.99,4*36
$GNGSA,A,1,,,,,,,,,,,,,99.99,99.99,99.99,5*37
$GPGSV,1,1,04,07,,,31,08,,,30,14,,,33,30,,,35,1*6E
$GPGSV,1,1,00,8*6D
$GLGSV,1,1,00,1*78
$GAGSV,1,1,00,7*73
$GAGSV,1,1,00,1*75
$GBGSV,1,1,00,1*76
$GBGSV,1,1,00,5*72
$GQGSV,1,1,00,1*65
$GQGSV,1,1,00,8*6C
$PQTMDRCAL,1,0,0*5D
$PQTMDRPVA,1,21048,000244.104,0,,,,,,,,,,,*42
$GNGGA,000245.104,,,,,0,00,99.99,,M,,M,,*4E
$GNRMC,000245.104,V,,,,,,,090180,,,N,V*2F
$GNGLL,,,,,000245.104,V,N*62
$GNVTG,,T,,M,,N,,K,N*32
$GNGSA,A,1,,,,,,,,,,,,,99.99,99.99,99.99,1*33
$GNGSA,A,1,,,,,,,,,,,,,99.99,99.99,99.99,2*30
$GNGSA,A,1,,,,,,,,,,,,,99.99,99.99,99.99,3*31
$GNGSA,A,1,,,,,,,,,,,,,99.99,99.99,99.99,4*36
$GNGSA,A,1,,,,,,,,,,,,,99.99,99.99,99.99,5*37
$GPGSV,1,1,04,07,,,31,08,,,30,14,,,33,30,,,36,1*6D
$GPGSV,1,1,00,8*6D
$GLGSV,1,1,00,1*78
$GAGSV,1,1,00,7*73
$GAGSV,1,1,00,1*75
$GBGSV,1,1,00,1*76
$GBGSV,1,1,00,5*72
$GQGSV,1,1,00,1*65
$GQGSV,1,1,00,8*6C
$PQTMDRCAL,1,0,0*5D
$PQTMDRPVA,1,22049,000245.104,0,,,,,,,,,,,*41
$GNGGA,000246.104,,,,,0,00,99.99,,M,,M,,*4D
$GNRMC,000246.104,V,,,,,,,090180,,,N,V*2C
$GNGLL,,,,,000246.104,V,N*61
$GNVTG,,T,,M,,N,,K,N*32
$GNGSA,A,1,,,,,,,,,,,,,99.99,99.99,99.99,1*33
$GNGSA,A,1,,,,,,,,,,,,,99.99,99.99,99.99,2*30
$GNGSA,A,1,,,,,,,,,,,,,99.99,99.99,99.99,3*31
$GNGSA,A,1,,,,,,,,,,,,,99.99,99.99,99.99,4*36
$GNGSA,A,1,,,,,,,,,,,,,99.99,99.99,99.99,5*37
$GPGSV,1,1,04,07,,,32,08,,,30,14,,,33,30,,,36,1*6E
$GPGSV,1,1,00,8*6D
$GLGSV,1,1,00,1*78
$GAGSV,1,1,00,7*73
$GAGSV,1,1,00,1*75
$GBGSV,1,1,00,1*76
$GBGSV,1,1,00,5*72
$GQGSV,1,1,00,1*65
$GQGSV,1,1,00,8*6C
$PQTMDRCAL,1,0,0*5D
$PQTMDRPVA,1,23050,000246.104,0,,,,,,,,,,,*4B
$GNGGA,000247.104,,,,,0,00,99.99,,M,,M,,*4C
$GNRMC,000247.104,V,,,,,,,090180,,,N,V*2D
$GNGLL,,,,,000247.104,V,N*60
$GNVTG,,T,,M,,N,,K,N*32
$GNGSA,A,1,,,,,,,,,,,,,99.99,99.99,99.99,1*33
$GNGSA,A,1,,,,,,,,,,,,,99.99,99.99,99.99,2*30
$GNGSA,A,1,,,,,,,,,,,,,99.99,99.99,99.99,3*31
$GNGSA,A,1,,,,,,,,,,,,,99.99,99.99,99.99,4*36
$GNGSA,A,1,,,,,,,,,,,,,99.99,99.99,99.99,5*37
$GPGSV,1,1,04,07,,,31,08,,,30,14,,,32,30,,,36,1*6C
$GPGSV,1,1,00,8*6D
$GLGSV,1,1,00,1*78
$GAGSV,1,1,00,7*73
$GAGSV,1,1,00,1*75
$GBGSV,1,1,00,1*76
$GBGSV,1,1,00,5*72
$GQGSV,1,1,00,1*65
$GQGSV,1,1,00,8*6C
$PQTMDRCAL,1,0,0*5D
$PQTMDRPVA,1,24051,000247.104,0,,,,,,,,,,,*4C
$GNGGA,000248.104,,,,,0,00,99.99,,M,,M,,*43
$GNRMC,000248.104,V,,,,,,,090180,,,N,V*22
$GNGLL,,,,,000248.104,V,N*6F
$GNVTG,,T,,M,,N,,K,N*32
$GNGSA,A,1,,,,,,,,,,,,,99.99,99.99,99.99,1*33
$GNGSA,A,1,,,,,,,,,,,,,99.99,99.99,99.99,2*30
$GNGSA,A,1,,,,,,,,,,,,,99.99,99.99,99.99,3*31
$GNGSA,A,1,,,,,,,,,,,,,99.99,99.99,99.99,4*36
$GNGSA,A,1,,,,,,,,,,,,,99.99,99.99,99.99,5*37
$GPGSV,1,1,04,07,,,32,08,,,30,14,,,32,30,,,35,1*6C
$GPGSV,1,1,00,8*6D
$GLGSV,1,1,00,1*78
$GAGSV,1,1,00,7*73
$GAGSV,1,1,00,1*75
$GBGSV,1,1,00,1*76
$GBGSV,1,1,00,5*72
$GQGSV,1,1,00,1*65
$GQGSV,1,1,00,8*6C
$PQTMDRCAL,1,0,0*5D
$PQTMDRPVA,1,25052,000248.104,0,,,,,,,,,,,*41
$GNGGA,000249.104,,,,,0,00,99.99,,M,,M,,*42
$GNRMC,000249.104,V,,,,,,,090180,,,N,V*23
$GNGLL,,,,,000249.104,V,N*6E
$GNVTG,,T,,M,,N,,K,N*32
$GNGSA,A,1,,,,,,,,,,,,,99.99,99.99,99.99,1*33
$GNGSA,A,1,,,,,,,,,,,,,99.99,99.99,99.99,2*30
$GNGSA,A,1,,,,,,,,,,,,,99.99,99.99,99.99,3*31
$GNGSA,A,1,,,,,,,,,,,,,99.99,99.99,99.99,4*36
$GNGSA,A,1,,,,,,,,,,,,,99.99,99.99,99.99,5*37
$GPGSV,1,1,04,07,,,31,08,,,30,14,,,32,30,,,35,1*6F
$GPGSV,1,1,00,8*6D
$GLGSV,1,1,00,1*78
$GAGSV,1,1,00,7*73
$GAGSV,1,1,00,1*75
$GBGSV,1,1,00,1*76
$GBGSV,1,1,00,5*72
$GQGSV,1,1,00,1*65
$GQGSV,1,1,00,8*6C
$PQTMDRCAL,1,0,0*5D
$PQTMDRPVA,1,26053,000249.104,0,,,,,,,,,,,*42
$GNGGA,000250.104,,,,,0,00,99.99,,M,,M,,*4A
$GNRMC,000250.104,V,,,,,,,090180,,,N,V*2B
$GNGLL,,,,,000250.104,V,N*66
$GNVTG,,T,,M,,N,,K,N*32
$GNGSA,A,1,,,,,,,,,,,,,99.99,99.99,99.99,1*33
$GNGSA,A,1,,,,,,,,,,,,,99.99,99.99,99.99,2*30
$GNGSA,A,1,,,,,,,,,,,,,99.99,99.99,99.99,3*31
$GNGSA,A,1,,,,,,,,,,,,,99.99,99.99,99.99,4*36
$GNGSA,A,1,,,,,,,,,,,,,99.99,99.99,99.99,5*37
$GPGSV,1,1,04,07,,,33,08,,,30,14,,,32,30,,,36,1*6E
$GPGSV,1,1,00,8*6D
$GLGSV,1,1,00,1*78
$GAGSV,1,1,00,7*73
$GAGSV,1,1,00,1*75
$GBGSV,1,1,00,1*76
$GBGSV,1,1,00,5*72
$GQGSV,1,1,00,1*65
$GQGSV,1,1,00,8*6C
$PQTMDRCAL,1,0,0*5D
$PQTMDRPVA,1,27053,000250.104,0,,,,,,,,,,,*4B
$GNGGA,000251.104,,,,,0,00,99.99,,M,,M,,*4B
$GNRMC,000251.104,V,,,,,,,090180,,,N,V*2A
$GNGLL,,,,,000251.104,V,N*67
$GNVTG,,T,,M,,N,,K,N*32
$GNGSA,A,1,,,,,,,,,,,,,99.99,99.99,99.99,1*33
$GNGSA,A,1,,,,,,,,,,,,,99.99,99.99,99.99,2*30
$GNGSA,A,1,,,,,,,,,,,,,99.99,99.99,99.99,3*31
$GNGSA,A,1,,,,,,,,,,,,,99.99,99.99,99.99,4*36
$GNGSA,A,1,,,,,,,,,,,,,99.99,99.99,99.99,5*37
$GPGSV,1,1,04,07,,,32,08,,,30,14,,,33,30,,,36,1*6E
$GPGSV,1,1,00,8*6D
$GLGSV,1,1,00,1*78
$GAGSV,1,1,00,7*73
$GAGSV,1,1,00,1*75
$GBGSV,1,1,00,1*76
$GBGSV,1,1,00,5*72
$GQGSV,1,1,00,1*65
$GQGSV,1,1,00,8*6C
$PQTMDRCAL,1,0,0*5D
$PQTMDRPVA,1,28054,000251.104,0,,,,,,,,,,,*42
$GNGGA,000252.104,,,,,0,00,99.99,,M,,M,,*48
$GNRMC,000252.104,V,,,,,,,090180,,,N,V*29
$GNGLL,,,,,000252.104,V,N*64
$GNVTG,,T,,M,,N,,K,N*32
$GNGSA,A,1,,,,,,,,,,,,,99.99,99.99,99.99,1*33
$GNGSA,A,1,,,,,,,,,,,,,99.99,99.99,99.99,2*30
$GNGSA,A,1,,,,,,,,,,,,,99.99,99.99,99.99,3*31
$GNGSA,A,1,,,,,,,,,,,,,99.99,99.99,99.99,4*36
$GNGSA,A,1,,,,,,,,,,,,,99.99,99.99,99.99,5*37
$GPGSV,1,1,04,07,,,32,08,,,30,14,,,33,30,,,36,1*6E
$GPGSV,1,1,00,8*6D
$GLGSV,1,1,00,1*78
$GAGSV,1,1,00,7*73
$GAGSV,1,1,00,1*75
$GBGSV,1,1,00,1*76
$GBGSV,1,1,00,5*72
$GQGSV,1,1,00,1*65
$GQGSV,1,1,00,8*6C
$PQTMDRCAL,1,0,0*5D
$PQTMDRPVA,1,29045,000252.104,0,,,,,,,,,,,*40
$GNGGA,000253.104,,,,,0,00,99.99,,M,,M,,*49
$GNRMC,000253.104,V,,,,,,,090180,,,N,V*28
$GNGLL,,,,,000253.104,V,N*65
$GNVTG,,T,,M,,N,,K,N*32
$GNGSA,A,1,,,,,,,,,,,,,99.99,99.99,99.99,1*33
$GNGSA,A,1,,,,,,,,,,,,,99.99,99.99,99.99,2*30
$GNGSA,A,1,,,,,,,,,,,,,99.99,99.99,99.99,3*31
$GNGSA,A,1,,,,,,,,,,,,,99.99,99.99,99.99,4*36
$GNGSA,A,1,,,,,,,,,,,,,99.99,99.99,99.99,5*37
$GPGSV,1,1,04,07,,,33,08,,,30,14,,,33,30,,,36,1*6F
$GPGSV,1,1,00,8*6D
$GLGSV,1,1,00,1*78
$GAGSV,1,1,00,7*73
$GAGSV,1,1,00,1*75
$GBGSV,1,1,00,1*76
$GBGSV,1,1,00,5*72
$GQGSV,1,1,00,1*65
$GQGSV,1,1,00,8*6C
$PQTMDRCAL,1,0,0*5D
$PQTMDRPVA,1,30046,000253.104,0,,,,,,,,,,,*4A
$GNGGA,000254.104,,,,,0,00,99.99,,M,,M,,*4E
$GNRMC,000254.104,V,,,,,,,090180,,,N,V*2F
$GNGLL,,,,,000254.104,V,N*62
$GNVTG,,T,,M,,N,,K,N*32
$GNGSA,A,1,,,,,,,,,,,,,99.99,99.99,99.99,1*33
$GNGSA,A,1,,,,,,,,,,,,,99.99,99.99,99.99,2*30
$GNGSA,A,1,,,,,,,,,,,,,99.99,99.99,99.99,3*31
$GNGSA,A,1,,,,,,,,,,,,,99.99,99.99,99.99,4*36
$GNGSA,A,1,,,,,,,,,,,,,99.99,99.99,99.99,5*37
$GPGSV,1,1,04,07,,,32,08,,,29,14,,,33,30,,,36,1*66
$GPGSV,1,1,00,8*6D
$GLGSV,1,1,00,1*78
$GAGSV,1,1,00,7*73
$GAGSV,1,1,00,1*75
$GBGSV,1,1,00,1*76
$GBGSV,1,1,00,5*72
$GQGSV,1,1,00,1*65
$GQGSV,1,1,00,8*6C
$PQTMDRCAL,1,0,0*5D
$PQTMDRPVA,1,31047,000254.104,0,,,,,,,,,,,*4D
$GNGGA,000255.104,,,,,0,00,99.99,,M,,M,,*4F
$GNRMC,000255.104,V,,,,,,,090180,,,N,V*2E
$GNGLL,,,,,000255.104,V,N*63
$GNVTG,,T,,M,,N,,K,N*32
$GNGSA,A,1,,,,,,,,,,,,,99.99,99.99,99.99,1*33
$GNGSA,A,1,,,,,,,,,,,,,99.99,99.99,99.99,2*30
$GNGSA,A,1,,,,,,,,,,,,,99.99,99.99,99.99,3*31
$GNGSA,A,1,,,,,,,,,,,,,99.99,99.99,99.99,4*36
$GNGSA,A,1,,,,,,,,,,,,,99.99,99.99,99.99,5*37
$GPGSV,1,1,04,07,,,32,08,,,29,14,,,32,30,,,35,1*64
$GPGSV,1,1,00,8*6D
$GLGSV,1,1,00,1*78
$GAGSV,1,1,00,7*73
$GAGSV,1,1,00,1*75
$GBGSV,1,1,00,1*76
$GBGSV,1,1,00,5*72
$GQGSV,1,1,00,1*65
$GQGSV,1,1,00,8*6C
$PQTMDRCAL,1,0,0*5D
$PQTMDRPVA,1,32048,000255.104,0,,,,,,,,,,,*40
$GNGGA,000256.104,,,,,0,00,99.99,,M,,M,,*4C
$GNRMC,000256.104,V,,,,,,,090180,,,N,V*2D
$GNGLL,,,,,000256.104,V,N*60
$GNVTG,,T,,M,,N,,K,N*32
$GNGSA,A,1,,,,,,,,,,,,,99.99,99.99,99.99,1*33
$GNGSA,A,1,,,,,,,,,,,,,99.99,99.99,99.99,2*30
$GNGSA,A,1,,,,,,,,,,,,,99.99,99.99,99.99,3*31
$GNGSA,A,1,,,,,,,,,,,,,99.99,99.99,99.99,4*36
$GNGSA,A,1,,,,,,,,,,,,,99.99,99.99,99.99,5*37
$GPGSV,1,1,04,07,,,32,08,,,29,14,,,32,30,,,35,1*64
$GPGSV,1,1,00,8*6D
$GLGSV,1,1,00,1*78
$GAGSV,1,1,00,7*73
$GAGSV,1,1,00,1*75
$GBGSV,1,1,00,1*76
$GBGSV,1,1,00,5*72
$GQGSV,1,1,00,1*65
$GQGSV,1,1,00,8*6C
$PQTMDRCAL,1,0,0*5D
$PQTMDRPVA,1,33049,000256.104,0,,,,,,,,,,,*43
$GNGGA,000257.104,,,,,0,00,99.99,,M,,M,,*4D
$GNRMC,000257.104,V,,,,,,,090180,,,N,V*2C
$GNGLL,,,,,000257.104,V,N*61
$GNVTG,,T,,M,,N,,K,N*32
$GNGSA,A,1,,,,,,,,,,,,,99.99,99.99,99.99,1*33
$GNGSA,A,1,,,,,,,,,,,,,99.99,99.99,99.99,2*30
$GNGSA,A,1,,,,,,,,,,,,,99.99,99.99,99.99,3*31
$GNGSA,A,1,,,,,,,,,,,,,99.99,99.99,99.99,4*36
$GNGSA,A,1,,,,,,,,,,,,,99.99,99.99,99.99,5*37
$GPGSV,1,1,04,07,,,32,08,,,30,14,,,34,30,,,36,1*69
$GPGSV,1,1,00,8*6D
$GLGSV,1,1,00,1*78
$GAGSV,1,1,00,7*73
$GAGSV,1,1,00,1*75
$GBGSV,1,1,00,1*76
$GBGSV,1,1,00,5*72
$GQGSV,1,1,00,1*65
$GQGSV,1,1,00,8*6C
$PQTMDRCAL,1,0,0*5D
$PQTMDRPVA,1,34050,000257.104,0,,,,,,,,,,,*4D
$GNGGA,000258.104,,,,,0,00,99.99,,M,,M,,*42
$GNRMC,000258.104,V,,,,,,,090180,,,N,V*23
$GNGLL,,,,,000258.104,V,N*6E
$GNVTG,,T,,M,,N,,K,N*32
$GNGSA,A,1,,,,,,,,,,,,,99.99,99.99,99.99,1*33
$GNGSA,A,1,,,,,,,,,,,,,99.99,99.99,99.99,2*30
$GNGSA,A,1,,,,,,,,,,,,,99.99,99.99,99.99,3*31
$GNGSA,A,1,,,,,,,,,,,,,99.99,99.99,99.99,4*36
$GNGSA,A,1,,,,,,,,,,,,,99.99,99.99,99.99,5*37
$GPGSV,1,1,04,07,,,32,08,,,30,14,,,34,30,,,36,1*69
$GPGSV,1,1,00,8*6D
$GLGSV,1,1,00,1*78
$GAGSV,1,1,00,7*73
$GAGSV,1,1,00,1*75
$GBGSV,1,1,00,1*76
$GBGSV,1,1,00,5*72
$GQGSV,1,1,00,1*65
$GQGSV,1,1,00,8*6C
$PQTMDRCAL,1,0,0*5D
$PQTMDRPVA,1,35051,000258.104,0,,,,,,,,,,,*42
$GNGGA,000259.104,,,,,0,00,99.99,,M,,M,,*43
$GNRMC,000259.104,V,,,,,,,090180,,,N,V*22
$GNGLL,,,,,000259.104,V,N*6F
$GNVTG,,T,,M,,N,,K,N*32
$GNGSA,A,1,,,,,,,,,,,,,99.99,99.99,99.99,1*33
$GNGSA,A,1,,,,,,,,,,,,,99.99,99.99,99.99,2*30
$GNGSA,A,1,,,,,,,,,,,,,99.99,99.99,99.99,3*31
$GNGSA,A,1,,,,,,,,,,,,,99.99,99.99,99.99,4*36
$GNGSA,A,1,,,,,,,,,,,,,99.99,99.99,99.99,5*37
$GPGSV,1,1,04,07,,,33,08,,,31,14,,,33,30,,,37,1*6F
$GPGSV,1,1,00,8*6D
$GLGSV,1,1,00,1*78
$GAGSV,1,1,00,7*73
$GAGSV,1,1,00,1*75
$GBGSV,1,1,00,1*76
$GBGSV,1,1,00,5*72
$GQGSV,1,1,00,1*65
$GQGSV,1,1,00,8*6C
$PQTMDRCAL,1,0,0*5D
$PQTMDRPVA,1,36052,000259.104,0,,,,,,,,,,,*43
$PAIR535,0,0,00000000200020C0*66
$PAIR010,0,0,2339,259397*33
$PAIR010,0,1,2339,259397*32
$PAIR010,0,3,2339,259397*30
$PAIR010,0,2,2339,259397*31
$GNGGA,000300.105,,,,,0,00,99.99,,M,,M,,*4F
$GNRMC,000300.105,V,,,,,,,090180,,,N,V*2E
$GNGLL,,,,,000300.105,V,N*63
$GNVTG,,T,,M,,N,,K,N*32
$GNGSA,A,1,,,,,,,,,,,,,99.99,99.99,99.99,1*33
$GNGSA,A,1,,,,,,,,,,,,,99.99,99.99,99.99,2*30
$GNGSA,A,1,,,,,,,,,,,,,99.99,99.99,99.99,3*31
$GNGSA,A,1,,,,,,,,,,,,,99.99,99.99,99.99,4*36
$GNGSA,A,1,,,,,,,,,,,,,99.99,99.99,99.99,5*37
$GPGSV,1,1,04,07,,,32,08,,,30,14,,,33,30,,,37,1*6F
$GPGSV,1,1,00,8*6D
$GLGSV,1,1,00,1*78
$GAGSV,1,1,00,7*73
$GAGSV,1,1,00,1*75
$GBGSV,1,1,00,1*76
$GBGSV,1,1,00,5*72
$GQGSV,1,1,00,1*65
$GQGSV,1,1,00,8*6C
$PQTMDRCAL,1,0,0*5D
$PQTMDRPVA,1,37073,000300.105,0,,,,,,,,,,,*4D
$GNGGA,000301.097,,,,,0,00,99.99,,M,,M,,*44
$GNRMC,000301.097,V,,,,,,,061124,,,N,V*25
$GNGLL,,,,,000301.097,V,N*68
$GNVTG,,T,,M,,N,,K,N*32
$GNGSA,A,1,,,,,,,,,,,,,99.99,99.99,99.99,1*33
$GNGSA,A,1,,,,,,,,,,,,,99.99,99.99,99.99,2*30
$GNGSA,A,1,,,,,,,,,,,,,99.99,99.99,99.99,3*31
$GNGSA,A,1,,,,,,,,,,,,,99.99,99.99,99.99,4*36
$GNGSA,A,1,,,,,,,,,,,,,99.99,99.99,99.99,5*37
$GPGSV,1,1,04,07,,,31,08,,,29,14,,,32,30,,,36,1*64
$GPGSV,1,1,00,8*6D
$GLGSV,1,1,00,1*78
$GAGSV,1,1,00,7*73
$GAGSV,1,1,00,1*75
$GBGSV,1,1,00,1*76
$GBGSV,1,1,00,5*72
$GQGSV,1,1,00,1*65
$GQGSV,1,1,00,8*6C
$PQTMDRCAL,1,0,0*5D
$PQTMDRPVA,1,38064,000301.097,0,,,,,,,,,,,*4F
$GNGGA,000302.097,,,,,0,00,99.99,,M,,M,,*47
$GNRMC,000302.097,V,,,,,,,061124,,,N,V*26
$GNGLL,,,,,000302.097,V,N*6B
$GNVTG,,T,,M,,N,,K,N*32
$GNGSA,A,1,,,,,,,,,,,,,99.99,99.99,99.99,1*33
$GNGSA,A,1,,,,,,,,,,,,,99.99,99.99,99.99,2*30
$GNGSA,A,1,,,,,,,,,,,,,99.99,99.99,99.99,3*31
$GNGSA,A,1,,,,,,,,,,,,,99.99,99.99,99.99,4*36
$GNGSA,A,1,,,,,,,,,,,,,99.99,99.99,99.99,5*37
$GPGSV,2,1,05,07,,,31,08,,,29,13,,,32,14,,,32,1*63
$GPGSV,2,2,05,30,,,35,1*64
$GPGSV,1,1,00,8*6D
$GLGSV,1,1,00,1*78
$GAGSV,1,1,00,7*73
$GAGSV,1,1,00,1*75
$GBGSV,1,1,00,1*76
$GBGSV,1,1,00,5*72
$GQGSV,1,1,00,1*65
$GQGSV,1,1,00,8*6C
$PQTMDRCAL,1,0,0*5D
$PQTMDRPVA,1,39065,000302.097,0,,,,,,,,,,,*4C
$PAIR001,021,0*38
$PAIR021,AG3335A_V2.5.0.AG3335.QT_V2_20230111,D,N,520c828,2211151447,2b6,0,2b6,0,52f74c1,2211151447,ba1f2bb,2211151447,,,,,-13.58,-13.58,-11.50,-13.58,0,1,#P,0,0*65
$GNGGA,000303.097,,,,,0,00,99.99,,M,,M,,*46
$GNRMC,000303.097,V,,,,,,,061124,,,N,V*27
$GNGLL,,,,,000303.097,V,N*6A
$GNVTG,,T,,M,,N,,K,N*32
$GNGSA,A,1,,,,,,,,,,,,,99.99,99.99,99.99,1*33
$GNGSA,A,1,,,,,,,,,,,,,99.99,99.99,99.99,2*30
$GNGSA,A,1,,,,,,,,,,,,,99.99,99.99,99.99,3*31
$GNGSA,A,1,,,,,,,,,,,,,99.99,99.99,99.99,4*36
$GNGSA,A,1,,,,,,,,,,,,,99.99,99.99,99.99,5*37
$GPGSV,2,1,05,07,51,100,33,08,31,054,30,13,,,33,14,59,231,34,1*54
$GPGSV,2,2,05,30,85,055,37,1*5B
$GPGSV,1,1,00,8*6D
$GLGSV,1,1,00,1*78
$GAGSV,1,1,00,7*73
$GAGSV,1,1,00,1*75
$GBGSV,1,1,00,1*76
$GBGSV,1,1,00,5*72
$GQGSV,1,1,00,1*65
$GQGSV,1,1,00,8*6C
$PQTMDRCAL,1,0,0*5D
$PQTMDRPVA,1,40086,000303.097,0,,,,,,,,,,,*4E
$PAIR010,0,0,2339,259521*38
$PAIR010,0,1,2339,259521*39
$PAIR010,0,3,2339,259521*3B
$PAIR010,0,2,2339,259521*3A
$GNGGA,000305.000,4910.430532,N,12304.405906,W,1,04,2.93,9.5,M,-16.8,M,,*41
$GNRMC,000305.000,A,4910.430532,N,12304.405906,W,0.080,000.00,061124,,,A,V*23
$GNGLL,4910.430532,N,12304.405906,W,000305.000,A,A*56
$GNVTG,000.00,T,,M,0.080,N,0.148,K,A*26
$GNGSA,A,3,07,08,14,30,,,,,,,,,3.09,2.93,0.97,1*04
$GNGSA,A,3,,,,,,,,,,,,,3.09,2.93,0.97,2*0E
$GNGSA,A,3,,,,,,,,,,,,,3.09,2.93,0.97,3*0F
$GNGSA,A,3,,,,,,,,,,,,,3.09,2.93,0.97,4*08
$GNGSA,A,3,,,,,,,,,,,,,3.09,2.93,0.97,5*09
$GPGSV,2,1,06,07,52,100,32,08,32,055,30,13,,,33,14,60,232,33,1*59
$GPGSV,2,2,06,22,,,30,30,86,055,36,1*59
$GPGSV,1,1,00,8*6D
$GLGSV,1,1,00,1*78
$GAGSV,1,1,00,7*73
$GAGSV,1,1,00,1*75
$GBGSV,1,1,00,1*76
$GBGSV,1,1,00,5*72
$GQGSV,1,1,00,1*65
$GQGSV,1,1,00,8*6C
$PQTMDRCAL,1,0,1*5C
$PQTMTXT,1,01,01,01,0x00000000,0x00022001.*5F
$PQTMDRPVA,1,41977,000305.000,1,49.17384220,-123.07343176,9.510,-16.816,-0.001,0.041,-0.018,0.041,0.000000,0.000000,0.000000*55
$GNGGA,000306.000,4910.430360,N,12304.404169,W,1,04,2.92,13.3,M,-16.8,M,,*7F
$GNRMC,000306.000,A,4910.430360,N,12304.404169,W,0.109,000.00,061124,,,A,V*21
$GNGLL,4910.430360,N,12304.404169,W,000306.000,A,A*54
$GNVTG,000.00,T,,M,0.109,N,0.202,K,A*2B
$GNGSA,A,3,07,08,14,30,,,,,,,,,3.08,2.92,0.97,1*04
$GNGSA,A,3,,,,,,,,,,,,,3.08,2.92,0.97,2*0E
$GNGSA,A,3,,,,,,,,,,,,,3.08,2.92,0.97,3*0F
$GNGSA,A,3,,,,,,,,,,,,,3.08,2.92,0.97,4*08
$GNGSA,A,3,,,,,,,,,,,,,3.08,2.92,0.97,5*09
$GPGSV,2,1,06,07,52,100,32,08,32,055,30,13,,,33,14,60,232,33,1*59
$GPGSV,2,2,06,22,,,30,30,86,055,36,1*59
$GPGSV,1,1,00,8*6D
$GLGSV,1,1,00,1*78
$GAGSV,1,1,00,7*73
$GAGSV,1,1,00,1*75
$GBGSV,1,1,00,1*76
$GBGSV,1,1,00,5*72
$GQGSV,1,1,00,1*65
$GQGSV,1,1,00,8*6C
$PQTMDRCAL,1,0,1*5C
$PQTMDRPVA,1,42978,000306.000,1,49.17383933,-123.07340281,13.250,-16.817,0.018,0.053,-0.016,0.056,0.000000,0.000000,0.000000*4B
$GNGGA,000307.000,4910.429709,N,12304.402883,W,1,04,2.92,14.8,M,-16.8,M,,*7A
$GNRMC,000307.000,A,4910.429709,N,12304.402883,W,0.079,000.00,061124,,,A,V*2E
$GNGLL,4910.429709,N,12304.402883,W,000307.000,A,A*5D
$GNVTG,000.00,T,,M,0.079,N,0.147,K,A*2F
$GNGSA,A,3,07,08,14,30,,,,,,,,,3.08,2.92,0.97,1*04
$GNGSA,A,3,,,,,,,,,,,,,3.08,2.92,0.97,2*0E
$GNGSA,A,3,,,,,,,,,,,,,3.08,2.92,0.97,3*0F
$GNGSA,A,3,,,,,,,,,,,,,3.08,2.92,0.97,4*08
$GNGSA,A,3,,,,,,,,,,,,,3.08,2.92,0.97,5*09
$GPGSV,2,1,06,07,52,100,32,08,32,055,30,13,,,33,14,60,232,33,1*59
$GPGSV,2,2,06,22,,,31,30,86,055,37,1*59
$GPGSV,1,1,00,8*6D
$GLGSV,1,1,00,1*78
$GAGSV,1,1,00,7*73
$GAGSV,1,1,00,1*75
$GBGSV,1,1,00,1*76
$GBGSV,1,1,00,5*72
$GQGSV,1,1,00,1*65
$GQGSV,1,1,00,8*6C
$PQTMDRCAL,1,0,1*5C
$PQTMDRPVA,1,43979,000307.000,1,49.17382848,-123.07338138,14.768,-16.817,-0.036,-0.019,-0.042,0.041,0.000000,0.000000,0.000000*44
$GNGGA,000308.000,4910.429418,N,12304.402438,W,1,04,2.92,15.0,M,-16.8,M,,*73
$GNRMC,000308.000,A,4910.429418,N,12304.402438,W,0.072,000.00,061124,,,A,V*25
$GNGLL,4910.429418,N,12304.402438,W,000308.000,A,A*5D
$GNVTG,000.00,T,,M,0.072,N,0.133,K,A*27
$GNGSA,A,3,07,08,14,30,,,,,,,,,3.08,2.92,0.97,1*04
$GNGSA,A,3,,,,,,,,,,,,,3.08,2.92,0.97,2*0E
$GNGSA,A,3,,,,,,,,,,,,,3.08,2.92,0.97,3*0F
$GNGSA,A,3,,,,,,,,,,,,,3.08,2.92,0.97,4*08
$GNGSA,A,3,,,,,,,,,,,,,3.08,2.92,0.97,5*09
$GPGSV,2,1,06,07,52,100,32,08,32,055,30,13,,,33,14,60,232,33,1*59
$GPGSV,2,2,06,22,,,31,30,86,055,37,1*59
$GPGSV,1,1,00,8*6D
$GLGSV,1,1,00,1*78
$GAGSV,1,1,00,7*73
$GAGSV,1,1,00,1*75
$GBGSV,1,1,00,1*76
$GBGSV,1,1,00,5*72
$GQGSV,1,1,00,1*65
$GQGSV,1,1,00,8*6C
$PQTMDRCAL,1,0,1*5C
$PQTMDRPVA,1,44980,000308.000,1,49.17382363,-123.07337397,15.048,-16.816,-0.023,-0.029,-0.023,0.037,0.000000,0.000000,0.000000*44
$GNGGA,000309.000,4910.429297,N,12304.401927,W,1,04,2.92,15.9,M,-16.8,M,,*7A
$GNRMC,000309.000,A,4910.429297,N,12304.401927,W,0.010,000.00,061124,,,A,V*21
$GNGLL,4910.429297,N,12304.401927,W,000309.000,A,A*5D
$GNVTG,000.00,T,,M,0.010,N,0.018,K,A*2B
$GNGSA,A,3,07,08,14,30,,,,,,,,,3.08,2.92,0.97,1*04
$GNGSA,A,3,,,,,,,,,,,,,3.08,2.92,0.97,2*0E
$GNGSA,A,3,,,,,,,,,,,,,3.08,2.92,0.97,3*0F
$GNGSA,A,3,,,,,,,,,,,,,3.08,2.92,0.97,4*08
$GNGSA,A,3,,,,,,,,,,,,,3.08,2.92,0.97,5*09
$GPGSV,2,1,07,07,52,100,32,08,32,055,29,09,,,20,13,,,33,1*6B
$GPGSV,2,2,07,14,60,232,33,22,,,31,30,86,055,37,1*68
$GPGSV,1,1,00,8*6D
$GLGSV,1,1,00,1*78
$GAGSV,1,1,00,7*73
$GAGSV,1,1,00,1*75
$GBGSV,1,1,00,1*76
$GBGSV,1,1,00,5*72
$GQGSV,1,1,00,1*65
$GQGSV,1,1,00,8*6C
$PQTMDRCAL,1,0,1*5C
$PQTMTXT,1,01,01,01,0x00022001,0x000A0001.*2F
$PQTMDRPVA,1,45933,000309.000,1,49.17382162,-123.07336545,15.942,-16.817,0.004,0.003,-0.012,0.005,0.000000,0.000000,0.000000*4B
$GNGGA,000310.000,4910.429083,N,12304.401579,W,1,04,2.92,16.2,M,-16.8,M,,*7A
$GNRMC,000310.000,A,4910.429083,N,12304.401579,W,0.045,000.00,061124,,,A,V*29
$GNGLL,4910.429083,N,12304.401579,W,000310.000,A,A*55
$GNVTG,000.00,T,,M,0.045,N,0.084,K,A*2E
$GNGSA,A,3,07,08,14,30,,,,,,,,,3.08,2.92,0.97,1*04
$GNGSA,A,3,,,,,,,,,,,,,3.08,2.92,0.97,2*0E
$GNGSA,A,3,,,,,,,,,,,,,3.08,2.92,0.97,3*0F
$GNGSA,A,3,,,,,,,,,,,,,3.08,2.92,0.97,4*08
$GNGSA,A,3,,,,,,,,,,,,,3.08,2.92,0.97,5*09
$GPGSV,2,1,07,07,52,100,31,08,32,055,28,09,,,23,13,,,33,1*6A
$GPGSV,2,2,07,14,60,232,32,22,,,31,30,86,055,36,1*68
$GPGSV,1,1,00,8*6D
$GLGSV,1,1,00,1*78
$GAGSV,1,1,00,7*73
$GAGSV,1,1,00,1*75
$GBGSV,1,1,00,1*76
$GBGSV,1,1,00,5*72
$GQGSV,1,1,00,1*65
$GQGSV,1,1,00,8*6C
$PQTMDRCAL,1,0,1*5C
$PQTMDRPVA,1,46933,000310.000,1,49.17381805,-123.07335966,16.192,-16.816,0.017,0.016,0.004,0.023,0.000000,0.000000,0.000000*6A
$GNGGA,000311.000,4910.428800,N,12304.401172,W,1,04,2.92,16.6,M,-16.8,M,,*72
$GNRMC,000311.000,A,4910.428800,N,12304.401172,W,0.057,000.00,061124,,,A,V*26
$GNGLL,4910.428800,N,12304.401172,W,000311.000,A,A*59
$GNVTG,000.00,T,,M,0.057,N,0.105,K,A*25
$GNGSA,A,3,07,08,14,30,,,,,,,,,3.08,2.92,0.97,1*04
$GNGSA,A,3,,,,,,,,,,,,,3.08,2.92,0.97,2*0E
$GNGSA,A,3,,,,,,,,,,,,,3.08,2.92,0.97,3*0F
$GNGSA,A,3,,,,,,,,,,,,,3.08,2.92,0.97,4*08
$GNGSA,A,3,,,,,,,,,,,,,3.08,2.92,0.97,5*09
$GPGSV,2,1,07,07,52,100,31,08,32,055,28,09,,,24,13,,,33,1*6D
$GPGSV,2,2,07,14,60,232,32,22,,,31,30,86,055,36,1*68
$GPGSV,1,1,00,8*6D
$GLGSV,1,1,00,1*78
$GAGSV,1,1,00,7*73
$GAGSV,1,1,00,1*75
$GBGSV,1,1,00,1*76
$GBGSV,1,1,00,5*72
$GQGSV,1,1,00,1*65
$GQGSV,1,1,00,8*6C
$PQTMDRCAL,1,0,1*5C
$PQTMDRPVA,1,47933,000311.000,1,49.17381333,-123.07335287,16.607,-16.817,0.008,-0.028,0.001,0.029,0.000000,0.000000,0.000000*4B
$GNGGA,000312.000,4910.428493,N,12304.400613,W,1,04,2.92,17.2,M,-16.8,M,,*73
$GNRMC,000312.000,A,4910.428493,N,12304.400613,W,0.059,000.00,061124,,,A,V*2C
$GNGLL,4910.428493,N,12304.400613,W,000312.000,A,A*5D
$GNVTG,000.00,T,,M,0.059,N,0.109,K,A*27
$GNGSA,A,3,07,08,14,30,,,,,,,,,3.08,2.92,0.97,1*04
$GNGSA,A,3,,,,,,,,,,,,,3.08,2.92,0.97,2*0E
$GNGSA,A,3,,,,,,,,,,,,,3.08,2.92,0.97,3*0F
$GNGSA,A,3,,,,,,,,,,,,,3.08,2.92,0.97,4*08
$GNGSA,A,3,,,,,,,,,,,,,3.08,2.92,0.97,5*09
$GPGSV,2,1,07,07,51,100,32,08,32,055,28,09,,,25,13,,,33,1*6C
$GPGSV,2,2,07,14,60,232,32,22,,,31,30,86,055,36,1*68
$GPGSV,1,1,00,8*6D
$GLGSV,1,1,00,1*78
$GAGSV,1,1,00,7*73
$GAGSV,1,1,00,1*75
$GBGSV,1,1,00,1*76
$GBGSV,1,1,00,5*72
$GQGSV,1,1,00,1*65
$GQGSV,1,1,00,8*6C
$PQTMDRCAL,1,0,1*5C
$PQTMDRPVA,1,48933,000312.000,1,49.17380821,-123.07334355,17.151,-16.816,-0.030,0.003,0.000,0.030,0.000000,0.000000,0.000000*4E
$GNGGA,000313.000,4910.428314,N,12304.400177,W,1,04,2.92,17.8,M,-16.8,M,,*75
$GNRMC,000313.000,A,4910.428314,N,12304.400177,W,0.047,000.00,061124,,,A,V*2F
$GNGLL,4910.428314,N,12304.400177,W,000313.000,A,A*51
$GNVTG,000.00,T,,M,0.047,N,0.088,K,A*20
$GNGSA,A,3,07,08,14,30,,,,,,,,,3.08,2.92,0.97,1*04
$GNGSA,A,3,,,,,,,,,,,,,3.08,2.92,0.97,2*0E
$GNGSA,A,3,,,,,,,,,,,,,3.08,2.92,0.97,3*0F
$GNGSA,A,3,,,,,,,,,,,,,3.08,2.92,0.97,4*08
$GNGSA,A,3,,,,,,,,,,,,,3.08,2.92,0.97,5*09
$GPGSV,2,1,07,07,51,100,32,08,32,055,28,09,,,24,13,,,33,1*6D
$GPGSV,2,2,07,14,60,232,32,22,,,31,30,86,055,36,1*68
$GPGSV,1,1,00,8*6D
$GLGSV,1,1,00,1*78
$GAGSV,1,1,00,7*73
$GAGSV,1,1,00,1*75
$GBGSV,1,1,00,1*76
$GBGSV,1,1,00,5*72
$GQGSV,1,1,00,1*65
$GQGSV,1,1,00,8*6C
$PQTMDRCAL,1,0,1*5C
$PQTMDRPVA,1,49933,000313.000,1,49.17380524,-123.07333628,17.846,-16.816,-0.023,0.008,0.002,0.024,0.000000,0.000000,0.000000*4F
$GNGGA,000314.000,4910.428131,N,12304.399605,W,1,04,2.92,18.5,M,-16.8,M,,*70
$GNRMC,000314.000,A,4910.428131,N,12304.399605,W,0.002,000.00,061124,,,A,V*29
$GNGLL,4910.428131,N,12304.399605,W,000314.000,A,A*56
$GNVTG,000.00,T,,M,0.002,N,0.004,K,A*25
$GNGSA,A,3,07,08,14,30,,,,,,,,,3.08,2.92,0.97,1*04
$GNGSA,A,3,,,,,,,,,,,,,3.08,2.92,0.97,2*0E
$GNGSA,A,3,,,,,,,,,,,,,3.08,2.92,0.97,3*0F
$GNGSA,A,3,,,,,,,,,,,,,3.08,2.92,0.97,4*08
$GNGSA,A,3,,,,,,,,,,,,,3.08,2.92,0.97,5*09
$GPGSV,2,1,07,07,51,100,33,08,32,055,29,09,,,25,13,,,34,1*6B
$GPGSV,2,2,07,14,60,232,33,22,37,231,31,30,86,055,37,1*5C
$GPGSV,1,1,00,8*6D
$GLGSV,1,1,00,1*78
$GAGSV,1,1,00,7*73
$GAGSV,1,1,00,1*75
$GBGSV,1,1,00,1*76
$GBGSV,1,1,00,5*72
$GQGSV,1,1,00,1*65
$GQGSV,1,1,00,8*6C
$PQTMDRCAL,1,0,1*5C
$PQTMDRPVA,1,50934,000314.000,1,49.17380219,-123.07332675,18.497,-16.817,0.000,-0.001,0.002,0.001,0.000000,0.000000,0.000000*46
$GNGGA,000315.000,4910.428026,N,12304.399084,W,1,04,2.92,19.3,M,-16.8,M,,*7E
$GNRMC,000315.000,A,4910.428026,N,12304.399084,W,0.014,000.00,061124,,,A,V*27
$GNGLL,4910.428026,N,12304.399084,W,000315.000,A,A*5F
$GNVTG,000.00,T,,M,0.014,N,0.026,K,A*22
$GNGSA,A,3,07,08,14,30,,,,,,,,,3.08,2.92,0.97,1*04
$GNGSA,A,3,,,,,,,,,,,,,3.08,2.92,0.97,2*0E
$GNGSA,A,3,,,,,,,,,,,,,3.08,2.92,0.97,3*0F
$GNGSA,A,3,,,,,,,,,,,,,3.08,2.92,0.97,4*08
$GNGSA,A,3,,,,,,,,,,,,,3.08,2.92,0.97,5*09
$GPGSV,2,1,07,07,51,100,33,08,32,055,29,09,,,25,13,,,34,1*6B
$GPGSV,2,2,07,14,60,232,33,22,37,231,31,30,86,055,37,1*5C
$GPGSV,1,1,00,8*6D
$GLGSV,1,1,00,1*78
$GAGSV,1,1,00,7*73
$GAGSV,1,1,00,1*75
$GBGSV,1,1,00,1*76
$GBGSV,1,1,00,5*72
$GQGSV,1,1,00,1*65
$GQGSV,1,1,00,8*6C
$PQTMDRCAL,1,0,1*5C
$PQTMDRPVA,1,51934,000315.000,1,49.17380044,-123.07331807,19.338,-16.816,-0.006,0.004,0.001,0.007,0.000000,0.000000,0.000000*40
$GNGGA,000316.000,4910.427914,N,12304.398606,W,1,04,2.92,20.1,M,-16.8,M,,*7F
$GNRMC,000316.000,A,4910.427914,N,12304.398606,W,0.033,000.00,061124,,,A,V*2B
$GNGLL,4910.427914,N,12304.398606,W,000316.000,A,A*56
$GNVTG,000.00,T,,M,0.033,N,0.062,K,A*27
$GNGSA,A,3,07,08,14,30,,,,,,,,,3.08,2.92,0.97,1*04
$GNGSA,A,3,,,,,,,,,,,,,3.08,2.92,0.97,2*0E
$GNGSA,A,3,,,,,,,,,,,,,3.08,2.92,0.97,3*0F
$GNGSA,A,3,,,,,,,,,,,,,3.08,2.92,0.97,4*08
$GNGSA,A,3,,,,,,,,,,,,,3.08,2.92,0.97,5*09
$GPGSV,2,1,07,07,51,100,33,08,32,055,29,09,,,25,13,,,34,1*6B
$GPGSV,2,2,07,14,60,232,33,22,37,231,31,30,86,055,37,1*5C
$GPGSV,1,1,00,8*6D
$GLGSV,1,1,00,1*78
$GAGSV,1,1,00,7*73
$GAGSV,1,1,00,1*75
$GBGSV,1,1,00,1*76
$GBGSV,1,1,00,5*72
$GQGSV,1,1,00,1*65
$GQGSV,1,1,00,8*6C
$PQTMDRCAL,1,0,1*5C
$PQTMDRPVA,1,52934,000316.000,1,49.17379857,-123.07331010,20.126,-16.817,-0.016,0.006,0.001,0.017,0.000000,0.000000,0.000000*46
$GNGGA,000317.000,4910.427862,N,12304.398192,W,1,04,2.92,20.6,M,-16.8,M,,*73
$GNRMC,000317.000,A,4910.427862,N,12304.398192,W,0.059,000.00,061124,,,A,V*2C
$GNGLL,4910.427862,N,12304.398192,W,000317.000,A,A*5D
$GNVTG,000.00,T,,M,0.059,N,0.110,K,A*2F
$GNGSA,A,3,07,08,14,30,,,,,,,,,3.08,2.92,0.98,1*0B
$GNGSA,A,3,,,,,,,,,,,,,3.08,2.92,0.98,2*01
$GNGSA,A,3,,,,,,,,,,,,,3.08,2.92,0.98,3*00
$GNGSA,A,3,,,,,,,,,,,,,3.08,2.92,0.98,4*07
$GNGSA,A,3,,,,,,,,,,,,,3.08,2.92,0.98,5*06
$GPGSV,3,1,09,07,51,100,34,08,32,055,30,09,,,25,13,,,34,1*6B
$GPGSV,3,2,09,14,60,232,34,15,,,26,17,,,23,22,37,231,32,1*69
$GPGSV,3,3,09,30,86,055,38,1*5B
$GPGSV,1,1,00,8*6D
$GLGSV,1,1,00,1*78
$GAGSV,1,1,00,7*73
$GAGSV,1,1,00,1*75
$GBGSV,1,1,00,1*76
$GBGSV,1,1,00,5*72
$GQGSV,1,1,00,1*65
$GQGSV,1,1,00,8*6C
$PQTMDRCAL,1,0,1*5C
$PQTMDRPVA,1,53933,000317.000,1,49.17379770,-123.07330320,20.552,-16.816,0.028,0.012,-0.001,0.030,0.000000,0.000000,0.000000*41
$GNGGA,000318.000,4910.427672,N,12304.397794,W,1,04,2.92,20.8,M,-16.8,M,,*72
$GNRMC,000318.000,A,4910.427672,N,12304.397794,W,0.032,000.00,061124,,,A,V*2E
$GNGLL,4910.427672,N,12304.397794,W,000318.000,A,A*52
$GNVTG,000.00,T,,M,0.032,N,0.059,K,A*2E
$GNGSA,A,3,07,08,14,30,,,,,,,,,3.08,2.92,0.98,1*0B
$GNGSA,A,3,,,,,,,,,,,,,3.08,2.92,0.98,2*01
$GNGSA,A,3,,,,,,,,,,,,,3.08,2.92,0.98,3*00
$GNGSA,A,3,,,,,,,,,,,,,3.08,2.92,0.98,4*07
$GNGSA,A,3,,,,,,,,,,,,,3.08,2.92,0.98,5*06
$GPGSV,3,1,09,07,51,100,34,08,32,055,31,09,,,25,13,,,35,1*6B
$GPGSV,3,2,09,14,60,232,34,15,,,27,17,,,27,22,37,231,33,1*6D
$GPGSV,3,3,09,30,86,055,39,1*5A
$GPGSV,1,1,00,8*6D
$GLGSV,1,1,00,1*78
$GAGSV,1,1,00,7*73
$GAGSV,1,1,00,1*75
$GBGSV,1,1,00,1*76
$GBGSV,1,1,00,5*72
$GQGSV,1,1,00,1*65
$GQGSV,1,1,00,8*6C
$PQTMDRCAL,1,0,1*5C
$PQTMDRPVA,1,54934,000318.000,1,49.17379453,-123.07329657,20.831,-16.816,-0.016,0.004,0.000,0.016,0.000000,0.000000,0.000000*46
$GNGGA,000319.000,4910.427510,N,12304.397509,W,1,04,2.92,20.9,M,-16.8,M,,*73
$GNRMC,000319.000,A,4910.427510,N,12304.397509,W,0.024,000.00,061124,,,A,V*29
$GNGLL,4910.427510,N,12304.397509,W,000319.000,A,A*52
$GNVTG,000.00,T,,M,0.024,N,0.045,K,A*24
$GNGSA,A,3,07,08,14,30,,,,,,,,,3.08,2.92,0.98,1*0B
$GNGSA,A,3,,,,,,,,,,,,,3.08,2.92,0.98,2*01
$GNGSA,A,3,,,,,,,,,,,,,3.08,2.92,0.98,3*00
$GNGSA,A,3,,,,,,,,,,,,,3.08,2.92,0.98,4*07
$GNGSA,A,3,,,,,,,,,,,,,3.08,2.92,0.98,5*06
$GPGSV,3,1,09,07,51,100,34,08,32,055,30,09,,,25,13,,,34,1*6B
$GPGSV,3,2,09,14,60,232,33,15,,,25,17,,,25,22,37,231,32,1*6B
$GPGSV,3,3,09,30,86,055,38,1*5B
$GPGSV,1,1,00,8*6D
$GLGSV,1,1,00,1*78
$GAGSV,1,1,00,7*73
$GAGSV,1,1,00,1*75
$GBGSV,1,1,00,1*76
$GBGSV,1,1,00,5*72
$GQGSV,1,1,00,1*65
$GQGSV,1,1,00,8*6C
$PQTMDRCAL,1,0,1*5C
$PQTMDRPVA,1,55934,000319.000,1,49.17379183,-123.07329181,20.906,-16.817,-0.012,-0.003,0.001,0.012,0.000000,0.000000,0.000000*6D
$GNGGA,000320.000,4910.427332,N,12304.397247,W,1,04,2.92,21.0,M,-16.8,M,,*7A
$GNRMC,000320.000,A,4910.427332,N,12304.397247,W,0.026,000.00,061124,,,A,V*2A
$GNGLL,4910.427332,N,12304.397247,W,000320.000,A,A*53
$GNVTG,000.00,T,,M,0.026,N,0.048,K,A*2B
$GNGSA,A,3,07,08,14,30,,,,,,,,,3.08,2.92,0.98,1*0B
$GNGSA,A,3,,,,,,,,,,,,,3.08,2.92,0.98,2*01
$GNGSA,A,3,,,,,,,,,,,,,3.08,2.92,0.98,3*00
$GNGSA,A,3,,,,,,,,,,,,,3.08,2.92,0.98,4*07
$GNGSA,A,3,,,,,,,,,,,,,3.08,2.92,0.98,5*06
$GPGSV,3,1,09,07,51,100,33,08,32,055,29,09,,,24,13,,,33,1*62
$GPGSV,3,2,09,14,60,232,32,15,,,24,17,,,24,22,37,231,31,1*69
$GPGSV,3,3,09,30,86,055,37,1*54
$GPGSV,1,1,00,8*6D
$GLGSV,1,1,00,1*78
$GAGSV,1,1,00,7*73
$GAGSV,1,1,00,1*75
$GBGSV,1,1,00,1*76
$GBGSV,1,1,00,5*72
$GQGSV,1,1,00,1*65
$GQGSV,1,1,00,8*6C
$PQTMDRCAL,1,0,1*5C
$PQTMDRPVA,1,56934,000320.000,1,49.17378887,-123.07328745,20.991,-16.816,-0.013,-0.003,0.001,0.013,0.000000,0.000000,0.000000*68
$GNGGA,000321.000,4910.427156,N,12304.397005,W,1,04,2.91,21.0,M,-16.8,M,,*7C
$GNRMC,000321.000,A,4910.427156,N,12304.397005,W,0.037,000.00,061124,,,A,V*2F
$GNGLL,4910.427156,N,12304.397005,W,000321.000,A,A*56
$GNVTG,000.00,T,,M,0.037,N,0.069,K,A*28
$GNGSA,A,3,07,08,14,30,,,,,,,,,3.07,2.91,0.98,1*07
$GNGSA,A,3,,,,,,,,,,,,,3.07,2.91,0.98,2*0D
$GNGSA,A,3,,,,,,,,,,,,,3.07,2.91,0.98,3*0C
$GNGSA,A,3,,,,,,,,,,,,,3.07,2.91,0.98,4*0B
$GNGSA,A,3,,,,,,,,,,,,,3.07,2.91,0.98,5*0A
$GPGSV,3,1,09,07,51,100,33,08,32,055,28,09,,,24,13,,,33,1*63
$GPGSV,3,2,09,14,60,232,31,15,,,24,17,,,23,22,37,231,30,1*6C
$GPGSV,3,3,09,30,86,055,36,1*55
$GPGSV,1,1,00,8*6D
$GLGSV,1,1,00,1*78
$GAGSV,1,1,00,7*73
$GAGSV,1,1,00,1*75
$GBGSV,1,1,00,1*76
$GBGSV,1,1,00,5*72
$GQGSV,1,1,00,1*65
$GQGSV,1,1,00,8*6C
$PQTMDRCAL,1,0,1*5C
$PQTMDRPVA,1,57933,000321.000,1,49.17378594,-123.07328341,20.996,-16.816,-0.019,0.002,0.001,0.019,0.000000,0.000000,0.000000*4B
$GNGGA,000322.000,4910.427007,N,12304.396738,W,1,04,2.91,21.1,M,-16.8,M,,*73
$GNRMC,000322.000,A,4910.427007,N,12304.396738,W,0.025,000.00,061124,,,A,V*22
$GNGLL,4910.427007,N,12304.396738,W,000322.000,A,A*58
$GNVTG,000.00,T,,M,0.025,N,0.047,K,A*27
$GNGSA,A,3,07,08,14,30,,,,,,,,,3.07,2.91,0.98,1*07
$GNGSA,A,3,,,,,,,,,,,,,3.07,2.91,0.98,2*0D
$GNGSA,A,3,,,,,,,,,,,,,3.07,2.91,0.98,3*0C
$GNGSA,A,3,,,,,,,,,,,,,3.07,2.91,0.98,4*0B
$GNGSA,A,3,,,,,,,,,,,,,3.07,2.91,0.98,5*0A
$GPGSV,3,1,09,07,51,100,33,08,32,055,28,09,,,24,13,,,33,1*63
$GPGSV,3,2,09,14,60,232,31,15,,,24,17,,,24,22,37,231,30,1*6B
$GPGSV,3,3,09,30,86,055,36,1*55
$GPGSV,1,1,00,8*6D
$GLGSV,1,1,00,1*78
$GAGSV,1,1,00,7*73
$GAGSV,1,1,00,1*75
$GBGSV,1,1,00,1*76
$GBGSV,1,1,00,5*72
$GQGSV,1,1,00,1*65
$GQGSV,1,1,00,8*6C
$PQTMDRCAL,1,0,1*5C
$PQTMDRPVA,1,58934,000322.000,1,49.17378346,-123.07327897,21.102,-16.816,-0.011,-0.007,0.000,0.013,0.000000,0.000000,0.000000*69
$GNGGA,000323.000,4910.427012,N,12304.396530,W,1,04,2.91,21.4,M,-16.8,M,,*79
$GNRMC,000323.000,A,4910.427012,N,12304.396530,W,0.009,000.00,061124,,,A,V*23
$GNGLL,4910.427012,N,12304.396530,W,000323.000,A,A*57
$GNVTG,000.00,T,,M,0.009,N,0.016,K,A*2D
$GNGSA,A,3,07,08,14,30,,,,,,,,,3.07,2.91,0.98,1*07
$GNGSA,A,3,,,,,,,,,,,,,3.07,2.91,0.98,2*0D
$GNGSA,A,3,,,,,,,,,,,,,3.07,2.91,0.98,3*0C
$GNGSA,A,3,,,,,,,,,,,,,3.07,2.91,0.98,4*0B
$GNGSA,A,3,,,,,,,,,,,,,3.07,2.91,0.98,5*0A
$GPGSV,3,1,09,07,51,100,32,08,32,055,28,09,,,24,13,,,33,1*62
$GPGSV,3,2,09,14,60,232,31,15,,,23,17,,,24,22,37,231,30,1*6C
$GPGSV,3,3,09,30,86,055,36,1*55
$GPGSV,1,1,00,8*6D
$GLGSV,1,1,00,1*78
$GAGSV,1,1,00,7*73
$GAGSV,1,1,00,1*75
$GBGSV,1,1,00,1*76
$GBGSV,1,1,00,5*72
$GQGSV,1,1,00,1*65
$GQGSV,1,1,00,8*6C
$PQTMDRCAL,1,0,1*5C
$PQTMDRPVA,1,59934,000323.000,1,49.17378353,-123.07327550,21.425,-16.816,0.004,0.002,0.000,0.004,0.000000,0.000000,0.000000*6C
$GNGGA,000324.000,4910.426913,N,12304.396279,W,1,04,2.92,21.7,M,-16.8,M,,*7D
$GNRMC,000324.000,A,4910.426913,N,12304.396279,W,0.007,000.00,061124,,,A,V*29
$GNGLL,4910.426913,N,12304.396279,W,000324.000,A,A*53
$GNVTG,000.00,T,,M,0.007,N,0.013,K,A*26
$GNGSA,A,3,07,08,14,30,,,,,,,,,3.08,2.92,0.98,1*0B
$GNGSA,A,3,,,,,,,,,,,,,3.08,2.92,0.98,2*01
$GNGSA,A,3,,,,,,,,,,,,,3.08,2.92,0.98,3*00
$GNGSA,A,3,,,,,,,,,,,,,3.08,2.92,0.98,4*07
$GNGSA,A,3,,,,,,,,,,,,,3.08,2.92,0.98,5*06
$GPGSV,3,1,09,07,51,100,32,08,32,055,28,09,,,24,13,,,33,1*62
$GPGSV,3,2,09,14,60,232,31,15,,,23,17,,,24,22,37,231,30,1*6C
$GPGSV,3,3,09,30,86,055,36,1*55
$GPGSV,1,1,00,8*6D
$GLGSV,1,1,00,1*78
$GAGSV,1,1,00,7*73
$GAGSV,1,1,00,1*75
$GBGSV,1,1,00,1*76
$GBGSV,1,1,00,5*72
$GQGSV,1,1,00,1*65
$GQGSV,1,1,00,8*6C
$PQTMDRCAL,1,0,1*5C
$PQTMDRPVA,1,60934,000324.000,1,49.17378188,-123.07327132,21.676,-16.816,0.002,-0.003,0.000,0.004,0.000000,0.000000,0.000000*4B
$PAIR535,0,0,0000000000001000*14
$GNGGA,000325.000,4910.426853,N,12304.395958,W,1,04,2.91,22.1,M,-16.8,M,,*74
$GNRMC,000325.000,A,4910.426853,N,12304.395958,W,0.035,000.00,061124,,,A,V*27
$GNGLL,4910.426853,N,12304.395958,W,000325.000,A,A*5C
$GNVTG,000.00,T,,M,0.035,N,0.064,K,A*27
$GNGSA,A,3,07,08,14,30,,,,,,,,,3.07,2.91,0.98,1*07
$GNGSA,A,3,,,,,,,,,,,,,3.07,2.91,0.98,2*0D
$GNGSA,A,3,,,,,,,,,,,,,3.07,2.91,0.98,3*0C
$GNGSA,A,3,,,,,,,,,,,,,3.07,2.91,0.98,4*0B
$GNGSA,A,3,,,,,,,,,,,,,3.07,2.91,0.98,5*0A
$GPGSV,3,1,09,07,51,100,33,08,32,055,28,09,,,24,13,,,34,1*64
$GPGSV,3,2,09,14,60,232,31,15,,,23,17,,,25,22,37,231,31,1*6C
$GPGSV,3,3,09,30,86,055,36,1*55
$GPGSV,1,1,00,8*6D
$GLGSV,1,1,00,1*78
$GAGSV,1,1,00,7*73
$GAGSV,1,1,00,1*75
$GBGSV,1,1,00,1*76
$GBGSV,1,1,00,5*72
$GQGSV,1,1,00,1*65
$GQGSV,1,1,00,8*6C
$PQTMDRCAL,1,0,1*5C
$PQTMDRPVA,1,61933,000325.000,1,49.17378089,-123.07326597,22.128,-16.816,0.016,-0.008,0.000,0.018,0.000000,0.000000,0.000000*4A
$GNGGA,000326.000,4910.427718,N,12304.396862,W,1,05,1.72,20.7,M,-16.8,M,,*76
$GNRMC,000326.000,A,4910.427718,N,12304.396862,W,0.068,000.00,061124,,,A,V*26
$GNGLL,4910.427718,N,12304.396862,W,000326.000,A,A*55
$GNVTG,000.00,T,,M,0.068,N,0.126,K,A*28
$GNGSA,A,3,07,08,13,14,30,,,,,,,,1.97,1.72,0.97,1*0F
$GNGSA,A,3,,,,,,,,,,,,,1.97,1.72,0.97,2*07
$GNGSA,A,3,,,,,,,,,,,,,1.97,1.72,0.97,3*06
$GNGSA,A,3,,,,,,,,,,,,,1.97,1.72,0.97,4*01
$GNGSA,A,3,,,,,,,,,,,,,1.97,1.72,0.97,5*00
$GPGSV,3,1,09,07,51,100,33,08,32,055,27,09,,,23,13,40,305,34,1*5E
$GPGSV,3,2,09,14,60,232,31,15,,,23,17,,,25,22,37,231,31,1*6C
$GPGSV,3,3,09,30,86,055,36,1*55
$GPGSV,1,1,00,8*6D
$GLGSV,1,1,00,1*78
$GAGSV,1,1,00,7*73
$GAGSV,1,1,00,1*75
$GBGSV,1,1,00,1*76
$GBGSV,1,1,00,5*72
$GQGSV,1,1,00,1*65
$GQGSV,1,1,00,8*6C
$PQTMDRCAL,1,0,1*5C
$PQTMDRPVA,1,62933,000326.000,1,49.17379529,-123.07328103,20.731,-16.816,0.035,-0.001,0.001,0.035,0.000000,0.000000,0.000000*49
$PAIR001,593,1*35
$PAIR001,593,0*34
$PAIR593,0*29
$GNGGA,000327.000,4910.428158,N,12304.397107,W,1,05,1.72,20.3,M,-16.8,M,,*75
$GNRMC,000327.000,A,4910.428158,N,12304.397107,W,0.114,000.00,061124,,,A,V*2B
$GNGLL,4910.428158,N,12304.397107,W,000327.000,A,A*52
$GNVTG,000.00,T,,M,0.114,N,0.211,K,A*25
$GNGSA,A,3,07,08,13,14,30,,,,,,,,1.97,1.72,0.97,1*0F
$GNGSA,A,3,,,,,,,,,,,,,1.97,1.72,0.97,2*07
$GNGSA,A,3,,,,,,,,,,,,,1.97,1.72,0.97,3*06
$GNGSA,A,3,,,,,,,,,,,,,1.97,1.72,0.97,4*01
$GNGSA,A,3,,,,,,,,,,,,,1.97,1.72,0.97,5*00
$GPGSV,3,1,09,07,51,100,33,08,32,055,27,09,,,23,13,40,305,34,1*5E
$GPGSV,3,2,09,14,60,232,31,15,,,23,17,,,25,22,38,231,31,1*63
$GPGSV,3,3,09,30,86,055,36,1*55
$GPGSV,1,1,00,8*6D
$GLGSV,1,1,00,1*78
$GAGSV,1,1,00,7*73
$GAGSV,1,1,00,1*75
$GBGSV,1,1,00,1*76
$GBGSV,1,1,00,5*72
$GQGSV,1,1,00,1*65
$GQGSV,1,1,00,8*6C
$PQTMDRCAL,1,0,1*5C
$PQTMDRPVA,1,63933,000327.000,1,49.17380264,-123.07328511,20.276,-16.816,0.052,0.027,0.002,0.059,0.000000,0.000000,0.000000*61
$GNGGA,000328.000,4910.428486,N,12304.397325,W,1,05,1.72,20.0,M,-16.8,M,,*7D
$GNRMC,000328.000,A,4910.428486,N,12304.397325,W,0.112,000.00,061124,,,A,V*26
$GNGLL,4910.428486,N,12304.397325,W,000328.000,A,A*59
$GNVTG,000.00,T,,M,0.112,N,0.208,K,A*2B
$GNGSA,A,3,07,08,13,14,30,,,,,,,,1.97,1.72,0.97,1*0F
$GNGSA,A,3,,,,,,,,,,,,,1.97,1.72,0.97,2*07
$GNGSA,A,3,,,,,,,,,,,,,1.97,1.72,0.97,3*06
$GNGSA,A,3,,,,,,,,,,,,,1.97,1.72,0.97,4*01
$GNGSA,A,3,,,,,,,,,,,,,1.97,1.72,0.97,5*00
$GPGSV,3,1,09,07,51,100,33,08,32,055,27,09,,,23,13,40,305,33,1*59
$GPGSV,3,2,09,14,60,232,31,15,,,23,17,,,25,22,38,231,31,1*63
$GPGSV,3,3,09,30,86,055,36,1*55
$GPGSV,1,1,00,8*6D
$GLGSV,1,1,00,1*78
$GAGSV,1,1,00,7*73
$GAGSV,1,1,00,1*75
$GBGSV,1,1,00,1*76
$GBGSV,1,1,00,5*72
$GQGSV,1,1,00,1*65
$GQGSV,1,1,00,8*6C
$PQTMDRCAL,1,0,1*5C
$PQTMDRPVA,1,64933,000328.000,1,49.17380809,-123.07328874,19.964,-16.816,0.051,0.027,0.002,0.058,0.000000,0.000000,0.000000*66
$GNGGA,000329.000,4910.428920,N,12304.397444,W,1,05,1.72,19.7,M,-16.8,M,,*70
$GNRMC,000329.000,A,4910.428920,N,12304.397444,W,0.281,000.00,061124,,,A,V*2F
$GNGLL,4910.428920,N,12304.397444,W,000329.000,A,A*59
$GNVTG,000.00,T,,M,0.281,N,0.520,K,A*2F
$GNGSA,A,3,07,08,13,14,30,,,,,,,,1.97,1.72,0.97,1*0F
$GNGSA,A,3,,,,,,,,,,,,,1.97,1.72,0.97,2*07
$GNGSA,A,3,,,,,,,,,,,,,1.97,1.72,0.97,3*06
$GNGSA,A,3,,,,,,,,,,,,,1.97,1.72,0.97,4*01
$GNGSA,A,3,,,,,,,,,,,,,1.97,1.72,0.97,5*00
$GPGSV,3,1,09,07,51,100,33,08,32,055,27,09,,,23,13,40,305,33,1*59
$GPGSV,3,2,09,14,60,232,31,15,,,23,17,,,25,22,38,231,31,1*63
$GPGSV,3,3,09,30,86,055,36,1*55
$GPGSV,1,1,00,8*6D
$GLGSV,1,1,00,1*78
$GAGSV,1,1,00,7*73
$GAGSV,1,1,00,1*75
$GBGSV,1,1,00,1*76
$GBGSV,1,1,00,5*72
$GQGSV,1,1,00,1*65
$GQGSV,1,1,00,8*6C
$PQTMDRCAL,1,0,1*5C
$PQTMDRPVA,1,65934,000329.000,1,49.17381533,-123.07329073,19.744,-16.816,0.137,0.046,0.006,0.145,0.000000,0.000000,0.000000*69
$GNGGA,000330.000,4910.429234,N,12304.397522,W,1,05,1.72,19.7,M,-16.8,M,,*76
$GNRMC,000330.000,A,4910.429234,N,12304.397522,W,0.283,000.00,061124,,,A,V*2B
$GNGLL,4910.429234,N,12304.397522,W,000330.000,A,A*5F
$GNVTG,000.00,T,,M,0.283,N,0.525,K,A*28
$GNGSA,A,3,07,08,13,14,30,,,,,,,,1.97,1.72,0.97,1*0F
$GNGSA,A,3,,,,,,,,,,,,,1.97,1.72,0.97,2*07
$GNGSA,A,3,,,,,,,,,,,,,1.97,1.72,0.97,3*06
$GNGSA,A,3,,,,,,,,,,,,,1.97,1.72,0.97,4*01
$GNGSA,A,3,,,,,,,,,,,,,1.97,1.72,0.97,5*00
$GPGSV,3,1,09,07,51,100,33,08,32,055,27,09,,,23,13,40,305,33,1*59
$GPGSV,3,2,09,14,60,232,31,15,,,23,17,,,24,22,38,231,31,1*62
$GPGSV,3,3,09,30,86,055,36,1*55
$GPGSV,1,1,00,8*6D
$GLGSV,1,1,00,1*78
$GAGSV,1,1,00,7*73
$GAGSV,1,1,00,1*75
$GBGSV,1,1,00,1*76
$GBGSV,1,1,00,5*72
$GQGSV,1,1,00,1*65
$GQGSV,1,1,00,8*6C
$PQTMDRCAL,1,0,1*5C
$PQTMDRPVA,1,66933,000330.000,1,49.17382057,-123.07329203,19.691,-16.817,0.138,0.047,0.005,0.146,0.000000,0.000000,0.000000*62
$PAIR535,0,0,0000000000200000*17
$GNGGA,000331.000,4910.429420,N,12304.397771,W,1,05,1.72,19.4,M,-16.8,M,,*73
$GNRMC,000331.000,A,4910.429420,N,12304.397771,W,0.062,000.00,061124,,,A,V*20
$GNGLL,4910.429420,N,12304.397771,W,000331.000,A,A*59
$GNVTG,000.00,T,,M,0.062,N,0.115,K,A*22
$GNGSA,A,3,07,08,13,14,30,,,,,,,,1.97,1.72,0.97,1*0F
$GNGSA,A,3,,,,,,,,,,,,,1.97,1.72,0.97,2*07
$GNGSA,A,3,,,,,,,,,,,,,1.97,1.72,0.97,3*06
$GNGSA,A,3,,,,,,,,,,,,,1.97,1.72,0.97,4*01
$GNGSA,A,3,,,,,,,,,,,,,1.97,1.72,0.97,5*00
$GPGSV,3,1,09,07,51,100,33,08,32,055,27,09,,,23,13,40,305,33,1*59
$GPGSV,3,2,09,14,60,232,31,15,,,23,17,,,24,22,38,231,31,1*62
$GPGSV,3,3,09,30,86,055,36,1*55
$GPGSV,1,1,00,8*6D
$GLGSV,1,1,00,1*78
$GAGSV,1,1,00,7*73
$GAGSV,1,1,00,1*75
$GBGSV,1,1,00,1*76
$GBGSV,1,1,00,5*72
$GQGSV,1,1,00,1*65
$GQGSV,1,1,00,8*6C
$PQTMDRCAL,1,0,1*5C
$PQTMDRPVA,1,67933,000331.000,1,49.17382367,-123.07329618,19.406,-16.816,0.031,0.008,-0.001,0.032,0.000000,0.000000,0.000000*49
$GNGGA,000332.000,4910.429380,N,12304.398218,W,1,06,1.46,18.0,M,-16.8,M,,*79
$GNRMC,000332.000,A,4910.429380,N,12304.398218,W,0.056,000.00,061124,,,A,V*2C
$GNGLL,4910.429380,N,12304.398218,W,000332.000,A,A*52
$GNVTG,000.00,T,,M,0.056,N,0.103,K,A*22
$GNGSA,A,3,07,08,13,14,22,30,,,,,,,1.73,1.46,0.94,1*01
$GNGSA,A,3,,,,,,,,,,,,,1.73,1.46,0.94,2*09
$GNGSA,A,3,,,,,,,,,,,,,1.73,1.46,0.94,3*08
$GNGSA,A,3,,,,,,,,,,,,,1.73,1.46,0.94,4*0F
$GNGSA,A,3,,,,,,,,,,,,,1.73,1.46,0.94,5*0E
$GPGSV,3,1,09,07,51,100,33,08,32,055,27,09,,,23,13,40,305,33,1*59
$GPGSV,3,2,09,14,60,232,31,15,,,23,17,,,24,22,38,231,30,1*63
$GPGSV,3,3,09,30,86,055,36,1*55
$GPGSV,1,1,00,8*6D
$GLGSV,1,1,00,1*78
$GAGSV,1,1,00,7*73
$GAGSV,1,1,00,1*75
$GBGSV,1,1,00,1*76
$GBGSV,1,1,00,5*72
$GQGSV,1,1,00,1*65
$GQGSV,1,1,00,8*6C
$PQTMDRCAL,1,0,1*5C
$PQTMDRPVA,1,68934,000332.000,1,49.17382300,-123.07330363,18.016,-16.816,0.017,0.023,-0.001,0.029,0.000000,0.000000,0.000000*41
$GNGGA,000333.000,4910.428930,N,12304.398737,W,1,06,1.46,15.7,M,-16.8,M,,*7A
$GNRMC,000333.000,A,4910.428930,N,12304.398737,W,0.113,000.00,061124,,,A,V*25
$GNGLL,4910.428930,N,12304.398737,W,000333.000,A,A*5B
$GNVTG,000.00,T,,M,0.113,N,0.209,K,A*2B
$GNGSA,A,3,07,08,13,14,22,30,,,,,,,1.73,1.46,0.94,1*01
$GNGSA,A,3,,,,,,,,,,,,,1.73,1.46,0.94,2*09
$GNGSA,A,3,,,,,,,,,,,,,1.73,1.46,0.94,3*08
$GNGSA,A,3,,,,,,,,,,,,,1.73,1.46,0.94,4*0F
$GNGSA,A,3,,,,,,,,,,,,,1.73,1.46,0.94,5*0E
$GPGSV,3,1,09,07,51,100,33,08,32,055,27,09,,,23,13,40,305,33,1*59
$GPGSV,3,2,09,14,60,232,31,15,,,23,17,,,24,22,38,231,30,1*63
$GPGSV,3,3,09,30,86,055,36,1*55
$GPGSV,1,1,00,8*6D
$GLGSV,1,1,00,1*78
$GAGSV,1,1,00,7*73
$GAGSV,1,1,00,1*75
$GBGSV,1,1,00,1*76
$GBGSV,1,1,00,5*72
$GQGSV,1,1,00,1*65
$GQGSV,1,1,00,8*6C
$PQTMDRCAL,1,0,1*5C
$PQTMDRPVA,1,69934,000333.000,1,49.17381551,-123.07331228,15.710,-16.816,0.055,0.019,0.006,0.058,0.000000,0.000000,0.000000*60
$GNGGA,000334.000,4910.428846,N,12304.398953,W,1,06,1.45,15.0,M,-16.8,M,,*75
$GNRMC,000334.000,A,4910.428846,N,12304.398953,W,0.081,000.00,061124,,,A,V*24
$GNGLL,4910.428846,N,12304.398953,W,000334.000,A,A*50
$GNVTG,000.00,T,,M,0.081,N,0.150,K,A*2E
$GNGSA,A,3,07,08,13,14,22,30,,,,,,,1.73,1.45,0.94,1*02
$GNGSA,A,3,,,,,,,,,,,,,1.73,1.45,0.94,2*0A
$GNGSA,A,3,,,,,,,,,,,,,1.73,1.45,0.94,3*0B
$GNGSA,A,3,,,,,,,,,,,,,1.73,1.45,0.94,4*0C
$GNGSA,A,3,,,,,,,,,,,,,1.73,1.45,0.94,5*0D
$GPGSV,3,1,09,07,51,100,33,08,32,055,27,09,,,23,13,40,305,33,1*59
$GPGSV,3,2,09,14,60,232,30,15,,,22,17,,,24,22,38,231,30,1*63
$GPGSV,3,3,09,30,86,055,36,1*55
$GPGSV,1,1,00,8*6D
$GLGSV,1,1,00,1*78
$GAGSV,1,1,00,7*73
$GAGSV,1,1,00,1*75
$GBGSV,1,1,00,1*76
$GBGSV,1,1,00,5*72
$GQGSV,1,1,00,1*65
$GQGSV,1,1,00,8*6C
$PQTMDRCAL,1,0,1*5C
$PQTMDRPVA,1,70933,000334.000,1,49.17381411,-123.07331589,15.026,-16.817,0.038,0.017,0.007,0.042,0.000000,0.000000,0.000000*6D
$GNGGA,000335.000,4910.428547,N,12304.399154,W,1,06,1.46,13.6,M,-16.8,M,,*75
$GNRMC,000335.000,A,4910.428547,N,12304.399154,W,0.132,000.00,061124,,,A,V*2E
$GNGLL,4910.428547,N,12304.399154,W,000335.000,A,A*53
$GNVTG,000.00,T,,M,0.132,N,0.244,K,A*21
$GNGSA,A,3,07,08,13,14,22,30,,,,,,,1.73,1.46,0.94,1*01
$GNGSA,A,3,,,,,,,,,,,,,1.73,1.46,0.94,2*09
$GNGSA,A,3,,,,,,,,,,,,,1.73,1.46,0.94,3*08
$GNGSA,A,3,,,,,,,,,,,,,1.73,1.46,0.94,4*0F
$GNGSA,A,3,,,,,,,,,,,,,1.73,1.46,0.94,5*0E
$GPGSV,3,1,09,07,51,100,33,08,32,055,27,09,,,23,13,40,305,33,1*59
$GPGSV,3,2,09,14,60,232,30,15,,,22,17,,,24,22,38,231,30,1*63
$GPGSV,3,3,09,30,85,058,36,1*5B
$GPGSV,1,1,00,8*6D
$GLGSV,1,1,00,1*78
$GAGSV,1,1,00,7*73
$GAGSV,1,1,00,1*75
$GBGSV,1,1,00,1*76
$GBGSV,1,1,00,5*72
$GQGSV,1,1,00,1*65
$GQGSV,1,1,00,8*6C
$PQTMDRCAL,1,0,1*5C
$PQTMDRPVA,1,71934,000335.000,1,49.17380912,-123.07331924,13.640,-16.816,0.054,0.041,0.010,0.068,0.000000,0.000000,0.000000*68
$GNGGA,000336.000,4910.428140,N,12304.399482,W,1,06,1.45,12.6,M,-16.8,M,,*79
$GNRMC,000336.000,A,4910.428140,N,12304.399482,W,0.074,000.00,061124,,,A,V*23
$GNGLL,4910.428140,N,12304.399482,W,000336.000,A,A*5D
$GNVTG,000.00,T,,M,0.074,N,0.137,K,A*25
$GNGSA,A,3,07,08,13,14,22,30,,,,,,,1.73,1.45,0.94,1*02
$GNGSA,A,3,,,,,,,,,,,,,1.73,1.45,0.94,2*0A
$GNGSA,A,3,,,,,,,,,,,,,1.73,1.45,0.94,3*0B
$GNGSA,A,3,,,,,,,,,,,,,1.73,1.45,0.94,4*0C
$GNGSA,A,3,,,,,,,,,,,,,1.73,1.45,0.94,5*0D
$GPGSV,3,1,09,07,51,100,33,08,32,055,27,09,,,22,13,40,305,33,1*58
$GPGSV,3,2,09,14,60,232,30,15,,,22,17,,,23,22,38,231,30,1*64
$GPGSV,3,3,09,30,85,058,36,1*5B
$GPGSV,1,1,00,8*6D
$GLGSV,1,1,00,1*78
$GAGSV,1,1,00,7*73
$GAGSV,1,1,00,1*75
$GBGSV,1,1,00,1*76
$GBGSV,1,1,00,5*72
$GQGSV,1,1,00,1*65
$GQGSV,1,1,00,8*6C
$PQTMDRCAL,1,0,1*5C
$PQTMDRPVA,1,72934,000336.000,1,49.17380234,-123.07332470,12.561,-16.816,-0.027,-0.027,0.007,0.038,0.000000,0.000000,0.000000*6E
$GNGGA,000337.000,4910.427883,N,12304.399658,W,1,06,1.46,11.8,M,-16.8,M,,*7A
$GNRMC,000337.000,A,4910.427883,N,12304.399658,W,0.043,000.00,061124,,,A,V*2A
$GNGLL,4910.427883,N,12304.399658,W,000337.000,A,A*50
$GNVTG,000.00,T,,M,0.043,N,0.079,K,A*2A
$GNGSA,A,3,07,08,13,14,22,30,,,,,,,1.73,1.46,0.94,1*01
$GNGSA,A,3,,,,,,,,,,,,,1.73,1.46,0.94,2*09
$GNGSA,A,3,,,,,,,,,,,,,1.73,1.46,0.94,3*08
$GNGSA,A,3,,,,,,,,,,,,,1.73,1.46,0.94,4*0F
$GNGSA,A,3,,,,,,,,,,,,,1.73,1.46,0.94,5*0E
$GPGSV,3,1,09,07,51,100,33,08,32,055,27,09,,,22,13,40,305,33,1*58
$GPGSV,3,2,09,14,60,232,30,15,,,22,17,,,23,22,38,231,30,1*64
$GPGSV,3,3,09,30,85,058,36,1*5B
$GPGSV,1,1,00,8*6D
$GLGSV,1,1,00,1*78
$GAGSV,1,1,00,7*73
$GAGSV,1,1,00,1*75
$GBGSV,1,1,00,1*76
$GBGSV,1,1,00,5*72
$GQGSV,1,1,00,1*65
$GQGSV,1,1,00,8*6C
$PQTMDRCAL,1,0,1*5C
$PQTMDRPVA,1,73934,000337.000,1,49.17379804,-123.07332764,11.784,-16.816,-0.020,-0.009,0.007,0.022,0.000000,0.000000,0.000000*6D
$GNGGA,000338.000,4910.427800,N,12304.399704,W,1,06,1.45,11.5,M,-16.8,M,,*78
$GNRMC,000338.000,A,4910.427800,N,12304.399704,W,0.035,000.00,061124,,,A,V*27
$GNGLL,4910.427800,N,12304.399704,W,000338.000,A,A*5C
$GNVTG,000.00,T,,M,0.035,N,0.064,K,A*27
$GNGSA,A,3,07,08,13,14,22,30,,,,,,,1.73,1.45,0.94,1*02
$GNGSA,A,3,,,,,,,,,,,,,1.73,1.45,0.94,2*0A
$GNGSA,A,3,,,,,,,,,,,,,1.73,1.45,0.94,3*0B
$GNGSA,A,3,,,,,,,,,,,,,1.73,1.45,0.94,4*0C
$GNGSA,A,3,,,,,,,,,,,,,1.73,1.45,0.94,5*0D
$GPGSV,3,1,09,07,51,100,32,08,32,055,26,09,,,22,13,40,305,33,1*58
$GPGSV,3,2,09,14,60,232,30,15,,,21,17,,,23,22,38,231,30,1*67
$GPGSV,3,3,09,30,85,058,36,1*5B
$GPGSV,1,1,00,8*6D
$GLGSV,1,1,00,1*78
$GAGSV,1,1,00,7*73
$GAGSV,1,1,00,1*75
$GBGSV,1,1,00,1*76
$GBGSV,1,1,00,5*72
$GQGSV,1,1,00,1*65
$GQGSV,1,1,00,8*6C
$PQTMDRCAL,1,0,1*5C
$PQTMDRPVA,1,74933,000338.000,1,49.17379666,-123.07332839,11.535,-16.817,-0.016,-0.008,0.007,0.018,0.000000,0.000000,0.000000*6B
$GNGGA,000339.000,4910.427583,N,12304.399758,W,1,06,1.46,10.9,M,-16.8,M,,*78
$GNRMC,000339.000,A,4910.427583,N,12304.399758,W,0.050,000.00,061124,,,A,V*2A
$GNGLL,4910.427583,N,12304.399758,W,000339.000,A,A*52
$GNVTG,000.00,T,,M,0.050,N,0.092,K,A*2D
$GNGSA,A,3,07,08,13,14,22,30,,,,,,,1.73,1.46,0.94,1*01
$GNGSA,A,3,,,,,,,,,,,,,1.73,1.46,0.94,2*09
$GNGSA,A,3,,,,,,,,,,,,,1.73,1.46,0.94,3*08
$GNGSA,A,3,,,,,,,,,,,,,1.73,1.46,0.94,4*0F
$GNGSA,A,3,,,,,,,,,,,,,1.73,1.46,0.94,5*0E
$GPGSV,3,1,09,07,51,100,32,08,32,055,26,09,,,22,13,40,305,33,1*58
$GPGSV,3,2,09,14,60,232,30,15,,,21,17,,,23,22,38,231,30,1*67
$GPGSV,3,3,09,30,85,058,36,1*5B
$GPGSV,1,1,00,8*6D
$GLGSV,1,1,00,1*78
$GAGSV,1,1,00,7*73
$GAGSV,1,1,00,1*75
$GBGSV,1,1,00,1*76
$GBGSV,1,1,00,5*72
$GQGSV,1,1,00,1*65
$GQGSV,1,1,00,8*6C
$PQTMDRCAL,1,0,1*5C
$PQTMDRPVA,1,75933,000339.000,1,49.17379306,-123.07332929,10.916,-16.816,-0.020,0.016,0.005,0.026,0.000000,0.000000,0.000000*4D
$GNGGA,000340.000,4910.427293,N,12304.399925,W,1,06,1.46,10.4,M,-16.8,M,,*79
$GNRMC,000340.000,A,4910.427293,N,12304.399925,W,0.159,000.00,061124,,,A,V*2E
$GNGLL,4910.427293,N,12304.399925,W,000340.000,A,A*5E
$GNVTG,000.00,T,,M,0.159,N,0.295,K,A*20
$GNGSA,A,3,07,08,13,14,22,30,,,,,,,1.73,1.46,0.94,1*01
$GNGSA,A,3,,,,,,,,,,,,,1.73,1.46,0.94,2*09
$GNGSA,A,3,,,,,,,,,,,,,1.73,1.46,0.94,3*08
$GNGSA,A,3,,,,,,,,,,,,,1.73,1.46,0.94,4*0F
$GNGSA,A,3,,,,,,,,,,,,,1.73,1.46,0.94,5*0E
$GPGSV,3,1,09,07,51,100,32,08,32,055,26,09,,,22,13,40,305,33,1*58
$GPGSV,3,2,09,14,60,232,30,15,,,21,17,,,23,22,38,231,30,1*67
$GPGSV,3,3,09,30,85,058,36,1*5B
$GPGSV,1,1,00,8*6D
$GLGSV,1,1,00,1*78
$GAGSV,1,1,00,7*73
$GAGSV,1,1,00,1*75
$GBGSV,1,1,00,1*76
$GBGSV,1,1,00,5*72
$GQGSV,1,1,00,1*65
$GQGSV,1,1,00,8*6C
$PQTMDRCAL,1,0,1*5C
$PQTMDRPVA,1,76933,000340.000,1,49.17378821,-123.07333208,10.403,-16.816,-0.064,-0.051,0.001,0.082,0.000000,0.000000,0.000000*6B
$GNGGA,000341.000,4910.427124,N,12304.399989,W,1,06,1.46,10.0,M,-16.8,M,,*75
$GNRMC,000341.000,A,4910.427124,N,12304.399989,W,0.068,000.00,061124,,,A,V*25
$GNGLL,4910.427124,N,12304.399989,W,000341.000,A,A*56
$GNVTG,000.00,T,,M,0.068,N,0.127,K,A*29
$GNGSA,A,3,07,08,13,14,22,30,,,,,,,1.73,1.46,0.94,1*01
$GNGSA,A,3,,,,,,,,,,,,,1.73,1.46,0.94,2*09
$GNGSA,A,3,,,,,,,,,,,,,1.73,1.46,0.94,3*08
$GNGSA,A,3,,,,,,,,,,,,,1.73,1.46,0.94,4*0F
$GNGSA,A,3,,,,,,,,,,,,,1.73,1.46,0.94,5*0E
$GPGSV,3,1,09,07,51,100,32,08,32,055,27,09,,,22,13,40,305,33,1*59
$GPGSV,3,2,09,14,60,232,30,15,,,21,17,,,23,22,38,231,30,1*67
$GPGSV,3,3,09,30,85,058,36,1*5B
$GPGSV,1,1,00,8*6D
$GLGSV,1,1,00,1*78
$GAGSV,1,1,00,7*73
$GAGSV,1,1,00,1*75
$GBGSV,1,1,00,1*76
$GBGSV,1,1,00,5*72
$GQGSV,1,1,00,1*65
$GQGSV,1,1,00,8*6C
$PQTMDRCAL,1,0,1*5C
$PQTMDRPVA,1,77933,000341.000,1,49.17378539,-123.07333314,10.026,-16.816,-0.034,-0.009,0.005,0.035,0.000000,0.000000,0.000000*60
$GNGGA,000342.000,4910.427060,N,12304.400002,W,1,06,1.45,9.8,M,-16.8,M,,*49
$GNRMC,000342.000,A,4910.427060,N,12304.400002,W,0.107,000.00,061124,,,A,V*22
$GNGLL,4910.427060,N,12304.400002,W,000342.000,A,A*59
$GNVTG,000.00,T,,M,0.107,N,0.198,K,A*25
$GNGSA,A,3,07,08,13,14,22,30,,,,,,,1.73,1.45,0.94,1*02
$GNGSA,A,3,,,,,,,,,,,,,1.73,1.45,0.94,2*0A
$GNGSA,A,3,,,,,,,,,,,,,1.73,1.45,0.94,3*0B
$GNGSA,A,3,,,,,,,,,,,,,1.73,1.45,0.94,4*0C
$GNGSA,A,3,,,,,,,,,,,,,1.73,1.45,0.94,5*0D
$GPGSV,3,1,09,07,51,100,32,08,32,055,28,09,,,22,13,40,305,33,1*56
$GPGSV,3,2,09,14,60,232,31,15,,,21,17,,,23,22,38,231,31,1*67
$GPGSV,3,3,09,30,85,058,36,1*5B
$GPGSV,1,1,00,8*6D
$GLGSV,1,1,00,1*78
$GAGSV,1,1,00,7*73
$GAGSV,1,1,00,1*75
$GBGSV,1,1,00,1*76
$GBGSV,1,1,00,5*72
$GQGSV,1,1,00,1*65
$GQGSV,1,1,00,8*6C
$PQTMDRCAL,1,0,1*5C
$PQTMDRPVA,1,78933,000342.000,1,49.17378434,-123.07333336,9.797,-16.816,0.046,0.030,0.013,0.055,0.000000,0.000000,0.000000*5B
$GNGGA,000343.000,4910.426999,N,12304.400105,W,1,06,1.46,9.7,M,-16.8,M,,*4C
$GNRMC,000343.000,A,4910.426999,N,12304.400105,W,0.034,000.00,061124,,,A,V*2A
$GNGLL,4910.426999,N,12304.400105,W,000343.000,A,A*50
$GNVTG,000.00,T,,M,0.034,N,0.062,K,A*20
$GNGSA,A,3,07,08,13,14,22,30,,,,,,,1.73,1.46,0.94,1*01
$GNGSA,A,3,,,,,,,,,,,,,1.73,1.46,0.94,2*09
$GNGSA,A,3,,,,,,,,,,,,,1.73,1.46,0.94,3*08
$GNGSA,A,3,,,,,,,,,,,,,1.73,1.46,0.94,4*0F
$GNGSA,A,3,,,,,,,,,,,,,1.73,1.46,0.94,5*0E
$GPGSV,3,1,09,07,51,100,33,08,32,055,29,09,,,23,13,40,305,34,1*50
$GPGSV,3,2,09,14,60,232,31,15,,,22,17,,,24,22,38,231,32,1*60
$GPGSV,3,3,09,30,85,058,37,1*5A
$GPGSV,1,1,00,8*6D
$GLGSV,1,1,00,1*78
$GAGSV,1,1,00,7*73
$GAGSV,1,1,00,1*75
$GBGSV,1,1,00,1*76
$GBGSV,1,1,00,5*72
$GQGSV,1,1,00,1*65
$GQGSV,1,1,00,8*6C
$PQTMDRCAL,1,0,1*5C
$PQTMDRPVA,1,79934,000343.000,1,49.17378332,-123.07333508,9.736,-16.816,0.017,-0.003,-0.002,0.017,0.000000,0.000000,0.000000*5F
$GNGGA,000344.000,4910.426956,N,12304.400062,W,1,06,1.45,9.8,M,-16.8,M,,*44
$GNRMC,000344.000,A,4910.426956,N,12304.400062,W,0.073,000.00,061124,,,A,V*2D
$GNGLL,4910.426956,N,12304.400062,W,000344.000,A,A*54
$GNVTG,000.00,T,,M,0.073,N,0.135,K,A*20
$GNGSA,A,3,07,08,13,14,22,30,,,,,,,1.73,1.45,0.94,1*02
$GNGSA,A,3,,,,,,,,,,,,,1.73,1.45,0.94,2*0A
$GNGSA,A,3,,,,,,,,,,,,,1.73,1.45,0.94,3*0B
$GNGSA,A,3,,,,,,,,,,,,,1.73,1.45,0.94,4*0C
$GNGSA,A,3,,,,,,,,,,,,,1.73,1.45,0.94,5*0D
$GPGSV,3,1,09,07,51,100,33,08,32,055,29,09,,,23,13,40,305,34,1*50
$GPGSV,3,2,09,14,60,232,31,15,,,22,17,,,24,22,38,231,32,1*60
$GPGSV,3,3,09,30,85,058,37,1*5A
$GPGSV,1,1,00,8*6D
$GLGSV,1,1,00,1*78
$GAGSV,1,1,00,7*73
$GAGSV,1,1,00,1*75
$GBGSV,1,1,00,1*76
$GBGSV,1,1,00,5*72
$GQGSV,1,1,00,1*65
$GQGSV,1,1,00,8*6C
$PQTMDRCAL,1,0,1*5C
$PQTMDRPVA,1,80934,000344.000,1,49.17378260,-123.07333437,9.793,-16.816,0.028,0.025,0.002,0.038,0.000000,0.000000,0.000000*5F
$GNGGA,000345.000,4910.426951,N,12304.400054,W,1,06,1.45,9.9,M,-16.8,M,,*46
$GNRMC,000345.000,A,4910.426951,N,12304.400054,W,0.014,000.00,061124,,,A,V*2F
$GNGLL,4910.426951,N,12304.400054,W,000345.000,A,A*57
$GNVTG,000.00,T,,M,0.014,N,0.026,K,A*22
$GNGSA,A,3,07,08,13,14,22,30,,,,,,,1.73,1.45,0.94,1*02
$GNGSA,A,3,,,,,,,,,,,,,1.73,1.45,0.94,2*0A
$GNGSA,A,3,,,,,,,,,,,,,1.73,1.45,0.94,3*0B
$GNGSA,A,3,,,,,,,,,,,,,1.73,1.45,0.94,4*0C
$GNGSA,A,3,,,,,,,,,,,,,1.73,1.45,0.94,5*0D
$GPGSV,3,1,09,07,51,100,33,08,32,055,29,09,,,23,13,40,305,34,1*50
$GPGSV,3,2,09,14,60,232,31,15,,,22,17,,,24,22,38,231,32,1*60
$GPGSV,3,3,09,30,85,058,37,1*5A
$GPGSV,1,1,00,8*6D
$GLGSV,1,1,00,1*78
$GAGSV,1,1,00,7*73
$GAGSV,1,1,00,1*75
$GBGSV,1,1,00,1*76
$GBGSV,1,1,00,5*72
$GQGSV,1,1,00,1*65
$GQGSV,1,1,00,8*6C
$PQTMDRCAL,1,0,1*5C
$PQTMDRPVA,1,81934,000345.000,1,49.17378252,-123.07333423,9.919,-16.816,0.007,-0.002,-0.001,0.007,0.000000,0.000000,0.000000*50
$GNGGA,000346.000,4910.426923,N,12304.400032,W,1,06,1.46,10.0,M,-16.8,M,,*72
$GNRMC,000346.000,A,4910.426923,N,12304.400032,W,0.039,000.00,061124,,,A,V*26
$GNGLL,4910.426923,N,12304.400032,W,000346.000,A,A*51
$GNVTG,000.00,T,,M,0.039,N,0.072,K,A*2C
$GNGSA,A,3,07,08,13,14,22,30,,,,,,,1.73,1.46,0.94,1*01
$GNGSA,A,3,,,,,,,,,,,,,1.73,1.46,0.94,2*09
$GNGSA,A,3,,,,,,,,,,,,,1.73,1.46,0.94,3*08
$GNGSA,A,3,,,,,,,,,,,,,1.73,1.46,0.94,4*0F
$GNGSA,A,3,,,,,,,,,,,,,1.73,1.46,0.94,5*0E
$GPGSV,3,1,09,07,51,100,33,08,32,055,29,09,,,23,13,40,305,34,1*50
$GPGSV,3,2,09,14,60,232,31,15,,,22,17,,,24,22,38,231,32,1*60
$GPGSV,3,3,09,30,85,058,37,1*5A
$GPGSV,1,1,00,8*6D
$GLGSV,1,1,00,1*78
$GAGSV,1,1,00,7*73
$GAGSV,1,1,00,1*75
$GBGSV,1,1,00,1*76
$GBGSV,1,1,00,5*72
$GQGSV,1,1,00,1*65
$GQGSV,1,1,00,8*6C
$PQTMDRCAL,1,0,1*5C
$PQTMDRPVA,1,82934,000346.000,1,49.17378205,-123.07333387,9.977,-16.816,0.016,0.012,0.000,0.020,0.000000,0.000000,0.000000*56
$GNGGA,000347.000,4910.426965,N,12304.399991,W,1,06,1.46,10.0,M,-16.8,M,,*76
$GNRMC,000347.000,A,4910.426965,N,12304.399991,W,0.151,000.00,061124,,,A,V*2D
$GNGLL,4910.426965,N,12304.399991,W,000347.000,A,A*55
$GNVTG,000.00,T,,M,0.151,N,0.280,K,A*2C
$GNGSA,A,3,07,08,13,14,22,30,,,,,,,1.73,1.46,0.94,1*01
$GNGSA,A,3,,,,,,,,,,,,,1.73,1.46,0.94,2*09
$GNGSA,A,3,,,,,,,,,,,,,1.73,1.46,0.94,3*08
$GNGSA,A,3,,,,,,,,,,,,,1.73,1.46,0.94,4*0F
$GNGSA,A,3,,,,,,,,,,,,,1.73,1.46,0.94,5*0E
$GPGSV,3,1,09,07,51,100,33,08,32,055,28,09,,,22,13,40,305,34,1*50
$GPGSV,3,2,09,14,60,232,31,15,,,22,17,,,23,22,38,231,31,1*64
$GPGSV,3,3,09,30,85,058,36,1*5B
$GPGSV,1,1,00,8*6D
$GLGSV,1,1,00,1*78
$GAGSV,1,1,00,7*73
$GAGSV,1,1,00,1*75
$GBGSV,1,1,00,1*76
$GBGSV,1,1,00,5*72
$GQGSV,1,1,00,1*65
$GQGSV,1,1,00,8*6C
$PQTMDRCAL,1,0,1*5C
$PQTMDRPVA,1,83934,000347.000,1,49.17378275,-123.07333318,10.016,-16.816,0.069,0.036,0.005,0.078,0.000000,0.000000,0.000000*67
$GNGGA,000348.000,4910.426888,N,12304.400059,W,1,06,1.46,10.2,M,-16.8,M,,*73
$GNRMC,000348.000,A,4910.426888,N,12304.400059,W,0.106,000.00,061124,,,A,V*28
$GNGLL,4910.426888,N,12304.400059,W,000348.000,A,A*52
$GNVTG,000.00,T,,M,0.106,N,0.197,K,A*2B
$GNGSA,A,3,07,08,13,14,22,30,,,,,,,1.73,1.46,0.94,1*01
$GNGSA,A,3,,,,,,,,,,,,,1.73,1.46,0.94,2*09
$GNGSA,A,3,,,,,,,,,,,,,1.73,1.46,0.94,3*08
$GNGSA,A,3,,,,,,,,,,,,,1.73,1.46,0.94,4*0F
$GNGSA,A,3,,,,,,,,,,,,,1.73,1.46,0.94,5*0E
$GPGSV,3,1,09,07,51,100,33,08,32,055,28,09,,,23,13,40,305,34,1*51
$GPGSV,3,2,09,14,60,232,31,15,,,22,17,,,23,22,38,231,31,1*64
$GPGSV,3,3,09,30,85,058,36,1*5B
$GPGSV,1,1,00,8*6D
$GLGSV,1,1,00,1*78
$GAGSV,1,1,00,7*73
$GAGSV,1,1,00,1*75
$GBGSV,1,1,00,1*76
$GBGSV,1,1,00,5*72
$GQGSV,1,1,00,1*65
$GQGSV,1,1,00,8*6C
$PQTMDRCAL,1,0,1*5C
$PQTMDRPVA,1,84933,000348.000,1,49.17378147,-123.07333432,10.245,-16.816,-0.047,-0.028,-0.003,0.055,0.000000,0.000000,0.000000*46
$GNGGA,000349.000,4910.426902,N,12304.400058,W,1,06,1.46,10.5,M,-16.8,M,,*77
$GNRMC,000349.000,A,4910.426902,N,12304.400058,W,0.036,000.00,061124,,,A,V*29
$GNGLL,4910.426902,N,12304.400058,W,000349.000,A,A*51
$GNVTG,000.00,T,,M,0.036,N,0.067,K,A*27
$GNGSA,A,3,07,08,13,14,22,30,,,,,,,1.73,1.46,0.94,1*01
$GNGSA,A,3,,,,,,,,,,,,,1.73,1.46,0.94,2*09
$GNGSA,A,3,,,,,,,,,,,,,1.73,1.46,0.94,3*08
$GNGSA,A,3,,,,,,,,,,,,,1.73,1.46,0.94,4*0F
$GNGSA,A,3,,,,,,,,,,,,,1.73,1.46,0.94,5*0E
$GPGSV,3,1,09,07,51,100,33,08,32,055,28,09,,,23,13,40,305,34,1*51
$GPGSV,3,2,09,14,60,232,31,15,,,22,17,,,23,22,38,231,31,1*64
$GPGSV,3,3,09,30,85,058,36,1*5B
$GPGSV,1,1,00,8*6D
$GLGSV,1,1,00,1*78
$GAGSV,1,1,00,7*73
$GAGSV,1,1,00,1*75
$GBGSV,1,1,00,1*76
$GBGSV,1,1,00,5*72
$GQGSV,1,1,00,1*65
$GQGSV,1,1,00,8*6C
$PQTMDRCAL,1,0,1*5C
$PQTMDRPVA,1,85933,000349.000,1,49.17378170,-123.07333430,10.474,-16.816,-0.018,-0.005,-0.001,0.019,0.000000,0.000000,0.000000*4B
$GNGGA,000350.000,4910.426860,N,12304.400128,W,1,06,1.46,10.6,M,-16.8,M,,*7F
$GNRMC,000350.000,A,4910.426860,N,12304.400128,W,0.056,000.00,061124,,,A,V*24
$GNGLL,4910.426860,N,12304.400128,W,000350.000,A,A*5A
$GNVTG,000.00,T,,M,0.056,N,0.104,K,A*25
$GNGSA,A,3,07,08,13,14,22,30,,,,,,,1.74,1.46,0.94,1*06
$GNGSA,A,3,,,,,,,,,,,,,1.74,1.46,0.94,2*0E
$GNGSA,A,3,,,,,,,,,,,,,1.74,1.46,0.94,3*0F
$GNGSA,A,3,,,,,,,,,,,,,1.74,1.46,0.94,4*08
$GNGSA,A,3,,,,,,,,,,,,,1.74,1.46,0.94,5*09
$GPGSV,3,1,09,07,51,100,33,08,32,055,28,09,,,23,13,40,305,34,1*51
$GPGSV,3,2,09,14,60,232,32,15,,,23,17,,,23,22,38,231,31,1*66
$GPGSV,3,3,09,30,85,058,36,1*5B
$GPGSV,1,1,00,8*6D
$GLGSV,1,1,00,1*78
$GAGSV,1,1,00,7*73
$GAGSV,1,1,00,1*75
$GBGSV,1,1,00,1*76
$GBGSV,1,1,00,5*72
$GQGSV,1,1,00,1*65
$GQGSV,1,1,00,8*6C
$PQTMDRCAL,1,0,1*5C
$PQTMDRPVA,1,86933,000350.000,1,49.17378100,-123.07333546,10.633,-16.816,-0.029,0.000,0.014,0.029,0.000000,0.000000,0.000000*46
$GNGGA,000351.000,4910.426945,N,12304.400144,W,1,06,1.45,10.9,M,-16.8,M,,*7E
$GNRMC,000351.000,A,4910.426945,N,12304.400144,W,0.020,000.00,061124,,,A,V*28
$GNGLL,4910.426945,N,12304.400144,W,000351.000,A,A*57
$GNVTG,000.00,T,,M,0.020,N,0.038,K,A*2A
$GNGSA,A,3,07,08,13,14,22,30,,,,,,,1.73,1.45,0.94,1*02
$GNGSA,A,3,,,,,,,,,,,,,1.73,1.45,0.94,2*0A
$GNGSA,A,3,,,,,,,,,,,,,1.73,1.45,0.94,3*0B
