$GNGGA,190627.000,4910.425948,N,12304.404162,W,2,30,0.50,14.948,M,-16.816,M,,*70
$GNGLL,4910.425948,N,12304.404162,W,190627.000,A,D*50
$GNGSA,A,3,09,04,07,16,20,30,26,27,11,03,08,,0.78,0.50,0.60,1*0B
$GNGSA,A,3,68,69,79,67,,,,,,,,,0.78,0.50,0.60,2*00
$GNGSA,A,3,09,06,31,05,04,24,34,15,,,,,0.78,0.50,0.60,3*06
$GNGSA,A,3,37,20,23,32,19,38,25,,,,,,0.78,0.50,0.60,4*0A
$GPGSV,4,1,13,09,89,171,36,04,57,116,30,07,57,257,34,16,42,062,30,1*6E
$GPGSV,4,2,13,46,33,188,29,20,21,316,24,30,20,252,27,26,15,045,24,1*6D
$GPGSV,4,3,13,27,14,103,24,11,10,293,27,03,09,173,23,08,06,133,23,1*69
$GPGSV,4,4,13,06,04,258,17,1*5D
$GLGSV,2,1,07,78,69,049,,68,63,137,31,69,61,321,28,79,52,210,31,1*77
$GLGSV,2,2,07,67,13,139,21,86,09,006,,85,06,315,19,1*41
$GAGSV,3,1,09,09,85,088,30,06,60,113,28,31,58,131,28,05,37,297,24,7*7B
$GAGSV,3,2,09,04,33,114,24,24,23,187,24,34,14,287,17,15,09,336,19,7*78
$GAGSV,3,3,09,36,03,240,14,7*4F
$GBGSV,4,1,13,37,63,211,35,20,58,294,36,23,58,065,35,32,54,165,33,1*7A
$GBGSV,4,2,13,19,13,316,23,38,12,334,24,46,10,226,,25,08,053,26,1*7F
$GBGSV,4,3,13,08,05,341,19,41,04,145,22,12,03,022,14,34,01,047,,1*71
$GBGSV,4,4,13,04,01,262,,1*47
$GNRMC,190627.000,A,4910.425948,N,12304.404162,W,0.03,0.00,051224,,,D,V*1E
$GNVTG,0.00,T,,M,0.03,N,0.05,K,D*20
$GNGGA,190628.000,4910.425882,N,12304.404228,W,2,30,0.50,14.719,M,-16.816,M,,*7F
$GNGLL,4910.425882,N,12304.404228,W,190628.000,A,D*55
$GNGSA,A,3,09,04,07,16,20,30,26,27,11,03,08,,0.78,0.50,0.60,1*0B
$GNGSA,A,3,68,69,79,67,,,,,,,,,0.78,0.50,0.60,2*00
$GNGSA,A,3,09,06,31,05,04,24,34,15,,,,,0.78,0.50,0.60,3*06
$GNGSA,A,3,37,20,23,32,19,38,25,,,,,,0.78,0.50,0.60,4*0A
$GPGSV,4,1,13,09,89,171,36,04,57,116,30,07,57,257,34,16,42,062,30,1*6E
$GPGSV,4,2,13,46,33,188,29,20,21,316,25,30,20,252,27,26,15,045,26,1*6E
$GPGSV,4,3,13,27,14,103,24,11,10,293,27,03,09,173,24,08,06,133,24,1*69
$GPGSV,4,4,13,06,04,258,17,1*5D
$GLGSV,2,1,07,78,69,049,,68,63,137,31,69,61,321,28,79,52,210,31,1*77
$GLGSV,2,2,07,67,13,139,21,86,09,006,,85,06,315,19,1*41
$GAGSV,3,1,09,09,85,088,31,06,60,113,29,31,58,131,28,05,37,297,24,7*7B
$GAGSV,3,2,09,04,33,114,24,24,23,187,24,34,14,287,17,15,09,336,19,7*78
$GAGSV,3,3,09,36,03,240,14,7*4F
$GBGSV,4,1,13,37,63,211,35,20,58,294,36,23,58,065,35,32,54,165,33,1*7A
$GBGSV,4,2,13,19,13,316,24,38,12,334,24,46,10,226,,25,08,053,26,1*78
$GBGSV,4,3,13,08,05,341,19,41,04,145,22,12,03,022,13,34,01,047,,1*76
$GBGSV,4,4,13,04,01,262,,1*47
$GNRMC,190628.000,A,4910.425882,N,12304.404228,W,0.02,0.00,051224,,,D,V*1A
$GNVTG,0.00,T,,M,0.02,N,0.04,K,D*20
$GNGGA,190629.000,4910.425888,N,12304.404348,W,2,30,0.50,14.558,M,-16.817,M,,*75
$GNGLL,4910.425888,N,12304.404348,W,190629.000,A,D*59
$GNGSA,A,3,09,04,07,16,20,30,26,27,11,03,08,,0.77,0.50,0.59,1*0E
$GNGSA,A,3,68,69,79,67,,,,,,,,,0.77,0.50,0.59,2*05
$GNGSA,A,3,09,06,31,05,04,24,34,15,,,,,0.77,0.50,0.59,3*03
$GNGSA,A,3,37,20,23,32,19,38,25,,,,,,0.77,0.50,0.59,4*0F
$GPGSV,4,1,13,09,89,171,36,04,57,116,30,07,57,257,34,16,42,062,30,1*6E
$GPGSV,4,2,13,46,33,188,29,20,21,316,25,30,20,252,27,26,15,045,26,1*6E
$GPGSV,4,3,13,27,14,103,25,11,10,293,27,03,09,173,24,08,06,133,23,1*6F
$GPGSV,4,4,13,06,04,258,17,1*5D
$GLGSV,2,1,07,78,69,049,,68,63,137,31,69,61,321,27,79,52,210,30,1*79
$GLGSV,2,2,07,67,13,139,22,86,09,006,,85,06,315,19,1*42
$GAGSV,3,1,09,09,85,088,31,06,60,113,29,31,58,131,28,05,37,297,24,7*7B
$GAGSV,3,2,09,04,33,114,24,24,23,187,24,34,14,287,17,15,09,336,19,7*78
$GAGSV,3,3,09,36,03,240,14,7*4F
$GBGSV,4,1,13,37,63,211,35,20,58,294,36,23,58,065,35,32,54,165,33,1*7A
$GBGSV,4,2,13,19,13,316,24,38,12,334,24,46,10,226,,25,08,053,26,1*78
$GBGSV,4,3,13,08,05,341,19,41,04,145,22,12,03,022,14,34,01,047,,1*71
$GBGSV,4,4,13,04,01,262,,1*47
$GNRMC,190629.000,A,4910.425888,N,12304.404348,W,0.02,0.00,051224,,,D,V*16
$GNVTG,0.00,T,,M,0.02,N,0.04,K,D*20
$GNGGA,190630.000,4910.425894,N,12304.404432,W,2,30,0.50,14.466,M,-16.816,M,,*77
$GNGLL,4910.425894,N,12304.404432,W,190630.000,A,D*56
$GNGSA,A,3,09,04,07,16,20,30,26,27,11,03,08,,0.77,0.50,0.59,1*0E
$GNGSA,A,3,68,69,79,67,,,,,,,,,0.77,0.50,0.59,2*05
$GNGSA,A,3,09,06,31,05,04,24,34,15,,,,,0.77,0.50,0.59,3*03
$GNGSA,A,3,37,20,23,32,19,38,25,,,,,,0.77,0.50,0.59,4*0F
$GPGSV,4,1,13,09,89,171,36,04,57,116,30,07,57,257,35,16,42,062,30,1*6F
$GPGSV,4,2,13,46,33,188,29,20,21,316,25,30,20,252,27,26,15,045,26,1*6E
$GPGSV,4,3,13,27,14,103,25,11,10,293,26,03,09,173,24,08,06,133,24,1*69
$GPGSV,4,4,13,06,04,258,17,1*5D
$GLGSV,2,1,07,78,69,049,,68,63,137,31,69,61,321,27,79,52,210,30,1*79
$GLGSV,2,2,07,67,13,139,22,86,09,006,,85,06,315,19,1*42
$GAGSV,3,1,09,09,85,088,31,06,60,113,29,31,58,131,28,05,37,297,25,7*7A
$GAGSV,3,2,09,04,33,114,24,24,23,187,24,34,14,287,17,15,09,336,19,7*78
$GAGSV,3,3,09,36,03,240,15,7*4E
$GBGSV,4,1,13,37,63,211,35,20,58,294,36,23,58,065,35,32,54,165,33,1*7A
$GBGSV,4,2,13,19,13,316,24,38,12,334,24,46,10,226,,25,08,053,26,1*78
$GBGSV,4,3,13,08,05,341,19,41,04,145,22,12,03,022,14,34,01,047,,1*71
$GBGSV,4,4,13,04,01,262,,1*47
$GNRMC,190630.000,A,4910.425894,N,12304.404432,W,0.02,0.00,051224,,,D,V*19
$GNVTG,0.00,T,,M,0.02,N,0.04,K,D*20
$GNGGA,190631.000,4910.425876,N,12304.404552,W,2,30,0.50,14.301,M,-16.816,M,,*7B
$GNGLL,4910.425876,N,12304.404552,W,190631.000,A,D*5C
$GNGSA,A,3,09,04,07,16,20,30,26,27,11,03,08,,0.78,0.50,0.60,1*0B
$GNGSA,A,3,68,69,79,67,,,,,,,,,0.78,0.50,0.60,2*00
$GNGSA,A,3,09,06,31,05,04,24,34,15,,,,,0.78,0.50,0.60,3*06
$GNGSA,A,3,37,20,23,32,19,38,25,,,,,,0.78,0.50,0.60,4*0A
$GPGSV,4,1,13,09,89,171,36,04,57,116,30,07,57,257,35,16,42,062,31,1*6E
$GPGSV,4,2,13,46,33,188,29,20,21,316,24,30,20,252,27,26,15,044,26,1*6E
$GPGSV,4,3,13,27,14,103,25,11,10,293,26,03,09,173,24,08,06,133,24,1*69
$GPGSV,4,4,13,06,04,258,17,1*5D
$GLGSV,2,1,07,78,69,049,,68,63,137,31,69,61,321,27,79,52,210,30,1*79
$GLGSV,2,2,07,67,13,139,23,86,09,006,,85,06,315,19,1*43
$GAGSV,3,1,09,09,85,088,31,06,60,113,29,31,58,131,28,05,37,297,25,7*7A
$GAGSV,3,2,09,04,33,114,24,24,23,187,24,34,14,287,17,15,09,336,19,7*78
$GAGSV,3,3,09,36,03,240,15,7*4E
$GBGSV,4,1,13,37,63,211,35,20,58,294,36,23,58,065,35,32,54,165,33,1*7A
$GBGSV,4,2,13,19,13,316,24,38,12,334,24,46,10,226,,25,08,053,26,1*78
$GBGSV,4,3,13,08,05,341,19,41,04,145,22,12,03,022,13,34,01,047,,1*76
$GBGSV,4,4,13,04,01,262,,1*47
$GNRMC,190631.000,A,4910.425876,N,12304.404552,W,0.01,0.00,051224,,,D,V*10
$GNVTG,0.00,T,,M,0.01,N,0.03,K,D*24
$GNGGA,190632.000,4910.425834,N,12304.404672,W,2,30,0.50,14.217,M,-16.816,M,,*79
