$GNGGA,181559.000,4910.425828,N,12304.402026,W,2,30,0.51,8.753,M,-16.816,M,,*42
$GNGLL,4910.425828,N,12304.402026,W,181559.000,A,D*5A
$GNGSA,A,3,04,09,16,07,03,26,06,31,11,20,,,0.88,0.51,0.72,1*0C
$GNGSA,A,3,68,78,67,69,79,85,,,,,,,0.88,0.51,0.72,2*0F
$GNGSA,A,3,06,09,04,31,05,34,36,21,,,,,0.88,0.51,0.72,3*0F
$GNGSA,A,3,32,23,37,20,25,41,,,,,,,0.88,0.51,0.72,4*01
$GPGSV,4,1,13,04,79,078,35,09,66,299,36,16,47,095,31,07,36,240,32,1*61
$GPGSV,4,2,13,48,33,182,29,03,32,173,31,26,32,056,30,06,18,275,20,1*61
$GPGSV,4,3,13,31,16,061,26,11,14,314,26,20,05,327,19,29,02,013,18,1*6B
$GPGSV,4,4,13,30,01,241,16,1*54
$GLGSV,2,1,07,68,81,038,32,78,72,155,21,67,36,123,26,69,35,316,29,1*7F
$GLGSV,2,2,07,79,23,199,24,85,13,340,23,84,11,289,,1*41
$GAGSV,3,1,10,06,76,084,31,09,75,309,32,04,49,099,30,31,41,148,27,7*7C
$GAGSV,3,2,10,05,22,289,23,34,21,304,21,36,18,251,21,21,09,032,21,7*75
$GAGSV,3,3,10,24,05,186,19,15,03,350,18,7*7E
$GBGSV,3,1,09,32,78,171,39,23,72,106,38,37,40,205,34,20,39,306,36,1*7E
$GBGSV,3,2,09,25,27,051,32,41,23,137,29,38,04,333,25,04,01,262,,1*7B
$GBGSV,3,3,09,35,01,335,,1*4D
$GNRMC,181559.000,A,4910.425828,N,12304.402026,W,0.01,0.00,051224,,,D,V*16
$GNVTG,0.00,T,,M,0.01,N,0.02,K,D*25
$GNGGA,181600.000,4910.425828,N,12304.402056,W,2,30,0.51,8.681,M,-16.817,M,,*45
$GNGLL,4910.425828,N,12304.402056,W,181600.000,A,D*52
$GNGSA,A,3,04,09,16,07,03,26,06,31,11,20,,,0.88,0.51,0.72,1*0C
$GNGSA,A,3,68,78,67,69,79,85,,,,,,,0.88,0.51,0.72,2*0F
$GNGSA,A,3,06,09,04,31,05,34,36,21,,,,,0.88,0.51,0.72,3*0F
$GNGSA,A,3,32,23,37,20,25,41,,,,,,,0.88,0.51,0.72,4*01
$GPGSV,4,1,13,04,79,078,35,09,66,299,36,16,47,095,31,07,36,240,32,1*61
$GPGSV,4,2,13,48,33,182,29,03,32,173,31,26,32,056,30,06,18,275,20,1*61
$GPGSV,4,3,13,31,16,061,26,11,14,314,26,20,05,327,18,29,02,013,18,1*6A
$GPGSV,4,4,13,30,01,241,16,1*54
$GLGSV,2,1,07,68,81,038,31,78,72,155,21,67,36,123,26,69,35,316,29,1*7C
$GLGSV,2,2,07,79,23,199,24,85,13,340,22,84,11,289,,1*40
$GAGSV,3,1,10,06,76,084,31,09,75,309,32,04,49,099,30,31,41,148,27,7*7C
$GAGSV,3,2,10,05,22,289,23,34,21,304,21,36,18,251,21,21,09,032,21,7*75
$GAGSV,3,3,10,24,05,186,19,15,03,350,18,7*7E
$GBGSV,2,1,08,32,78,171,39,23,72,106,38,37,40,205,34,20,39,306,36,1*7E
$GBGSV,2,2,08,25,27,051,32,41,23,137,29,38,04,333,25,04,01,262,,1*7B
$GNRMC,181600.000,A,4910.425828,N,12304.402056,W,0.01,0.00,051224,,,D,V*1E
$GNVTG,0.00,T,,M,0.01,N,0.02,K,D*25
$GNGGA,181601.000,4910.425834,N,12304.402086,W,2,30,0.51,8.627,M,-16.817,M,,*48
$GNGLL,4910.425834,N,12304.402086,W,181601.000,A,D*53
$GNGSA,A,3,04,09,16,07,03,26,06,31,11,20,,,0.88,0.51,0.72,1*0C
$GNGSA,A,3,68,78,67,69,79,85,,,,,,,0.88,0.51,0.72,2*0F
$GNGSA,A,3,06,09,04,31,05,34,36,21,,,,,0.88,0.51,0.72,3*0F
$GNGSA,A,3,32,23,37,20,25,41,,,,,,,0.88,0.51,0.72,4*01
$GPGSV,4,1,13,04,79,078,35,09,66,299,36,16,47,095,31,07,36,240,32,1*61
$GPGSV,4,2,13,48,33,182,29,03,32,173,31,26,32,056,30,06,18,275,20,1*61
$GPGSV,4,3,13,31,16,061,26,11,14,314,26,20,05,327,18,29,02,013,18,1*6A
$GPGSV,4,4,13,30,01,241,15,1*57
$GLGSV,2,1,07,68,81,038,31,78,74,152,21,67,36,123,26,69,35,316,28,1*7C
$GLGSV,2,2,07,79,23,199,24,85,13,340,20,84,11,289,,1*42
$GAGSV,3,1,10,06,76,084,31,09,75,309,32,04,49,099,29,31,41,148,27,7*74
$GAGSV,3,2,10,05,22,289,23,34,21,304,21,36,18,251,21,21,09,032,21,7*75
$GAGSV,3,3,10,24,05,186,19,15,03,350,18,7*7E
$GBGSV,3,1,09,32,78,171,39,23,72,106,38,37,40,205,34,20,39,306,36,1*7E
$GBGSV,3,2,09,25,27,051,32,41,23,137,29,38,04,333,25,04,01,262,,1*7B
$GBGSV,3,3,09,35,01,335,,1*4D
$GNRMC,181601.000,A,4910.425834,N,12304.402086,W,0.01,0.00,051224,,,D,V*1F
$GNVTG,0.00,T,,M,0.01,N,0.02,K,D*25
$GNGGA,181602.000,4910.425846,N,12304.402056,W,2,30,0.51,8.538,M,-16.816,M,,*4F
$GNGLL,4910.425846,N,12304.402056,W,181602.000,A,D*58
$GNGSA,A,3,04,09,16,07,03,26,06,31,11,20,,,0.88,0.51,0.72,1*0C
$GNGSA,A,3,68,78,67,69,79,85,,,,,,,0.88,0.51,0.72,2*0F
$GNGSA,A,3,06,09,04,31,05,34,36,21,,,,,0.88,0.51,0.72,3*0F
$GNGSA,A,3,32,23,37,20,25,41,,,,,,,0.88,0.51,0.72,4*01
$GPGSV,4,1,13,04,79,078,35,09,66,299,37,16,47,095,31,07,36,240,32,1*60
$GPGSV,4,2,13,48,33,182,30,03,32,173,32,26,32,056,30,06,18,275,20,1*6A
$GPGSV,4,3,13,31,16,061,26,11,14,314,26,20,05,327,18,29,02,013,18,1*6A
$GPGSV,4,4,13,30,01,241,15,1*57
$GLGSV,2,1,07,68,81,038,30,78,74,152,21,67,36,123,26,69,35,316,28,1*7D
$GLGSV,2,2,07,79,25,199,24,85,13,340,21,84,11,289,,1*45
$GAGSV,3,1,10,06,76,084,32,09,75,309,32,04,49,099,29,31,41,148,27,7*77
$GAGSV,3,2,10,05,22,289,23,34,21,304,21,36,18,251,22,21,09,032,21,7*76
$GAGSV,3,3,10,24,05,186,19,15,03,350,18,7*7E
$GBGSV,3,1,09,32,78,171,39,23,72,106,38,37,40,205,34,20,39,306,36,1*7E
$GBGSV,3,2,09,25,27,051,32,41,23,137,29,38,04,333,25,04,01,262,,1*7B
$GBGSV,3,3,09,35,01,335,,1*4D
$GNRMC,181602.000,A,4910.425846,N,12304.402056,W,0.01,0.00,051224,,,D,V*14
$GNVTG,0.00,T,,M,0.01,N,0.03,K,D*24
$GNGGA,181603.000,4910.425924,N,12304.402056,W,2,30,0.51,8.520,M,-16.816,M,,*42
$GNGLL,4910.425924,N,12304.402056,W,181603.000,A,D*5C
$GNGSA,A,3,04,09,16,07,03,26,06,31,11,20,,,0.88,0.51,0.72,1*0C
$GNGSA,A,3,68,78,67,69,79,85,,,,,,,0.88,0.51,0.72,2*0F
$GNGSA,A,3,06,09,04,31,05,34,36,21,,,,,0.88,0.51,0.72,3*0F
$GNGSA,A,3,32,23,37,20,25,41,,,,,,,0.88,0.51,0.72,4*01
$GPGSV,4,1,13,04,79,078,35,09,66,299,37,16,47,095,31,07,36,240,32,1*60
$GPGSV,4,2,13,48,33,182,30,03,32,173,32,26,32,056,30,06,18,275,20,1*6A
$GPGSV,4,3,13,31,16,061,27,11,14,314,26,20,05,327,18,29,02,013,18,1*6B
$GPGSV,4,4,13,30,01,241,15,1*57
$GLGSV,2,1,07,68,81,038,30,78,74,152,21,67,36,123,26,69,35,316,28,1*7D
$GLGSV,2,2,07,79,25,199,24,85,13,340,21,84,11,289,,1*45
$GAGSV,3,1,10,06,76,084,32,09,75,309,32,04,49,099,30,31,41,148,27,7*7F
$GAGSV,3,2,10,05,22,289,24,34,21,304,21,36,18,251,22,21,09,032,21,7*71
$GAGSV,3,3,10,24,05,186,20,15,03,350,18,7*74
$GBGSV,3,1,09,32,78,171,39,23,72,106,38,37,40,205,34,20,39,306,36,1*7E
$GBGSV,3,2,09,25,27,051,32,41,23,137,29,38,04,333,25,04,01,262,,1*7B
$GBGSV,3,3,09,35,01,335,,1*4D
$GNRMC,181603.000,A,4910.425924,N,12304.402056,W,0.02,0.00,051224,,,D,V*13
$GNVTG,0.00,T,,M,0.02,N,0.03,K,D*27
$GNGGA,181604.000,4910.426002,N,12304.402092,W,2,30,0.51,8.550,M,-16.816,M,,*44
$GNGLL,4910.426002,N,12304.402092,W,181604.000,A,D*5D
$GNGSA,A,3,04,09,16,07,03,26,06,31,11,20,,,0.88,0.51,0.72,1*0C
$GNGSA,A,3,68,78,67,69,79,85,,,,,,,0.88,0.51,0.72,2*0F
$GNGSA,A,3,06,09,04,31,05,34,36,21,,,,,0.88,0.51,0.72,3*0F
$GNGSA,A,3,32,23,37,20,25,41,,,,,,,0.88,0.51,0.72,4*01
$GPGSV,4,1,13,04,79,078,35,09,66,299,37,16,47,095,32,07,36,240,32,1*63
$GPGSV,4,2,13,48,33,182,30,03,32,173,32,26,32,056,30,06,18,275,20,1*6A
$GPGSV,4,3,13,31,16,061,27,11,14,314,26,20,05,327,18,29,02,013,18,1*6B
$GPGSV,4,4,13,30,01,241,15,1*57
$GLGSV,2,1,07,68,81,038,30,78,74,152,22,67,36,123,26,69,35,316,28,1*7E
$GLGSV,2,2,07,79,25,199,24,85,13,340,21,84,11,289,,1*45
$GAGSV,3,1,10,06,76,084,32,09,75,309,32,04,49,099,31,31,41,148,27,7*7E
$GAGSV,3,2,10,05,22,289,24,34,21,304,21,36,18,251,23,21,09,032,21,7*70
$GAGSV,3,3,10,24,05,186,20,15,03,350,18,7*74
$GBGSV,3,1,09,32,78,171,39,23,72,106,38,37,40,205,34,20,39,306,36,1*7E
$GBGSV,3,2,09,25,27,051,32,41,23,137,30,38,04,333,25,04,01,262,,1*73
$GBGSV,3,3,09,35,01,335,,1*4D
$GNRMC,181604.000,A,4910.426002,N,12304.402092,W,0.02,0.00,051224,,,D,V*12
$GNVTG,0.00,T,,M,0.02,N,0.04,K,D*20
$GNGGA,181605.000,4910.426062,N,12304.402062,W,2,30,0.51,8.528,M,-16.816,M,,*43
$GNGLL,4910.426062,N,12304.402062,W,181605.000,A,D*55
$GNGSA,A,3,04,09,16,07,03,26,06,31,11,20,,,0.88,0.51,0.72,1*0C
$GNGSA,A,3,68,78,67,69,79,85,,,,,,,0.88,0.51,0.72,2*0F
$GNGSA,A,3,06,09,04,31,05,34,36,21,,,,,0.88,0.51,0.72,3*0F
$GNGSA,A,3,32,23,37,20,25,41,,,,,,,0.88,0.51,0.72,4*01
$GPGSV,4,1,13,04,79,078,35,09,66,299,37,16,47,095,32,07,36,240,32,1*63
$GPGSV,4,2,13,48,33,182,30,03,32,173,32,26,32,056,30,06,18,275,19,1*60
$GPGSV,4,3,13,31,16,061,27,11,14,314,26,20,05,327,18,29,02,013,18,1*6B
$GPGSV,4,4,13,30,01,241,15,1*57
$GLGSV,2,1,07,68,81,038,30,78,74,152,22,67,36,123,26,69,35,316,27,1*71
$GLGSV,2,2,07,79,25,199,24,85,13,340,21,84,11,289,,1*45
$GAGSV,3,1,10,06,76,084,32,09,75,309,32,04,49,099,31,31,41,148,27,7*7E
$GAGSV,3,2,10,05,22,289,24,34,21,304,22,36,18,251,23,21,09,032,21,7*73
$GAGSV,3,3,10,24,05,186,20,15,03,350,18,7*74
$GBGSV,3,1,09,32,78,171,39,23,72,106,38,37,40,205,34,20,39,306,36,1*7E
$GBGSV,3,2,09,25,27,051,32,41,23,137,30,38,04,333,25,04,01,262,,1*73
$GBGSV,3,3,09,35,01,335,,1*4D
$GNRMC,181605.000,A,4910.426062,N,12304.402062,W,0.02,0.00,051224,,,D,V*1A
$GNVTG,0.00,T,,M,0.02,N,0.04,K,D*20
$GNGGA,181606.000,4910.426092,N,12304.402098,W,2,30,0.51,8.567,M,-16.816,M,,*41
$GNGLL,4910.426092,N,12304.402098,W,181606.000,A,D*5C
$GNGSA,A,3,04,09,16,07,03,26,06,31,11,20,,,0.88,0.51,0.72,1*0C
$GNGSA,A,3,68,78,67,69,79,85,,,,,,,0.88,0.51,0.72,2*0F
$GNGSA,A,3,06,09,04,31,05,34,36,21,,,,,0.88,0.51,0.72,3*0F
$GNGSA,A,3,32,23,37,20,25,41,,,,,,,0.88,0.51,0.72,4*01
$GPGSV,4,1,13,04,79,078,35,09,66,299,37,16,47,095,32,07,36,240,32,1*63
$GPGSV,4,2,13,48,33,182,30,03,32,173,32,26,32,056,30,06,18,275,19,1*60
$GPGSV,4,3,13,31,16,061,27,11,14,314,26,20,05,327,18,29,02,013,18,1*6B
$GPGSV,4,4,13,30,01,241,15,1*57
$GLGSV,2,1,07,68,81,038,30,78,74,152,23,67,36,123,25,69,35,316,27,1*73
$GLGSV,2,2,07,79,25,199,24,85,13,340,21,84,11,289,,1*45
$GAGSV,3,1,10,06,76,084,32,09,75,309,32,04,49,099,30,31,41,148,27,7*7F
$GAGSV,3,2,10,05,22,289,24,34,21,304,22,36,18,251,22,21,09,032,21,7*72
$GAGSV,3,3,10,24,05,186,20,15,03,350,18,7*74
$GBGSV,3,1,09,32,78,171,39,23,72,106,38,37,40,205,34,20,39,306,36,1*7E
$GBGSV,3,2,09,25,27,051,33,41,23,137,30,38,04,333,25,04,01,262,,1*72
$GBGSV,3,3,09,35,01,335,,1*4D
$GNRMC,181606.000,A,4910.426092,N,12304.402098,W,0.02,0.00,051224,,,D,V*13
$GNVTG,0.00,T,,M,0.02,N,0.04,K,D*20
$GNGGA,181607.000,4910.426176,N,12304.402116,W,2,30,0.51,8.569,M,-16.816,M,,*42
$GNGLL,4910.426176,N,12304.402116,W,181607.000,A,D*51
$GNGSA,A,3,04,09,16,07,03,26,06,31,11,20,,,0.88,0.51,0.72,1*0C
$GNGSA,A,3,68,78,67,69,79,85,,,,,,,0.88,0.51,0.72,2*0F
$GNGSA,A,3,06,09,04,31,05,34,36,21,,,,,0.88,0.51,0.72,3*0F
$GNGSA,A,3,32,23,37,20,25,41,,,,,,,0.88,0.51,0.72,4*01
$GPGSV,4,1,13,04,79,078,35,09,66,299,37,16,47,095,32,07,36,240,32,1*63
$GPGSV,4,2,13,48,33,182,30,03,32,173,32,26,32,056,30,06,18,275,19,1*60
$GPGSV,4,3,13,31,16,061,27,11,14,314,26,20,05,327,18,29,02,013,17,1*64
$GPGSV,4,4,13,30,01,241,15,1*57
$GLGSV,2,1,07,68,81,038,30,78,74,152,21,67,36,123,25,69,35,316,27,1*71
$GLGSV,2,2,07,79,25,199,24,85,13,340,21,84,10,288,,1*45
$GAGSV,3,1,10,06,76,084,32,09,75,309,32,04,49,099,30,31,41,148,27,7*7F
$GAGSV,3,2,10,05,22,289,24,34,21,304,22,36,18,251,22,21,09,032,21,7*72
$GAGSV,3,3,10,24,05,186,20,15,03,350,18,7*74
$GBGSV,3,1,09,32,78,171,39,23,72,106,38,37,40,205,34,20,39,306,36,1*7E
$GBGSV,3,2,09,25,27,051,33,41,23,137,30,38,04,333,25,04,01,262,,1*72
$GBGSV,3,3,09,35,01,335,,1*4D
$GNRMC,181607.000,A,4910.426176,N,12304.402116,W,0.02,0.00,051224,,,D,V*1E
$GNVTG,0.00,T,,M,0.02,N,0.04,K,D*20
$GNGGA,181608.000,4910.426248,N,12304.402122,W,2,30,0.51,8.626,M,-16.816,M,,*4C
$GNGLL,4910.426248,N,12304.402122,W,181608.000,A,D*57
$GNGSA,A,3,04,09,16,07,03,26,06,31,11,20,,,0.88,0.51,0.72,1*0C
$GNGSA,A,3,68,78,67,69,79,85,,,,,,,0.88,0.51,0.72,2*0F
$GNGSA,A,3,06,09,04,31,05,34,36,21,,,,,0.88,0.51,0.72,3*0F
$GNGSA,A,3,32,23,37,20,25,41,,,,,,,0.88,0.51,0.72,4*01
$GPGSV,4,1,13,04,79,078,35,09,66,299,37,16,47,095,31,07,36,240,32,1*60
$GPGSV,4,2,13,48,33,182,30,03,32,173,31,26,32,056,29,06,18,275,19,1*6B
$GPGSV,4,3,13,31,16,061,27,11,14,314,25,20,05,327,17,29,02,013,14,1*6B
$GPGSV,4,4,13,30,01,241,15,1*57
$GLGSV,2,1,07,68,81,038,30,78,74,152,22,67,36,123,25,69,35,316,27,1*72
$GLGSV,2,2,07,79,25,199,24,85,13,338,21,84,10,288,,1*4A
$GAGSV,3,1,10,06,76,084,31,09,75,309,32,04,49,099,30,31,41,148,26,7*7D
$GAGSV,3,2,10,05,22,289,23,34,21,304,22,36,18,251,22,21,09,032,21,7*75
$GAGSV,3,3,10,24,05,186,19,15,03,350,18,7*7E
$GBGSV,3,1,09,32,78,171,39,23,72,106,38,37,40,205,34,20,39,306,36,1*7E
$GBGSV,3,2,09,25,27,051,33,41,23,137,30,38,04,333,25,04,01,262,,1*72
$GBGSV,3,3,09,35,01,335,,1*4D
$GNRMC,181608.000,A,4910.426248,N,12304.402122,W,0.02,0.00,051224,,,D,V*18
$GNVTG,0.00,T,,M,0.02,N,0.04,K,D*20
$GNGGA,181609.000,4910.426332,N,12304.402176,W,2,30,0.51,8.669,M,-16.816,M,,*4B
$GNGLL,4910.426332,N,12304.402176,W,181609.000,A,D*5B
$GNGSA,A,3,04,09,16,07,03,26,06,31,11,20,,,0.88,0.51,0.72,1*0C
$GNGSA,A,3,68,78,67,69,79,85,,,,,,,0.88,0.51,0.72,2*0F
$GNGSA,A,3,06,09,04,31,05,34,36,21,,,,,0.88,0.51,0.72,3*0F
$GNGSA,A,3,32,23,37,20,25,41,,,,,,,0.88,0.51,0.72,4*01
$GPGSV,4,1,13,04,79,078,35,09,66,299,37,16,47,095,31,07,36,240,32,1*60
$GPGSV,4,2,13,48,33,182,30,03,32,173,31,26,32,056,29,06,18,275,19,1*6B
$GPGSV,4,3,13,31,16,061,27,11,14,314,25,20,05,327,17,29,02,013,16,1*69
$GPGSV,4,4,13,30,01,241,15,1*57
$GLGSV,2,1,07,68,81,038,30,78,74,152,22,67,36,123,25,69,35,316,27,1*72
$GLGSV,2,2,07,79,25,199,24,85,13,338,20,84,10,288,,1*4B
$GAGSV,3,1,10,06,76,084,31,09,75,309,32,04,49,099,30,31,41,148,27,7*7C
$GAGSV,3,2,10,05,22,289,23,34,21,304,21,36,18,251,21,21,09,032,21,7*75
$GAGSV,3,3,10,24,05,186,19,15,03,350,18,7*7E
$GBGSV,3,1,09,32,78,171,39,23,72,106,38,37,40,205,34,20,39,306,36,1*7E
$GBGSV,3,2,09,25,27,051,33,41,23,137,30,38,04,333,25,04,01,262,,1*72
$GBGSV,3,3,09,35,01,335,,1*4D
$GNRMC,181609.000,A,4910.426332,N,12304.402176,W,0.03,0.00,051224,,,D,V*15
$GNVTG,0.00,T,,M,0.03,N,0.05,K,D*20
$GNGGA,181610.000,4910.426314,N,12304.402260,W,2,30,0.51,8.808,M,-16.816,M,,*4A
$GNGLL,4910.426314,N,12304.402260,W,181610.000,A,D*53
$GNGSA,A,3,04,09,16,07,03,26,06,31,11,20,,,0.88,0.51,0.72,1*0C
$GNGSA,A,3,68,78,67,69,79,85,,,,,,,0.88,0.51,0.72,2*0F
$GNGSA,A,3,06,09,04,31,05,34,36,21,,,,,0.88,0.51,0.72,3*0F
$GNGSA,A,3,32,23,37,20,25,41,,,,,,,0.88,0.51,0.72,4*01
$GPGSV,4,1,13,04,79,078,35,09,66,299,37,16,47,095,32,07,36,240,32,1*63
$GPGSV,4,2,13,48,33,182,30,03,32,173,31,26,32,056,29,06,18,275,19,1*6B
$GPGSV,4,3,13,31,16,061,27,11,14,314,26,20,05,327,17,29,02,013,17,1*6B
$GPGSV,4,4,13,30,01,241,15,1*57
$GLGSV,2,1,07,68,81,038,30,78,74,152,22,67,36,123,25,69,35,316,27,1*72
$GLGSV,2,2,07,79,25,199,24,85,13,338,20,84,10,288,,1*4B
$GAGSV,3,1,10,06,76,084,31,09,75,309,32,04,49,099,30,31,41,148,27,7*7C
$GAGSV,3,2,10,05,22,289,23,34,21,304,21,36,18,251,21,21,09,032,21,7*75
$GAGSV,3,3,10,24,05,186,19,15,03,350,18,7*7E
$GBGSV,3,1,09,32,78,171,39,23,72,106,38,37,40,205,34,20,39,306,36,1*7E
$GBGSV,3,2,09,25,27,051,33,41,23,137,30,38,04,333,25,04,01,262,,1*72
$GBGSV,3,3,09,35,01,335,,1*4D
$GNRMC,181610.000,A,4910.426314,N,12304.402260,W,0.03,0.00,051224,,,D,V*1D
$GNVTG,0.00,T,,M,0.03,N,0.06,K,D*23
$GNGGA,181611.000,4910.426278,N,12304.402320,W,2,30,0.51,8.837,M,-16.817,M,,*48
$GNGLL,4910.426278,N,12304.402320,W,181611.000,A,D*5C
$GNGSA,A,3,04,09,16,07,03,26,06,31,11,20,,,0.88,0.51,0.72,1*0C
$GNGSA,A,3,68,78,67,69,79,85,,,,,,,0.88,0.51,0.72,2*0F
$GNGSA,A,3,06,09,04,31,05,34,36,21,,,,,0.88,0.51,0.72,3*0F
$GNGSA,A,3,32,23,37,20,25,41,,,,,,,0.88,0.51,0.72,4*01
$GPGSV,4,1,13,04,79,078,35,09,66,299,37,16,47,095,32,07,36,240,32,1*63
$GPGSV,4,2,13,48,33,182,30,03,32,173,31,26,32,056,29,06,18,275,19,1*6B
$GPGSV,4,3,13,31,16,061,27,11,14,314,26,20,05,327,17,29,02,013,17,1*6B
$GPGSV,4,4,13,30,01,241,15,1*57
$GLGSV,2,1,07,68,81,038,30,78,74,152,21,67,36,123,24,69,35,316,26,1*71
$GLGSV,2,2,07,79,25,199,24,85,13,338,20,84,10,288,,1*4B
$GAGSV,3,1,10,06,76,084,31,09,75,309,32,04,49,099,30,31,41,148,26,7*7D
$GAGSV,3,2,10,05,22,289,23,34,21,304,21,36,18,251,21,21,09,032,21,7*75
$GAGSV,3,3,10,24,05,186,19,15,03,350,18,7*7E
$GBGSV,3,1,09,32,78,171,39,23,72,106,38,37,40,205,34,20,39,306,36,1*7E
$GBGSV,3,2,09,25,27,051,33,41,23,137,30,38,04,333,25,04,01,262,,1*72
$GBGSV,3,3,09,35,01,335,,1*4D
$GNRMC,181611.000,A,4910.426278,N,12304.402320,W,0.03,0.00,051224,,,D,V*12
$GNVTG,0.00,T,,M,0.03,N,0.06,K,D*23
$GNGGA,181612.000,4910.426302,N,12304.402326,W,2,30,0.51,8.931,M,-16.817,M,,*46
$GNGLL,4910.426302,N,12304.402326,W,181612.000,A,D*55
$GNGSA,A,3,04,09,16,07,03,26,06,31,11,20,,,0.88,0.51,0.72,1*0C
$GNGSA,A,3,68,78,67,69,79,85,,,,,,,0.88,0.51,0.72,2*0F
$GNGSA,A,3,06,09,04,31,05,34,36,21,,,,,0.88,0.51,0.72,3*0F
$GNGSA,A,3,32,23,37,20,25,41,,,,,,,0.88,0.51,0.72,4*01
$GPGSV,4,1,13,04,79,078,34,09,66,299,36,16,47,095,31,07,36,240,31,1*63
$GPGSV,4,2,13,48,33,182,29,03,32,173,30,26,32,056,28,06,18,275,19,1*63
$GPGSV,4,3,13,31,16,061,27,11,14,314,25,20,05,327,17,29,02,013,16,1*69
$GPGSV,4,4,13,30,01,241,15,1*57
$GLGSV,2,1,07,68,81,038,30,78,74,152,21,67,36,123,24,69,35,316,27,1*70
$GLGSV,2,2,07,79,25,199,24,85,13,338,20,84,10,288,,1*4B
$GAGSV,3,1,10,06,76,084,30,09,75,309,31,04,49,099,29,31,41,148,25,7*74
$GAGSV,3,2,10,05,22,289,23,34,21,304,20,36,18,251,21,21,09,032,20,7*75
$GAGSV,3,3,10,24,05,186,19,15,03,350,18,7*7E
$GBGSV,3,1,09,32,78,171,39,23,72,106,38,37,40,205,33,20,39,306,36,1*79
$GBGSV,3,2,09,25,27,051,33,41,23,137,30,38,04,333,24,04,01,262,,1*73
$GBGSV,3,3,09,35,01,335,,1*4D
$GNRMC,181612.000,A,4910.426302,N,12304.402326,W,0.03,0.00,051224,,,D,V*1B
$GNVTG,0.00,T,,M,0.03,N,0.05,K,D*20
$GNGGA,181613.000,4910.426356,N,12304.402290,W,2,29,0.52,9.020,M,-16.817,M,,*49
$GNGLL,4910.426356,N,12304.402290,W,181613.000,A,D*59
$GNGSA,A,3,04,09,16,07,03,26,06,31,11,,,,0.90,0.52,0.74,1*02
$GNGSA,A,3,68,78,67,69,79,85,,,,,,,0.90,0.52,0.74,2*03
$GNGSA,A,3,06,09,04,31,05,34,36,21,,,,,0.90,0.52,0.74,3*03
$GNGSA,A,3,32,23,37,20,25,41,,,,,,,0.90,0.52,0.74,4*0D
$GPGSV,4,1,13,04,79,078,34,09,66,299,36,16,47,095,31,07,36,240,31,1*63
$GPGSV,4,2,13,48,33,182,29,03,32,173,30,26,32,056,28,06,18,275,18,1*62
$GPGSV,4,3,13,31,16,061,27,11,14,314,25,20,05,327,16,29,02,013,16,1*68
$GPGSV,4,4,13,30,01,241,14,1*56
$GLGSV,2,1,07,68,81,038,30,78,74,152,21,67,36,123,24,69,35,316,28,1*7F
$GLGSV,2,2,07,79,25,199,24,85,13,338,20,84,10,288,,1*4B
$GAGSV,3,1,10,06,76,084,30,09,75,309,31,04,49,099,29,31,41,148,25,7*74
$GAGSV,3,2,10,05,22,289,23,34,21,304,20,36,18,251,21,21,09,032,20,7*75
$GAGSV,3,3,10,24,05,186,19,15,03,350,18,7*7E
$GBGSV,3,1,09,32,78,171,39,23,72,106,38,37,40,205,33,20,39,306,36,1*79
$GBGSV,3,2,09,25,27,051,33,41,23,137,30,38,04,333,24,04,01,262,,1*73
$GBGSV,3,3,09,35,01,335,,1*4D
$GNRMC,181613.000,A,4910.426356,N,12304.402290,W,0.02,0.00,051224,,,D,V*16
$GNVTG,0.00,T,,M,0.02,N,0.04,K,D*20
$GNGGA,181614.000,4910.426380,N,12304.402230,W,2,30,0.51,9.220,M,-16.816,M,,*47
$GNGLL,4910.426380,N,12304.402230,W,181614.000,A,D*5F
$GNGSA,A,3,04,09,16,07,03,26,06,31,11,20,,,0.88,0.51,0.72,1*0C
$GNGSA,A,3,68,78,67,69,79,85,,,,,,,0.88,0.51,0.72,2*0F
$GNGSA,A,3,06,09,04,31,05,34,36,21,,,,,0.88,0.51,0.72,3*0F
$GNGSA,A,3,32,23,37,20,25,41,,,,,,,0.88,0.51,0.72,4*01
$GPGSV,4,1,13,04,79,078,34,09,66,299,36,16,47,095,30,07,36,240,30,1*63
$GPGSV,4,2,13,48,33,182,29,03,32,173,29,26,32,056,27,06,18,275,18,1*65
$GPGSV,4,3,13,31,16,061,27,11,14,314,24,20,05,327,16,29,02,013,11,1*6E
$GPGSV,4,4,13,30,01,241,14,1*56
$GLGSV,2,1,07,68,81,038,30,78,74,152,20,67,36,123,24,69,35,316,28,1*7E
$GLGSV,2,2,07,79,25,199,24,85,13,338,20,84,10,288,,1*4B
$GAGSV,3,1,10,06,76,084,30,09,75,309,31,04,49,099,29,31,41,148,25,7*74
$GAGSV,3,2,10,05,22,289,22,34,21,304,20,36,18,251,20,21,09,032,20,7*75
$GAGSV,3,3,10,24,05,186,19,15,03,350,18,7*7E
$GBGSV,3,1,09,32,78,171,39,23,72,106,38,37,40,205,33,20,39,306,36,1*79
$GBGSV,3,2,09,25,27,051,33,41,23,137,30,38,04,333,24,04,01,262,,1*73
$GBGSV,3,3,09,35,01,335,,1*4D
$GNRMC,181614.000,A,4910.426380,N,12304.402230,W,0.02,0.00,051224,,,D,V*10
$GNVTG,0.00,T,,M,0.02,N,0.03,K,D*27
$GNGGA,181615.000,4910.426446,N,12304.402074,W,2,30,0.51,9.304,M,-16.817,M,,*4F
$GNGLL,4910.426446,N,12304.402074,W,181615.000,A,D*51
$GNGSA,A,3,04,09,16,07,03,26,06,31,11,20,,,0.88,0.51,0.72,1*0C
$GNGSA,A,3,68,78,67,69,79,85,,,,,,,0.88,0.51,0.72,2*0F
$GNGSA,A,3,06,09,04,31,05,34,36,21,,,,,0.88,0.51,0.72,3*0F
$GNGSA,A,3,32,23,37,20,25,41,,,,,,,0.88,0.51,0.72,4*01
$GPGSV,4,1,13,04,79,078,34,09,66,299,35,16,47,095,30,07,36,240,31,1*61
$GPGSV,4,2,13,48,33,182,29,03,32,173,29,26,32,056,27,06,18,275,18,1*65
$GPGSV,4,3,13,31,16,061,27,11,14,314,23,20,05,327,16,29,02,013,14,1*6C
$GPGSV,4,4,13,30,01,241,14,1*56
$GLGSV,2,1,07,68,81,038,30,78,74,152,20,67,36,123,24,69,35,316,28,1*7E
$GLGSV,2,2,07,79,25,199,24,85,13,338,20,84,10,288,,1*4B
$GAGSV,3,1,10,06,76,084,30,09,75,309,31,04,49,099,29,31,41,148,25,7*74
$GAGSV,3,2,10,05,22,289,22,34,21,304,20,36,18,251,20,21,09,032,20,7*75
$GAGSV,3,3,10,24,05,186,19,15,03,350,18,7*7E
$GBGSV,3,1,09,32,78,171,39,23,72,106,38,37,40,205,33,20,39,306,36,1*79
$GBGSV,3,2,09,25,27,051,33,41,23,137,30,38,04,333,24,04,01,262,,1*73
$GBGSV,3,3,09,35,01,335,,1*4D
$GNRMC,181615.000,A,4910.426446,N,12304.402074,W,0.02,0.00,051224,,,D,V*1E
$GNVTG,0.00,T,,M,0.02,N,0.04,K,D*20
$GNGGA,181616.000,4910.426494,N,12304.401966,W,2,30,0.51,9.373,M,-16.817,M,,*4A
$GNGLL,4910.426494,N,12304.401966,W,181616.000,A,D*54
$GNGSA,A,3,04,09,16,07,03,26,06,31,11,20,,,0.88,0.51,0.72,1*0C
$GNGSA,A,3,68,78,67,69,79,85,,,,,,,0.88,0.51,0.72,2*0F
$GNGSA,A,3,06,09,04,31,05,34,36,21,,,,,0.88,0.51,0.72,3*0F
$GNGSA,A,3,32,23,37,20,25,41,,,,,,,0.88,0.51,0.72,4*01
$GPGSV,4,1,13,04,79,078,34,09,66,299,35,16,47,095,30,07,36,240,31,1*61
$GPGSV,4,2,13,48,33,182,28,03,32,173,29,26,32,056,27,06,18,275,18,1*64
$GPGSV,4,3,13,31,16,061,27,11,14,314,24,20,05,327,16,29,02,013,14,1*6B
$GPGSV,4,4,13,30,01,241,14,1*56
$GLGSV,2,1,07,68,81,038,30,78,74,152,20,67,36,123,25,69,35,316,28,1*7F
$GLGSV,2,2,07,79,25,199,24,85,13,338,20,84,10,288,,1*4B
$GAGSV,3,1,10,06,76,084,30,09,75,309,31,04,49,099,29,31,41,148,25,7*74
$GAGSV,3,2,10,05,22,289,21,34,21,304,20,36,18,251,20,21,09,032,20,7*76
$GAGSV,3,3,10,24,05,186,19,15,03,350,17,7*71
$GBGSV,3,1,09,32,78,171,39,23,72,106,38,37,40,205,33,20,39,306,36,1*79
$GBGSV,3,2,09,25,27,051,34,41,23,137,30,38,04,333,24,04,01,262,,1*74
$GBGSV,3,3,09,35,01,335,,1*4D
$GNRMC,181616.000,A,4910.426494,N,12304.401966,W,0.02,0.00,051224,,,D,V*1B
$GNVTG,0.00,T,,M,0.02,N,0.04,K,D*20
$GNGGA,181617.000,4910.426548,N,12304.401912,W,2,30,0.51,9.491,M,-16.816,M,,*42
$GNGLL,4910.426548,N,12304.401912,W,181617.000,A,D*56
$GNGSA,A,3,04,09,16,07,03,26,06,31,11,20,,,0.88,0.51,0.72,1*0C
$GNGSA,A,3,68,78,67,69,79,85,,,,,,,0.88,0.51,0.72,2*0F
$GNGSA,A,3,06,09,04,31,05,34,36,21,,,,,0.88,0.51,0.72,3*0F
$GNGSA,A,3,32,23,37,20,25,41,,,,,,,0.88,0.51,0.72,4*01
$GPGSV,4,1,13,04,79,078,34,09,66,299,35,16,47,095,29,07,36,240,31,1*69
$GPGSV,4,2,13,48,33,182,28,03,32,173,29,26,32,056,27,06,18,275,18,1*64
$GPGSV,4,3,13,31,16,061,27,11,14,314,23,20,05,327,16,29,02,013,15,1*6D
$GPGSV,4,4,13,30,01,241,14,1*56
$GLGSV,2,1,07,68,81,038,30,78,74,152,20,67,36,123,25,69,35,316,28,1*7F
$GLGSV,2,2,07,79,25,199,24,85,13,338,20,84,10,288,,1*4B
$GAGSV,3,1,10,06,76,084,30,09,75,309,31,04,49,099,29,31,41,148,25,7*74
$GAGSV,3,2,10,05,22,289,21,34,21,304,20,36,18,251,20,21,09,032,20,7*76
$GAGSV,3,3,10,24,05,186,19,15,03,350,17,7*71
$GBGSV,3,1,09,32,78,171,39,23,72,106,38,37,40,205,33,20,39,306,36,1*79
$GBGSV,3,2,09,25,27,051,34,41,23,137,30,38,04,333,24,04,01,262,,1*74
$GBGSV,3,3,09,35,01,335,,1*4D
$GNRMC,181617.000,A,4910.426548,N,12304.401912,W,0.03,0.00,051224,,,D,V*18
$GNVTG,0.00,T,,M,0.03,N,0.05,K,D*20
$GNGGA,181618.000,4910.426602,N,12304.401834,W,2,30,0.51,9.635,M,-16.817,M,,*48
$GNGLL,4910.426602,N,12304.401834,W,181618.000,A,D*51
$GNGSA,A,3,04,09,16,07,03,26,06,31,11,20,,,0.88,0.51,0.72,1*0C
$GNGSA,A,3,68,78,67,69,79,85,,,,,,,0.88,0.51,0.72,2*0F
$GNGSA,A,3,06,09,04,31,05,34,36,21,,,,,0.88,0.51,0.72,3*0F
$GNGSA,A,3,32,23,37,20,25,41,,,,,,,0.88,0.51,0.72,4*01
$GPGSV,4,1,13,04,79,078,34,09,66,299,35,16,47,095,29,07,36,240,31,1*69
$GPGSV,4,2,13,48,33,182,28,03,32,173,28,26,32,056,27,06,18,275,18,1*65
$GPGSV,4,3,13,31,16,061,27,11,14,314,24,20,05,327,16,29,02,013,15,1*6A
$GPGSV,4,4,13,30,01,241,14,1*56
$GLGSV,2,1,07,68,81,038,30,78,74,152,20,67,36,123,25,69,35,316,28,1*7F
$GLGSV,2,2,07,79,25,199,24,85,13,338,19,84,10,288,,1*41
$GAGSV,3,1,10,06,76,084,30,09,75,309,31,04,49,099,29,31,41,148,25,7*74
$GAGSV,3,2,10,05,22,289,21,34,21,304,20,36,18,251,20,21,09,032,20,7*76
$GAGSV,3,3,10,24,05,186,19,15,03,350,16,7*70
$GBGSV,3,1,09,32,78,171,39,23,72,106,38,37,40,205,33,20,39,306,36,1*79
$GBGSV,3,2,09,25,27,051,33,41,23,137,30,38,04,333,24,04,01,262,,1*73
$GBGSV,3,3,09,35,01,335,,1*4D
$GNRMC,181618.000,A,4910.426602,N,12304.401834,W,0.03,0.00,051224,,,D,V*1F
$GNVTG,0.00,T,,M,0.03,N,0.05,K,D*20
$GNGGA,181619.000,4910.426662,N,12304.401762,W,2,30,0.51,9.728,M,-16.816,M,,*4F
$GNGLL,4910.426662,N,12304.401762,W,181619.000,A,D*5A
$GNGSA,A,3,04,09,16,07,03,26,06,31,11,20,,,0.88,0.51,0.72,1*0C
$GNGSA,A,3,68,78,67,69,79,85,,,,,,,0.88,0.51,0.72,2*0F
$GNGSA,A,3,06,09,04,31,05,34,36,21,,,,,0.88,0.51,0.72,3*0F
$GNGSA,A,3,32,23,37,20,25,41,,,,,,,0.88,0.51,0.72,4*01
$GPGSV,4,1,13,04,79,078,34,09,66,299,35,16,47,095,29,07,36,240,31,1*69
$GPGSV,4,2,13,48,33,182,28,03,32,173,29,26,32,056,27,06,18,275,18,1*64
$GPGSV,4,3,13,31,16,061,27,11,14,314,24,20,05,327,16,29,02,013,17,1*68
$GPGSV,4,4,13,30,01,241,14,1*56
$GLGSV,2,1,07,68,81,038,30,78,74,152,20,67,36,123,24,69,35,316,28,1*7E
$GLGSV,2,2,07,79,25,199,24,85,13,338,19,84,10,288,,1*41
$GAGSV,3,1,10,06,76,084,31,09,75,309,31,04,49,099,29,31,41,148,25,7*75
$GAGSV,3,2,10,05,22,289,22,34,21,304,20,36,18,251,20,21,09,032,20,7*75
$GAGSV,3,3,10,24,05,186,19,15,03,350,17,7*71
$GBGSV,3,1,09,32,78,171,39,23,72,106,38,37,40,205,33,20,39,306,36,1*79
$GBGSV,3,2,09,25,27,051,33,41,23,137,30,38,04,333,24,04,01,262,,1*73
$GBGSV,3,3,09,35,01,335,,1*4D
$GNRMC,181619.000,A,4910.426662,N,12304.401762,W,0.03,0.00,051224,,,D,V*14
$GNVTG,0.00,T,,M,0.03,N,0.05,K,D*20
$GNGGA,181620.000,4910.426752,N,12304.401732,W,2,29,0.52,9.768,M,-16.817,M,,*4C
$GNGLL,4910.426752,N,12304.401732,W,181620.000,A,D*57
$GNGSA,A,3,04,09,16,07,03,26,06,31,11,,,,0.90,0.52,0.74,1*02
$GNGSA,A,3,68,78,67,69,79,85,,,,,,,0.90,0.52,0.74,2*03
$GNGSA,A,3,06,09,04,31,05,34,36,21,,,,,0.90,0.52,0.74,3*03
$GNGSA,A,3,32,23,37,20,25,41,,,,,,,0.90,0.52,0.74,4*0D
$GPGSV,4,1,13,04,79,078,34,09,66,299,36,16,47,095,30,07,36,240,32,1*61
$GPGSV,4,2,13,48,33,182,29,03,32,173,29,26,32,056,27,06,18,275,18,1*65
$GPGSV,4,3,13,31,16,061,27,11,14,314,24,20,05,327,16,29,02,013,15,1*6A
$GPGSV,4,4,13,30,01,241,15,1*57
$GLGSV,2,1,07,68,81,038,30,78,74,152,21,67,36,123,24,69,35,316,28,1*7F
$GLGSV,2,2,07,79,25,199,24,85,13,338,18,84,10,288,,1*40
$GAGSV,3,1,10,06,76,084,31,09,75,309,31,04,49,099,29,31,41,148,25,7*75
$GAGSV,3,2,10,05,22,289,22,34,21,304,20,36,18,251,21,21,09,032,20,7*74
$GAGSV,3,3,10,24,05,186,20,15,03,350,17,7*7B
$GBGSV,3,1,09,32,78,171,39,23,72,106,39,37,40,205,33,20,39,306,36,1*78
$GBGSV,3,2,09,25,27,051,33,41,23,137,30,38,04,333,24,04,01,262,,1*73
$GBGSV,3,3,09,35,01,335,,1*4D
$GNRMC,181620.000,A,4910.426752,N,12304.401732,W,0.03,0.00,051224,,,D,V*19
$GNVTG,0.00,T,,M,0.03,N,0.05,K,D*20
$GNGGA,181621.000,4910.426764,N,12304.401702,W,2,30,0.51,9.796,M,-16.816,M,,*40
$GNGLL,4910.426764,N,12304.401702,W,181621.000,A,D*50
$GNGSA,A,3,04,09,16,07,03,26,06,31,11,20,,,0.88,0.51,0.72,1*0C
$GNGSA,A,3,68,78,67,69,79,85,,,,,,,0.88,0.51,0.72,2*0F
$GNGSA,A,3,06,09,04,31,05,34,36,21,,,,,0.88,0.51,0.72,3*0F
$GNGSA,A,3,32,23,37,20,25,41,,,,,,,0.88,0.51,0.72,4*01
$GPGSV,4,1,13,04,79,078,34,09,66,299,36,16,47,095,30,07,36,240,32,1*61
$GPGSV,4,2,13,48,33,182,29,03,32,173,29,26,32,056,28,06,18,275,18,1*6A
$GPGSV,4,3,13,31,16,061,27,11,14,314,24,20,05,327,16,29,02,013,15,1*6A
$GPGSV,4,4,13,30,01,241,15,1*57
$GLGSV,2,1,07,68,81,038,30,78,74,152,22,67,36,123,25,69,35,316,28,1*7D
$GLGSV,2,2,07,79,25,199,24,85,13,338,18,84,10,288,,1*40
$GAGSV,3,1,10,06,76,084,31,09,75,309,32,04,49,099,29,31,41,148,26,7*75
$GAGSV,3,2,10,05,22,289,22,34,21,304,21,36,18,251,21,21,09,032,21,7*74
$GAGSV,3,3,10,24,05,186,20,15,03,350,18,7*74
$GBGSV,3,1,09,32,78,171,38,23,72,106,38,37,40,205,33,20,39,306,35,1*7B
$GBGSV,3,2,09,25,27,051,33,41,23,137,30,38,04,333,24,04,01,262,,1*73
$GBGSV,3,3,09,35,01,335,,1*4D
$GNRMC,181621.000,A,4910.426764,N,12304.401702,W,0.02,0.00,051224,,,D,V*1F
$GNVTG,0.00,T,,M,0.02,N,0.04,K,D*20
$GNGGA,181622.000,4910.426806,N,12304.401636,W,2,30,0.51,9.834,M,-16.816,M,,*49
$GNGLL,4910.426806,N,12304.401636,W,181622.000,A,D*5E
$GNGSA,A,3,04,09,16,07,03,26,06,31,11,20,,,0.88,0.51,0.72,1*0C
$GNGSA,A,3,68,78,67,69,79,85,,,,,,,0.88,0.51,0.72,2*0F
$GNGSA,A,3,06,09,04,31,05,34,36,21,,,,,0.88,0.51,0.72,3*0F
$GNGSA,A,3,32,23,37,20,25,41,,,,,,,0.88,0.51,0.72,4*01
$GPGSV,4,1,13,04,79,078,34,09,66,299,36,16,47,095,30,07,36,240,32,1*61
$GPGSV,4,2,13,48,33,182,28,03,32,173,29,26,32,056,28,06,18,275,18,1*6B
$GPGSV,4,3,13,31,16,061,27,11,14,314,23,20,05,327,16,29,02,013,17,1*6F
$GPGSV,4,4,13,30,01,241,15,1*57
$GLGSV,2,1,07,68,81,038,30,78,74,152,23,67,36,123,25,69,35,316,28,1*7C
$GLGSV,2,2,07,79,25,199,24,85,13,338,18,84,10,288,,1*40
$GAGSV,3,1,10,06,76,084,31,09,75,309,32,04,49,099,29,31,41,148,26,7*75
$GAGSV,3,2,10,05,22,289,23,34,21,304,21,36,18,251,21,21,09,032,21,7*75
$GAGSV,3,3,10,24,05,186,20,15,03,350,18,7*74
$GBGSV,3,1,09,32,78,171,38,23,72,106,38,37,40,205,33,20,39,306,35,1*7B
$GBGSV,3,2,09,25,27,051,33,41,23,137,30,38,04,333,24,04,01,262,,1*73
$GBGSV,3,3,09,35,01,335,,1*4D
$GNRMC,181622.000,A,4910.426806,N,12304.401636,W,0.02,0.00,051224,,,D,V*11
$GNVTG,0.00,T,,M,0.02,N,0.04,K,D*20
$GNGGA,181623.000,4910.426806,N,12304.401660,W,2,29,0.52,9.832,M,-16.816,M,,*46
$GNGLL,4910.426806,N,12304.401660,W,181623.000,A,D*5C
$GNGSA,A,3,04,09,16,07,03,26,06,31,11,,,,0.90,0.52,0.74,1*02
$GNGSA,A,3,68,78,67,69,79,85,,,,,,,0.90,0.52,0.74,2*03
$GNGSA,A,3,06,09,04,31,05,34,36,21,,,,,0.90,0.52,0.74,3*03
$GNGSA,A,3,32,23,37,20,25,41,,,,,,,0.90,0.52,0.74,4*0D
$GPGSV,4,1,13,04,79,078,35,09,66,299,37,16,47,095,30,07,36,240,33,1*60
$GPGSV,4,2,13,48,33,182,29,03,32,173,29,26,32,056,29,06,18,275,19,1*6A
$GPGSV,4,3,13,31,16,061,28,11,14,314,25,20,05,327,16,29,02,013,16,1*67
$GPGSV,4,4,13,30,01,241,15,1*57
$GLGSV,2,1,07,68,81,038,30,78,74,152,24,67,36,123,25,69,35,316,28,1*7B
$GLGSV,2,2,07,79,25,199,24,85,13,338,19,84,10,288,,1*41
$GAGSV,3,1,10,06,76,084,32,09,75,309,33,04,49,099,30,31,41,148,27,7*7E
$GAGSV,3,2,10,05,22,289,23,34,21,304,22,36,18,251,22,21,09,032,22,7*76
$GAGSV,3,3,10,24,05,186,20,15,03,350,18,7*74
$GBGSV,3,1,09,32,78,171,38,23,72,106,38,37,40,205,33,20,39,306,35,1*7B
$GBGSV,3,2,09,25,27,051,33,41,23,137,30,38,04,333,24,04,01,262,,1*73
$GBGSV,3,3,09,35,01,335,,1*4D
$GNRMC,181623.000,A,4910.426806,N,12304.401660,W,0.02,0.00,051224,,,D,V*13
$GNVTG,0.00,T,,M,0.02,N,0.04,K,D*20
$GNGGA,181624.000,4910.426824,N,12304.401714,W,2,30,0.51,9.933,M,-16.816,M,,*48
$GNGLL,4910.426824,N,12304.401714,W,181624.000,A,D*59
$GNGSA,A,3,04,09,16,07,03,26,06,31,11,20,,,0.88,0.51,0.72,1*0C
$GNGSA,A,3,68,78,67,69,79,85,,,,,,,0.88,0.51,0.72,2*0F
$GNGSA,A,3,06,09,04,31,05,34,36,21,,,,,0.88,0.51,0.72,3*0F
$GNGSA,A,3,32,23,37,20,25,41,,,,,,,0.88,0.51,0.72,4*01
$GPGSV,4,1,13,04,79,078,35,09,66,299,36,16,47,095,30,07,36,240,33,1*61
$GPGSV,4,2,13,48,33,182,29,03,32,173,29,26,32,056,29,06,18,275,19,1*6A
$GPGSV,4,3,13,31,16,061,27,11,14,314,24,20,05,327,17,29,02,013,16,1*68
$GPGSV,4,4,13,30,01,241,15,1*57
$GLGSV,2,1,07,68,81,038,30,78,74,152,24,67,36,123,25,69,35,316,28,1*7B
$GLGSV,2,2,07,79,25,199,25,85,13,338,19,84,10,288,,1*40
$GAGSV,3,1,10,06,76,084,31,09,75,309,32,04,49,099,30,31,41,148,27,7*7C
$GAGSV,3,2,10,05,22,289,23,34,21,304,22,36,18,251,22,21,09,032,22,7*76
$GAGSV,3,3,10,24,05,186,20,15,03,350,18,7*74
$GBGSV,3,1,09,32,78,171,38,23,72,106,38,37,40,205,33,20,39,306,35,1*7B
$GBGSV,3,2,09,25,27,051,33,41,23,137,30,38,04,333,24,04,01,262,,1*73
$GBGSV,3,3,09,35,01,335,,1*4D
$GNRMC,181624.000,A,4910.426824,N,12304.401714,W,0.02,0.00,051224,,,D,V*16
$GNVTG,0.00,T,,M,0.02,N,0.03,K,D*27
$GNGGA,181625.000,4910.426824,N,12304.401804,W,2,30,0.51,9.976,M,-16.816,M,,*46
$GNGLL,4910.426824,N,12304.401804,W,181625.000,A,D*56
$GNGSA,A,3,04,09,16,07,03,26,06,31,11,20,,,0.88,0.51,0.72,1*0C
$GNGSA,A,3,68,78,67,69,79,85,,,,,,,0.88,0.51,0.72,2*0F
$GNGSA,A,3,06,09,04,31,05,34,36,21,,,,,0.88,0.51,0.72,3*0F
$GNGSA,A,3,32,23,37,20,25,41,,,,,,,0.88,0.51,0.72,4*01
$GPGSV,4,1,13,04,79,078,35,09,66,299,36,16,47,095,30,07,36,240,33,1*61
$GPGSV,4,2,13,48,33,182,30,03,32,173,29,26,32,056,29,06,18,275,19,1*62
$GPGSV,4,3,13,31,16,061,27,11,14,314,25,20,05,327,17,29,02,013,16,1*69
$GPGSV,4,4,13,30,01,241,15,1*57
$GLGSV,2,1,07,68,81,038,30,78,74,152,23,67,36,123,25,69,35,316,28,1*7C
$GLGSV,2,2,07,79,25,199,24,85,13,338,19,84,10,288,,1*41
$GAGSV,3,1,10,06,76,084,32,09,75,309,32,04,49,099,30,31,41,148,27,7*7F
$GAGSV,3,2,10,05,22,289,23,34,21,304,22,36,18,251,22,21,09,032,22,7*76
$GAGSV,3,3,10,24,05,186,20,15,03,350,18,7*74
$GBGSV,3,1,09,32,78,171,38,23,72,106,38,37,40,205,33,20,39,306,35,1*7B
$GBGSV,3,2,09,25,27,051,33,41,23,137,30,38,04,333,24,04,01,262,,1*73
$GBGSV,3,3,09,35,01,335,,1*4D
$GNRMC,181625.000,A,4910.426824,N,12304.401804,W,0.02,0.00,051224,,,D,V*19
$GNVTG,0.00,T,,M,0.02,N,0.04,K,D*20
$GNGGA,181626.000,4910.426836,N,12304.401864,W,2,30,0.51,10.090,M,-16.816,M,,*79
$GNGLL,4910.426836,N,12304.401864,W,181626.000,A,D*50
$GNGSA,A,3,04,09,16,07,03,26,06,31,11,20,,,0.88,0.51,0.72,1*0C
$GNGSA,A,3,68,78,67,69,79,85,,,,,,,0.88,0.51,0.72,2*0F
$GNGSA,A,3,06,09,04,31,05,34,36,21,,,,,0.88,0.51,0.72,3*0F
$GNGSA,A,3,32,23,37,20,25,41,,,,,,,0.88,0.51,0.72,4*01
$GPGSV,4,1,13,04,79,078,35,09,66,299,36,16,47,095,30,07,36,240,33,1*61
$GPGSV,4,2,13,48,33,182,30,03,32,173,29,26,32,056,29,06,18,275,19,1*62
$GPGSV,4,3,13,31,16,061,27,11,14,314,25,20,05,327,17,29,02,013,16,1*69
$GPGSV,4,4,13,30,01,241,15,1*57
$GLGSV,2,1,07,68,81,038,30,78,74,152,23,67,36,123,25,69,35,316,28,1*7C
$GLGSV,2,2,07,79,25,199,25,85,13,338,19,84,10,288,,1*40
$GAGSV,3,1,10,06,76,084,32,09,75,309,32,04,49,099,30,31,41,148,27,7*7F
$GAGSV,3,2,10,05,22,289,23,34,21,304,22,36,18,251,23,21,09,032,22,7*77
$GAGSV,3,3,10,24,05,186,20,15,03,350,18,7*74
$GBGSV,3,1,09,32,78,171,39,23,72,106,38,37,40,205,33,20,39,306,36,1*79
$GBGSV,3,2,09,25,27,051,33,41,23,137,31,38,04,333,24,04,01,262,,1*72
$GBGSV,3,3,09,35,01,335,,1*4D
$GNRMC,181626.000,A,4910.426836,N,12304.401864,W,0.02,0.00,051224,,,D,V*1F
$GNVTG,0.00,T,,M,0.02,N,0.04,K,D*20
$GNGGA,181627.000,4910.426794,N,12304.401972,W,2,29,0.52,10.210,M,-16.816,M,,*78
$GNGLL,4910.426794,N,12304.401972,W,181627.000,A,D*50
$GNGSA,A,3,04,09,16,07,03,26,06,31,11,,,,0.90,0.52,0.74,1*02
$GNGSA,A,3,68,78,67,69,79,85,,,,,,,0.90,0.52,0.74,2*03
$GNGSA,A,3,06,09,04,31,05,34,36,21,,,,,0.90,0.52,0.74,3*03
$GNGSA,A,3,32,23,37,20,25,41,,,,,,,0.90,0.52,0.74,4*0D
$GPGSV,4,1,13,04,79,078,36,09,66,299,37,16,47,095,31,07,36,240,33,1*62
$GPGSV,4,2,13,48,33,182,30,03,32,173,30,26,32,056,30,06,18,275,19,1*62
$GPGSV,4,3,13,31,16,061,27,11,14,314,25,20,05,327,17,29,02,013,16,1*69
$GPGSV,4,4,13,30,01,241,15,1*57
$GLGSV,2,1,07,68,81,038,30,78,74,152,23,67,36,123,25,69,35,316,28,1*7C
$GLGSV,2,2,07,79,25,199,24,85,13,338,19,84,10,288,,1*41
$GAGSV,3,1,10,06,76,084,33,09,75,309,33,04,49,099,30,31,41,148,27,7*7F
$GAGSV,3,2,10,05,22,289,23,34,21,304,22,36,18,251,23,21,09,032,22,7*77
$GAGSV,3,3,10,24,05,186,20,15,03,350,19,7*75
$GBGSV,3,1,09,32,78,171,39,23,72,106,38,37,40,205,34,20,39,306,36,1*7E
$GBGSV,3,2,09,25,27,051,33,41,23,137,31,38,04,333,24,04,01,262,,1*72
$GBGSV,3,3,09,35,01,335,,1*4D
$GNRMC,181627.000,A,4910.426794,N,12304.401972,W,0.02,0.00,051224,,,D,V*1F
$GNVTG,0.00,T,,M,0.02,N,0.03,K,D*27
$GNGGA,181628.000,4910.426788,N,12304.402050,W,2,30,0.51,10.149,M,-16.816,M,,*74
$GNGLL,4910.426788,N,12304.402050,W,181628.000,A,D*58
$GNGSA,A,3,04,09,16,07,03,26,06,31,11,20,,,0.88,0.51,0.72,1*0C
$GNGSA,A,3,68,78,67,69,79,85,,,,,,,0.88,0.51,0.72,2*0F
$GNGSA,A,3,06,09,04,31,05,34,36,21,,,,,0.88,0.51,0.72,3*0F
$GNGSA,A,3,32,23,37,20,25,41,,,,,,,0.88,0.51,0.72,4*01
$GPGSV,4,1,13,04,79,078,36,09,66,299,37,16,47,095,32,07,36,240,33,1*61
$GPGSV,4,2,13,48,33,182,30,03,32,173,31,26,32,056,31,06,18,275,19,1*62
$GPGSV,4,3,13,31,16,061,28,11,14,314,25,20,05,327,18,29,02,013,16,1*69
$GPGSV,4,4,13,30,01,241,16,1*54
$GLGSV,2,1,07,68,81,038,29,78,74,152,22,67,36,123,25,69,35,316,28,1*75
$GLGSV,2,2,07,79,25,199,25,85,13,338,18,84,10,288,,1*41
$GAGSV,3,1,10,06,76,084,33,09,75,309,33,04,49,099,30,31,41,148,28,7*70
$GAGSV,3,2,10,05,22,289,24,34,21,304,23,36,18,251,24,21,09,032,22,7*76
$GAGSV,3,3,10,24,05,186,21,15,03,350,19,7*74
$GBGSV,3,1,09,32,78,171,39,23,72,106,39,37,40,205,34,20,39,306,36,1*7F
$GBGSV,3,2,09,25,27,051,34,41,23,137,31,38,04,333,24,04,01,262,,1*75
$GBGSV,3,3,09,35,01,335,,1*4D
$GNRMC,181628.000,A,4910.426788,N,12304.402050,W,0.02,0.00,051224,,,D,V*17
$GNVTG,0.00,T,,M,0.02,N,0.04,K,D*20
$GNGGA,181629.000,4910.426740,N,12304.402092,W,2,30,0.51,10.178,M,-16.816,M,,*7D
