$GNGGA,004321.000,4910.426932,N,12304.398558,W,2,29,0.49,4.709,M,-16.816,M,,*44
$GNGLL,4910.426932,N,12304.398558,W,004321.000,A,D*5E
$GNGSA,A,3,17,22,19,14,24,13,15,02,30,06,21,,0.84,0.49,0.68,1*01
$GNGSA,A,3,73,72,80,,,,,,,,,,0.84,0.49,0.68,2*04
$GNGSA,A,3,25,02,08,10,03,12,24,,,,,,0.84,0.49,0.68,3*06
$GNGSA,A,3,36,30,27,45,29,21,22,28,,,,,0.84,0.49,0.68,4*0B
$GPGSV,4,1,13,17,73,097,31,22,71,063,30,19,60,191,28,14,49,081,32,1*60
$GPGSV,4,2,13,24,35,304,27,46,33,188,27,13,29,215,24,15,25,253,26,1*6E
$GPGSV,4,3,13,02,21,044,23,30,16,142,27,06,09,159,24,21,08,029,21,1*60
$GPGSV,4,4,13,12,06,269,,1*5E
$GLGSV,2,1,06,73,72,054,27,83,56,091,,82,32,036,,72,25,281,19,1*77
$GLGSV,2,2,06,80,21,101,23,84,21,169,,1*75
$GAGSV,3,1,11,25,81,029,29,02,39,273,26,08,34,292,22,10,34,090,22,7*7C
$GAGSV,3,2,11,03,32,229,21,12,30,062,19,24,30,081,22,11,28,122,20,7*73
$GAGSV,3,3,11,07,05,336,10,05,03,187,08,33,03,016,08,7*4A
$GBGSV,3,1,11,36,82,300,39,30,55,148,37,46,43,113,,27,43,064,37,1*7A
$GBGSV,3,2,11,45,28,295,32,57,24,064,,29,13,195,31,21,13,301,30,1*73
$GBGSV,3,3,11,22,07,252,32,28,07,036,29,42,04,347,24,1*42
$GNRMC,004321.000,A,4910.426932,N,12304.398558,W,0.03,342.49,061224,,,D,V*1B
$GNVTG,342.49,T,,M,0.03,N,0.05,K,D*28
$GNGGA,004322.000,4910.426920,N,12304.398492,W,2,29,0.49,4.628,M,-16.817,M,,*40
$GNGLL,4910.426920,N,12304.398492,W,004322.000,A,D*59
$GNGSA,A,3,17,22,19,14,24,13,15,02,30,06,21,,0.84,0.49,0.68,1*01
$GNGSA,A,3,73,72,80,,,,,,,,,,0.84,0.49,0.68,2*04
$GNGSA,A,3,25,02,08,10,03,12,24,,,,,,0.84,0.49,0.68,3*06
$GNGSA,A,3,36,30,27,45,29,21,22,28,,,,,0.84,0.49,0.68,4*0B
$GPGSV,4,1,13,17,73,097,31,22,71,063,30,19,60,191,25,14,49,081,31,1*6E
$GPGSV,4,2,13,24,35,304,25,46,33,188,27,13,29,215,23,15,25,253,26,1*6B
$GPGSV,4,3,13,02,21,044,23,30,16,142,26,06,09,159,23,21,08,029,21,1*66
$GPGSV,4,4,13,12,06,269,,1*5E
$GLGSV,2,1,07,73,72,054,27,83,56,091,,74,48,311,,82,32,036,,1*7B
$GLGSV,2,2,07,72,25,281,19,80,21,101,23,84,21,169,,1*45
$GAGSV,3,1,11,25,81,029,28,02,39,273,25,08,34,292,22,10,34,090,21,7*7D
$GAGSV,3,2,11,03,32,229,21,12,30,062,19,24,30,081,21,11,28,122,20,7*70
$GAGSV,3,3,11,07,05,336,10,05,03,187,08,33,03,016,08,7*4A
$GBGSV,3,1,11,36,82,300,39,30,55,148,37,46,43,113,,27,43,064,37,1*7A
$GBGSV,3,2,11,45,28,295,32,57,24,064,,29,13,195,31,21,13,301,30,1*73
$GBGSV,3,3,11,22,07,252,32,28,07,036,29,42,04,347,24,1*42
$GNRMC,004322.000,A,4910.426920,N,12304.398492,W,0.03,342.49,061224,,,D,V*1C
$GNVTG,342.49,T,,M,0.03,N,0.05,K,D*28
$GNGGA,004323.000,4910.426860,N,12304.398366,W,2,29,0.49,4.473,M,-16.816,M,,*45
$GNGLL,4910.426860,N,12304.398366,W,004323.000,A,D*51
$GNGSA,A,3,17,22,19,14,24,13,15,02,30,06,21,,0.84,0.49,0.68,1*01
$GNGSA,A,3,73,72,80,,,,,,,,,,0.84,0.49,0.68,2*04
$GNGSA,A,3,25,02,08,10,03,12,24,,,,,,0.84,0.49,0.68,3*06
$GNGSA,A,3,36,30,27,45,29,21,22,28,,,,,0.84,0.49,0.68,4*0B
$GPGSV,4,1,13,17,73,097,30,22,71,063,29,19,60,191,25,14,49,081,31,1*67
$GPGSV,4,2,13,24,35,304,25,46,33,188,27,13,29,215,22,15,25,253,25,1*69
$GPGSV,4,3,13,02,21,044,23,30,16,142,26,06,09,159,23,21,08,029,21,1*66
$GPGSV,4,4,13,12,06,269,,1*5E
$GLGSV,2,1,07,73,72,054,27,83,56,091,,74,48,311,,82,32,036,,1*7B
$GLGSV,2,2,07,72,25,281,19,80,21,101,23,84,21,169,,1*45
$GAGSV,3,1,11,25,81,029,28,02,39,273,25,08,34,292,22,10,34,090,21,7*7D
$GAGSV,3,2,11,03,32,229,21,12,30,062,19,24,30,081,21,11,28,122,19,7*7A
$GAGSV,3,3,11,07,05,336,09,05,03,187,08,33,03,016,08,7*42
$GBGSV,3,1,11,36,82,300,39,30,55,148,37,46,43,113,,27,43,064,37,1*7A
$GBGSV,3,2,11,45,28,295,32,57,24,064,,29,13,195,31,21,13,301,30,1*73
$GBGSV,3,3,11,22,07,252,32,28,07,036,29,42,04,347,24,1*42
$GNRMC,004323.000,A,4910.426860,N,12304.398366,W,0.02,342.49,061224,,,D,V*15
$GNVTG,342.49,T,,M,0.02,N,0.04,K,D*28
$GNGGA,004324.000,4910.426800,N,12304.398330,W,2,29,0.49,4.479,M,-16.816,M,,*4D
$GNGLL,4910.426800,N,12304.398330,W,004324.000,A,D*53
$GNGSA,A,3,17,22,19,14,24,13,15,02,30,06,21,,0.84,0.49,0.68,1*01
$GNGSA,A,3,73,72,80,,,,,,,,,,0.84,0.49,0.68,2*04
$GNGSA,A,3,25,02,08,10,03,12,24,,,,,,0.84,0.49,0.68,3*06
$GNGSA,A,3,36,30,27,45,29,21,22,28,,,,,0.84,0.49,0.68,4*0B
$GPGSV,4,1,13,17,73,097,30,22,71,063,29,19,60,191,26,14,49,081,31,1*64
$GPGSV,4,2,13,24,35,304,25,46,33,188,27,13,29,215,22,15,25,253,25,1*69
$GPGSV,4,3,13,02,21,044,23,30,16,142,26,06,09,159,23,21,08,029,21,1*66
$GPGSV,4,4,13,12,06,269,,1*5E
$GLGSV,2,1,07,73,72,054,28,83,56,091,,74,48,311,,82,32,036,,1*74
$GLGSV,2,2,07,72,25,281,19,80,21,101,23,84,21,169,,1*45
$GAGSV,3,1,11,25,81,029,27,02,39,273,25,08,34,292,22,10,34,090,21,7*72
$GAGSV,3,2,11,03,32,229,21,12,30,062,19,24,30,081,21,11,28,122,19,7*7A
$GAGSV,3,3,11,07,05,336,09,05,03,187,08,33,03,016,08,7*42
$GBGSV,3,1,11,36,82,300,39,30,55,148,37,46,43,113,,27,43,064,37,1*7A
$GBGSV,3,2,11,45,28,295,33,57,24,064,,29,13,195,31,21,13,301,30,1*72
$GBGSV,3,3,11,22,07,252,32,28,07,036,29,42,04,347,24,1*42
$GNRMC,004324.000,A,4910.426800,N,12304.398330,W,0.02,342.49,061224,,,D,V*17
$GNVTG,342.49,T,,M,0.02,N,0.04,K,D*28
$GNGGA,004325.000,4910.426770,N,12304.398282,W,2,29,0.49,4.434,M,-16.816,M,,*45
$GNGLL,4910.426770,N,12304.398282,W,004325.000,A,D*52
$GNGSA,A,3,17,22,19,14,24,13,15,02,30,06,21,,0.84,0.49,0.68,1*01
$GNGSA,A,3,73,72,80,,,,,,,,,,0.84,0.49,0.68,2*04
$GNGSA,A,3,25,02,08,10,03,12,24,,,,,,0.84,0.49,0.68,3*06
$GNGSA,A,3,36,30,27,45,29,21,22,28,,,,,0.84,0.49,0.68,4*0B
$GPGSV,4,1,13,17,73,097,30,22,71,063,29,19,60,191,28,14,49,081,31,1*6A
$GPGSV,4,2,13,24,35,304,25,46,33,188,27,13,29,215,23,15,25,253,25,1*68
$GPGSV,4,3,13,02,21,044,23,30,16,142,26,06,09,159,24,21,08,029,21,1*61
$GPGSV,4,4,13,12,06,269,,1*5E
$GLGSV,2,1,07,73,72,054,28,83,56,091,,74,48,311,,82,32,036,,1*74
$GLGSV,2,2,07,72,25,281,20,80,21,101,23,84,21,169,,1*4F
$GAGSV,3,1,11,25,81,029,27,02,39,273,25,08,34,292,22,10,34,090,22,7*71
$GAGSV,3,2,11,03,32,229,21,12,30,062,19,24,30,081,21,11,28,122,19,7*7A
$GAGSV,3,3,11,07,05,336,09,05,03,187,08,33,03,016,08,7*42
$GBGSV,3,1,11,36,82,300,39,30,55,148,37,46,43,113,,27,43,064,37,1*7A
$GBGSV,3,2,11,45,28,295,33,57,24,064,,29,13,195,31,21,13,301,30,1*72
$GBGSV,3,3,11,22,07,252,32,28,07,036,29,42,04,347,25,1*43
$GNRMC,004325.000,A,4910.426770,N,12304.398282,W,0.02,342.49,061224,,,D,V*16
$GNVTG,342.49,T,,M,0.02,N,0.03,K,D*2F
$GNGGA,004326.000,4910.426740,N,12304.398174,W,2,29,0.49,4.382,M,-16.817,M,,*44
$GNGLL,4910.426740,N,12304.398174,W,004326.000,A,D*58
$GNGSA,A,3,17,22,19,14,24,13,15,02,30,06,21,,0.84,0.49,0.68,1*01
$GNGSA,A,3,73,72,80,,,,,,,,,,0.84,0.49,0.68,2*04
$GNGSA,A,3,25,02,08,10,03,12,24,,,,,,0.84,0.49,0.68,3*06
$GNGSA,A,3,36,30,27,45,29,21,22,28,,,,,0.84,0.49,0.68,4*0B
$GPGSV,4,1,13,17,73,097,30,22,71,063,29,19,60,191,29,14,49,081,31,1*6B
$GPGSV,4,2,13,24,35,304,26,46,33,188,27,13,29,215,24,15,25,253,26,1*6F
$GPGSV,4,3,13,02,21,044,24,30,16,142,26,06,09,159,23,21,08,029,22,1*62
$GPGSV,4,4,13,12,06,269,,1*5E
$GLGSV,2,1,07,73,72,054,28,83,56,091,,74,48,311,,82,32,036,,1*74
$GLGSV,2,2,07,72,25,281,20,80,21,101,23,84,21,169,,1*4F
$GAGSV,3,1,11,25,81,029,27,02,39,273,25,08,34,292,22,10,34,090,22,7*71
$GAGSV,3,2,11,03,32,229,21,12,30,062,19,24,30,081,21,11,28,122,19,7*7A
$GAGSV,3,3,11,07,05,336,09,05,03,187,09,33,03,016,08,7*43
$GBGSV,3,1,11,36,82,300,39,30,55,148,37,46,43,113,,27,43,064,37,1*7A
$GBGSV,3,2,11,45,28,295,33,57,24,064,,29,13,195,31,21,13,301,30,1*72
$GBGSV,3,3,11,22,07,252,32,28,07,036,30,42,04,346,25,1*4A
$GNRMC,004326.000,A,4910.426740,N,12304.398174,W,0.02,342.49,061224,,,D,V*1C
$GNVTG,342.49,T,,M,0.02,N,0.03,K,D*2F
$GNGGA,004327.000,4910.426746,N,12304.398204,W,2,29,0.49,4.354,M,-16.816,M,,*4D
$GNGLL,4910.426746,N,12304.398204,W,004327.000,A,D*5B
$GNGSA,A,3,17,22,19,14,24,13,15,02,30,06,21,,0.84,0.49,0.68,1*01
$GNGSA,A,3,73,72,80,,,,,,,,,,0.84,0.49,0.68,2*04
$GNGSA,A,3,25,02,08,10,03,12,24,,,,,,0.84,0.49,0.68,3*06
$GNGSA,A,3,36,30,27,45,29,21,22,28,,,,,0.84,0.49,0.68,4*0B
$GPGSV,4,1,13,17,73,097,31,22,71,063,29,19,60,191,29,14,49,081,31,1*6A
$GPGSV,4,2,13,24,35,304,26,46,33,188,27,13,29,215,23,15,25,253,26,1*68
$GPGSV,4,3,13,02,21,044,25,30,16,142,26,06,09,159,23,21,08,029,22,1*63
$GPGSV,4,4,13,12,06,269,,1*5E
$GLGSV,2,1,07,73,72,054,27,83,56,091,,74,48,311,,82,32,036,,1*7B
$GLGSV,2,2,07,72,25,281,20,80,21,101,23,84,21,169,,1*4F
$GAGSV,3,1,11,25,81,029,27,02,39,273,25,08,34,292,22,10,34,090,22,7*71
$GAGSV,3,2,11,03,32,229,21,12,30,062,18,24,30,081,21,11,28,122,19,7*7B
$GAGSV,3,3,11,07,05,336,09,05,03,187,09,33,03,016,08,7*43
$GBGSV,3,1,11,36,82,300,39,30,55,148,37,46,43,113,,27,43,064,37,1*7A
$GBGSV,3,2,11,45,28,295,33,57,24,064,,29,13,195,31,21,13,301,30,1*72
$GBGSV,3,3,11,22,07,252,32,28,07,036,30,42,04,346,26,1*49
$GNRMC,004327.000,A,4910.426746,N,12304.398204,W,0.02,342.49,061224,,,D,V*1F
$GNVTG,342.49,T,,M,0.02,N,0.04,K,D*28
$PAIR010,0,1,2343,434625*3E
$GNGGA,004328.000,4910.426746,N,12304.398204,W,2,29,0.49,4.403,M,-16.816,M,,*47
$GNGLL,4910.426746,N,12304.398204,W,004328.000,A,D*54
$GNGSA,A,3,17,22,19,14,24,13,15,02,30,06,21,,0.84,0.49,0.68,1*01
$GNGSA,A,3,73,72,80,,,,,,,,,,0.84,0.49,0.68,2*04
$GNGSA,A,3,25,02,08,10,03,12,24,,,,,,0.84,0.49,0.68,3*06
$GNGSA,A,3,36,30,27,45,29,21,22,28,,,,,0.84,0.49,0.68,4*0B
$GPGSV,4,1,13,17,73,097,31,22,71,063,29,19,60,191,29,14,49,081,31,1*6A
$GPGSV,4,2,13,24,35,304,26,46,33,188,27,13,29,215,24,15,25,253,26,1*6F
$GPGSV,4,3,13,02,21,044,25,30,16,142,26,06,09,159,23,21,08,029,22,1*63
$GPGSV,4,4,13,12,06,269,,1*5E
$GLGSV,2,1,07,73,72,054,28,83,56,091,,74,48,311,,82,32,036,,1*74
$GLGSV,2,2,07,72,25,281,20,80,21,101,23,84,21,169,,1*4F
$GAGSV,3,1,11,25,81,029,27,02,39,273,24,08,34,292,22,10,34,090,21,7*73
$GAGSV,3,2,11,03,32,229,21,12,30,062,18,24,30,081,21,11,28,122,19,7*7B
$GAGSV,3,3,11,07,05,336,10,05,03,187,09,33,03,016,07,7*44
$GBGSV,3,1,11,36,82,300,39,30,55,148,37,46,43,113,,27,43,064,37,1*7A
$GBGSV,3,2,11,45,28,295,33,57,24,064,,29,13,195,31,21,13,301,30,1*72
$GBGSV,3,3,11,22,07,252,32,28,07,036,30,42,04,346,26,1*49
$GNRMC,004328.000,A,4910.426746,N,12304.398204,W,0.02,342.49,061224,,,D,V*10
$GNVTG,342.49,T,,M,0.02,N,0.03,K,D*2F
$GNGGA,004329.000,4910.426704,N,12304.398234,W,2,29,0.49,4.455,M,-16.817,M,,*41
$GNGLL,4910.426704,N,12304.398234,W,004329.000,A,D*50
$GNGSA,A,3,17,22,19,14,24,13,15,02,30,06,21,,0.84,0.49,0.68,1*01
$GNGSA,A,3,73,72,80,,,,,,,,,,0.84,0.49,0.68,2*04
$GNGSA,A,3,25,02,08,10,03,12,24,,,,,,0.84,0.49,0.68,3*06
$GNGSA,A,3,36,30,27,45,29,21,22,28,,,,,0.84,0.49,0.68,4*0B
$GPGSV,4,1,13,17,73,097,31,22,71,063,30,19,60,191,30,14,49,081,31,1*6A
$GPGSV,4,2,13,24,35,304,27,46,33,188,27,13,29,215,25,15,25,253,27,1*6E
$GPGSV,4,3,13,02,21,044,25,30,16,142,26,06,09,159,25,21,08,029,23,1*64
$GPGSV,4,4,13,12,06,269,,1*5E
$GLGSV,2,1,07,73,72,054,28,83,56,091,,74,48,311,,82,32,036,,1*74
$GLGSV,2,2,07,72,25,281,20,80,21,101,23,84,21,169,,1*4F
$GAGSV,3,1,11,25,81,029,28,02,39,273,24,08,34,292,23,10,34,090,22,7*7E
$GAGSV,3,2,11,03,32,229,21,12,30,062,18,24,30,081,22,11,28,122,19,7*78
$GAGSV,3,3,11,07,05,336,10,05,03,187,09,33,03,016,06,7*45
$GBGSV,3,1,11,36,82,300,39,30,55,148,37,46,43,113,,27,43,064,37,1*7A
$GBGSV,3,2,11,45,29,296,33,57,24,064,,29,13,195,31,21,13,301,30,1*70
$GBGSV,3,3,11,22,07,252,32,28,07,036,30,42,04,346,26,1*49
$GNRMC,004329.000,A,4910.426704,N,12304.398234,W,0.02,342.49,061224,,,D,V*14
$GNVTG,342.49,T,,M,0.02,N,0.04,K,D*28
$GNGGA,004330.000,4910.426710,N,12304.398246,W,2,29,0.49,4.442,M,-16.817,M,,*4F
$GNGLL,4910.426710,N,12304.398246,W,004330.000,A,D*58
$GNGSA,A,3,17,22,19,14,24,13,15,02,30,06,21,,0.84,0.49,0.68,1*01
$GNGSA,A,3,73,72,80,,,,,,,,,,0.84,0.49,0.68,2*04
$GNGSA,A,3,25,02,08,10,03,12,24,,,,,,0.84,0.49,0.68,3*06
$GNGSA,A,3,36,30,27,45,29,21,22,28,,,,,0.84,0.49,0.68,4*0B
$GPGSV,4,1,13,17,73,097,31,22,71,063,30,19,60,191,30,14,49,081,31,1*6A
$GPGSV,4,2,13,24,35,304,27,46,33,188,27,13,29,215,24,15,25,253,26,1*6E
$GPGSV,4,3,13,02,21,044,25,30,16,142,26,06,09,159,23,21,08,029,23,1*62
$GPGSV,4,4,13,12,06,269,,1*5E
$GLGSV,2,1,07,73,72,054,28,83,56,091,,74,48,311,,82,32,036,,1*74
$GLGSV,2,2,07,72,25,281,20,80,21,101,23,84,21,169,,1*4F
$GAGSV,3,1,11,25,81,029,28,02,39,273,24,08,34,292,22,10,34,090,22,7*7F
$GAGSV,3,2,11,03,32,229,21,12,30,062,18,24,30,081,21,11,28,122,19,7*7B
$GAGSV,3,3,11,07,05,336,10,05,03,187,09,33,03,016,06,7*45
$GBGSV,3,1,11,36,82,300,39,30,55,148,37,27,43,064,37,46,42,114,,1*7C
$GBGSV,3,2,11,45,29,296,33,57,24,064,,29,13,195,31,21,13,301,30,1*70
$GBGSV,3,3,11,22,07,252,32,28,07,036,30,42,04,346,26,1*49
$GNRMC,004330.000,A,4910.426710,N,12304.398246,W,0.02,342.49,061224,,,D,V*1C
$GNVTG,342.49,T,,M,0.02,N,0.03,K,D*2F
$GNGGA,004331.000,4910.426662,N,12304.398240,W,2,29,0.49,4.506,M,-16.816,M,,*4C
$GNGLL,4910.426662,N,12304.398240,W,004331.000,A,D*5B
$GNGSA,A,3,17,22,19,14,24,13,15,02,30,06,21,,0.84,0.49,0.68,1*01
$GNGSA,A,3,73,72,80,,,,,,,,,,0.84,0.49,0.68,2*04
$GNGSA,A,3,25,02,08,10,03,12,24,,,,,,0.84,0.49,0.68,3*06
$GNGSA,A,3,36,30,27,45,29,21,22,28,,,,,0.84,0.49,0.68,4*0B
$GPGSV,4,1,13,17,73,097,31,22,71,063,30,19,60,191,29,14,49,081,30,1*63
$GPGSV,4,2,13,24,35,304,26,46,33,188,27,13,29,215,23,15,25,253,25,1*6B
$GPGSV,4,3,13,02,21,044,23,30,16,142,25,06,09,159,23,21,08,029,22,1*66
$GPGSV,4,4,13,12,06,269,,1*5E
$GLGSV,2,1,07,73,72,054,28,83,56,091,,74,48,311,,82,32,036,,1*74
$GLGSV,2,2,07,72,25,281,20,80,21,101,23,84,21,169,,1*4F
$GAGSV,3,1,11,25,81,029,27,02,39,273,24,08,34,292,21,10,34,090,21,7*70
$GAGSV,3,2,11,03,32,229,22,12,30,062,18,24,30,081,21,11,28,122,19,7*78
$GAGSV,3,3,11,07,05,336,10,05,03,187,09,33,03,016,06,7*45
$GBGSV,3,1,11,36,82,300,39,30,55,148,37,27,43,064,37,46,42,114,,1*7C
$GBGSV,3,2,11,45,29,296,33,57,24,064,,29,13,195,32,21,13,301,30,1*73
$GBGSV,3,3,11,22,07,252,32,28,07,036,30,42,04,346,26,1*49
$GNRMC,004331.000,A,4910.426662,N,12304.398240,W,0.02,342.49,061224,,,D,V*1F
$GNVTG,342.49,T,,M,0.02,N,0.03,K,D*2F
$GNGGA,004332.000,4910.426674,N,12304.398270,W,2,29,0.49,4.557,M,-16.816,M,,*4F
$GNGLL,4910.426674,N,12304.398270,W,004332.000,A,D*5C
$GNGSA,A,3,17,22,19,14,24,13,15,02,30,06,21,,0.84,0.49,0.68,1*01
$GNGSA,A,3,73,72,80,,,,,,,,,,0.84,0.49,0.68,2*04
$GNGSA,A,3,25,02,08,10,03,12,24,,,,,,0.84,0.49,0.68,3*06
$GNGSA,A,3,36,30,27,45,29,21,22,28,,,,,0.84,0.49,0.68,4*0B
$GPGSV,4,1,13,17,73,097,31,22,71,063,30,19,60,191,29,14,49,081,30,1*63
$GPGSV,4,2,13,24,35,304,27,46,33,188,27,13,29,215,23,15,25,253,25,1*6A
$GPGSV,4,3,13,02,21,044,23,30,16,142,25,06,09,159,24,21,08,029,23,1*60
$GPGSV,4,4,13,12,06,269,,1*5E
$GLGSV,2,1,07,73,72,054,27,83,56,091,,74,48,311,,82,32,036,,1*7B
$GLGSV,2,2,07,72,25,281,20,80,21,101,23,84,21,169,,1*4F
$GAGSV,3,1,11,25,81,029,27,02,39,273,24,08,34,292,21,10,34,090,21,7*70
$GAGSV,3,2,11,03,32,229,22,12,30,062,18,24,30,081,21,11,28,122,19,7*78
$GAGSV,3,3,11,07,05,336,10,05,03,187,09,33,03,016,07,7*44
$GBGSV,3,1,11,36,82,300,39,30,55,148,37,27,43,064,37,46,42,114,,1*7C
$GBGSV,3,2,11,45,29,296,33,57,24,064,,29,13,195,32,21,13,301,30,1*73
$GBGSV,3,3,11,22,07,252,32,28,07,036,30,42,04,346,26,1*49
$GNRMC,004332.000,A,4910.426674,N,12304.398270,W,0.01,342.49,061224,,,D,V*1B
$GNVTG,342.49,T,,M,0.01,N,0.03,K,D*2C
$GNGGA,004333.000,4910.426626,N,12304.398282,W,2,29,0.49,4.577,M,-16.816,M,,*46
$GNGLL,4910.426626,N,12304.398282,W,004333.000,A,D*57
$GNGSA,A,3,17,22,19,14,24,13,15,02,30,06,21,,0.84,0.49,0.68,1*01
$GNGSA,A,3,73,72,80,,,,,,,,,,0.84,0.49,0.68,2*04
$GNGSA,A,3,25,02,08,10,03,12,24,,,,,,0.84,0.49,0.68,3*06
$GNGSA,A,3,36,30,27,45,29,21,22,28,,,,,0.84,0.49,0.68,4*0B
$GPGSV,4,1,13,17,73,097,31,22,71,063,30,19,60,191,29,14,49,081,31,1*62
$GPGSV,4,2,13,24,35,304,28,46,33,188,27,13,29,215,25,15,25,253,25,1*63
$GPGSV,4,3,13,02,21,044,24,30,16,142,25,06,09,159,23,21,08,029,24,1*67
$GPGSV,4,4,13,12,06,269,,1*5E
$GLGSV,2,1,07,73,72,054,26,83,56,091,,74,48,311,,82,32,036,,1*7A
$GLGSV,2,2,07,72,25,281,19,80,21,101,22,84,21,169,,1*44
$GAGSV,3,1,11,25,81,029,27,02,39,273,24,08,34,292,21,10,34,090,21,7*70
$GAGSV,3,2,11,03,32,229,22,12,30,062,18,24,30,081,22,11,28,122,19,7*7B
$GAGSV,3,3,11,07,05,336,10,05,03,187,09,33,03,016,07,7*44
$GBGSV,3,1,11,36,82,300,39,30,55,148,37,27,43,064,37,46,42,114,,1*7C
$GBGSV,3,2,11,45,29,296,32,57,24,064,,29,13,195,31,21,13,301,30,1*71
$GBGSV,3,3,11,22,07,252,32,28,07,036,30,42,04,346,25,1*4A
$GNRMC,004333.000,A,4910.426626,N,12304.398282,W,0.01,342.49,061224,,,D,V*10
$GNVTG,342.49,T,,M,0.01,N,0.03,K,D*2C
$GNGGA,004334.000,4910.426494,N,12304.398216,W,2,29,0.49,4.517,M,-16.817,M,,*40
$GNGLL,4910.426494,N,12304.398216,W,004334.000,A,D*56
$GNGSA,A,3,17,22,19,14,24,13,15,02,30,06,21,,0.84,0.49,0.68,1*01
$GNGSA,A,3,73,72,80,,,,,,,,,,0.84,0.49,0.68,2*04
$GNGSA,A,3,25,02,08,10,03,12,24,,,,,,0.84,0.49,0.68,3*06
$GNGSA,A,3,36,30,27,45,29,21,22,28,,,,,0.84,0.49,0.68,4*0B
$GPGSV,4,1,13,17,73,097,32,22,71,063,30,19,60,191,29,14,49,081,31,1*61
$GPGSV,4,2,13,24,35,304,29,46,33,188,27,13,29,215,25,15,25,253,26,1*61
$GPGSV,4,3,13,02,21,044,24,30,16,142,26,06,09,159,24,21,08,029,24,1*63
$GPGSV,4,4,13,12,06,269,,1*5E
$GLGSV,2,1,07,73,72,054,26,83,56,091,,74,48,311,,82,32,036,,1*7A
$GLGSV,2,2,07,72,25,281,20,80,21,101,22,84,21,169,,1*4E
$GAGSV,3,1,11,25,81,029,27,02,39,273,25,08,34,292,22,10,34,090,21,7*72
$GAGSV,3,2,11,03,32,229,22,12,30,062,19,24,30,081,22,11,28,122,19,7*7A
$GAGSV,3,3,11,07,05,336,11,05,03,187,09,33,03,016,08,7*4A
$GBGSV,3,1,11,36,82,300,39,30,55,148,37,27,43,064,37,46,42,114,,1*7C
$GBGSV,3,2,11,45,29,296,32,57,24,064,,29,13,195,31,21,13,301,30,1*71
$GBGSV,3,3,11,22,07,252,32,28,07,036,30,42,04,346,25,1*4A
$GNRMC,004334.000,A,4910.426494,N,12304.398216,W,0.01,342.49,061224,,,D,V*11
$GNVTG,342.49,T,,M,0.01,N,0.02,K,D*2D
$GNGGA,004335.000,4910.426530,N,12304.398240,W,2,29,0.49,4.545,M,-16.816,M,,*4B
$GNGLL,4910.426530,N,12304.398240,W,004335.000,A,D*5B
$GNGSA,A,3,17,22,19,14,24,13,15,02,30,06,21,,0.84,0.49,0.68,1*01
$GNGSA,A,3,73,72,80,,,,,,,,,,0.84,0.49,0.68,2*04
$GNGSA,A,3,25,02,08,10,03,12,24,,,,,,0.84,0.49,0.68,3*06
$GNGSA,A,3,36,30,27,45,29,21,22,28,,,,,0.84,0.49,0.68,4*0B
$GPGSV,4,1,13,17,73,097,32,22,71,063,30,19,60,191,29,14,49,081,31,1*61
$GPGSV,4,2,13,24,35,304,28,46,33,188,27,13,29,215,25,15,25,253,26,1*60
$GPGSV,4,3,13,02,21,044,24,30,16,142,26,06,09,159,24,21,08,029,23,1*64
$GPGSV,4,4,13,12,06,269,,1*5E
$GLGSV,2,1,07,73,72,054,24,83,56,091,,74,48,311,,82,32,036,,1*78
$GLGSV,2,2,07,72,25,281,20,80,21,101,21,84,21,169,,1*4D
$GAGSV,3,1,11,25,81,029,27,02,39,273,25,08,34,292,22,10,34,090,22,7*71
$GAGSV,3,2,11,03,32,229,22,12,30,062,19,24,30,081,22,11,28,122,19,7*7A
$GAGSV,3,3,11,07,05,336,11,05,03,187,09,33,03,016,08,7*4A
$GBGSV,3,1,11,36,82,300,39,30,55,148,37,27,43,064,37,46,42,114,,1*7C
$GBGSV,3,2,11,45,29,296,32,57,24,064,,29,13,195,31,21,13,301,30,1*71
$GBGSV,3,3,11,22,07,252,32,28,07,036,30,42,04,346,25,1*4A
$GNRMC,004335.000,A,4910.426530,N,12304.398240,W,0.02,342.49,061224,,,D,V*1F
$GNVTG,342.49,T,,M,0.02,N,0.04,K,D*28
$GNGGA,004336.000,4910.426542,N,12304.398300,W,2,29,0.49,4.519,M,-16.817,M,,*40
$GNGLL,4910.426542,N,12304.398300,W,004336.000,A,D*58
$GNGSA,A,3,17,22,19,14,24,13,15,02,30,06,21,,0.84,0.49,0.68,1*01
$GNGSA,A,3,73,72,80,,,,,,,,,,0.84,0.49,0.68,2*04
$GNGSA,A,3,25,02,08,10,03,12,24,,,,,,0.84,0.49,0.68,3*06
$GNGSA,A,3,36,30,27,45,29,21,22,28,,,,,0.84,0.49,0.68,4*0B
$GPGSV,4,1,13,17,73,097,32,22,71,063,30,19,60,191,29,14,49,081,31,1*61
$GPGSV,4,2,13,24,35,304,28,46,33,188,27,13,29,215,25,15,25,253,26,1*60
$GPGSV,4,3,13,02,21,044,25,30,16,142,26,06,09,159,24,21,08,029,23,1*65
$GPGSV,4,4,13,12,06,269,,1*5E
$GLGSV,2,1,07,73,72,054,23,83,56,091,,74,48,311,,82,32,036,,1*7F
$GLGSV,2,2,07,72,25,281,20,80,21,101,20,84,21,169,,1*4C
$GAGSV,3,1,11,25,81,029,27,02,39,273,25,08,34,292,22,10,34,090,22,7*71
$GAGSV,3,2,11,03,32,229,22,12,30,062,19,24,30,081,22,11,28,122,19,7*7A
$GAGSV,3,3,11,07,05,336,11,05,03,187,09,33,03,016,08,7*4A
$GBGSV,3,1,11,36,82,300,39,30,55,148,37,27,43,064,37,46,42,114,,1*7C
$GBGSV,3,2,11,45,29,296,32,57,24,064,,29,13,195,32,21,13,301,30,1*72
$GBGSV,3,3,11,22,07,252,32,28,07,036,30,42,04,346,25,1*4A
$GNRMC,004336.000,A,4910.426542,N,12304.398300,W,0.02,342.49,061224,,,D,V*1C
$GNVTG,342.49,T,,M,0.02,N,0.04,K,D*28
$GNGGA,004337.000,4910.426500,N,12304.398294,W,2,29,0.49,4.400,M,-16.816,M,,*43
$GNGLL,4910.426500,N,12304.398294,W,004337.000,A,D*53
$GNGSA,A,3,17,22,19,14,24,13,15,02,30,06,21,,0.84,0.49,0.68,1*01
$GNGSA,A,3,73,72,80,,,,,,,,,,0.84,0.49,0.68,2*04
$GNGSA,A,3,25,02,08,10,03,12,24,,,,,,0.84,0.49,0.68,3*06
$GNGSA,A,3,36,30,27,45,29,21,22,28,,,,,0.84,0.49,0.68,4*0B
$GPGSV,4,1,13,17,73,097,32,22,71,063,30,19,60,191,30,14,49,081,31,1*69
$GPGSV,4,2,13,24,35,304,30,46,33,188,27,13,29,215,28,15,25,253,27,1*65
$GPGSV,4,3,13,02,21,044,26,30,16,142,26,06,09,159,27,21,08,029,24,1*62
$GPGSV,4,4,13,12,06,269,,1*5E
$GLGSV,2,1,07,73,72,054,26,83,56,091,,74,48,311,,82,32,036,,1*7A
$GLGSV,2,2,07,72,25,281,20,80,21,101,20,84,21,169,,1*4C
$GAGSV,3,1,11,25,81,029,28,02,39,273,26,08,34,292,23,10,34,090,22,7*7C
$GAGSV,3,2,11,03,32,229,22,12,30,062,19,24,30,081,23,11,28,122,19,7*7B
$GAGSV,3,3,11,07,05,336,11,05,03,187,09,33,03,016,08,7*4A
$GBGSV,3,1,11,36,82,300,39,30,55,148,37,27,43,064,37,46,42,114,,1*7C
$GBGSV,3,2,11,45,29,296,32,57,24,064,,29,13,195,32,21,13,301,30,1*72
$GBGSV,3,3,11,22,07,252,32,28,07,036,30,42,04,346,25,1*4A
$GNRMC,004337.000,A,4910.426500,N,12304.398294,W,0.02,342.49,061224,,,D,V*17
$GNVTG,342.49,T,,M,0.02,N,0.04,K,D*28
$GNGGA,004338.000,4910.426512,N,12304.398306,W,2,29,0.49,4.443,M,-16.816,M,,*42
$GNGLL,4910.426512,N,12304.398306,W,004338.000,A,D*55
$GNGSA,A,3,17,22,19,14,24,13,15,02,30,06,21,,0.84,0.49,0.68,1*01
$GNGSA,A,3,73,72,80,,,,,,,,,,0.84,0.49,0.68,2*04
$GNGSA,A,3,25,02,08,10,03,12,24,,,,,,0.84,0.49,0.68,3*06
$GNGSA,A,3,36,30,27,45,29,21,22,28,,,,,0.84,0.49,0.68,4*0B
$GPGSV,4,1,13,17,73,097,32,22,71,063,30,19,60,191,30,14,49,081,31,1*69
$GPGSV,4,2,13,24,35,304,29,46,33,188,27,13,29,215,26,15,25,253,27,1*63
$GPGSV,4,3,13,02,21,044,25,30,16,142,26,06,09,159,23,21,08,029,23,1*62
$GPGSV,4,4,13,12,06,269,,1*5E
$GLGSV,2,1,07,73,72,054,25,83,56,091,,74,48,311,,82,32,036,,1*79
$GLGSV,2,2,07,72,25,281,20,80,21,101,19,84,21,169,,1*46
$GAGSV,3,1,11,25,81,029,28,02,39,273,26,08,34,292,23,10,34,090,22,7*7C
$GAGSV,3,2,11,03,32,229,22,12,30,062,19,24,30,081,23,11,28,122,19,7*7B
$GAGSV,3,3,11,07,05,336,11,05,03,187,09,33,03,016,08,7*4A
$GBGSV,3,1,11,36,82,300,39,30,55,148,37,27,43,064,37,46,42,114,,1*7C
$GBGSV,3,2,11,45,29,296,32,57,24,064,,29,13,195,32,21,13,301,30,1*72
$GBGSV,3,3,11,22,07,252,31,28,07,036,30,42,04,346,25,1*49
$GNRMC,004338.000,A,4910.426512,N,12304.398306,W,0.02,342.49,061224,,,D,V*11
$GNVTG,342.49,T,,M,0.02,N,0.03,K,D*2F
$GNGGA,004339.000,4910.426500,N,12304.398336,W,2,29,0.49,4.517,M,-16.816,M,,*43
$GNGLL,4910.426500,N,12304.398336,W,004339.000,A,D*54
$GNGSA,A,3,17,22,19,14,24,13,15,02,30,06,21,,0.84,0.49,0.68,1*01
$GNGSA,A,3,73,72,80,,,,,,,,,,0.84,0.49,0.68,2*04
$GNGSA,A,3,25,02,08,10,03,12,24,,,,,,0.84,0.49,0.68,3*06
$GNGSA,A,3,36,30,27,45,29,21,22,28,,,,,0.84,0.49,0.68,4*0B
$GPGSV,4,1,13,17,73,097,32,22,71,063,30,19,60,191,30,14,49,081,31,1*69
$GPGSV,4,2,13,24,35,304,29,46,33,188,27,13,29,215,26,15,25,253,27,1*63
$GPGSV,4,3,13,02,21,044,25,30,16,142,26,06,09,159,25,21,08,029,23,1*64
$GPGSV,4,4,13,12,06,269,,1*5E
$GLGSV,2,1,07,73,72,054,25,83,56,091,,74,48,311,,82,32,036,,1*79
$GLGSV,2,2,07,72,25,281,20,80,21,101,19,84,21,169,,1*46
$GAGSV,3,1,11,25,81,029,28,02,39,273,26,08,34,292,24,10,34,090,22,7*7B
$GAGSV,3,2,11,03,32,229,22,12,30,062,19,24,30,081,23,11,28,122,19,7*7B
$GAGSV,3,3,11,07,05,336,11,05,03,187,09,33,03,016,08,7*4A
$GBGSV,3,1,11,36,82,300,39,30,55,148,37,27,43,064,37,46,42,114,,1*7C
$GBGSV,3,2,11,45,29,296,32,57,24,064,,29,13,195,32,21,13,301,30,1*72
$GBGSV,3,3,11,22,07,252,31,28,07,036,30,42,04,346,25,1*49
$GNRMC,004339.000,A,4910.426500,N,12304.398336,W,0.01,342.49,061224,,,D,V*13
$GNVTG,342.49,T,,M,0.01,N,0.03,K,D*2C
$GNGGA,004340.000,4910.426560,N,12304.398426,W,2,29,0.49,4.568,M,-16.816,M,,*45
$GNGLL,4910.426560,N,12304.398426,W,004340.000,A,D*5A
$GNGSA,A,3,17,22,19,14,24,13,15,02,30,06,21,,0.84,0.49,0.68,1*01
$GNGSA,A,3,73,72,80,,,,,,,,,,0.84,0.49,0.68,2*04
$GNGSA,A,3,25,02,08,10,03,12,24,,,,,,0.84,0.49,0.68,3*06
$GNGSA,A,3,36,30,27,45,29,21,22,28,,,,,0.84,0.49,0.68,4*0B
$GPGSV,4,1,13,17,73,097,32,22,71,063,31,19,60,191,31,14,49,081,31,1*69
$GPGSV,4,2,13,24,35,304,29,46,33,188,27,13,29,215,26,15,25,253,27,1*63
$GPGSV,4,3,13,02,21,044,25,30,16,142,26,06,09,159,25,21,08,029,23,1*64
$GPGSV,4,4,13,12,06,269,,1*5E
$GLGSV,2,1,07,73,72,054,25,83,56,091,,74,48,311,,82,32,036,,1*79
$GLGSV,2,2,07,72,25,281,21,80,21,101,19,84,21,169,,1*47
$GAGSV,3,1,11,25,81,029,28,02,39,273,26,08,34,292,24,10,34,090,22,7*7B
$GAGSV,3,2,11,03,32,229,22,12,30,062,19,24,30,081,24,11,28,122,19,7*7C
$GAGSV,3,3,11,07,05,336,11,05,03,187,09,33,03,016,08,7*4A
$GBGSV,3,1,11,36,82,300,39,30,55,148,37,27,43,064,37,46,42,114,,1*7C
$GBGSV,3,2,11,45,29,296,32,57,24,064,,29,13,195,32,21,13,301,30,1*72
$GBGSV,3,3,11,22,07,252,31,28,07,036,30,42,04,346,25,1*49
$GNRMC,004340.000,A,4910.426560,N,12304.398426,W,0.02,342.49,061224,,,D,V*1E
$GNVTG,342.49,T,,M,0.02,N,0.04,K,D*28
$GNGGA,004341.000,4910.426572,N,12304.398504,W,2,29,0.49,4.553,M,-16.816,M,,*4E
$GNGLL,4910.426572,N,12304.398504,W,004341.000,A,D*59
$GNGSA,A,3,17,22,19,14,24,13,15,02,30,06,21,,0.84,0.49,0.68,1*01
$GNGSA,A,3,73,72,80,,,,,,,,,,0.84,0.49,0.68,2*04
$GNGSA,A,3,25,02,08,10,03,12,24,,,,,,0.84,0.49,0.68,3*06
$GNGSA,A,3,36,30,27,45,29,21,22,28,,,,,0.84,0.49,0.68,4*0B
$GPGSV,4,1,13,17,73,097,32,22,71,063,31,19,60,191,31,14,49,081,31,1*69
$GPGSV,4,2,13,24,35,304,29,46,33,188,27,13,29,215,26,15,25,253,27,1*63
$GPGSV,4,3,13,02,21,044,25,30,16,142,26,06,09,159,25,21,08,029,23,1*64
$GPGSV,4,4,13,12,06,269,,1*5E
$GLGSV,2,1,07,73,72,054,25,83,56,091,,74,48,311,,82,32,036,,1*79
$GLGSV,2,2,07,72,25,281,21,80,21,101,19,84,21,169,,1*47
$GAGSV,3,1,11,25,81,029,28,02,39,273,26,08,34,292,24,10,34,090,22,7*7B
$GAGSV,3,2,11,03,32,229,22,12,30,062,19,24,30,081,24,11,28,122,19,7*7C
$GAGSV,3,3,11,07,05,336,11,05,03,187,09,33,03,016,09,7*4B
$GBGSV,3,1,11,36,82,300,39,30,55,148,37,27,43,064,37,46,42,114,,1*7C
$GBGSV,3,2,11,45,29,296,32,57,24,062,,29,13,195,32,21,13,301,30,1*74
$GBGSV,3,3,11,22,07,252,31,28,07,036,29,42,04,346,24,1*40
$GNRMC,004341.000,A,4910.426572,N,12304.398504,W,0.03,342.49,061224,,,D,V*1C
$GNVTG,342.49,T,,M,0.03,N,0.05,K,D*28
$GNGGA,004342.000,4910.426548,N,12304.398522,W,2,29,0.49,4.520,M,-16.816,M,,*44
$GNGLL,4910.426548,N,12304.398522,W,004342.000,A,D*57
$GNGSA,A,3,17,22,19,14,24,13,15,02,30,06,21,,0.84,0.49,0.68,1*01
$GNGSA,A,3,73,72,80,,,,,,,,,,0.84,0.49,0.68,2*04
$GNGSA,A,3,25,02,08,10,03,12,24,,,,,,0.84,0.49,0.68,3*06
$GNGSA,A,3,36,30,27,45,29,21,22,28,,,,,0.84,0.49,0.68,4*0B
$GPGSV,4,1,13,17,73,097,32,22,71,063,31,19,60,191,31,14,49,081,31,1*69
$GPGSV,4,2,13,24,35,304,29,46,33,188,27,13,29,215,25,15,25,253,26,1*61
$GPGSV,4,3,13,02,21,044,24,30,16,142,26,06,09,159,24,21,08,029,23,1*64
$GPGSV,4,4,13,12,06,269,,1*5E
$GLGSV,2,1,07,73,72,054,25,83,56,091,,74,48,311,,82,32,036,,1*79
$GLGSV,2,2,07,72,25,281,21,80,21,101,19,84,21,169,,1*47
$GAGSV,3,1,11,25,81,029,28,02,39,273,25,08,34,292,24,10,34,090,22,7*78
$GAGSV,3,2,11,03,32,229,22,12,30,062,18,24,30,081,23,11,28,122,19,7*7A
$GAGSV,3,3,11,07,05,336,11,05,03,187,09,33,03,016,09,7*4B
$GBGSV,3,1,11,36,82,300,39,30,55,148,37,27,43,064,37,46,42,114,,1*7C
$GBGSV,3,2,11,45,29,296,32,57,24,062,,29,13,195,32,21,13,301,30,1*74
$GBGSV,3,3,11,22,07,252,31,28,07,036,29,42,04,346,24,1*40
$GNRMC,004342.000,A,4910.426548,N,12304.398522,W,0.02,342.49,061224,,,D,V*13
$GNVTG,342.49,T,,M,0.02,N,0.04,K,D*28
$GNGGA,004343.000,4910.426500,N,12304.398522,W,2,29,0.49,4.541,M,-16.816,M,,*4E
$GNGLL,4910.426500,N,12304.398522,W,004343.000,A,D*5A
$GNGSA,A,3,17,22,19,14,24,13,15,02,30,06,21,,0.84,0.49,0.68,1*01
$GNGSA,A,3,73,72,80,,,,,,,,,,0.84,0.49,0.68,2*04
$GNGSA,A,3,25,02,08,10,03,12,24,,,,,,0.84,0.49,0.68,3*06
$GNGSA,A,3,36,30,27,45,29,21,28,22,,,,,0.84,0.49,0.68,4*0B
$GPGSV,4,1,13,17,73,097,32,22,71,063,31,19,60,191,31,14,49,081,31,1*69
$GPGSV,4,2,13,24,35,304,29,46,33,188,27,13,29,215,25,15,25,253,26,1*61
$GPGSV,4,3,13,02,21,044,24,30,16,142,25,06,09,159,24,21,08,029,23,1*67
$GPGSV,4,4,13,12,06,269,,1*5E
$GLGSV,2,1,07,73,72,054,25,83,56,091,,74,48,311,,82,32,036,,1*79
$GLGSV,2,2,07,72,25,281,20,80,21,101,19,84,21,169,,1*46
$GAGSV,3,1,11,25,81,029,28,02,39,273,25,08,34,292,24,10,34,090,22,7*78
$GAGSV,3,2,11,03,32,229,22,12,30,062,18,24,30,081,23,11,28,122,19,7*7A
$GAGSV,3,3,11,07,05,336,11,05,03,187,08,33,03,016,09,7*4A
$GBGSV,3,1,10,36,82,300,39,30,55,148,37,27,43,064,37,45,29,296,33,1*7A
$GBGSV,3,2,10,57,24,062,,29,13,195,32,21,13,301,30,28,07,036,29,1*70
$GBGSV,3,3,10,22,07,252,31,42,04,346,24,1*72
$GNRMC,004343.000,A,4910.426500,N,12304.398522,W,0.03,342.49,061224,,,D,V*1F
$GNVTG,342.49,T,,M,0.03,N,0.05,K,D*28
$GNGGA,004344.000,4910.426446,N,12304.398552,W,2,29,0.49,4.520,M,-16.816,M,,*4A
$GNGLL,4910.426446,N,12304.398552,W,004344.000,A,D*59
$GNGSA,A,3,17,22,19,14,24,13,15,02,30,06,21,,0.84,0.49,0.68,1*01
$GNGSA,A,3,73,72,80,,,,,,,,,,0.84,0.49,0.68,2*04
$GNGSA,A,3,25,02,08,10,03,12,24,,,,,,0.84,0.49,0.68,3*06
$GNGSA,A,3,36,30,27,45,29,21,22,28,,,,,0.84,0.49,0.68,4*0B
$GPGSV,4,1,13,17,73,097,32,22,71,063,31,19,60,191,31,14,49,081,31,1*69
$GPGSV,4,2,13,24,35,304,28,46,33,188,27,13,29,215,25,15,25,253,26,1*60
$GPGSV,4,3,13,02,21,044,24,30,16,142,25,06,09,159,24,21,08,029,23,1*67
$GPGSV,4,4,13,12,06,269,,1*5E
$GLGSV,2,1,07,73,72,054,25,83,56,091,,74,48,311,,82,32,036,,1*79
$GLGSV,2,2,07,72,25,281,20,80,21,101,19,84,21,169,,1*46
$GAGSV,3,1,11,25,81,029,28,02,39,273,24,08,34,292,24,10,34,090,22,7*79
$GAGSV,3,2,11,03,32,229,21,12,30,062,18,24,30,081,23,11,28,122,19,7*79
$GAGSV,3,3,11,07,05,336,11,05,03,187,08,33,03,016,09,7*4A
$GBGSV,3,1,11,36,82,300,39,30,55,148,37,27,43,064,37,46,42,114,,1*7C
$GBGSV,3,2,11,45,29,296,33,57,24,062,,29,13,195,32,21,13,301,30,1*75
$GBGSV,3,3,11,22,07,252,31,28,07,036,29,42,04,346,24,1*40
$GNRMC,004344.000,A,4910.426446,N,12304.398552,W,0.02,342.49,061224,,,D,V*1D
$GNVTG,342.49,T,,M,0.02,N,0.04,K,D*28
$GNGGA,004345.000,4910.426422,N,12304.398582,W,2,29,0.49,4.475,M,-16.817,M,,*44
$GNGLL,4910.426422,N,12304.398582,W,004345.000,A,D*57
$GNGSA,A,3,17,22,19,14,24,13,15,02,30,06,21,,0.84,0.49,0.68,1*01
$GNGSA,A,3,73,72,80,,,,,,,,,,0.84,0.49,0.68,2*04
$GNGSA,A,3,25,02,08,10,03,12,24,,,,,,0.84,0.49,0.68,3*06
$GNGSA,A,3,36,30,27,45,29,21,22,28,,,,,0.84,0.49,0.68,4*0B
$GPGSV,4,1,13,17,73,097,32,22,71,063,30,19,60,191,30,14,49,081,31,1*69
$GPGSV,4,2,13,24,35,304,28,46,33,188,27,13,29,215,25,15,25,253,25,1*63
$GPGSV,4,3,13,02,21,044,23,30,16,142,25,06,09,159,24,21,08,029,23,1*60
$GPGSV,4,4,13,12,06,269,,1*5E
$GLGSV,2,1,07,73,72,054,25,83,56,091,,74,48,311,,82,32,036,,1*79
$GLGSV,2,2,07,72,25,281,20,80,21,101,19,84,21,169,,1*46
$GAGSV,3,1,11,25,81,029,27,02,39,273,24,08,34,292,23,10,34,090,22,7*71
$GAGSV,3,2,11,03,32,229,20,12,30,062,18,24,30,081,23,11,28,122,19,7*78
$GAGSV,3,3,11,07,05,336,11,05,03,187,08,33,03,016,08,7*4B
$GBGSV,3,1,11,36,82,300,39,30,55,148,37,27,43,064,37,46,42,114,,1*7C
$GBGSV,3,2,11,45,29,296,33,57,24,062,,29,13,195,32,21,13,301,30,1*75
$GBGSV,3,3,11,22,07,252,30,28,07,036,29,42,04,346,24,1*41
$GNRMC,004345.000,A,4910.426422,N,12304.398582,W,0.02,342.49,061224,,,D,V*13
$GNVTG,342.49,T,,M,0.02,N,0.04,K,D*28
$GNGGA,004346.000,4910.426404,N,12304.398684,W,2,29,0.49,4.474,M,-16.817,M,,*47
$GNGLL,4910.426404,N,12304.398684,W,004346.000,A,D*55
$GNGSA,A,3,17,22,19,14,24,13,15,02,30,06,21,,0.84,0.49,0.68,1*01
$GNGSA,A,3,73,72,80,,,,,,,,,,0.84,0.49,0.68,2*04
$GNGSA,A,3,25,02,08,10,03,12,24,,,,,,0.84,0.49,0.68,3*06
$GNGSA,A,3,36,30,27,45,29,21,22,28,,,,,0.84,0.49,0.68,4*0B
$GPGSV,4,1,13,17,73,097,32,22,71,063,30,19,60,191,30,14,49,081,31,1*69
$GPGSV,4,2,13,24,35,304,28,46,33,188,27,13,29,215,24,15,25,253,25,1*62
$GPGSV,4,3,13,02,21,044,23,30,16,142,25,06,09,159,23,21,08,029,23,1*67
$GPGSV,4,4,13,12,06,269,,1*5E
$GLGSV,2,1,07,73,72,054,25,83,56,091,,74,48,311,,82,32,036,,1*79
$GLGSV,2,2,07,72,25,281,20,80,21,101,19,84,21,169,,1*46
$GAGSV,3,1,11,25,81,029,27,02,39,273,24,08,34,292,24,10,34,090,21,7*75
$GAGSV,3,2,11,03,32,229,20,12,30,062,18,24,30,081,23,11,28,122,19,7*78
$GAGSV,3,3,11,07,05,336,11,05,03,187,08,33,03,016,08,7*4B
$GBGSV,3,1,11,36,82,300,39,30,55,148,37,27,43,064,37,46,42,114,,1*7C
$GBGSV,3,2,11,45,29,296,33,57,24,062,,29,13,195,32,21,13,301,30,1*75
$GBGSV,3,3,11,22,07,252,29,28,07,036,29,42,04,346,24,1*49
$GNRMC,004346.000,A,4910.426404,N,12304.398684,W,0.02,342.49,061224,,,D,V*11
$GNVTG,342.49,T,,M,0.02,N,0.03,K,D*2F
$GNGGA,004347.000,4910.426350,N,12304.398792,W,2,29,0.49,4.525,M,-16.816,M,,*42
$GNGLL,4910.426350,N,12304.398792,W,004347.000,A,D*54
$GNGSA,A,3,17,22,19,14,24,13,15,02,30,06,21,,0.84,0.49,0.68,1*01
$GNGSA,A,3,73,72,80,,,,,,,,,,0.84,0.49,0.68,2*04
$GNGSA,A,3,25,02,08,10,03,12,24,,,,,,0.84,0.49,0.68,3*06
$GNGSA,A,3,36,30,27,45,29,21,22,28,,,,,0.84,0.49,0.68,4*0B
$GPGSV,4,1,13,17,73,097,32,22,71,063,30,19,60,191,30,14,49,081,31,1*69
$GPGSV,4,2,13,24,35,304,29,46,33,188,27,13,29,215,26,15,25,253,25,1*61
$GPGSV,4,3,13,02,21,044,23,30,16,142,25,06,09,159,23,21,08,029,23,1*67
$GPGSV,4,4,13,12,06,269,,1*5E
$GLGSV,2,1,07,73,72,054,26,83,56,091,,74,48,311,,82,32,036,,1*7A
$GLGSV,2,2,07,72,25,281,20,80,21,101,19,84,21,169,,1*46
$GAGSV,3,1,11,25,81,029,27,02,39,273,24,08,34,292,24,10,34,090,21,7*75
$GAGSV,3,2,11,03,32,229,20,12,30,062,18,24,30,081,23,11,28,122,19,7*78
$GAGSV,3,3,11,07,05,336,11,05,03,187,08,33,03,016,08,7*4B
$GBGSV,3,1,11,36,82,300,39,30,55,148,37,27,43,064,37,46,42,114,,1*7C
$GBGSV,3,2,11,45,29,296,33,57,24,062,,29,13,195,32,21,13,301,30,1*75
$GBGSV,3,3,11,22,07,252,29,28,07,036,29,42,04,346,24,1*49
$GNRMC,004347.000,A,4910.426350,N,12304.398792,W,0.02,342.49,061224,,,D,V*10
$GNVTG,342.49,T,,M,0.02,N,0.04,K,D*28
$GNGGA,004348.000,4910.426266,N,12304.398936,W,2,29,0.49,4.551,M,-16.816,M,,*4A
$GNGLL,4910.426266,N,12304.398936,W,004348.000,A,D*5F
$GNGSA,A,3,17,22,19,14,24,13,15,02,30,06,21,,0.84,0.49,0.68,1*01
$GNGSA,A,3,73,72,80,,,,,,,,,,0.84,0.49,0.68,2*04
$GNGSA,A,3,25,02,08,10,03,12,24,,,,,,0.84,0.49,0.68,3*06
$GNGSA,A,3,36,30,27,45,29,21,22,28,,,,,0.84,0.49,0.68,4*0B
$GPGSV,4,1,13,17,73,097,32,22,71,063,30,19,60,191,31,14,49,081,31,1*68
$GPGSV,4,2,13,24,35,304,29,46,33,188,27,13,29,215,27,15,25,253,25,1*60
$GPGSV,4,3,13,02,21,044,23,30,16,142,25,06,09,159,24,21,08,029,23,1*60
$GPGSV,4,4,13,12,06,269,,1*5E
$GLGSV,2,1,07,73,72,054,26,83,56,091,,74,48,311,,82,32,036,,1*7A
$GLGSV,2,2,07,72,25,281,20,80,21,101,20,84,21,169,,1*4C
$GAGSV,3,1,11,25,81,029,27,02,39,273,24,08,34,292,24,10,34,090,22,7*76
$GAGSV,3,2,11,03,32,229,21,12,30,062,18,24,30,081,24,11,28,122,19,7*7E
$GAGSV,3,3,11,07,05,336,11,05,03,187,09,33,03,016,08,7*4A
$GBGSV,3,1,11,36,82,300,39,30,55,148,37,27,43,064,37,46,42,114,,1*7C
$GBGSV,3,2,11,45,29,296,33,57,24,062,,29,13,195,32,21,13,301,30,1*75
$GBGSV,3,3,11,22,07,252,29,28,07,036,29,42,04,346,24,1*49
$GNRMC,004348.000,A,4910.426266,N,12304.398936,W,0.03,342.49,061224,,,D,V*1A
$GNVTG,342.49,T,,M,0.03,N,0.05,K,D*28
$GNGGA,004349.000,4910.426254,N,12304.399026,W,2,29,0.49,4.532,M,-16.816,M,,*46
$GNGLL,4910.426254,N,12304.399026,W,004349.000,A,D*56
$GNGSA,A,3,17,22,19,14,24,13,15,02,30,06,21,,0.84,0.49,0.68,1*01
$GNGSA,A,3,73,72,80,,,,,,,,,,0.84,0.49,0.68,2*04
$GNGSA,A,3,25,02,08,10,03,12,24,,,,,,0.84,0.49,0.68,3*06
$GNGSA,A,3,36,30,27,45,29,21,22,28,,,,,0.84,0.49,0.68,4*0B
$GPGSV,4,1,13,17,73,097,32,22,71,063,30,19,60,191,31,14,49,081,31,1*68
$GPGSV,4,2,13,24,35,304,29,46,33,188,27,13,29,215,26,15,25,253,26,1*62
$GPGSV,4,3,13,02,21,044,23,30,16,142,25,06,09,159,24,21,08,029,23,1*60
$GPGSV,4,4,13,12,06,269,,1*5E
$GLGSV,2,1,07,73,72,054,25,83,56,091,,74,48,311,,82,32,036,,1*79
$GLGSV,2,2,07,72,25,281,20,80,21,101,20,84,21,169,,1*4C
$GAGSV,3,1,12,25,81,029,27,02,39,273,24,08,34,292,24,10,34,090,22,7*75
$GAGSV,3,2,12,03,32,229,21,12,30,062,18,24,30,081,24,11,28,122,19,7*7D
$GAGSV,3,3,12,07,05,336,11,36,03,163,,05,03,187,09,33,03,016,08,7*7B
$GBGSV,3,1,10,36,82,300,39,30,55,148,37,27,43,064,37,45,29,296,33,1*7A
$GBGSV,3,2,10,57,24,062,,29,13,195,32,21,13,301,30,22,07,252,29,1*7A
$GBGSV,3,3,10,28,07,036,29,42,04,346,24,1*71
$GNRMC,004349.000,A,4910.426254,N,12304.399026,W,0.03,342.49,061224,,,D,V*13
$GNVTG,342.49,T,,M,0.03,N,0.05,K,D*28
$GNGGA,004350.000,4910.426242,N,12304.399146,W,2,29,0.49,4.486,M,-16.816,M,,*40
$GNGLL,4910.426242,N,12304.399146,W,004350.000,A,D*5E
$GNGSA,A,3,17,22,19,14,24,13,15,02,30,06,21,,0.84,0.49,0.68,1*01
$GNGSA,A,3,73,72,80,,,,,,,,,,0.84,0.49,0.68,2*04
$GNGSA,A,3,25,02,08,10,03,12,24,,,,,,0.84,0.49,0.68,3*06
$GNGSA,A,3,36,30,27,45,21,29,28,22,,,,,0.84,0.49,0.68,4*0B
$GPGSV,4,1,13,17,73,097,32,22,71,063,31,19,60,191,31,14,49,081,31,1*69
$GPGSV,4,2,13,24,35,304,29,46,33,188,27,13,29,215,26,15,25,253,27,1*63
$GPGSV,4,3,13,02,21,044,23,30,16,142,24,06,09,159,24,21,08,029,23,1*61
$GPGSV,4,4,13,12,06,269,,1*5E
$GLGSV,2,1,07,73,72,054,25,83,56,091,,74,48,311,,82,32,036,,1*79
$GLGSV,2,2,07,72,25,281,20,80,21,101,20,84,21,169,,1*4C
$GAGSV,3,1,12,25,81,029,27,02,39,273,24,08,34,292,24,10,34,090,22,7*75
$GAGSV,3,2,12,03,32,229,21,12,30,062,18,24,30,081,24,11,28,122,19,7*7D
$GAGSV,3,3,12,07,05,336,12,05,03,187,09,36,03,163,,33,03,016,09,7*79
$GBGSV,3,1,10,36,82,300,39,30,55,148,37,27,43,064,37,46,42,114,,1*7D
$GBGSV,3,2,10,45,29,296,33,21,13,301,30,29,13,195,32,28,07,036,29,1*77
$GBGSV,3,3,10,22,07,252,29,42,04,346,24,1*7B
$GNRMC,004350.000,A,4910.426242,N,12304.399146,W,0.03,342.49,061224,,,D,V*1B
$GNVTG,342.49,T,,M,0.03,N,0.05,K,D*28
$GNGGA,004351.000,4910.426248,N,12304.399302,W,2,29,0.49,4.394,M,-16.816,M,,*4D
