$GNGGA,004321.000,4910.426410,N,12304.399986,W,2,29,0.49,6.531,M,-16.817,M,,*4D
$GNGLL,4910.426410,N,12304.399986,W,004321.000,A,D*5D
$GNGSA,A,3,17,22,19,14,24,13,15,02,30,21,,,0.87,0.49,0.72,1*0F
$GNGSA,A,3,83,82,72,80,65,,,,,,,,0.87,0.49,0.72,2*0A
$GNGSA,A,3,25,02,08,10,03,24,,,,,,,0.87,0.49,0.72,3*0D
$GNGSA,A,3,36,30,27,45,21,29,28,22,,,,,0.87,0.49,0.72,4*03
$GPGSV,4,1,13,17,73,094,31,22,70,064,29,19,60,191,28,14,48,082,28,1*64
$GPGSV,4,2,13,24,36,304,27,46,33,188,28,13,28,214,26,15,24,252,22,1*64
$GPGSV,4,3,13,02,20,043,21,30,16,142,19,06,10,158,20,21,08,029,20,1*65
$GPGSV,4,4,13,12,07,270,,1*57
$GLGSV,2,1,07,83,56,091,25,74,48,311,17,82,32,036,27,72,25,280,27,1*77
$GLGSV,2,2,07,84,21,169,,80,20,101,30,65,15,339,30,1*4A
$GAGSV,3,1,11,25,81,030,28,02,39,274,24,08,34,291,21,10,34,090,19,7*78
$GAGSV,3,2,11,03,32,229,19,24,30,081,22,12,30,062,17,11,29,122,15,7*71
$GAGSV,3,3,11,07,06,335,12,36,03,163,,05,03,187,08,7*46
$GBGSV,3,1,11,36,82,300,36,30,55,148,33,27,43,064,34,46,42,114,,1*74
$GBGSV,3,2,11,45,29,296,30,57,24,063,,21,13,301,27,29,13,195,28,1*7A
$GBGSV,3,3,11,28,08,036,26,22,07,252,28,42,04,346,23,1*4F
$GNRMC,004321.000,A,4910.426410,N,12304.399986,W,0.10,181.98,061224,,,D,V*1B
$GNVTG,181.98,T,,M,0.10,N,0.19,K,D*26
$PAIRLOG,Full*51
$GNGGA,004322.000,4910.426410,N,12304.400046,W,2,30,0.49,6.626,M,-16.817,M,,*41
$GNGLL,4910.426410,N,12304.400046,W,004322.000,A,D*5C
$GNGSA,A,3,17,22,19,14,24,13,15,02,30,21,12,,0.85,0.49,0.70,1*0C
$GNGSA,A,3,83,82,72,80,65,,,,,,,,0.85,0.49,0.70,2*0A
$GNGSA,A,3,25,02,08,10,03,24,,,,,,,0.85,0.49,0.70,3*0D
$GNGSA,A,3,36,30,27,45,21,29,28,22,,,,,0.85,0.49,0.70,4*03
$GPGSV,4,1,13,17,73,094,31,22,70,064,29,19,60,191,28,14,48,082,28,1*64
$GPGSV,4,2,13,24,36,304,27,46,33,188,28,13,28,214,26,15,24,252,23,1*65
$GPGSV,4,3,13,02,20,043,20,30,16,142,19,06,10,158,20,21,08,029,20,1*64
$GPGSV,4,4,13,12,07,270,15,1*53
$GLGSV,2,1,07,83,56,091,24,74,48,311,17,82,32,036,27,72,25,280,27,1*76
$GLGSV,2,2,07,84,21,169,,80,20,101,30,65,15,339,30,1*4A
$GAGSV,3,1,11,25,81,030,27,02,39,274,24,08,34,291,21,10,34,090,19,7*77
$GAGSV,3,2,11,03,32,229,19,24,30,081,22,12,30,062,16,11,29,122,15,7*70
$GAGSV,3,3,11,07,06,335,13,36,03,163,,05,03,187,08,7*47
$GBGSV,3,1,11,36,82,300,36,30,55,148,33,27,43,064,34,46,42,114,,1*74
$GBGSV,3,2,11,45,29,296,30,57,24,063,,21,13,301,27,29,13,195,28,1*7A
$GBGSV,3,3,11,28,08,036,26,22,07,252,28,42,04,346,23,1*4F
$GNRMC,004322.000,A,4910.426410,N,12304.400046,W,0.09,181.98,061224,,,D,V*12
$GNVTG,181.98,T,,M,0.09,N,0.17,K,D*20
$PAIRLOG,Full*51
$GNGGA,004323.000,4910.426386,N,12304.400058,W,2,30,0.49,6.735,M,-16.816,M,,*45
$GNGLL,4910.426386,N,12304.400058,W,004323.000,A,D*5A
$GNGSA,A,3,17,22,19,14,24,13,15,02,30,21,12,,0.85,0.49,0.70,1*0C
$GNGSA,A,3,83,82,72,80,65,,,,,,,,0.85,0.49,0.70,2*0A
$GNGSA,A,3,25,02,08,10,03,24,,,,,,,0.85,0.49,0.70,3*0D
$GNGSA,A,3,36,30,27,45,21,29,28,22,,,,,0.85,0.49,0.70,4*03
$GPGSV,4,1,13,17,73,094,31,22,70,064,29,19,61,191,28,14,48,082,28,1*65
$GPGSV,4,2,13,24,36,304,26,46,33,188,28,13,28,214,26,15,24,252,24,1*63
$GPGSV,4,3,13,02,20,043,21,30,16,142,19,06,10,158,20,21,08,029,20,1*65
$GPGSV,4,4,13,12,07,270,17,1*51
$GLGSV,2,1,07,83,56,091,24,74,48,311,17,82,32,036,27,72,25,280,27,1*76
$GLGSV,2,2,07,84,21,169,,80,20,101,30,65,15,339,30,1*4A
$GAGSV,3,1,11,25,81,030,27,02,39,274,24,08,34,291,21,10,34,090,18,7*76
$GAGSV,3,2,11,03,32,229,19,24,30,081,22,12,30,062,16,11,29,122,15,7*70
$GAGSV,3,3,11,07,06,335,13,36,03,163,,05,03,187,08,7*47
$GBGSV,3,1,11,36,82,300,36,30,55,148,32,27,43,064,34,46,42,114,,1*75
$GBGSV,3,2,11,45,29,296,29,57,24,063,,21,13,301,27,29,13,195,28,1*72
$GBGSV,3,3,11,28,08,036,26,22,07,252,27,42,04,346,22,1*41
$GNRMC,004323.000,A,4910.426386,N,12304.400058,W,0.08,181.98,061224,,,D,V*15
$GNVTG,181.98,T,,M,0.08,N,0.15,K,D*23
$PAIRLOG,Full*51
$GNGGA,004324.000,4910.426344,N,12304.400070,W,2,30,0.49,6.796,M,-16.816,M,,*4F
$GNGLL,4910.426344,N,12304.400070,W,004324.000,A,D*59
$GNGSA,A,3,17,22,19,14,24,13,15,02,30,21,12,,0.85,0.49,0.70,1*0C
$GNGSA,A,3,83,82,72,80,65,,,,,,,,0.85,0.49,0.70,2*0A
$GNGSA,A,3,25,02,08,10,03,24,,,,,,,0.85,0.49,0.70,3*0D
$GNGSA,A,3,36,30,27,45,21,29,28,22,,,,,0.85,0.49,0.70,4*03
$GPGSV,4,1,13,17,73,094,32,22,70,064,30,19,61,191,28,14,48,082,29,1*6F
$GPGSV,4,2,13,24,36,304,27,46,33,188,28,13,28,214,27,15,24,252,26,1*61
$GPGSV,4,3,13,02,20,043,24,30,16,142,21,06,10,158,21,21,08,029,21,1*6B
$GPGSV,4,4,13,12,07,270,16,1*50
$GLGSV,2,1,07,83,56,091,24,74,48,311,18,82,32,036,27,72,25,280,27,1*79
$GLGSV,2,2,07,84,21,169,,80,20,101,30,65,15,339,30,1*4A
$GAGSV,3,1,11,25,81,030,28,02,39,274,24,08,34,291,21,10,34,090,18,7*79
$GAGSV,3,2,11,03,32,229,19,24,30,081,22,12,30,062,16,11,29,122,16,7*73
$GAGSV,3,3,11,07,06,335,13,36,03,163,,05,03,187,08,7*47
$GBGSV,3,1,11,36,82,300,35,30,55,148,31,27,43,064,34,46,42,114,,1*75
$GBGSV,3,2,11,45,29,296,29,57,24,063,,21,13,301,27,29,13,195,28,1*72
$GBGSV,3,3,11,28,08,036,26,22,07,252,27,42,04,346,21,1*42
$GNRMC,004324.000,A,4910.426344,N,12304.400070,W,0.07,181.98,061224,,,D,V*19
$GNVTG,181.98,T,,M,0.07,N,0.13,K,D*2A
$PAIRLOG,Full*51
$GNGGA,004325.000,4910.426362,N,12304.400100,W,2,30,0.49,6.778,M,-16.817,M,,*4D
$GNGLL,4910.426362,N,12304.400100,W,004325.000,A,D*5A
$GNGSA,A,3,17,22,19,14,24,13,15,02,30,21,12,,0.85,0.49,0.70,1*0C
$GNGSA,A,3,83,82,72,80,65,,,,,,,,0.85,0.49,0.70,2*0A
$GNGSA,A,3,25,02,08,10,03,24,,,,,,,0.85,0.49,0.70,3*0D
$GNGSA,A,3,36,30,27,45,21,29,28,22,,,,,0.85,0.49,0.70,4*03
$GPGSV,4,1,13,17,73,094,32,22,70,064,30,19,61,191,28,14,48,082,29,1*6F
$GPGSV,4,2,13,24,36,304,27,46,33,188,28,13,28,214,27,15,24,252,25,1*62
$GPGSV,4,3,13,02,20,043,23,30,16,142,22,06,10,158,21,21,08,029,21,1*6F
$GPGSV,4,4,13,12,07,270,16,1*50
$GLGSV,2,1,07,83,56,091,24,74,48,311,17,82,32,036,26,72,25,280,27,1*77
$GLGSV,2,2,07,84,21,169,,80,20,101,30,65,15,339,30,1*4A
$GAGSV,3,1,11,25,81,030,28,02,39,274,24,08,34,291,21,10,34,090,18,7*79
$GAGSV,3,2,11,03,32,229,20,24,30,081,23,12,30,062,16,11,29,122,16,7*78
$GAGSV,3,3,11,07,06,335,13,36,03,163,,05,03,187,08,7*47
$GBGSV,3,1,11,36,82,300,34,30,55,148,31,27,43,064,33,46,42,114,,1*73
$GBGSV,3,2,11,45,29,296,29,57,24,063,,21,13,301,26,29,13,195,27,1*7C
$GBGSV,3,3,11,28,08,036,26,22,07,252,26,42,04,346,21,1*43
$GNRMC,004325.000,A,4910.426362,N,12304.400100,W,0.06,181.98,061224,,,D,V*1B
$GNVTG,181.98,T,,M,0.06,N,0.12,K,D*2A
$PAIRLOG,Full*51
$GNGGA,004326.000,4910.426344,N,12304.400214,W,2,30,0.49,6.757,M,-16.816,M,,*40
$GNGLL,4910.426344,N,12304.400214,W,004326.000,A,D*5B
$GNGSA,A,3,17,22,19,14,24,13,15,02,30,21,12,,0.85,0.49,0.70,1*0C
$GNGSA,A,3,83,82,72,80,65,,,,,,,,0.85,0.49,0.70,2*0A
$GNGSA,A,3,25,02,08,10,03,24,,,,,,,0.85,0.49,0.70,3*0D
$GNGSA,A,3,36,30,27,45,21,29,28,22,,,,,0.85,0.49,0.70,4*03
$GPGSV,4,1,13,17,73,094,32,22,70,065,30,19,61,191,28,14,48,082,29,1*6E
$GPGSV,4,2,13,24,36,304,27,46,33,188,28,13,28,214,27,15,24,252,25,1*62
$GPGSV,4,3,13,02,20,043,23,30,16,142,23,06,10,158,21,21,08,029,21,1*6E
$GPGSV,4,4,13,12,07,270,15,1*53
$GLGSV,2,1,07,83,56,091,24,74,48,311,16,82,32,036,26,72,25,280,27,1*76
$GLGSV,2,2,07,84,21,169,,80,20,101,30,65,15,339,30,1*4A
$GAGSV,3,1,11,25,81,030,28,02,39,274,24,08,34,291,21,10,34,090,18,7*79
$GAGSV,3,2,11,03,32,229,20,24,30,081,23,12,30,062,16,11,29,122,15,7*7B
$GAGSV,3,3,11,07,06,335,13,36,03,163,,05,03,187,08,7*47
$GBGSV,3,1,11,36,82,300,34,30,55,148,31,27,43,064,33,46,42,114,,1*73
$GBGSV,3,2,11,45,29,296,29,57,24,063,,21,13,301,26,29,13,195,27,1*7C
$GBGSV,3,3,11,28,08,036,26,22,07,252,26,42,04,346,21,1*43
$GNRMC,004326.000,A,4910.426344,N,12304.400214,W,0.05,181.98,061224,,,D,V*19
$GNVTG,181.98,T,,M,0.05,N,0.10,K,D*2B
$PAIRLOG,Full*51
$GNGGA,004327.000,4910.426356,N,12304.400250,W,2,30,0.49,6.695,M,-16.816,M,,*4D
$GNGLL,4910.426356,N,12304.400250,W,004327.000,A,D*59
$GNGSA,A,3,17,22,19,14,24,13,15,02,30,21,12,,0.85,0.49,0.70,1*0C
$GNGSA,A,3,83,82,72,80,65,,,,,,,,0.85,0.49,0.70,2*0A
$GNGSA,A,3,25,02,08,10,03,24,,,,,,,0.85,0.49,0.70,3*0D
$GNGSA,A,3,36,30,27,45,21,29,28,22,,,,,0.85,0.49,0.70,4*03
$GPGSV,4,1,13,17,73,094,32,22,70,065,30,19,61,191,28,14,48,082,29,1*6E
$GPGSV,4,2,13,24,36,304,27,46,33,188,28,13,28,214,27,15,24,252,25,1*62
$GPGSV,4,3,13,02,20,043,23,30,16,142,24,06,10,158,21,21,08,029,21,1*69
$GPGSV,4,4,13,12,07,270,14,1*52
$GLGSV,2,1,07,83,56,091,24,74,48,311,,82,32,036,26,72,25,280,27,1*71
$GLGSV,2,2,07,84,21,169,,80,20,101,30,65,15,339,30,1*4A
$GAGSV,3,1,11,25,81,030,28,02,39,274,24,08,34,291,21,10,34,090,17,7*76
$GAGSV,3,2,11,03,32,229,20,24,30,081,22,12,30,062,16,11,29,122,15,7*7A
$GAGSV,3,3,11,07,06,335,13,36,03,163,,05,03,187,08,7*47
$GBGSV,3,1,11,36,82,300,34,30,55,148,31,27,43,064,33,46,42,114,,1*73
$GBGSV,3,2,11,45,29,296,29,57,24,063,,21,13,301,26,29,13,195,27,1*7C
$GBGSV,3,3,11,28,08,036,26,22,07,252,26,42,04,346,21,1*43
$GNRMC,004327.000,A,4910.426356,N,12304.400250,W,0.05,181.98,061224,,,D,V*1B
$GNVTG,181.98,T,,M,0.05,N,0.09,K,D*23
$PAIRLOG,Full*51
$GNGGA,004328.000,4910.426380,N,12304.400256,W,2,30,0.49,6.542,M,-16.816,M,,*46
$GNGLL,4910.426380,N,12304.400256,W,004328.000,A,D*5B
$GNGSA,A,3,17,22,19,14,24,13,15,02,30,21,12,,0.85,0.49,0.70,1*0C
$GNGSA,A,3,83,82,72,80,65,,,,,,,,0.85,0.49,0.70,2*0A
$GNGSA,A,3,25,02,08,10,03,24,,,,,,,0.85,0.49,0.70,3*0D
$GNGSA,A,3,36,30,27,45,21,29,28,22,,,,,0.85,0.49,0.70,4*03
$GPGSV,4,1,13,17,73,094,32,22,70,065,30,19,61,191,28,14,48,082,29,1*6E
$GPGSV,4,2,13,24,36,304,27,46,33,188,28,13,28,214,27,15,24,252,25,1*62
$GPGSV,4,3,13,02,20,043,23,30,16,142,24,06,10,158,21,21,08,029,21,1*69
$GPGSV,4,4,13,12,07,270,14,1*52
$GLGSV,2,1,07,83,56,091,24,74,48,311,,82,32,036,27,72,25,280,26,1*71
$GLGSV,2,2,07,84,21,169,,80,20,101,30,65,15,339,30,1*4A
$GAGSV,3,1,11,25,81,030,28,02,39,274,24,08,34,291,21,10,34,090,17,7*76
$GAGSV,3,2,11,03,32,229,20,24,30,081,22,12,30,062,16,11,29,122,15,7*7A
$GAGSV,3,3,11,07,06,335,13,36,03,163,,05,03,187,08,7*47
$GBGSV,3,1,11,36,82,300,34,30,55,148,31,27,43,064,33,46,42,114,,1*73
$GBGSV,3,2,11,45,29,296,29,57,24,063,,21,13,301,26,29,13,195,27,1*7C
$GBGSV,3,3,11,28,08,036,26,22,07,252,26,42,04,346,21,1*43
$GNRMC,004328.000,A,4910.426380,N,12304.400256,W,0.05,181.98,061224,,,D,V*19
$GNVTG,181.98,T,,M,0.05,N,0.09,K,D*23
$PAIRLOG,Full*51
$GNGGA,004329.000,4910.426374,N,12304.400238,W,2,30,0.49,6.502,M,-16.816,M,,*40
$GNGLL,4910.426374,N,12304.400238,W,004329.000,A,D*59
$GNGSA,A,3,17,22,19,14,24,13,15,02,30,21,12,,0.85,0.49,0.70,1*0C
$GNGSA,A,3,83,82,72,80,65,,,,,,,,0.85,0.49,0.70,2*0A
$GNGSA,A,3,25,02,08,10,03,24,,,,,,,0.85,0.49,0.70,3*0D
$GNGSA,A,3,36,30,27,45,21,29,28,22,,,,,0.85,0.49,0.70,4*03
$GPGSV,4,1,13,17,73,094,32,22,70,065,30,19,61,191,28,14,48,082,29,1*6E
$GPGSV,4,2,13,24,36,304,27,46,33,188,28,13,28,214,27,15,24,252,25,1*62
$GPGSV,4,3,13,02,20,043,23,30,16,142,23,06,10,158,20,21,08,029,21,1*6F
$GPGSV,4,4,13,12,07,270,15,1*53
$GLGSV,2,1,07,83,56,091,24,74,48,311,18,82,32,036,27,72,25,280,26,1*78
$GLGSV,2,2,07,84,21,169,,80,20,101,30,65,15,339,30,1*4A
$GAGSV,3,1,11,25,81,030,28,02,39,274,24,08,34,291,22,10,34,090,17,7*75
$GAGSV,3,2,11,03,32,229,20,24,30,081,23,12,30,062,17,11,29,122,15,7*7A
$GAGSV,3,3,11,07,06,335,13,36,03,163,,05,03,187,08,7*47
$GBGSV,3,1,11,36,82,300,34,30,55,148,31,27,43,064,33,46,42,114,,1*73
$GBGSV,3,2,11,45,29,296,29,57,24,063,,21,13,301,26,29,13,195,27,1*7C
$GBGSV,3,3,11,28,08,036,26,22,07,252,26,42,04,346,21,1*43
$GNRMC,004329.000,A,4910.426374,N,12304.400238,W,0.05,181.98,061224,,,D,V*1B
$GNVTG,181.98,T,,M,0.05,N,0.09,K,D*23
$PAIRLOG,Full*51
$GNGGA,004330.000,4910.426350,N,12304.400172,W,2,30,0.49,6.515,M,-16.816,M,,*45
$GNGLL,4910.426350,N,12304.400172,W,004330.000,A,D*5A
$GNGSA,A,3,17,22,19,14,24,13,15,02,30,21,12,,0.85,0.49,0.70,1*0C
$GNGSA,A,3,83,82,72,80,65,,,,,,,,0.85,0.49,0.70,2*0A
$GNGSA,A,3,25,02,08,10,03,24,,,,,,,0.85,0.49,0.70,3*0D
$GNGSA,A,3,36,30,27,45,21,29,28,22,,,,,0.85,0.49,0.70,4*03
$GPGSV,4,1,13,17,73,094,32,22,70,065,30,19,61,191,28,14,48,082,29,1*6E
$GPGSV,4,2,13,24,36,304,27,46,33,188,28,13,28,214,27,15,24,252,24,1*63
$GPGSV,4,3,13,02,20,043,23,30,16,142,23,06,10,158,20,21,08,029,21,1*6F
$GPGSV,4,4,13,12,07,270,16,1*50
$GLGSV,2,1,07,83,56,091,24,74,48,311,16,82,32,036,28,72,25,280,26,1*79
$GLGSV,2,2,07,84,21,169,,80,20,101,30,65,15,339,30,1*4A
$GAGSV,3,1,11,25,81,030,28,02,39,274,24,08,34,291,22,10,34,090,17,7*75
$GAGSV,3,2,11,03,32,229,20,24,30,081,23,12,30,062,17,11,29,122,15,7*7A
$GAGSV,3,3,11,07,06,335,14,36,03,163,,05,03,187,08,7*40
$GBGSV,3,1,11,36,82,300,34,30,55,148,31,27,43,064,33,46,42,114,,1*73
$GBGSV,3,2,11,45,29,296,29,57,24,063,,21,13,301,25,29,13,195,27,1*7F
$GBGSV,3,3,11,28,08,036,25,22,07,252,26,42,04,346,20,1*41
$GNRMC,004330.000,A,4910.426350,N,12304.400172,W,0.06,181.98,061224,,,D,V*1B
$GNVTG,181.98,T,,M,0.06,N,0.10,K,D*28
$PAIRLOG,Full*51
$GNGGA,004331.000,4910.426338,N,12304.400136,W,2,30,0.49,6.492,M,-16.816,M,,*44
$GNGLL,4910.426338,N,12304.400136,W,004331.000,A,D*55
$GNGSA,A,3,17,22,19,14,24,13,15,02,30,21,12,,0.85,0.49,0.70,1*0C
$GNGSA,A,3,83,82,72,80,65,,,,,,,,0.85,0.49,0.70,2*0A
$GNGSA,A,3,25,02,08,10,03,24,,,,,,,0.85,0.49,0.70,3*0D
$GNGSA,A,3,36,30,27,45,21,29,28,22,,,,,0.85,0.49,0.70,4*03
$GPGSV,4,1,13,17,73,094,31,22,70,065,29,19,61,191,27,14,48,082,28,1*6B
$GPGSV,4,2,13,24,36,304,26,46,33,188,27,13,28,214,26,15,24,252,22,1*6A
$GPGSV,4,3,13,02,20,043,22,30,16,142,22,06,10,158,19,21,08,029,20,1*64
$GPGSV,4,4,13,12,07,270,14,1*52
$GLGSV,2,1,07,83,56,091,25,74,48,311,18,82,32,036,29,72,25,280,26,1*77
$GLGSV,2,2,07,84,21,169,,80,20,101,30,65,15,339,30,1*4A
$GAGSV,3,1,11,25,81,030,27,02,39,274,24,08,34,291,21,10,34,090,17,7*79
$GAGSV,3,2,11,03,32,229,19,24,30,081,23,12,30,062,17,11,29,122,15,7*70
$GAGSV,3,3,11,07,06,335,13,36,03,163,,05,03,187,08,7*47
$GBGSV,3,1,11,36,82,300,34,30,55,148,32,27,43,064,33,46,42,114,,1*70
$GBGSV,3,2,11,45,29,296,29,57,24,063,,21,13,301,25,29,13,195,27,1*7F
$GBGSV,3,3,11,28,08,036,25,22,07,252,26,42,04,346,20,1*41
$GNRMC,004331.000,A,4910.426338,N,12304.400136,W,0.07,181.98,061224,,,D,V*15
$GNVTG,181.98,T,,M,0.07,N,0.12,K,D*2B
$PAIRLOG,Full*51
$PAIR010,0,1,2343,434629*32
$GNGGA,004332.000,4910.426362,N,12304.400088,W,2,30,0.49,6.353,M,-16.817,M,,*47
$GNGLL,4910.426362,N,12304.400088,W,004332.000,A,D*5D
$GNGSA,A,3,17,22,19,14,24,13,15,02,30,21,12,,0.85,0.49,0.70,1*0C
$GNGSA,A,3,83,82,72,80,65,,,,,,,,0.85,0.49,0.70,2*0A
$GNGSA,A,3,25,02,08,10,03,24,,,,,,,0.85,0.49,0.70,3*0D
$GNGSA,A,3,36,30,27,45,21,29,28,22,,,,,0.85,0.49,0.70,4*03
$GPGSV,4,1,13,17,73,094,30,22,70,065,28,19,61,191,26,14,48,082,27,1*65
$GPGSV,4,2,13,24,36,304,25,46,33,188,27,13,28,214,25,15,24,252,22,1*6A
$GPGSV,4,3,13,02,20,043,21,30,16,142,21,06,10,158,17,21,08,029,19,1*60
$GPGSV,4,4,13,12,07,270,13,1*55
$GLGSV,2,1,07,83,56,091,26,74,48,311,16,82,32,036,29,72,25,280,26,1*7A
$GLGSV,2,2,07,84,21,169,,80,20,101,30,65,15,339,30,1*4A
$GAGSV,3,1,11,25,81,030,27,02,39,274,24,08,34,291,21,10,34,090,17,7*79
$GAGSV,3,2,11,03,32,229,19,24,30,081,23,12,30,062,17,11,29,122,15,7*70
$GAGSV,3,3,11,07,06,335,12,36,03,163,,05,03,187,07,7*49
$GBGSV,3,1,11,36,82,300,35,30,55,148,32,27,43,064,33,46,42,114,,1*71
$GBGSV,3,2,11,45,29,296,29,57,24,063,,21,13,301,25,29,13,195,28,1*70
$GBGSV,3,3,11,28,08,036,25,22,07,252,27,42,04,346,21,1*41
$GNRMC,004332.000,A,4910.426362,N,12304.400088,W,0.08,181.98,061224,,,D,V*12
$GNVTG,181.98,T,,M,0.08,N,0.14,K,D*22
$PAIRLOG,Full*51
$GNGGA,004333.000,4910.426392,N,12304.400034,W,2,30,0.49,6.259,M,-16.816,M,,*44
$GNGLL,4910.426392,N,12304.400034,W,004333.000,A,D*54
$GNGSA,A,3,17,22,19,14,24,13,15,02,30,21,12,,0.85,0.49,0.70,1*0C
$GNGSA,A,3,83,82,72,80,65,,,,,,,,0.85,0.49,0.70,2*0A
$GNGSA,A,3,25,02,08,10,03,24,,,,,,,0.85,0.49,0.70,3*0D
$GNGSA,A,3,36,30,27,45,21,29,28,22,,,,,0.85,0.49,0.70,4*03
$GPGSV,4,1,13,17,73,094,30,22,70,065,28,19,61,191,26,14,48,082,27,1*65
$GPGSV,4,2,13,24,36,304,25,46,33,188,27,13,28,214,25,15,24,252,24,1*6C
$GPGSV,4,3,13,02,20,043,21,30,16,142,20,06,10,158,16,21,08,029,19,1*60
$GPGSV,4,4,13,12,07,270,13,1*55
$GLGSV,2,1,07,83,56,091,26,74,48,311,18,82,32,036,29,72,25,280,26,1*74
$GLGSV,2,2,07,84,21,169,,80,20,101,30,65,15,339,31,1*4B
$GAGSV,3,1,11,25,81,030,27,02,39,274,24,08,34,291,21,10,34,090,17,7*79
$GAGSV,3,2,11,03,32,229,19,24,30,081,23,12,30,062,17,11,29,122,16,7*73
$GAGSV,3,3,11,07,06,335,12,36,03,163,,05,03,187,06,7*48
$GBGSV,3,1,11,36,82,300,35,30,55,148,33,27,43,064,33,46,42,114,,1*70
$GBGSV,3,2,11,45,29,296,29,57,24,063,,21,13,301,26,29,13,195,28,1*73
$GBGSV,3,3,11,28,08,036,25,22,07,252,28,42,04,346,21,1*4E
$GNRMC,004333.000,A,4910.426392,N,12304.400034,W,0.09,181.98,061224,,,D,V*1A
$GNVTG,181.98,T,,M,0.09,N,0.16,K,D*21
$PAIRLOG,Full*51
$GNGGA,004334.000,4910.426470,N,12304.399986,W,2,30,0.49,6.270,M,-16.816,M,,*44
$GNGLL,4910.426470,N,12304.399986,W,004334.000,A,D*5F
$GNGSA,A,3,17,22,19,14,24,13,15,02,30,21,12,,0.85,0.49,0.70,1*0C
$GNGSA,A,3,83,82,72,80,65,,,,,,,,0.85,0.49,0.70,2*0A
$GNGSA,A,3,25,02,08,10,03,24,,,,,,,0.85,0.49,0.70,3*0D
$GNGSA,A,3,36,30,27,45,21,29,28,22,,,,,0.85,0.49,0.70,4*03
$GPGSV,4,1,13,17,73,094,30,22,70,065,28,19,61,191,26,14,48,082,27,1*65
$GPGSV,4,2,13,24,36,304,25,46,33,188,27,13,28,214,25,15,24,252,24,1*6C
$GPGSV,4,3,13,02,20,043,20,30,15,142,20,06,10,158,16,21,08,029,19,1*62
$GPGSV,4,4,13,12,07,270,11,1*57
$GLGSV,2,1,07,83,56,091,26,74,48,311,17,82,32,036,29,72,25,280,26,1*7B
$GLGSV,2,2,07,84,21,169,,80,20,101,30,65,15,339,31,1*4B
$GAGSV,3,1,11,25,81,030,27,02,39,274,24,08,34,291,21,10,34,090,17,7*79
$GAGSV,3,2,11,03,32,229,19,24,30,081,23,12,30,062,17,11,29,122,16,7*73
$GAGSV,3,3,11,07,06,335,12,36,03,163,,05,03,187,05,7*4B
$GBGSV,3,1,11,36,82,300,35,30,55,148,33,27,43,064,33,46,42,114,,1*70
$GBGSV,3,2,11,45,29,296,29,57,24,063,,21,13,301,26,29,13,195,28,1*73
$GBGSV,3,3,11,28,08,036,26,22,07,252,28,42,04,346,21,1*4D
$GNRMC,004334.000,A,4910.426470,N,12304.399986,W,0.10,181.98,061224,,,D,V*19
$GNVTG,181.98,T,,M,0.10,N,0.18,K,D*27
$PAIRLOG,Full*51
$GNGGA,004335.000,4910.426506,N,12304.399950,W,2,30,0.49,6.285,M,-16.816,M,,*44
$GNGLL,4910.426506,N,12304.399950,W,004335.000,A,D*55
$GNGSA,A,3,17,22,19,14,24,13,15,02,30,21,12,,0.85,0.49,0.70,1*0C
$GNGSA,A,3,83,82,72,80,65,,,,,,,,0.85,0.49,0.70,2*0A
$GNGSA,A,3,25,02,08,10,03,24,,,,,,,0.85,0.49,0.70,3*0D
$GNGSA,A,3,36,30,27,45,21,29,28,22,,,,,0.85,0.49,0.70,4*03
$GPGSV,4,1,13,17,73,094,30,22,70,065,28,19,61,191,26,14,48,082,27,1*65
$GPGSV,4,2,13,24,36,304,24,46,33,188,27,13,28,214,25,15,24,252,24,1*6D
$GPGSV,4,3,13,02,20,043,20,30,15,142,20,06,10,158,16,21,08,029,18,1*63
$GPGSV,4,4,13,12,07,270,13,1*55
$GLGSV,2,1,07,83,56,091,26,74,48,311,18,82,32,036,29,72,25,280,26,1*74
$GLGSV,2,2,07,84,21,169,,80,20,101,30,65,15,339,31,1*4B
$GAGSV,3,1,10,25,81,030,27,02,39,274,24,08,34,291,21,10,34,090,17,7*78
$GAGSV,3,2,10,03,32,229,19,24,30,081,23,12,30,062,17,11,29,122,17,7*73
$GAGSV,3,3,10,07,06,335,12,05,03,187,06,7*7B
$GBGSV,3,1,12,36,82,300,35,30,55,148,34,27,43,064,34,46,42,114,,1*73
$GBGSV,3,2,12,45,29,296,29,57,24,063,,21,13,301,26,29,13,195,28,1*70
$GBGSV,3,3,12,28,08,036,27,22,07,252,28,58,06,125,,42,04,346,22,1*71
$GNRMC,004335.000,A,4910.426506,N,12304.399950,W,0.10,181.98,061224,,,D,V*13
$GNVTG,181.98,T,,M,0.10,N,0.19,K,D*26
$PAIRLOG,Full*51
$GNGGA,004336.000,4910.426566,N,12304.399932,W,2,30,0.49,6.316,M,-16.816,M,,*4E
$GNGLL,4910.426566,N,12304.399932,W,004336.000,A,D*54
$GNGSA,A,3,17,22,19,14,24,13,15,02,30,12,21,,0.85,0.49,0.70,1*0C
$GNGSA,A,3,83,82,72,80,65,,,,,,,,0.85,0.49,0.70,2*0A
$GNGSA,A,3,25,02,08,10,03,24,,,,,,,0.85,0.49,0.70,3*0D
$GNGSA,A,3,36,30,27,45,29,21,28,22,,,,,0.85,0.49,0.70,4*03
$GPGSV,4,1,13,17,73,094,30,22,70,065,28,19,61,191,26,14,48,082,28,1*6A
$GPGSV,4,2,13,24,36,304,24,46,33,188,27,13,28,214,25,15,24,252,24,1*6D
$GPGSV,4,3,13,02,20,043,20,30,15,142,21,06,10,158,16,12,07,270,13,1*68
$GPGSV,4,4,13,21,07,029,18,1*50
$GLGSV,2,1,07,83,57,091,25,74,48,311,18,82,32,036,29,72,25,280,26,1*76
$GLGSV,2,2,07,84,21,169,,80,20,101,29,65,16,338,31,1*41
$GAGSV,3,1,11,25,81,031,26,02,39,274,24,08,34,291,21,10,34,090,17,7*79
$GAGSV,3,2,11,03,32,229,19,24,30,082,23,12,30,061,17,11,29,122,17,7*72
$GAGSV,3,3,11,07,06,335,12,36,03,163,,05,03,187,07,7*49
$GBGSV,3,1,11,36,82,300,35,30,55,148,34,27,43,064,34,46,42,114,,1*70
$GBGSV,3,2,11,45,29,296,29,57,24,062,,29,14,195,29,21,13,300,26,1*75
$GBGSV,3,3,11,28,07,036,27,22,06,252,28,42,04,346,22,1*41
$GNRMC,004336.000,A,4910.426566,N,12304.399932,W,0.11,181.98,061224,,,D,V*13
$GNVTG,181.98,T,,M,0.11,N,0.21,K,D*2C
$PAIRLOG,Full*51
$GNGGA,004337.000,4910.426560,N,12304.399830,W,2,30,0.49,6.263,M,-16.816,M,,*49
$GNGLL,4910.426560,N,12304.399830,W,004337.000,A,D*50
$GNGSA,A,3,17,22,19,14,24,13,15,02,30,12,21,,0.85,0.49,0.70,1*0C
$GNGSA,A,3,83,82,72,80,65,,,,,,,,0.85,0.49,0.70,2*0A
$GNGSA,A,3,25,02,08,10,03,24,,,,,,,0.85,0.49,0.70,3*0D
$GNGSA,A,3,36,30,27,45,29,21,28,22,,,,,0.85,0.49,0.70,4*03
$GPGSV,4,1,13,17,73,094,30,22,70,065,28,19,61,191,26,14,48,082,28,1*6A
$GPGSV,4,2,13,24,36,304,24,46,33,188,27,13,28,214,26,15,24,252,24,1*6E
$GPGSV,4,3,13,02,20,043,20,30,15,142,21,06,10,158,16,12,07,270,14,1*6F
$GPGSV,4,4,13,21,07,029,18,1*50
$GLGSV,2,1,07,83,57,091,26,74,48,311,18,82,32,036,29,72,25,280,26,1*75
$GLGSV,2,2,07,84,21,169,,80,20,101,28,65,16,338,31,1*40
$GAGSV,3,1,11,25,81,031,26,02,39,274,23,08,34,291,21,10,34,090,18,7*71
$GAGSV,3,2,11,03,32,229,19,24,30,082,23,12,30,061,17,11,29,122,17,7*72
$GAGSV,3,3,11,07,06,335,12,36,03,163,,05,03,187,08,7*46
$GBGSV,3,1,11,36,82,300,36,30,55,148,34,27,43,064,34,46,42,114,,1*73
$GBGSV,3,2,11,45,29,296,29,57,24,062,,29,14,195,29,21,13,300,26,1*75
$GBGSV,3,3,11,28,07,036,27,22,06,252,28,42,04,346,22,1*41
$GNRMC,004337.000,A,4910.426560,N,12304.399830,W,0.12,181.98,061224,,,D,V*14
$GNVTG,181.98,T,,M,0.12,N,0.22,K,D*2C
$PAIRLOG,Full*51
$GNGGA,004338.000,4910.426572,N,12304.399836,W,2,30,0.49,6.428,M,-16.816,M,,*4A
$GNGLL,4910.426572,N,12304.399836,W,004338.000,A,D*5A
$GNGSA,A,3,17,22,19,14,24,13,15,02,30,12,21,,0.85,0.49,0.70,1*0C
$GNGSA,A,3,83,82,72,80,65,,,,,,,,0.85,0.49,0.70,2*0A
$GNGSA,A,3,25,02,08,10,03,24,,,,,,,0.85,0.49,0.70,3*0D
$GNGSA,A,3,36,30,27,45,29,21,28,22,,,,,0.85,0.49,0.70,4*03
$GPGSV,4,1,13,17,73,094,30,22,70,065,28,19,61,191,27,14,48,082,28,1*6B
$GPGSV,4,2,13,24,36,304,25,46,33,188,27,13,28,214,26,15,24,252,25,1*6E
$GPGSV,4,3,13,02,20,043,21,30,15,142,21,06,10,158,15,12,07,270,15,1*6C
$GPGSV,4,4,13,21,07,029,18,1*50
$GLGSV,2,1,07,83,57,091,26,74,48,311,16,82,32,036,29,72,25,280,26,1*7B
$GLGSV,2,2,07,84,21,169,,80,20,101,28,65,16,338,31,1*40
$GAGSV,3,1,11,25,81,031,26,02,39,274,23,08,34,291,21,10,34,090,18,7*71
$GAGSV,3,2,11,03,32,229,19,24,30,082,23,12,30,061,18,11,29,122,17,7*7D
$GAGSV,3,3,11,07,06,335,11,36,03,163,,05,03,187,08,7*45
$GBGSV,3,1,11,36,82,300,36,30,55,148,34,27,43,064,34,46,42,114,,1*73
$GBGSV,3,2,11,45,29,296,29,57,24,062,,29,14,195,29,21,13,300,26,1*75
$GBGSV,3,3,11,28,07,036,27,22,06,252,28,42,04,346,22,1*41
$GNRMC,004338.000,A,4910.426572,N,12304.399836,W,0.11,181.98,061224,,,D,V*1D
$GNVTG,181.98,T,,M,0.11,N,0.21,K,D*2C
$PAIRLOG,Full*51
$GNGGA,004339.000,4910.426596,N,12304.399740,W,2,30,0.49,6.528,M,-16.816,M,,*4E
$GNGLL,4910.426596,N,12304.399740,W,004339.000,A,D*5F
$GNGSA,A,3,17,22,19,14,24,13,15,02,30,12,21,,0.85,0.49,0.70,1*0C
$GNGSA,A,3,83,82,72,80,65,,,,,,,,0.85,0.49,0.70,2*0A
$GNGSA,A,3,25,02,08,10,03,24,,,,,,,0.85,0.49,0.70,3*0D
$GNGSA,A,3,36,30,27,45,29,21,28,22,,,,,0.85,0.49,0.70,4*03
$GPGSV,4,1,13,17,73,094,30,22,70,065,29,19,61,191,27,14,48,082,29,1*6B
$GPGSV,4,2,13,24,36,304,25,46,33,188,27,13,28,214,26,15,24,252,25,1*6E
$GPGSV,4,3,13,02,20,043,21,30,15,142,22,06,10,158,16,12,07,270,13,1*6A
$GPGSV,4,4,13,21,07,029,18,1*50
$GLGSV,2,1,07,83,57,091,26,74,48,311,16,82,32,036,28,72,25,280,26,1*7A
$GLGSV,2,2,07,84,21,169,,80,20,101,28,65,16,338,31,1*40
$GAGSV,3,1,11,25,81,031,26,02,39,274,23,08,34,291,21,10,34,090,18,7*71
$GAGSV,3,2,11,03,32,229,19,24,30,082,23,12,30,061,18,11,29,122,17,7*7D
$GAGSV,3,3,11,07,06,335,11,36,03,163,,05,03,187,07,7*4A
$GBGSV,3,1,11,36,82,300,36,30,55,148,34,27,43,064,34,46,42,114,,1*73
$GBGSV,3,2,11,45,29,296,29,57,24,062,,29,14,195,29,21,13,300,26,1*75
$GBGSV,3,3,11,28,07,036,26,22,06,252,28,42,04,346,22,1*40
$GNRMC,004339.000,A,4910.426596,N,12304.399740,W,0.11,181.98,061224,,,D,V*18
$GNVTG,181.98,T,,M,0.11,N,0.21,K,D*2C
$PAIRLOG,Full*51
$GNGGA,004340.000,4910.426620,N,12304.399620,W,2,30,0.49,6.585,M,-16.816,M,,*4E
$GNGLL,4910.426620,N,12304.399620,W,004340.000,A,D*58
$GNGSA,A,3,17,22,19,14,24,13,15,02,30,12,21,,0.85,0.49,0.70,1*0C
$GNGSA,A,3,83,82,72,80,65,,,,,,,,0.85,0.49,0.70,2*0A
$GNGSA,A,3,25,02,08,10,03,24,,,,,,,0.85,0.49,0.70,3*0D
$GNGSA,A,3,36,30,27,45,29,21,28,22,,,,,0.85,0.49,0.70,4*03
$GPGSV,4,1,13,17,73,094,30,22,70,065,29,19,61,191,27,14,48,082,29,1*6B
$GPGSV,4,2,13,24,36,304,25,46,33,188,27,13,28,214,26,15,24,252,25,1*6E
$GPGSV,4,3,13,02,20,043,21,30,15,142,22,06,10,158,16,12,07,270,12,1*6B
$GPGSV,4,4,13,21,07,029,17,1*5F
$GLGSV,2,1,07,83,57,091,26,74,48,311,17,82,32,036,28,72,25,280,26,1*7B
$GLGSV,2,2,07,84,21,169,,80,20,101,28,65,16,338,31,1*40
$GAGSV,3,1,11,25,81,031,26,02,39,274,23,08,34,291,21,10,34,090,19,7*70
$GAGSV,3,2,11,03,32,229,19,24,30,082,23,12,30,061,18,11,29,122,17,7*7D
$GAGSV,3,3,11,07,06,335,11,36,03,163,,05,03,187,06,7*4B
$GBGSV,3,1,11,36,82,300,36,30,55,148,34,27,43,064,34,46,42,114,,1*73
$GBGSV,3,2,11,45,29,296,29,57,24,062,,29,14,195,29,21,13,300,26,1*75
$GBGSV,3,3,11,28,07,036,26,22,06,252,28,42,04,346,22,1*40
$GNRMC,004340.000,A,4910.426620,N,12304.399620,W,0.11,181.98,061224,,,D,V*1F
$GNVTG,181.98,T,,M,0.11,N,0.20,K,D*2D
$PAIRLOG,Full*51
$GNGGA,004341.000,4910.426674,N,12304.399488,W,2,30,0.49,6.653,M,-16.816,M,,*46
$GNGLL,4910.426674,N,12304.399488,W,004341.000,A,D*58
$GNGSA,A,3,17,22,19,14,24,13,15,02,30,12,21,,0.85,0.49,0.70,1*0C
$GNGSA,A,3,83,82,72,80,65,,,,,,,,0.85,0.49,0.70,2*0A
$GNGSA,A,3,25,02,08,10,03,24,,,,,,,0.85,0.49,0.70,3*0D
$GNGSA,A,3,36,30,27,45,29,21,28,22,,,,,0.85,0.49,0.70,4*03
$GPGSV,4,1,13,17,73,094,30,22,70,065,29,19,61,191,27,14,48,082,29,1*6B
$GPGSV,4,2,13,24,36,304,26,46,33,188,27,13,28,214,26,15,24,252,24,1*6C
$GPGSV,4,3,13,02,20,043,21,30,15,142,22,06,10,158,16,12,07,270,11,1*68
$GPGSV,4,4,13,21,07,029,17,1*5F
$GLGSV,2,1,07,83,57,091,26,74,48,311,15,82,32,036,28,72,25,280,26,1*79
$GLGSV,2,2,07,84,21,169,,80,20,101,28,65,16,338,31,1*40
$GAGSV,3,1,10,25,81,031,26,02,39,274,23,08,34,291,21,10,34,090,19,7*71
$GAGSV,3,2,10,03,32,229,19,24,30,082,23,12,30,061,18,11,29,122,17,7*7C
$GAGSV,3,3,10,07,06,335,11,05,03,187,06,7*78
$GBGSV,3,1,12,36,82,300,36,30,55,148,34,27,43,064,34,46,42,114,,1*70
$GBGSV,3,2,12,45,29,296,29,57,24,062,,29,14,195,29,21,13,300,26,1*76
$GBGSV,3,3,12,28,07,036,26,22,06,252,28,58,05,125,,42,04,346,21,1*7E
$GNRMC,004341.000,A,4910.426674,N,12304.399488,W,0.11,181.98,061224,,,D,V*1F
$GNVTG,181.98,T,,M,0.11,N,0.20,K,D*2D
$PAIRLOG,Full*51
$GNGGA,004342.000,4910.426680,N,12304.399416,W,2,30,0.49,6.670,M,-16.817,M,,*49
$GNGLL,4910.426680,N,12304.399416,W,004342.000,A,D*57
$GNGSA,A,3,17,22,19,14,24,13,15,02,30,12,21,,0.85,0.49,0.70,1*0C
$GNGSA,A,3,83,82,72,80,65,,,,,,,,0.85,0.49,0.70,2*0A
$GNGSA,A,3,25,02,08,10,03,24,,,,,,,0.85,0.49,0.70,3*0D
$GNGSA,A,3,36,30,27,45,29,21,28,22,,,,,0.85,0.49,0.70,4*03
$GPGSV,4,1,13,17,73,094,30,22,70,065,29,19,61,191,28,14,48,082,29,1*64
$GPGSV,4,2,13,24,36,304,27,46,33,188,27,13,28,214,26,15,24,252,24,1*6D
$GPGSV,4,3,13,02,20,043,21,30,15,142,22,06,10,158,16,12,07,270,13,1*6A
$GPGSV,4,4,13,21,07,029,17,1*5F
$GLGSV,2,1,07,83,57,091,26,74,48,311,16,82,32,036,29,72,25,280,26,1*7B
$GLGSV,2,2,07,84,21,169,,80,20,101,28,65,16,338,32,1*43
$GAGSV,3,1,10,25,81,031,26,02,39,274,23,08,34,291,21,10,34,090,20,7*7B
$GAGSV,3,2,10,03,32,229,19,24,30,082,24,12,30,061,18,11,29,122,17,7*7B
$GAGSV,3,3,10,07,06,335,11,05,03,187,06,7*78
$GBGSV,3,1,12,36,82,300,36,30,55,148,34,27,43,064,34,46,42,114,,1*70
$GBGSV,3,2,12,45,29,296,29,57,24,062,,29,14,195,29,21,13,300,27,1*77
$GBGSV,3,3,12,28,07,036,26,22,06,252,28,58,05,125,,42,04,346,21,1*7E
$GNRMC,004342.000,A,4910.426680,N,12304.399416,W,0.10,181.98,061224,,,D,V*11
$GNVTG,181.98,T,,M,0.10,N,0.19,K,D*26
$PAIRLOG,Full*51
$GNGGA,004343.000,4910.426686,N,12304.399290,W,2,29,0.49,6.734,M,-16.816,M,,*4E
$GNGLL,4910.426686,N,12304.399290,W,004343.000,A,D*58
$GNGSA,A,3,17,22,19,14,24,13,15,02,30,21,,,0.87,0.49,0.72,1*0F
$GNGSA,A,3,83,82,72,80,65,,,,,,,,0.87,0.49,0.72,2*0A
$GNGSA,A,3,25,02,08,10,03,24,,,,,,,0.87,0.49,0.72,3*0D
$GNGSA,A,3,36,30,27,45,29,21,28,22,,,,,0.87,0.49,0.72,4*03
$GPGSV,4,1,13,17,73,094,31,22,70,065,30,19,61,191,29,14,48,082,30,1*64
$GPGSV,4,2,13,24,36,304,29,46,33,188,28,13,28,214,27,15,24,252,27,1*6E
$GPGSV,4,3,13,02,20,043,22,30,15,142,23,06,10,158,17,12,07,270,12,1*68
$GPGSV,4,4,13,21,07,029,18,1*50
$GLGSV,2,1,07,83,57,091,26,74,48,311,,82,32,036,28,72,25,280,26,1*7D
$GLGSV,2,2,07,84,21,169,,80,20,101,28,65,16,338,32,1*43
$GAGSV,3,1,11,25,81,031,27,02,39,274,23,08,34,291,22,10,34,090,21,7*79
$GAGSV,3,2,11,03,32,229,20,24,30,082,25,12,30,061,18,11,29,122,18,7*7E
$GAGSV,3,3,11,07,06,335,12,36,03,163,,05,03,187,07,7*49
$GBGSV,3,1,11,36,82,300,36,30,55,148,34,27,43,064,34,46,42,114,,1*73
$GBGSV,3,2,11,45,29,296,30,57,24,062,,29,14,195,29,21,13,300,27,1*7C
$GBGSV,3,3,11,28,07,036,26,22,06,252,28,42,04,346,21,1*43
$GNRMC,004343.000,A,4910.426686,N,12304.399290,W,0.10,181.98,061224,,,D,V*1E
$GNVTG,181.98,T,,M,0.10,N,0.18,K,D*27
$PAIRLOG,Full*51
$GNGGA,004344.000,4910.426674,N,12304.399158,W,2,29,0.49,6.680,M,-16.816,M,,*4D
$GNGLL,4910.426674,N,12304.399158,W,004344.000,A,D*55
$GNGSA,A,3,17,22,19,14,24,13,15,02,30,21,,,0.87,0.49,0.72,1*0F
$GNGSA,A,3,83,82,72,80,65,,,,,,,,0.87,0.49,0.72,2*0A
$GNGSA,A,3,25,02,08,10,03,24,,,,,,,0.87,0.49,0.72,3*0D
$GNGSA,A,3,36,30,27,45,29,21,28,22,,,,,0.87,0.49,0.72,4*03
$GPGSV,4,1,13,17,73,094,32,22,70,065,31,19,61,191,30,14,48,082,31,1*6F
$GPGSV,4,2,13,24,36,304,29,46,33,188,28,13,28,214,27,15,24,252,26,1*6F
$GPGSV,4,3,13,02,20,043,24,30,15,142,24,06,10,158,18,12,07,270,12,1*66
$GPGSV,4,4,13,21,07,029,19,1*51
$GLGSV,2,1,07,83,57,091,26,74,48,311,,82,32,036,27,72,25,280,26,1*72
$GLGSV,2,2,07,84,21,169,,80,20,101,28,65,16,338,32,1*43
$GAGSV,3,1,11,25,81,031,27,02,39,274,24,08,34,291,22,10,34,090,22,7*7D
$GAGSV,3,2,11,03,32,229,20,24,30,082,25,12,30,061,18,11,29,122,18,7*7E
$GAGSV,3,3,11,07,06,335,12,36,03,163,,05,03,187,07,7*49
$GBGSV,3,1,11,36,82,300,36,30,55,148,34,27,43,064,34,46,42,114,,1*73
$GBGSV,3,2,11,45,29,296,31,57,24,062,,29,14,195,29,21,13,300,27,1*7D
$GBGSV,3,3,11,28,07,036,26,22,06,252,28,42,04,346,21,1*43
$GNRMC,004344.000,A,4910.426674,N,12304.399158,W,0.10,181.98,061224,,,D,V*13
$GNVTG,181.98,T,,M,0.10,N,0.18,K,D*27
$PAIRLOG,Full*51
$GNGGA,004345.000,4910.426692,N,12304.399026,W,2,30,0.49,6.540,M,-16.816,M,,*4B
$GNGLL,4910.426692,N,12304.399026,W,004345.000,A,D*54
$GNGSA,A,3,17,22,19,14,24,13,15,02,30,12,21,,0.85,0.49,0.70,1*0C
$GNGSA,A,3,83,82,72,80,65,,,,,,,,0.85,0.49,0.70,2*0A
$GNGSA,A,3,25,02,08,10,03,24,,,,,,,0.85,0.49,0.70,3*0D
$GNGSA,A,3,36,30,27,45,29,21,28,22,,,,,0.85,0.49,0.70,4*03
$GPGSV,4,1,13,17,73,094,31,22,70,065,31,19,61,191,30,14,48,082,31,1*6C
$GPGSV,4,2,13,24,36,304,26,46,33,188,28,13,28,214,26,15,24,252,25,1*62
$GPGSV,4,3,13,02,20,043,23,30,15,142,24,06,10,158,18,12,07,270,13,1*60
$GPGSV,4,4,13,21,07,029,19,1*51
$GLGSV,2,1,07,83,57,091,26,74,48,311,,82,32,036,27,72,25,280,26,1*72
$GLGSV,2,2,07,84,21,169,,80,20,101,28,65,16,338,32,1*43
$GAGSV,3,1,11,25,81,031,27,02,39,274,24,08,34,291,22,10,34,090,22,7*7D
$GAGSV,3,2,11,03,32,229,20,24,30,082,25,12,30,061,19,11,29,122,18,7*7F
$GAGSV,3,3,11,07,06,335,12,36,03,163,,05,03,187,08,7*46
$GBGSV,3,1,11,36,82,300,36,30,55,148,34,27,43,064,34,46,42,114,,1*73
$GBGSV,3,2,11,45,29,296,31,57,24,062,,29,14,195,29,21,13,300,27,1*7D
$GBGSV,3,3,11,28,07,036,26,22,06,252,28,42,04,346,21,1*43
$GNRMC,004345.000,A,4910.426692,N,12304.399026,W,0.10,181.98,061224,,,D,V*12
$GNVTG,181.98,T,,M,0.10,N,0.18,K,D*27
$PAIRLOG,Full*51
$GNGGA,004346.000,4910.426704,N,12304.398894,W,2,30,0.49,6.461,M,-16.816,M,,*44
$GNGLL,4910.426704,N,12304.398894,W,004346.000,A,D*59
$GNGSA,A,3,17,22,19,14,24,13,15,02,30,12,21,,0.85,0.49,0.70,1*0C
$GNGSA,A,3,83,82,72,80,65,,,,,,,,0.85,0.49,0.70,2*0A
$GNGSA,A,3,25,02,08,10,03,24,,,,,,,0.85,0.49,0.70,3*0D
$GNGSA,A,3,36,30,27,45,29,21,28,22,,,,,0.85,0.49,0.70,4*03
$GPGSV,4,1,13,17,73,094,31,22,70,065,31,19,61,191,30,14,48,082,31,1*6C
$GPGSV,4,2,13,24,36,304,26,46,33,188,28,13,28,214,26,15,24,252,24,1*63
$GPGSV,4,3,13,02,20,043,23,30,15,142,24,06,10,158,18,12,07,270,12,1*61
$GPGSV,4,4,13,21,07,029,18,1*50
$GLGSV,2,1,07,83,57,091,25,74,48,311,16,82,32,036,27,72,25,280,26,1*76
$GLGSV,2,2,07,84,21,169,,80,20,101,28,65,16,338,32,1*43
$GAGSV,3,1,11,25,81,031,27,02,39,274,24,08,34,291,23,10,34,090,22,7*7C
$GAGSV,3,2,11,03,32,229,20,24,30,082,25,12,30,061,19,11,29,122,18,7*7F
$GAGSV,3,3,11,07,06,335,13,36,03,163,,05,03,187,08,7*47
$GBGSV,3,1,11,36,82,300,36,30,55,148,34,27,43,064,34,46,42,114,,1*73
$GBGSV,3,2,11,45,29,296,30,57,24,062,,29,14,195,29,21,13,300,27,1*7C
$GBGSV,3,3,11,28,07,036,26,22,06,252,28,42,04,346,21,1*43
$GNRMC,004346.000,A,4910.426704,N,12304.398894,W,0.10,181.98,061224,,,D,V*1F
$GNVTG,181.98,T,,M,0.10,N,0.19,K,D*26
$PAIRLOG,Full*51
$GNGGA,004347.000,4910.426704,N,12304.398840,W,2,30,0.49,6.392,M,-16.816,M,,*47
$GNGLL,4910.426704,N,12304.398840,W,004347.000,A,D*51
$GNGSA,A,3,17,22,19,14,24,13,15,02,30,12,21,,0.85,0.49,0.70,1*0C
$GNGSA,A,3,83,82,72,80,65,,,,,,,,0.85,0.49,0.70,2*0A
$GNGSA,A,3,25,02,08,10,03,24,,,,,,,0.85,0.49,0.70,3*0D
$GNGSA,A,3,36,30,27,45,29,21,28,22,,,,,0.85,0.49,0.70,4*03
$GPGSV,4,1,13,17,73,094,30,22,70,065,30,19,61,191,29,14,48,082,31,1*64
$GPGSV,4,2,13,24,36,304,26,46,33,188,28,13,28,214,26,15,24,252,24,1*63
$GPGSV,4,3,13,02,20,043,23,30,15,142,25,06,10,158,18,12,07,270,12,1*60
$GPGSV,4,4,13,21,07,029,18,1*50
$GLGSV,2,1,07,83,57,091,25,74,48,311,16,82,32,036,27,72,25,280,26,1*76
$GLGSV,2,2,07,84,21,169,,80,20,101,28,65,16,338,31,1*40
$GAGSV,3,1,11,25,81,031,26,02,39,274,24,08,34,291,23,10,34,090,21,7*7E
$GAGSV,3,2,11,03,32,229,20,24,30,082,24,12,30,061,19,11,29,122,18,7*7E
$GAGSV,3,3,11,07,06,335,13,36,03,163,,05,03,187,08,7*47
$GBGSV,3,1,10,36,82,300,36,30,55,148,34,27,43,064,34,46,42,114,,1*72
$GBGSV,3,2,10,45,29,296,30,29,14,195,29,21,13,300,28,28,07,036,26,1*7E
$GBGSV,3,3,10,22,06,252,28,42,04,346,21,1*7E
$GNRMC,004347.000,A,4910.426704,N,12304.398840,W,0.11,181.98,061224,,,D,V*16
$GNVTG,181.98,T,,M,0.11,N,0.21,K,D*2C
$PAIRLOG,Full*51
$GNGGA,004348.000,4910.426752,N,12304.398804,W,2,30,0.49,6.343,M,-16.817,M,,*46
$GNGLL,4910.426752,N,12304.398804,W,004348.000,A,D*5D
$GNGSA,A,3,17,22,19,14,24,13,15,02,30,12,21,,0.85,0.49,0.70,1*0C
$GNGSA,A,3,83,82,72,80,65,,,,,,,,0.85,0.49,0.70,2*0A
$GNGSA,A,3,25,02,08,10,03,24,,,,,,,0.85,0.49,0.70,3*0D
$GNGSA,A,3,36,30,27,45,29,21,28,22,,,,,0.85,0.49,0.70,4*03
$GPGSV,4,1,13,17,73,094,30,22,70,065,30,19,61,191,29,14,48,082,31,1*64
$GPGSV,4,2,13,24,36,304,26,46,33,188,28,13,28,214,26,15,24,252,24,1*63
$GPGSV,4,3,13,02,20,043,21,30,15,142,25,06,10,158,18,12,07,270,11,1*61
$GPGSV,4,4,13,21,07,029,18,1*50
$GLGSV,2,1,07,83,57,091,24,74,48,311,15,82,32,036,27,72,25,280,26,1*74
$GLGSV,2,2,07,84,21,169,,80,20,101,28,65,16,338,31,1*40
$GAGSV,3,1,11,25,81,031,26,02,39,274,24,08,34,291,22,10,34,090,20,7*7E
$GAGSV,3,2,11,03,32,229,20,24,30,082,24,12,30,061,19,11,29,122,18,7*7E
$GAGSV,3,3,11,07,06,335,13,36,03,163,,05,03,187,08,7*47
$GBGSV,3,1,11,36,82,300,36,30,55,148,34,27,43,064,34,46,42,114,,1*73
$GBGSV,3,2,11,45,29,296,29,57,24,062,,29,14,195,29,21,13,300,28,1*7B
$GBGSV,3,3,11,28,07,036,25,22,06,252,28,42,04,346,21,1*40
$GNRMC,004348.000,A,4910.426752,N,12304.398804,W,0.12,181.98,061224,,,D,V*19
$GNVTG,181.98,T,,M,0.12,N,0.23,K,D*2D
$PAIRLOG,Full*51
$GNGGA,004349.000,4910.426782,N,12304.398798,W,2,30,0.49,6.326,M,-16.816,M,,*42
$GNGLL,4910.426782,N,12304.398798,W,004349.000,A,D*5B
$GNGSA,A,3,17,22,19,14,24,13,15,02,30,12,21,,0.85,0.49,0.70,1*0C
$GNGSA,A,3,83,82,72,80,65,,,,,,,,0.85,0.49,0.70,2*0A
$GNGSA,A,3,25,02,08,10,03,24,,,,,,,0.85,0.49,0.70,3*0D
$GNGSA,A,3,36,30,27,45,29,21,28,22,,,,,0.85,0.49,0.70,4*03
$GPGSV,4,1,13,17,73,094,28,22,70,065,28,19,61,191,28,14,48,082,30,1*64
$GPGSV,4,2,13,24,36,304,24,46,33,188,27,13,28,214,25,15,24,252,21,1*68
$GPGSV,4,3,13,02,20,043,20,30,15,142,22,06,10,158,16,12,07,270,12,1*6A
$GPGSV,4,4,13,21,07,029,17,1*5F
$GLGSV,2,1,07,83,57,091,25,74,48,311,15,82,32,036,27,72,25,280,25,1*76
$GLGSV,2,2,07,84,21,169,,80,20,101,28,65,16,338,31,1*40
$GAGSV,3,1,11,25,81,031,25,02,39,274,23,08,34,291,21,10,34,090,19,7*73
$GAGSV,3,2,11,03,32,229,19,24,30,082,23,12,30,061,18,11,29,122,17,7*7D
$GAGSV,3,3,11,07,06,335,13,36,03,163,,05,03,187,08,7*47
$GBGSV,3,1,11,36,82,300,36,30,55,148,34,27,43,064,34,46,42,114,,1*73
$GBGSV,3,2,11,45,29,296,29,57,24,062,,29,14,195,29,21,13,300,27,1*74
$GBGSV,3,3,11,28,07,036,25,22,06,252,28,42,04,346,21,1*40
$GNRMC,004349.000,A,4910.426782,N,12304.398798,W,0.14,181.98,061224,,,D,V*19
$GNVTG,181.98,T,,M,0.14,N,0.25,K,D*2D
$PAIRLOG,Full*51
$GNGGA,004350.000,4910.426746,N,12304.398828,W,2,29,0.49,6.334,M,-16.816,M,,*4D
$GNGLL,4910.426746,N,12304.398828,W,004350.000,A,D*5F
$GNGSA,A,3,17,22,19,14,24,13,15,02,30,21,,,0.87,0.49,0.72,1*0F
$GNGSA,A,3,83,82,72,80,65,,,,,,,,0.87,0.49,0.72,2*0A
$GNGSA,A,3,25,02,08,10,03,24,,,,,,,0.87,0.49,0.72,3*0D
$GNGSA,A,3,36,30,27,45,29,21,28,22,,,,,0.87,0.49,0.72,4*03
$GPGSV,4,1,13,17,73,094,29,22,70,065,29,19,61,191,28,14,48,082,30,1*64
$GPGSV,4,2,13,24,36,304,24,46,33,188,27,13,28,214,25,15,24,252,22,1*6B
$GPGSV,4,3,13,02,20,043,21,30,15,142,22,06,10,158,16,12,07,270,,1*68
$GPGSV,4,4,13,21,07,029,16,1*5E
$GLGSV,2,1,07,83,57,091,24,74,48,311,16,82,32,036,27,72,25,280,25,1*74
$GLGSV,2,2,07,84,21,169,,80,20,101,28,65,16,338,31,1*40
$GAGSV,3,1,11,25,81,031,26,02,39,274,23,08,34,291,21,10,34,090,19,7*70
$GAGSV,3,2,11,03,32,229,19,24,30,082,23,12,30,061,18,11,29,122,17,7*7D
$GAGSV,3,3,11,07,06,335,13,36,03,163,,05,03,187,08,7*47
$GBGSV,3,1,11,36,82,300,36,30,55,148,33,27,43,064,34,46,42,114,,1*74
$GBGSV,3,2,11,45,29,296,29,57,24,062,,29,14,195,29,21,13,300,27,1*74
$GBGSV,3,3,11,28,07,036,26,22,06,252,28,42,04,346,21,1*43
$GNRMC,004350.000,A,4910.426746,N,12304.398828,W,0.14,181.98,061224,,,D,V*1D
$GNVTG,181.98,T,,M,0.14,N,0.26,K,D*2E
$PAIRLOG,Full*51
$GNGGA,004351.000,4910.426776,N,12304.398840,W,2,29,0.49,6.327,M,-16.816,M,,*43
