$GNGGA,003920.000,4910.427100,N,12304.400712,W,2,26,0.53,7.684,M,-16.816,M,,*49
$GNGLL,4910.427100,N,12304.400712,W,003920.000,A,D*50
$GNGSA,A,3,22,17,19,14,13,24,15,02,30,21,,,1.00,0.53,0.84,1*03
$GNGSA,A,3,79,88,80,,,,,,,,,,1.00,0.53,0.84,2*0F
$GNGSA,A,3,21,04,06,13,,,,,,,,,1.00,0.53,0.84,3*0B
$GNGSA,A,3,26,35,24,29,45,44,33,14,41,,,,1.00,0.53,0.84,4*01
$GPGSV,4,1,14,22,75,055,36,17,74,116,37,19,54,192,35,06,53,131,,1*62
$GPGSV,4,2,14,14,53,078,35,13,33,217,32,48,33,182,31,24,31,306,28,1*64
$GPGSV,4,3,14,15,27,258,32,02,23,048,31,30,21,140,28,21,11,032,28,1*63
$GPGSV,4,4,14,12,02,266,,10,02,342,,1*64
$GLGSV,2,1,07,79,71,040,26,85,43,205,,88,39,045,24,80,37,303,24,1*7E
$GLGSV,2,2,07,70,26,295,,78,26,097,,82,16,171,,1*4D
$GAGSV,3,1,09,21,45,076,31,04,39,246,30,06,38,280,31,13,31,077,28,7*7B
$GAGSV,3,2,09,09,28,309,,31,23,268,10,26,19,136,,15,11,026,21,7*77
$GAGSV,3,3,09,19,11,191,19,7*43
$GBGSV,3,1,12,26,87,088,39,35,53,144,37,24,38,294,34,29,36,055,36,1*7D
$GBGSV,3,2,12,45,29,111,30,44,19,188,27,33,15,291,29,14,12,265,25,1*75
$GBGSV,3,3,12,41,07,337,29,42,05,241,22,13,01,317,20,08,01,306,,1*77
$GNRMC,003920.000,A,4910.427100,N,12304.400712,W,0.02,0.00,041224,,,D,V*1E
$GNVTG,0.00,T,,M,0.02,N,0.04,K,D*20
$GNGGA,003921.000,4910.427088,N,12304.400712,W,2,26,0.53,7.645,M,-16.816,M,,*44
$GNGLL,4910.427088,N,12304.400712,W,003921.000,A,D*50
$GNGSA,A,3,22,17,19,14,13,24,15,02,30,21,,,1.00,0.53,0.84,1*03
$GNGSA,A,3,79,88,80,,,,,,,,,,1.00,0.53,0.84,2*0F
$GNGSA,A,3,21,04,06,13,,,,,,,,,1.00,0.53,0.84,3*0B
$GNGSA,A,3,26,35,24,29,45,44,33,14,41,,,,1.00,0.53,0.84,4*01
$GPGSV,4,1,14,22,75,055,36,17,74,116,37,19,54,192,35,06,53,131,,1*62
$GPGSV,4,2,14,14,53,078,35,13,33,217,32,48,33,182,30,24,31,306,28,1*65
$GPGSV,4,3,14,15,27,258,32,02,23,048,31,30,21,140,28,21,11,032,28,1*63
$GPGSV,4,4,14,12,02,266,,10,02,342,,1*64
$GLGSV,2,1,07,79,71,040,25,85,43,205,,88,39,045,24,80,37,303,23,1*7A
$GLGSV,2,2,07,70,26,295,,78,26,097,,82,16,171,,1*4D
$GAGSV,3,1,09,21,45,076,30,04,39,246,30,06,38,280,30,13,31,077,27,7*74
$GAGSV,3,2,09,09,28,309,,31,23,268,08,26,19,136,,15,11,026,21,7*7E
$GAGSV,3,3,09,19,10,191,19,7*42
$GBGSV,3,1,12,26,87,088,39,35,53,144,37,24,38,294,34,29,36,055,36,1*7D
$GBGSV,3,2,12,45,29,111,30,44,19,188,27,33,15,291,29,14,12,265,25,1*75
$GBGSV,3,3,12,41,07,337,29,42,05,241,22,13,01,317,20,08,01,306,,1*77
$GNRMC,003921.000,A,4910.427088,N,12304.400712,W,0.02,0.00,041224,,,D,V*1E
$GNVTG,0.00,T,,M,0.02,N,0.04,K,D*20
$GNGGA,003922.000,4910.427130,N,12304.400730,W,2,26,0.53,7.642,M,-16.816,M,,*42
$GNGLL,4910.427130,N,12304.400730,W,003922.000,A,D*51
$GNGSA,A,3,22,17,19,14,13,24,15,02,30,21,,,1.00,0.53,0.84,1*03
$GNGSA,A,3,79,88,80,,,,,,,,,,1.00,0.53,0.84,2*0F
$GNGSA,A,3,21,04,06,13,,,,,,,,,1.00,0.53,0.84,3*0B
$GNGSA,A,3,26,35,24,29,45,44,33,14,41,,,,1.00,0.53,0.84,4*01
$GPGSV,4,1,14,22,75,055,36,17,74,116,37,19,54,192,35,06,53,131,,1*62
$GPGSV,4,2,14,14,53,078,35,13,33,217,32,48,33,182,30,24,31,306,28,1*65
$GPGSV,4,3,14,15,27,258,32,02,23,048,31,30,21,140,28,21,11,032,28,1*63
$GPGSV,4,4,14,12,02,266,,10,02,342,,1*64
$GLGSV,2,1,07,79,71,040,25,85,43,205,,88,39,045,24,80,37,303,23,1*7A
$GLGSV,2,2,07,70,26,295,,78,26,097,,82,16,171,,1*4D
$GAGSV,3,1,09,21,45,076,29,04,39,246,30,06,38,280,30,13,31,077,27,7*7C
$GAGSV,3,2,09,09,28,309,,31,23,268,10,26,19,136,,15,11,026,21,7*77
$GAGSV,3,3,09,19,10,191,19,7*42
$GBGSV,3,1,12,26,87,088,39,35,53,144,37,24,38,294,34,29,36,055,36,1*7D
$GBGSV,3,2,12,45,29,111,30,44,19,188,27,33,15,291,29,14,12,265,25,1*75
$GBGSV,3,3,12,41,07,337,29,42,05,241,22,13,01,317,20,08,01,306,,1*77
$GNRMC,003922.000,A,4910.427130,N,12304.400730,W,0.02,0.00,041224,,,D,V*1F
$GNVTG,0.00,T,,M,0.02,N,0.04,K,D*20
$GNGGA,003923.000,4910.427178,N,12304.400712,W,2,26,0.53,7.464,M,-16.816,M,,*49
$GNGLL,4910.427178,N,12304.400712,W,003923.000,A,D*5C
$GNGSA,A,3,22,17,19,14,13,24,15,02,30,21,,,1.00,0.53,0.84,1*03
$GNGSA,A,3,79,88,80,,,,,,,,,,1.00,0.53,0.84,2*0F
$GNGSA,A,3,21,04,06,13,,,,,,,,,1.00,0.53,0.84,3*0B
$GNGSA,A,3,26,35,24,29,45,44,33,14,41,,,,1.00,0.53,0.84,4*01
$GPGSV,4,1,14,22,75,055,36,17,74,116,37,19,54,192,35,06,53,131,,1*62
$GPGSV,4,2,14,14,53,078,35,13,33,217,32,48,33,182,30,24,31,306,28,1*65
$GPGSV,4,3,14,15,27,258,32,02,23,048,31,30,21,140,28,21,11,032,28,1*63
$GPGSV,4,4,14,12,02,266,,10,02,342,,1*64
$GLGSV,2,1,07,79,71,040,25,85,43,205,,88,39,045,24,80,37,303,23,1*7A
$GLGSV,2,2,07,70,26,295,,78,26,097,,82,16,171,,1*4D
$GAGSV,3,1,09,21,45,076,29,04,39,246,30,06,38,280,30,13,31,077,27,7*7C
$GAGSV,3,2,09,09,28,309,,31,23,268,08,26,19,136,,15,11,026,21,7*7E
$GAGSV,3,3,09,19,10,191,19,7*42
$GBGSV,3,1,12,26,87,088,39,35,53,144,37,24,38,294,34,29,36,055,36,1*7D
$GBGSV,3,2,12,45,29,111,30,44,19,188,26,33,15,291,28,14,12,265,25,1*75
$GBGSV,3,3,12,41,07,337,29,42,05,241,22,13,01,317,19,08,01,306,,1*7D
$GNRMC,003923.000,A,4910.427178,N,12304.400712,W,0.02,0.00,041224,,,D,V*12
$GNVTG,0.00,T,,M,0.02,N,0.04,K,D*20
$GNGGA,003924.000,4910.427190,N,12304.400742,W,2,26,0.53,7.244,M,-16.817,M,,*48
$GNGLL,4910.427190,N,12304.400742,W,003924.000,A,D*58
$GNGSA,A,3,22,17,19,14,13,24,15,02,30,21,,,1.00,0.53,0.84,1*03
$GNGSA,A,3,79,88,80,,,,,,,,,,1.00,0.53,0.84,2*0F
$GNGSA,A,3,21,04,06,13,,,,,,,,,1.00,0.53,0.84,3*0B
$GNGSA,A,3,26,35,24,29,45,44,33,14,41,,,,1.00,0.53,0.84,4*01
$GPGSV,4,1,14,22,75,055,36,17,74,116,37,19,54,192,35,06,53,131,,1*62
$GPGSV,4,2,14,14,53,078,35,13,33,217,32,48,33,182,30,24,31,306,28,1*65
$GPGSV,4,3,14,15,27,258,32,02,23,048,31,30,21,140,28,21,11,032,28,1*63
$GPGSV,4,4,14,12,02,266,,10,02,342,,1*64
$GLGSV,2,1,07,79,71,040,25,85,43,205,,88,39,045,24,80,37,303,23,1*7A
$GLGSV,2,2,07,70,26,295,,78,26,097,,82,16,171,,1*4D
$GAGSV,3,1,09,21,45,076,29,04,39,246,30,06,38,280,30,13,31,077,27,7*7C
$GAGSV,3,2,09,09,28,309,,31,23,268,,26,19,136,,15,11,026,21,7*76
$GAGSV,3,3,09,19,10,191,19,7*42
$GBGSV,3,1,12,26,87,088,39,35,53,144,37,24,38,294,34,29,36,055,36,1*7D
$GBGSV,3,2,12,45,29,111,30,44,19,188,26,33,15,291,28,14,12,265,25,1*75
$GBGSV,3,3,12,41,07,337,29,42,05,241,22,13,01,317,19,08,01,306,,1*7D
$GNRMC,003924.000,A,4910.427190,N,12304.400742,W,0.02,0.00,041224,,,D,V*16
$GNVTG,0.00,T,,M,0.02,N,0.04,K,D*20
$GNGGA,003925.000,4910.427190,N,12304.400736,W,2,26,0.53,7.110,M,-16.816,M,,*49
$GNGLL,4910.427190,N,12304.400736,W,003925.000,A,D*5A
$GNGSA,A,3,22,17,19,14,13,24,15,02,30,21,,,1.00,0.53,0.84,1*03
$GNGSA,A,3,79,88,80,,,,,,,,,,1.00,0.53,0.84,2*0F
$GNGSA,A,3,21,04,06,13,,,,,,,,,1.00,0.53,0.84,3*0B
$GNGSA,A,3,26,35,24,29,45,44,33,14,41,,,,1.00,0.53,0.84,4*01
$GPGSV,4,1,14,22,75,055,35,17,74,116,37,19,54,192,35,06,53,131,,1*61
$GPGSV,4,2,14,14,53,078,34,13,33,217,31,48,33,182,29,24,31,306,27,1*60
$GPGSV,4,3,14,15,27,258,31,02,23,048,30,30,21,140,27,21,11,032,27,1*61
$GPGSV,4,4,14,12,02,266,,10,02,342,,1*64
$GLGSV,2,1,07,79,71,040,25,85,43,205,,88,39,045,24,80,37,303,23,1*7A
$GLGSV,2,2,07,70,26,295,,78,26,097,,82,16,171,,1*4D
$GAGSV,3,1,09,21,45,076,29,04,39,246,29,06,38,280,29,13,31,077,26,7*7D
$GAGSV,3,2,09,09,28,309,,31,23,268,,26,19,136,,15,11,026,20,7*77
$GAGSV,3,3,09,19,10,191,19,7*42
$GBGSV,3,1,12,26,87,088,38,35,53,144,37,24,38,294,34,29,36,055,36,1*7C
$GBGSV,3,2,12,45,29,111,30,44,19,188,26,33,15,291,28,14,12,265,25,1*75
$GBGSV,3,3,12,41,07,337,29,42,05,241,21,13,01,317,18,08,01,306,,1*7F
$GNRMC,003925.000,A,4910.427190,N,12304.400736,W,0.02,0.00,041224,,,D,V*14
$GNVTG,0.00,T,,M,0.02,N,0.03,K,D*27
$GNGGA,003926.000,4910.427172,N,12304.400688,W,2,26,0.53,6.906,M,-16.816,M,,*4C
$GNGLL,4910.427172,N,12304.400688,W,003926.000,A,D*51
$GNGSA,A,3,22,17,19,14,13,24,15,02,30,21,,,1.00,0.53,0.84,1*03
$GNGSA,A,3,79,88,80,,,,,,,,,,1.00,0.53,0.84,2*0F
$GNGSA,A,3,21,04,06,13,,,,,,,,,1.00,0.53,0.84,3*0B
$GNGSA,A,3,26,35,24,29,45,44,33,14,41,,,,1.00,0.53,0.84,4*01
$GPGSV,4,1,14,22,75,055,35,17,74,116,37,19,54,192,35,06,53,131,,1*61
$GPGSV,4,2,14,14,53,078,34,13,33,217,31,48,33,182,30,24,31,306,27,1*68
$GPGSV,4,3,14,15,27,258,31,02,23,048,30,30,21,140,27,21,11,032,27,1*61
$GPGSV,4,4,14,12,02,266,,10,02,342,,1*64
$GLGSV,2,1,07,79,71,040,26,85,43,205,,88,39,045,25,80,37,303,22,1*79
$GLGSV,2,2,07,70,26,295,,78,26,097,,82,16,171,,1*4D
$GAGSV,3,1,09,21,45,076,29,04,39,246,29,06,38,280,29,13,31,077,26,7*7D
$GAGSV,3,2,09,09,28,309,,31,23,268,,26,19,136,,15,11,026,20,7*77
$GAGSV,3,3,09,19,10,191,19,7*42
$GBGSV,3,1,12,26,87,088,38,35,53,144,36,24,38,294,34,29,36,055,36,1*7D
$GBGSV,3,2,12,45,29,111,30,44,19,188,26,33,15,291,28,14,12,265,25,1*75
$GBGSV,3,3,12,41,07,337,29,42,05,241,21,13,01,317,17,08,01,306,,1*70
$GNRMC,003926.000,A,4910.427172,N,12304.400688,W,0.02,0.00,041224,,,D,V*1F
$GNVTG,0.00,T,,M,0.02,N,0.03,K,D*27
$GNGGA,003927.000,4910.427178,N,12304.400628,W,2,26,0.53,6.766,M,-16.817,M,,*44
$GNGLL,4910.427178,N,12304.400628,W,003927.000,A,D*50
$GNGSA,A,3,22,17,19,14,13,24,15,02,30,21,,,1.00,0.53,0.84,1*03
$GNGSA,A,3,79,88,80,,,,,,,,,,1.00,0.53,0.84,2*0F
$GNGSA,A,3,21,04,06,13,,,,,,,,,1.00,0.53,0.84,3*0B
$GNGSA,A,3,26,35,24,29,45,44,33,14,41,,,,1.00,0.53,0.84,4*01
$GPGSV,4,1,14,22,75,055,35,17,74,116,37,19,54,192,35,06,53,131,,1*61
$GPGSV,4,2,14,14,53,078,34,13,33,217,31,48,33,182,30,24,31,306,27,1*68
$GPGSV,4,3,14,15,27,258,31,02,23,048,30,30,21,140,27,21,11,032,27,1*61
$GPGSV,4,4,14,12,02,266,,10,02,342,,1*64
$GLGSV,2,1,07,79,71,040,26,85,43,205,,88,39,045,25,80,37,303,22,1*79
$GLGSV,2,2,07,70,26,295,,78,26,097,,82,16,171,,1*4D
$GAGSV,3,1,09,21,45,076,29,04,39,246,29,06,38,280,29,13,31,077,26,7*7D
$GAGSV,3,2,09,09,28,309,,31,23,268,,26,19,136,,15,11,026,20,7*77
$GAGSV,3,3,09,19,10,191,19,7*42
$GBGSV,3,1,12,26,87,088,38,35,53,144,36,24,38,294,34,29,36,055,36,1*7D
$GBGSV,3,2,12,45,29,111,29,44,19,188,26,33,15,291,28,14,12,265,25,1*7D
$GBGSV,3,3,12,41,07,337,28,42,05,241,21,13,01,317,17,08,01,306,,1*71
$GNRMC,003927.000,A,4910.427178,N,12304.400628,W,0.01,0.00,041224,,,D,V*1D
$GNVTG,0.00,T,,M,0.01,N,0.03,K,D*24
$GNGGA,003928.000,4910.427142,N,12304.400448,W,2,26,0.53,6.680,M,-16.817,M,,*4F
$GNGLL,4910.427142,N,12304.400448,W,003928.000,A,D*52
$GNGSA,A,3,22,17,19,14,13,24,15,02,30,21,,,1.00,0.53,0.84,1*03
$GNGSA,A,3,79,88,80,,,,,,,,,,1.00,0.53,0.84,2*0F
$GNGSA,A,3,21,04,06,13,,,,,,,,,1.00,0.53,0.84,3*0B
$GNGSA,A,3,26,35,24,29,45,44,33,14,41,,,,1.00,0.53,0.84,4*01
$GPGSV,4,1,14,22,75,055,35,17,74,116,37,19,54,192,35,06,53,131,,1*61
$GPGSV,4,2,14,14,53,078,34,13,33,217,31,48,33,182,30,24,31,306,27,1*68
$GPGSV,4,3,14,15,27,258,31,02,23,048,30,30,21,140,27,21,11,032,27,1*61
$GPGSV,4,4,14,12,02,266,,10,02,342,,1*64
$GLGSV,2,1,07,79,71,040,26,85,43,205,,88,39,045,25,80,37,303,22,1*79
$GLGSV,2,2,07,70,26,295,,78,26,097,,82,16,171,,1*4D
$GAGSV,3,1,09,21,45,076,29,04,39,246,29,06,38,280,29,13,31,077,26,7*7D
$GAGSV,3,2,09,09,28,309,,31,23,268,,26,20,136,,15,11,026,20,7*7D
$GAGSV,3,3,09,19,10,191,19,7*42
$GBGSV,3,1,12,26,87,088,38,35,53,144,36,24,38,294,34,29,36,055,36,1*7D
$GBGSV,3,2,12,45,29,111,29,44,19,188,25,33,15,291,28,14,12,265,24,1*7F
$GBGSV,3,3,12,41,07,337,28,42,05,241,21,13,01,317,17,08,01,306,,1*71
$GNRMC,003928.000,A,4910.427142,N,12304.400448,W,0.02,0.00,041224,,,D,V*1C
$GNVTG,0.00,T,,M,0.02,N,0.03,K,D*27
$GNGGA,003929.000,4910.427094,N,12304.400376,W,2,26,0.53,6.597,M,-16.816,M,,*4A
$GNGLL,4910.427094,N,12304.400376,W,003929.000,A,D*53
$GNGSA,A,3,22,17,19,14,13,24,15,02,30,21,,,1.00,0.53,0.84,1*03
$GNGSA,A,3,79,88,80,,,,,,,,,,1.00,0.53,0.84,2*0F
$GNGSA,A,3,21,04,06,13,,,,,,,,,1.00,0.53,0.84,3*0B
$GNGSA,A,3,26,35,24,29,45,44,33,14,41,,,,1.00,0.53,0.84,4*01
$GPGSV,4,1,14,22,75,055,35,17,74,116,37,19,54,192,35,06,53,131,,1*61
$GPGSV,4,2,14,14,53,078,34,13,33,217,31,48,33,182,30,24,31,306,27,1*68
$GPGSV,4,3,14,15,27,258,31,02,23,048,30,30,21,140,26,21,11,032,27,1*60
$GPGSV,4,4,14,12,02,266,,10,02,342,,1*64
$GLGSV,2,1,07,79,71,040,26,85,43,205,,88,39,045,25,80,37,303,22,1*79
$GLGSV,2,2,07,70,26,295,,78,26,097,,82,16,171,,1*4D
$GAGSV,3,1,09,21,45,076,29,04,39,246,28,06,38,280,29,13,31,077,26,7*7C
$GAGSV,3,2,09,09,28,309,,31,23,268,,26,20,136,,15,11,026,20,7*7D
$GAGSV,3,3,09,19,10,191,19,7*42
$GBGSV,3,1,12,26,87,088,38,35,53,144,36,24,38,294,34,29,36,055,36,1*7D
$GBGSV,3,2,12,45,29,111,29,44,19,188,25,33,15,291,28,14,12,265,24,1*7F
$GBGSV,3,3,12,41,07,337,28,42,05,241,21,13,01,317,17,08,01,306,,1*71
$GNRMC,003929.000,A,4910.427094,N,12304.400376,W,0.02,0.00,041224,,,D,V*1D
$GNVTG,0.00,T,,M,0.02,N,0.04,K,D*20
$GNGGA,003930.000,4910.427052,N,12304.400400,W,2,26,0.53,6.608,M,-16.817,M,,*4A
$GNGLL,4910.427052,N,12304.400400,W,003930.000,A,D*57
$GNGSA,A,3,22,17,19,14,13,24,15,02,30,21,,,1.00,0.53,0.84,1*03
$GNGSA,A,3,79,88,80,,,,,,,,,,1.00,0.53,0.84,2*0F
$GNGSA,A,3,21,04,06,13,,,,,,,,,1.00,0.53,0.84,3*0B
$GNGSA,A,3,26,35,24,29,45,44,33,14,41,,,,1.00,0.53,0.84,4*01
$GPGSV,4,1,14,22,75,055,35,17,74,116,37,19,54,192,35,06,53,131,,1*61
$GPGSV,4,2,14,14,53,078,34,13,33,217,32,48,33,182,30,24,31,306,27,1*6B
$GPGSV,4,3,14,15,27,258,31,02,23,048,30,30,21,140,26,21,11,032,27,1*60
$GPGSV,4,4,14,12,02,266,,10,02,342,,1*64
$GLGSV,2,1,07,79,71,040,27,85,43,205,,88,39,045,26,80,37,303,22,1*7B
$GLGSV,2,2,07,70,26,295,,78,26,097,,82,16,171,,1*4D
$GAGSV,3,1,09,21,45,076,29,04,39,246,28,06,38,280,29,13,31,077,27,7*7D
$GAGSV,3,2,09,09,28,309,,31,23,268,,26,20,136,,15,11,026,20,7*7D
$GAGSV,3,3,09,19,10,191,19,7*42
$GBGSV,3,1,12,26,87,088,38,35,53,144,36,24,38,294,34,29,36,055,36,1*7D
$GBGSV,3,2,12,45,29,111,29,44,19,188,25,33,15,291,28,14,12,265,24,1*7F
$GBGSV,3,3,12,41,07,337,28,42,05,241,22,13,01,317,17,08,01,306,,1*72
$GNRMC,003930.000,A,4910.427052,N,12304.400400,W,0.02,0.00,041224,,,D,V*19
$GNVTG,0.00,T,,M,0.02,N,0.04,K,D*20
$GNGGA,003931.000,4910.426998,N,12304.400430,W,2,26,0.53,6.611,M,-16.816,M,,*4F
$GNGLL,4910.426998,N,12304.400430,W,003931.000,A,D*5B
$GNGSA,A,3,22,17,19,14,13,24,15,02,30,21,,,1.00,0.53,0.84,1*03
$GNGSA,A,3,79,88,80,,,,,,,,,,1.00,0.53,0.84,2*0F
$GNGSA,A,3,21,04,06,13,,,,,,,,,1.00,0.53,0.84,3*0B
$GNGSA,A,3,26,35,24,29,45,44,33,14,41,,,,1.00,0.53,0.84,4*01
$GPGSV,4,1,14,22,75,055,35,17,74,116,37,19,54,192,35,06,53,131,,1*61
$GPGSV,4,2,14,14,53,078,34,13,33,217,32,48,33,182,30,24,31,306,27,1*6B
$GPGSV,4,3,14,15,27,258,31,02,23,048,31,30,21,140,26,21,11,032,28,1*6E
$GPGSV,4,4,14,12,02,266,,10,02,342,,1*64
$GLGSV,2,1,07,79,71,040,27,85,43,205,,88,39,045,26,80,37,303,22,1*7B
$GLGSV,2,2,07,70,26,295,,78,26,097,,82,16,171,,1*4D
$GAGSV,3,1,09,21,45,076,29,04,39,246,29,06,38,280,29,13,31,077,28,7*73
$GAGSV,3,2,09,09,28,309,,31,23,268,,26,20,136,,15,11,026,20,7*7D
$GAGSV,3,3,09,19,10,191,19,7*42
$GBGSV,3,1,12,26,87,088,38,35,53,144,36,24,38,294,34,29,36,055,36,1*7D
$GBGSV,3,2,12,45,29,111,30,44,19,188,26,33,15,291,28,14,12,265,24,1*74
$GBGSV,3,3,12,41,07,337,28,42,05,241,23,13,01,317,17,08,01,306,,1*73
$GNRMC,003931.000,A,4910.426998,N,12304.400430,W,0.02,0.00,041224,,,D,V*15
$GNVTG,0.00,T,,M,0.02,N,0.04,K,D*20
$GNGGA,003932.000,4910.426974,N,12304.400412,W,2,26,0.53,6.592,M,-16.816,M,,*46
$GNGLL,4910.426974,N,12304.400412,W,003932.000,A,D*5A
$GNGSA,A,3,22,17,19,14,13,24,15,02,30,21,,,1.00,0.53,0.84,1*03
$GNGSA,A,3,79,88,80,,,,,,,,,,1.00,0.53,0.84,2*0F
$GNGSA,A,3,21,04,06,13,,,,,,,,,1.00,0.53,0.84,3*0B
$GNGSA,A,3,26,35,24,29,45,44,33,14,41,,,,1.00,0.53,0.84,4*01
$GPGSV,4,1,14,22,75,055,35,17,74,116,37,19,54,192,34,06,53,131,,1*60
$GPGSV,4,2,14,14,53,078,34,13,33,217,32,48,33,182,30,24,31,306,27,1*6B
$GPGSV,4,3,14,15,27,258,31,02,23,048,31,30,21,140,26,21,11,032,28,1*6E
$GPGSV,4,4,14,12,02,266,,10,02,342,,1*64
$GLGSV,2,1,07,79,71,040,27,85,43,205,,88,39,045,26,80,37,303,22,1*7B
$GLGSV,2,2,07,70,26,295,,78,26,097,,82,16,171,,1*4D
$GAGSV,3,1,09,21,45,076,29,04,39,246,29,06,38,280,29,13,31,077,28,7*73
$GAGSV,3,2,09,09,28,309,,31,23,268,,26,20,136,,15,11,026,20,7*7D
$GAGSV,3,3,09,19,10,191,19,7*42
$GBGSV,3,1,12,26,87,088,38,35,53,144,36,24,38,294,34,29,36,055,36,1*7D
$GBGSV,3,2,12,45,29,111,30,44,19,188,26,33,15,291,28,14,12,265,24,1*74
$GBGSV,3,3,12,41,07,337,28,42,05,241,23,13,01,317,18,08,01,306,,1*7C
$GNRMC,003932.000,A,4910.426974,N,12304.400412,W,0.02,0.00,041224,,,D,V*14
$GNVTG,0.00,T,,M,0.02,N,0.03,K,D*27
$GNGGA,003933.000,4910.426956,N,12304.400430,W,2,26,0.53,6.655,M,-16.816,M,,*4F
$GNGLL,4910.426956,N,12304.400430,W,003933.000,A,D*5B
$GNGSA,A,3,22,17,19,14,13,24,15,02,30,21,,,1.00,0.53,0.84,1*03
$GNGSA,A,3,79,88,80,,,,,,,,,,1.00,0.53,0.84,2*0F
$GNGSA,A,3,21,04,06,13,,,,,,,,,1.00,0.53,0.84,3*0B
$GNGSA,A,3,26,35,24,29,45,44,33,14,41,,,,1.00,0.53,0.84,4*01
$GPGSV,4,1,14,22,75,055,35,17,74,116,37,19,54,192,34,06,53,131,,1*60
$GPGSV,4,2,14,14,53,078,34,13,33,217,32,48,33,182,30,24,31,306,27,1*6B
$GPGSV,4,3,14,15,27,258,31,02,23,048,31,30,21,140,26,21,11,032,27,1*61
$GPGSV,4,4,14,12,02,266,,10,02,342,,1*64
$GLGSV,2,1,07,79,71,040,27,85,43,205,,88,39,045,26,80,37,303,22,1*7B
$GLGSV,2,2,07,70,26,295,,78,26,097,,82,16,171,,1*4D
$GAGSV,3,1,09,21,45,076,29,04,39,246,29,06,38,280,29,13,31,077,28,7*73
$GAGSV,3,2,09,09,28,309,,31,23,269,,26,20,136,,15,11,026,20,7*7C
$GAGSV,3,3,09,19,10,191,19,7*42
$GBGSV,3,1,12,26,87,088,38,35,53,144,36,24,38,294,34,29,36,055,36,1*7D
$GBGSV,3,2,12,45,29,111,30,44,19,188,26,33,15,291,28,14,12,265,24,1*74
$GBGSV,3,3,12,41,07,337,28,42,05,241,23,13,01,317,18,08,01,306,,1*7C
$GNRMC,003933.000,A,4910.426956,N,12304.400430,W,0.01,0.00,041224,,,D,V*16
$GNVTG,0.00,T,,M,0.01,N,0.03,K,D*24
$GNGGA,003934.000,4910.426920,N,12304.400538,W,2,26,0.53,6.775,M,-16.816,M,,*43
$GNGLL,4910.426920,N,12304.400538,W,003934.000,A,D*54
$GNGSA,A,3,22,17,19,14,13,24,15,02,30,21,,,1.00,0.53,0.84,1*03
$GNGSA,A,3,79,88,80,,,,,,,,,,1.00,0.53,0.84,2*0F
$GNGSA,A,3,21,04,06,13,,,,,,,,,1.00,0.53,0.84,3*0B
$GNGSA,A,3,26,35,24,29,45,44,33,14,41,,,,1.00,0.53,0.84,4*01
$GPGSV,4,1,14,22,75,055,34,17,74,116,37,19,54,192,34,14,53,078,34,1*69
$GPGSV,4,2,14,06,53,131,,48,33,182,30,13,33,217,32,24,31,306,27,1*63
$GPGSV,4,3,14,15,27,258,31,02,23,048,31,30,21,140,26,21,11,032,27,1*61
$GPGSV,4,4,14,10,02,342,,12,02,266,,1*64
$GLGSV,2,1,06,79,71,040,27,88,39,045,25,80,37,303,22,70,26,295,,1*79
$GLGSV,2,2,06,78,26,097,,82,16,171,,1*71
$GAGSV,3,1,09,21,45,076,29,04,39,246,29,06,38,280,29,13,31,077,28,7*73
$GAGSV,3,2,09,09,28,309,,31,23,269,,26,20,136,,15,11,026,20,7*7C
$GAGSV,3,3,09,19,10,191,19,7*42
$GBGSV,3,1,12,26,87,088,38,35,53,144,36,24,38,294,34,29,36,055,36,1*7D
$GBGSV,3,2,12,45,29,111,30,44,19,188,26,33,15,291,28,14,12,265,24,1*74
$GBGSV,3,3,12,41,07,337,28,42,05,241,23,13,01,317,18,08,01,306,,1*7C
$GNRMC,003934.000,A,4910.426920,N,12304.400538,W,0.02,0.00,041224,,,D,V*1A
$GNVTG,0.00,T,,M,0.02,N,0.03,K,D*27
$GNGGA,003935.000,4910.426914,N,12304.400544,W,2,26,0.53,6.672,M,-16.816,M,,*48
$GNGLL,4910.426914,N,12304.400544,W,003935.000,A,D*59
$GNGSA,A,3,22,17,19,14,13,24,15,02,30,21,,,1.00,0.53,0.84,1*03
$GNGSA,A,3,79,88,80,,,,,,,,,,1.00,0.53,0.84,2*0F
$GNGSA,A,3,21,04,06,13,,,,,,,,,1.00,0.53,0.84,3*0B
$GNGSA,A,3,26,35,24,29,45,44,33,14,41,,,,1.00,0.53,0.84,4*01
$GPGSV,4,1,14,22,75,055,34,17,74,116,37,19,54,192,34,06,53,131,,1*61
$GPGSV,4,2,14,14,53,078,34,13,33,217,32,48,33,182,30,24,31,306,27,1*6B
$GPGSV,4,3,14,15,27,258,31,02,23,048,31,30,21,140,26,21,11,032,27,1*61
$GPGSV,4,4,14,12,02,266,,10,02,342,,1*64
$GLGSV,2,1,07,79,71,040,28,85,43,205,,88,39,045,25,80,37,303,22,1*77
$GLGSV,2,2,07,70,26,295,,78,26,097,,82,16,171,,1*4D
$GAGSV,3,1,09,21,45,076,28,04,39,246,29,06,38,280,29,13,31,077,28,7*72
$GAGSV,3,2,09,09,28,309,,31,23,269,,26,20,136,,15,11,026,20,7*7C
$GAGSV,3,3,09,19,10,191,19,7*42
$GBGSV,3,1,12,26,87,088,38,35,53,144,36,24,38,294,34,29,36,055,35,1*7E
$GBGSV,3,2,12,45,29,111,29,44,19,188,26,33,15,291,27,14,12,265,24,1*73
$GBGSV,3,3,12,41,07,337,27,42,05,241,22,13,01,317,18,08,01,306,,1*72
$GNRMC,003935.000,A,4910.426914,N,12304.400544,W,0.02,0.00,041224,,,D,V*17
$GNVTG,0.00,T,,M,0.02,N,0.03,K,D*27
$GNGGA,003936.000,4910.426878,N,12304.400580,W,2,26,0.53,6.631,M,-16.816,M,,*4F
$GNGLL,4910.426878,N,12304.400580,W,003936.000,A,D*59
$GNGSA,A,3,22,17,19,14,13,24,15,02,30,21,,,1.00,0.53,0.84,1*03
$GNGSA,A,3,79,88,80,,,,,,,,,,1.00,0.53,0.84,2*0F
$GNGSA,A,3,21,04,06,13,,,,,,,,,1.00,0.53,0.84,3*0B
$GNGSA,A,3,26,35,24,29,45,44,33,14,41,,,,1.00,0.53,0.84,4*01
$GPGSV,4,1,14,22,75,055,34,17,74,116,37,19,54,192,34,06,53,131,,1*61
$GPGSV,4,2,14,14,53,078,34,13,33,217,32,48,33,182,30,24,31,306,27,1*6B
$GPGSV,4,3,14,15,27,258,31,02,23,048,31,30,21,140,26,21,11,032,27,1*61
$GPGSV,4,4,14,12,02,266,,10,02,342,,1*64
$GLGSV,2,1,07,79,71,040,28,85,43,205,,88,39,045,25,80,37,303,23,1*76
$GLGSV,2,2,07,70,26,295,,78,26,097,,82,16,171,,1*4D
$GAGSV,3,1,09,21,45,076,28,04,39,246,29,06,38,280,29,13,31,077,28,7*72
$GAGSV,3,2,09,09,28,309,,31,23,269,,26,20,136,,15,11,026,20,7*7C
$GAGSV,3,3,09,19,10,191,19,7*42
$GBGSV,3,1,12,26,87,088,38,35,53,144,36,24,38,294,34,29,36,055,35,1*7E
$GBGSV,3,2,12,45,29,111,29,44,19,188,26,33,15,291,27,14,12,265,24,1*73
$GBGSV,3,3,12,41,07,337,27,42,05,241,22,13,01,317,18,08,01,306,,1*72
$GNRMC,003936.000,A,4910.426878,N,12304.400580,W,0.01,0.00,041224,,,D,V*14
$GNVTG,0.00,T,,M,0.01,N,0.03,K,D*24
$GNGGA,003937.000,4910.426884,N,12304.400610,W,2,26,0.53,6.572,M,-16.817,M,,*42
$GNGLL,4910.426884,N,12304.400610,W,003937.000,A,D*51
$GNGSA,A,3,22,17,19,14,13,24,15,02,30,21,,,1.00,0.53,0.84,1*03
$GNGSA,A,3,79,88,80,,,,,,,,,,1.00,0.53,0.84,2*0F
$GNGSA,A,3,21,04,06,13,,,,,,,,,1.00,0.53,0.84,3*0B
$GNGSA,A,3,26,35,24,29,45,44,33,14,41,,,,1.00,0.53,0.84,4*01
$GPGSV,4,1,14,22,75,055,34,17,74,116,37,19,54,192,34,06,53,131,,1*61
$GPGSV,4,2,14,14,53,078,34,13,33,217,32,48,33,182,30,24,31,306,27,1*6B
$GPGSV,4,3,14,15,27,258,31,02,23,048,31,30,21,140,25,21,11,032,27,1*62
$GPGSV,4,4,14,12,02,266,,10,02,342,,1*64
$GLGSV,2,1,07,79,71,040,28,85,43,205,,88,39,045,25,80,37,303,23,1*76
$GLGSV,2,2,07,70,26,295,,78,26,097,,82,16,171,,1*4D
$GAGSV,3,1,09,21,45,076,28,04,39,246,29,06,38,280,29,13,31,077,28,7*72
$GAGSV,3,2,09,09,28,309,,31,23,269,,26,20,136,,15,11,026,20,7*7C
$GAGSV,3,3,09,19,10,191,19,7*42
$GBGSV,3,1,12,26,87,088,38,35,53,144,36,24,38,294,34,29,36,055,35,1*7E
$GBGSV,3,2,12,45,29,111,29,44,19,188,26,33,15,291,27,14,12,265,23,1*74
$GBGSV,3,3,12,41,07,337,27,42,05,241,22,13,01,317,18,08,01,306,,1*72
$GNRMC,003937.000,A,4910.426884,N,12304.400610,W,0.01,0.00,041224,,,D,V*1C
$GNVTG,0.00,T,,M,0.01,N,0.02,K,D*25
$GNGGA,003938.000,4910.426794,N,12304.400724,W,2,26,0.53,6.555,M,-16.817,M,,*40
$GNGLL,4910.426794,N,12304.400724,W,003938.000,A,D*56
$GNGSA,A,3,22,17,19,14,13,24,15,02,30,21,,,1.00,0.53,0.84,1*03
$GNGSA,A,3,79,88,80,,,,,,,,,,1.00,0.53,0.84,2*0F
$GNGSA,A,3,21,04,06,13,,,,,,,,,1.00,0.53,0.84,3*0B
$GNGSA,A,3,26,35,24,29,45,44,33,14,41,,,,1.00,0.53,0.84,4*01
$GPGSV,4,1,14,22,75,055,34,17,74,116,37,19,54,192,34,06,53,131,,1*61
$GPGSV,4,2,14,14,53,078,34,13,33,217,32,48,33,182,30,24,31,306,27,1*6B
$GPGSV,4,3,14,15,27,258,31,02,23,048,31,30,21,140,25,21,11,032,27,1*62
$GPGSV,4,4,14,12,02,266,,10,02,342,,1*64
$GLGSV,2,1,07,79,71,040,28,85,43,205,,88,39,045,25,80,37,303,22,1*77
$GLGSV,2,2,07,70,26,295,,78,26,097,,82,16,171,,1*4D
$GAGSV,3,1,09,21,45,076,28,04,39,246,29,06,38,280,29,13,31,077,28,7*72
$GAGSV,3,2,09,09,28,309,,31,23,269,,26,20,136,,15,11,026,20,7*7C
$GAGSV,3,3,09,19,10,191,19,7*42
$GBGSV,3,1,12,26,87,088,38,35,53,144,36,24,38,294,34,29,36,055,35,1*7E
$GBGSV,3,2,12,45,29,111,29,44,19,188,26,33,15,291,27,14,12,265,23,1*74
$GBGSV,3,3,12,41,07,337,27,42,05,241,22,13,01,317,18,08,01,306,,1*72
$GNRMC,003938.000,A,4910.426794,N,12304.400724,W,0.01,0.00,041224,,,D,V*1B
$GNVTG,0.00,T,,M,0.01,N,0.03,K,D*24
$GNGGA,003939.000,4910.426734,N,12304.400802,W,2,26,0.53,6.494,M,-16.816,M,,*4D
$GNGLL,4910.426734,N,12304.400802,W,003939.000,A,D*56
$GNGSA,A,3,22,17,19,14,13,24,15,02,30,21,,,1.00,0.53,0.84,1*03
$GNGSA,A,3,79,88,80,,,,,,,,,,1.00,0.53,0.84,2*0F
$GNGSA,A,3,21,04,06,13,,,,,,,,,1.00,0.53,0.84,3*0B
$GNGSA,A,3,26,35,24,29,45,44,33,14,41,,,,1.00,0.53,0.84,4*01
$GPGSV,4,1,14,22,75,055,34,17,74,116,37,19,54,192,34,06,53,131,,1*61
$GPGSV,4,2,14,14,53,078,34,13,33,217,32,48,33,182,30,24,31,306,27,1*6B
$GPGSV,4,3,14,15,27,258,31,02,23,048,31,30,21,140,25,21,11,032,27,1*62
$GPGSV,4,4,14,12,02,266,,10,02,342,,1*64
$GLGSV,2,1,07,79,71,040,28,85,43,205,,88,39,045,25,80,37,303,22,1*77
$GLGSV,2,2,07,70,26,295,,78,26,097,,82,16,171,,1*4D
$GAGSV,3,1,09,21,45,076,28,04,39,246,29,06,38,280,29,13,31,077,28,7*72
$GAGSV,3,2,09,09,28,309,,31,23,269,,26,20,136,,15,11,026,20,7*7C
$GAGSV,3,3,09,19,10,191,19,7*42
$GBGSV,3,1,12,26,87,088,38,35,53,144,36,24,38,294,34,29,36,055,35,1*7E
$GBGSV,3,2,12,45,29,111,29,44,19,188,27,33,15,291,27,14,12,265,23,1*75
$GBGSV,3,3,12,41,07,337,27,42,05,241,22,13,01,317,18,08,01,306,,1*72
$GNRMC,003939.000,A,4910.426734,N,12304.400802,W,0.02,0.00,041224,,,D,V*18
$GNVTG,0.00,T,,M,0.02,N,0.03,K,D*27
$GNGGA,003940.000,4910.426746,N,12304.400826,W,2,26,0.53,6.233,M,-16.816,M,,*4B
$GNGLL,4910.426746,N,12304.400826,W,003940.000,A,D*5B
$GNGSA,A,3,22,17,19,14,13,24,15,02,30,21,,,1.00,0.53,0.84,1*03
$GNGSA,A,3,79,88,80,,,,,,,,,,1.00,0.53,0.84,2*0F
$GNGSA,A,3,21,04,06,13,,,,,,,,,1.00,0.53,0.84,3*0B
$GNGSA,A,3,26,35,24,29,45,44,33,14,41,,,,1.00,0.53,0.84,4*01
$GPGSV,4,1,14,22,75,055,34,17,74,116,37,19,54,192,34,06,53,131,,1*61
$GPGSV,4,2,14,14,53,078,34,13,33,217,32,48,33,182,30,24,31,306,27,1*6B
$GPGSV,4,3,14,15,27,258,31,02,23,048,31,30,21,140,25,21,11,032,28,1*6D
$GPGSV,4,4,14,12,02,266,,10,02,342,,1*64
$GLGSV,2,1,07,79,71,040,28,85,43,205,,88,39,045,24,80,37,303,22,1*76
$GLGSV,2,2,07,70,26,295,,78,26,097,,82,16,171,,1*4D
$GAGSV,3,1,09,21,45,076,28,04,39,246,29,06,38,280,29,13,31,077,28,7*72
$GAGSV,3,2,09,09,28,309,,31,23,269,,26,20,136,,15,11,026,20,7*7C
$GAGSV,3,3,09,19,10,191,19,7*42
$GBGSV,3,1,12,26,87,088,38,35,53,144,36,24,38,294,34,29,36,055,35,1*7E
$GBGSV,3,2,12,45,29,111,29,44,19,188,27,33,15,291,27,14,12,265,23,1*75
$GBGSV,3,3,12,41,07,337,27,42,05,241,22,13,01,317,18,08,01,306,,1*72
$GNRMC,003940.000,A,4910.426746,N,12304.400826,W,0.02,0.00,041224,,,D,V*15
$GNVTG,0.00,T,,M,0.02,N,0.03,K,D*27
$GNGGA,003941.000,4910.426788,N,12304.400808,W,2,26,0.53,5.874,M,-16.816,M,,*4E
$GNGLL,4910.426788,N,12304.400808,W,003941.000,A,D*54
$GNGSA,A,3,22,17,19,14,13,24,15,02,30,21,,,1.00,0.53,0.84,1*03
$GNGSA,A,3,79,88,80,,,,,,,,,,1.00,0.53,0.84,2*0F
$GNGSA,A,3,21,04,06,13,,,,,,,,,1.00,0.53,0.84,3*0B
$GNGSA,A,3,26,35,24,29,45,44,33,14,41,,,,1.00,0.53,0.84,4*01
$GPGSV,4,1,14,22,75,055,35,17,74,116,37,19,54,192,35,06,53,131,,1*61
$GPGSV,4,2,14,14,53,078,34,13,33,217,32,48,33,182,30,24,31,306,28,1*64
$GPGSV,4,3,14,15,27,258,31,02,23,048,32,30,21,140,26,21,11,032,28,1*6D
$GPGSV,4,4,14,12,02,266,,10,02,342,,1*64
$GLGSV,2,1,07,79,71,040,28,85,43,205,,88,39,045,24,80,37,303,22,1*76
$GLGSV,2,2,07,70,26,295,,78,26,097,,82,16,171,,1*4D
$GAGSV,3,1,09,21,45,076,28,04,39,246,29,06,38,280,29,13,31,077,28,7*72
$GAGSV,3,2,09,09,28,309,,31,23,269,,26,20,136,,15,11,026,21,7*7D
$GAGSV,3,3,09,19,10,191,19,7*42
$GBGSV,3,1,12,26,87,088,38,35,53,144,36,24,38,294,34,29,36,055,35,1*7E
$GBGSV,3,2,12,45,29,111,29,44,19,188,27,33,15,291,27,14,12,265,23,1*75
$GBGSV,3,3,12,41,07,337,27,42,05,241,22,13,01,317,18,08,01,306,,1*72
$GNRMC,003941.000,A,4910.426788,N,12304.400808,W,0.01,0.00,041224,,,D,V*19
$GNVTG,0.00,T,,M,0.01,N,0.03,K,D*24
$GNGGA,003942.000,4910.426860,N,12304.400772,W,2,26,0.53,5.578,M,-16.816,M,,*47
$GNGLL,4910.426860,N,12304.400772,W,003942.000,A,D*5C
$GNGSA,A,3,22,17,19,14,13,24,15,02,30,21,,,1.00,0.53,0.84,1*03
$GNGSA,A,3,79,88,80,,,,,,,,,,1.00,0.53,0.84,2*0F
$GNGSA,A,3,21,04,06,13,,,,,,,,,1.00,0.53,0.84,3*0B
$GNGSA,A,3,26,35,24,29,45,44,33,14,41,,,,1.00,0.53,0.84,4*01
$GPGSV,4,1,14,22,75,055,34,17,74,116,37,19,54,192,34,06,53,131,,1*61
$GPGSV,4,2,14,14,53,078,34,13,33,217,32,48,33,182,30,24,31,306,28,1*64
$GPGSV,4,3,14,15,27,258,31,02,23,048,31,30,21,140,26,21,11,032,28,1*6E
$GPGSV,4,4,14,12,02,266,,10,02,342,,1*64
$GLGSV,2,1,07,79,71,040,29,85,43,205,,88,39,045,24,80,37,303,23,1*76
$GLGSV,2,2,07,70,26,295,,78,26,097,,82,16,171,,1*4D
$GAGSV,3,1,09,21,45,076,28,04,39,246,28,06,38,280,29,13,31,077,27,7*7C
$GAGSV,3,2,09,09,28,309,,31,23,269,,26,20,136,,15,11,026,21,7*7D
$GAGSV,3,3,09,19,10,191,19,7*42
$GBGSV,3,1,12,26,87,088,38,35,53,144,37,24,38,294,34,29,36,055,35,1*7F
$GBGSV,3,2,12,45,29,111,29,44,19,188,27,33,15,291,28,14,12,265,23,1*7A
$GBGSV,3,3,12,41,07,337,27,42,05,241,23,13,01,317,18,08,01,306,,1*73
$GNRMC,003942.000,A,4910.426860,N,12304.400772,W,0.02,0.00,041224,,,D,V*12
$GNVTG,0.00,T,,M,0.02,N,0.03,K,D*27
$GNGGA,003943.000,4910.426908,N,12304.400790,W,2,26,0.53,5.244,M,-16.816,M,,*4D
$GNGLL,4910.426908,N,12304.400790,W,003943.000,A,D*5E
$GNGSA,A,3,22,17,19,14,13,24,15,02,30,21,,,1.00,0.53,0.84,1*03
$GNGSA,A,3,79,88,80,,,,,,,,,,1.00,0.53,0.84,2*0F
$GNGSA,A,3,21,04,06,13,,,,,,,,,1.00,0.53,0.84,3*0B
$GNGSA,A,3,26,35,24,29,45,44,33,14,41,,,,1.00,0.53,0.84,4*01
$GPGSV,4,1,14,22,75,055,34,17,74,116,37,19,54,192,34,06,53,131,,1*61
$GPGSV,4,2,14,14,53,078,34,13,33,217,32,48,33,182,30,24,31,306,28,1*64
$GPGSV,4,3,14,15,27,258,31,02,23,048,31,30,21,140,26,21,11,032,28,1*6E
$GPGSV,4,4,14,12,02,266,,10,02,342,,1*64
$GLGSV,2,1,07,79,71,040,28,85,43,205,,88,39,045,24,80,37,303,23,1*77
$GLGSV,2,2,07,70,26,295,,78,26,097,,82,16,171,,1*4D
$GAGSV,3,1,09,21,45,076,28,04,39,246,28,06,38,280,29,13,31,077,27,7*7C
$GAGSV,3,2,09,09,28,309,,31,23,269,,26,20,136,,15,11,026,21,7*7D
$GAGSV,3,3,09,19,10,191,19,7*42
$GBGSV,3,1,12,26,87,088,38,35,53,144,37,24,38,294,34,29,36,055,35,1*7F
$GBGSV,3,2,12,45,29,111,30,44,19,188,27,33,15,291,28,14,12,265,23,1*72
$GBGSV,3,3,12,41,07,337,27,42,05,241,23,13,01,317,18,08,01,306,,1*73
$GNRMC,003943.000,A,4910.426908,N,12304.400790,W,0.02,0.00,041224,,,D,V*10
$GNVTG,0.00,T,,M,0.02,N,0.03,K,D*27
$GNGGA,003944.000,4910.426872,N,12304.400820,W,2,26,0.53,4.993,M,-16.816,M,,*42
$GNGLL,4910.426872,N,12304.400820,W,003944.000,A,D*51
$GNGSA,A,3,22,17,19,14,13,24,15,02,30,21,,,1.00,0.53,0.84,1*03
$GNGSA,A,3,79,88,80,,,,,,,,,,1.00,0.53,0.84,2*0F
$GNGSA,A,3,21,04,06,13,,,,,,,,,1.00,0.53,0.84,3*0B
$GNGSA,A,3,26,35,24,29,45,44,33,14,41,,,,1.00,0.53,0.84,4*01
$GPGSV,4,1,14,22,75,055,34,17,74,116,37,19,54,192,34,06,53,131,,1*61
$GPGSV,4,2,14,14,53,078,34,13,33,217,32,48,33,182,30,24,31,306,28,1*64
$GPGSV,4,3,14,15,27,258,31,02,23,048,31,30,21,140,26,21,11,032,28,1*6E
$GPGSV,4,4,14,12,02,266,,10,02,342,,1*64
$GLGSV,2,1,07,79,71,040,28,85,43,205,,88,39,045,24,80,37,303,23,1*77
$GLGSV,2,2,07,70,26,294,,78,26,097,,82,16,171,,1*4C
$GAGSV,3,1,09,21,45,076,28,04,39,246,28,06,38,280,29,13,31,077,27,7*7C
$GAGSV,3,2,09,09,28,309,,31,23,269,,26,20,136,,15,11,026,20,7*7C
$GAGSV,3,3,09,19,10,191,18,7*43
$GBGSV,3,1,12,26,87,088,38,35,53,144,37,24,38,294,34,29,36,055,35,1*7F
$GBGSV,3,2,12,45,29,111,30,44,19,188,27,33,15,291,28,14,12,265,23,1*72
$GBGSV,3,3,12,41,07,337,27,42,05,241,23,13,01,317,18,08,01,306,,1*73
$GNRMC,003944.000,A,4910.426872,N,12304.400820,W,0.02,0.00,041224,,,D,V*1F
$GNVTG,0.00,T,,M,0.02,N,0.03,K,D*27
$GNGGA,003945.000,4910.426842,N,12304.400886,W,2,26,0.53,4.853,M,-16.816,M,,*41
$GNGLL,4910.426842,N,12304.400886,W,003945.000,A,D*5F
$GNGSA,A,3,22,17,19,14,13,24,15,02,30,21,,,1.00,0.53,0.84,1*03
$GNGSA,A,3,79,88,80,,,,,,,,,,1.00,0.53,0.84,2*0F
$GNGSA,A,3,21,04,06,13,,,,,,,,,1.00,0.53,0.84,3*0B
$GNGSA,A,3,26,35,24,29,45,44,33,14,41,,,,1.00,0.53,0.84,4*01
$GPGSV,4,1,14,22,75,055,34,17,74,116,37,19,54,192,34,06,53,131,,1*61
$GPGSV,4,2,14,14,53,078,34,13,33,217,32,48,33,182,30,24,31,306,28,1*64
$GPGSV,4,3,14,15,27,258,31,02,23,048,31,30,21,140,26,21,11,032,28,1*6E
$GPGSV,4,4,14,12,02,266,,10,02,342,,1*64
$GLGSV,2,1,07,79,71,040,29,85,43,205,,88,39,045,24,80,37,303,23,1*76
$GLGSV,2,2,07,70,26,294,,78,26,097,,82,16,171,,1*4C
$GAGSV,3,1,09,21,45,076,28,04,39,246,28,06,38,280,29,13,31,077,27,7*7C
$GAGSV,3,2,09,09,28,309,,31,23,269,,26,20,136,,15,11,026,20,7*7C
$GAGSV,3,3,09,19,10,191,18,7*43
$GBGSV,3,1,12,26,87,088,38,35,53,144,37,24,38,294,34,29,36,055,35,1*7F
$GBGSV,3,2,12,45,29,111,31,44,19,188,27,33,15,291,28,14,12,265,23,1*73
$GBGSV,3,3,12,41,07,337,27,42,05,241,23,13,01,317,18,08,01,306,,1*73
$GNRMC,003945.000,A,4910.426842,N,12304.400886,W,0.02,0.00,041224,,,D,V*11
$GNVTG,0.00,T,,M,0.02,N,0.04,K,D*20
$GNGGA,003946.000,4910.426806,N,12304.400982,W,2,26,0.53,4.750,M,-16.816,M,,*4B
$GNGLL,4910.426806,N,12304.400982,W,003946.000,A,D*59
$GNGSA,A,3,22,17,19,14,13,24,15,02,30,21,,,1.00,0.53,0.84,1*03
$GNGSA,A,3,79,88,80,,,,,,,,,,1.00,0.53,0.84,2*0F
$GNGSA,A,3,21,04,06,13,,,,,,,,,1.00,0.53,0.84,3*0B
$GNGSA,A,3,26,35,24,29,45,44,33,14,41,,,,1.00,0.53,0.84,4*01
$GPGSV,4,1,14,22,75,055,35,17,74,116,37,19,54,192,35,06,53,131,,1*61
$GPGSV,4,2,14,14,53,078,34,13,33,217,32,48,33,182,30,24,31,306,28,1*64
$GPGSV,4,3,14,15,27,258,31,02,23,048,31,30,21,140,26,21,11,032,28,1*6E
$GPGSV,4,4,14,12,02,266,,10,02,342,,1*64
$GLGSV,2,1,07,79,71,040,29,85,43,205,,88,39,045,24,80,37,303,23,1*76
$GLGSV,2,2,07,70,26,294,,78,26,097,,82,16,171,,1*4C
$GAGSV,3,1,09,21,45,076,28,04,39,246,28,06,38,280,29,13,31,077,27,7*7C
$GAGSV,3,2,09,09,28,309,,31,23,269,,26,20,136,,15,11,026,21,7*7D
$GAGSV,3,3,09,19,10,191,18,7*43
$GBGSV,3,1,12,26,87,088,38,35,53,144,37,24,38,294,34,29,36,055,35,1*7F
$GBGSV,3,2,12,45,29,111,31,44,19,188,27,33,15,291,28,14,12,265,23,1*73
$GBGSV,3,3,12,41,07,337,27,42,05,241,24,13,01,317,18,08,01,306,,1*74
$GNRMC,003946.000,A,4910.426806,N,12304.400982,W,0.02,0.00,041224,,,D,V*17
$GNVTG,0.00,T,,M,0.02,N,0.04,K,D*20
$GNGGA,003947.000,4910.426866,N,12304.400988,W,2,26,0.53,4.538,M,-16.817,M,,*4B
$GNGLL,4910.426866,N,12304.400988,W,003947.000,A,D*54
$GNGSA,A,3,22,17,19,14,13,24,15,02,30,21,,,1.00,0.53,0.84,1*03
$GNGSA,A,3,79,88,80,,,,,,,,,,1.00,0.53,0.84,2*0F
$GNGSA,A,3,21,04,06,13,,,,,,,,,1.00,0.53,0.84,3*0B
$GNGSA,A,3,26,35,24,29,45,44,33,14,41,,,,1.00,0.53,0.84,4*01
$GPGSV,4,1,14,22,75,055,35,17,74,116,37,19,54,192,35,06,53,131,,1*61
$GPGSV,4,2,14,14,53,078,35,13,33,217,32,48,33,182,30,24,31,306,28,1*65
$GPGSV,4,3,14,15,27,258,31,02,23,048,31,30,21,140,26,21,11,032,28,1*6E
$GPGSV,4,4,14,12,02,266,,10,02,342,,1*64
$GLGSV,2,1,07,79,71,040,29,85,43,205,,88,39,045,24,80,37,303,23,1*76
$GLGSV,2,2,07,70,26,294,,78,26,097,,82,16,171,,1*4C
$GAGSV,3,1,09,21,45,076,28,04,39,246,28,06,38,280,29,13,31,077,27,7*7C
$GAGSV,3,2,09,09,28,309,,31,23,269,,26,20,136,,15,11,026,21,7*7D
$GAGSV,3,3,09,19,10,191,18,7*43
$GBGSV,3,1,12,26,87,088,38,35,53,144,37,24,38,294,34,29,36,055,35,1*7F
$GBGSV,3,2,12,45,29,111,31,44,19,188,28,33,15,291,28,14,12,265,23,1*7C
$GBGSV,3,3,12,41,07,337,27,42,05,241,24,13,01,317,18,08,01,306,,1*74
$GNRMC,003947.000,A,4910.426866,N,12304.400988,W,0.02,0.00,041224,,,D,V*1A
$GNVTG,0.00,T,,M,0.02,N,0.03,K,D*27
$GNGGA,003948.000,4910.426884,N,12304.401000,W,2,26,0.53,4.465,M,-16.816,M,,*48
$GNGLL,4910.426884,N,12304.401000,W,003948.000,A,D*5F
$GNGSA,A,3,22,17,19,14,13,24,15,02,30,21,,,1.00,0.53,0.84,1*03
$GNGSA,A,3,79,88,80,,,,,,,,,,1.00,0.53,0.84,2*0F
$GNGSA,A,3,21,04,06,13,,,,,,,,,1.00,0.53,0.84,3*0B
$GNGSA,A,3,26,35,24,29,45,44,33,14,41,,,,1.00,0.53,0.84,4*01
$GPGSV,4,1,14,22,75,055,35,17,74,116,37,19,54,192,35,14,53,078,35,1*68
$GPGSV,4,2,14,06,53,131,,48,33,182,30,13,33,217,32,24,31,306,28,1*6C
$GPGSV,4,3,14,15,27,258,31,02,23,048,31,30,21,140,26,21,11,032,28,1*6E
$GPGSV,4,4,14,10,02,342,,12,02,266,,1*64
$GLGSV,2,1,06,79,71,040,29,85,43,205,,88,39,045,24,80,37,303,24,1*70
$GLGSV,2,2,06,78,26,097,,70,26,294,,1*77
$GAGSV,3,1,09,21,45,076,28,04,39,246,28,06,38,280,29,13,31,077,27,7*7C
$GAGSV,3,2,09,09,28,309,,31,23,269,,26,20,136,,15,11,026,20,7*7C
$GAGSV,3,3,09,19,10,191,18,7*43
$GBGSV,3,1,12,26,87,088,38,35,53,144,37,24,38,294,35,29,36,055,35,1*7E
$GBGSV,3,2,12,45,29,111,31,44,19,188,28,33,15,291,28,14,12,265,23,1*7C
$GBGSV,3,3,12,41,07,337,26,42,05,241,24,13,01,317,18,08,01,306,,1*75
$GNRMC,003948.000,A,4910.426884,N,12304.401000,W,0.01,0.00,041224,,,D,V*12
$GNVTG,0.00,T,,M,0.01,N,0.02,K,D*25
$GNGGA,003949.000,4910.426914,N,12304.401024,W,2,26,0.53,4.405,M,-16.817,M,,*40
$GNGLL,4910.426914,N,12304.401024,W,003949.000,A,D*50
$GNGSA,A,3,22,17,19,14,13,24,15,02,30,21,,,1.00,0.53,0.84,1*03
$GNGSA,A,3,79,88,80,,,,,,,,,,1.00,0.53,0.84,2*0F
$GNGSA,A,3,21,04,06,13,,,,,,,,,1.00,0.53,0.84,3*0B
$GNGSA,A,3,26,35,24,29,45,44,33,14,41,,,,1.00,0.53,0.84,4*01
$GPGSV,4,1,14,22,75,055,35,17,74,116,37,19,54,192,35,14,53,078,35,1*68
$GPGSV,4,2,14,06,53,131,,48,33,182,30,13,33,217,33,24,31,306,28,1*6D
$GPGSV,4,3,14,15,27,258,31,02,23,048,31,30,21,140,26,21,11,032,28,1*6E
$GPGSV,4,4,14,10,02,342,,12,02,266,,1*64
$GLGSV,2,1,06,79,71,040,30,74,64,134,,85,43,205,,88,39,045,24,1*75
$GLGSV,2,2,06,80,37,303,25,70,26,294,,1*79
$GAGSV,3,1,09,21,45,076,28,04,39,246,28,06,38,280,29,13,31,077,27,7*7C
$GAGSV,3,2,09,09,28,309,,31,23,269,,26,20,136,,15,11,026,20,7*7C
$GAGSV,3,3,09,19,10,191,18,7*43
$GBGSV,3,1,12,26,87,088,38,35,53,144,38,24,38,294,35,29,36,055,35,1*71
$GBGSV,3,2,12,45,29,111,31,44,19,188,28,33,15,291,28,14,12,265,23,1*7C
$GBGSV,3,3,12,41,07,337,26,42,05,241,24,13,01,317,18,08,01,306,,1*75
$GNRMC,003949.000,A,4910.426914,N,12304.401024,W,0.01,0.00,041224,,,D,V*1D
$GNVTG,0.00,T,,M,0.01,N,0.02,K,D*25
$GNGGA,003950.000,4910.427022,N,12304.400964,W,2,26,0.53,4.191,M,-16.816,M,,*40
