$GNGGA,191208.000,4910.425330,N,12304.401246,W,2,30,0.50,11.863,M,-16.817,M,,*71
$GNGLL,4910.425330,N,12304.401246,W,191208.000,A,D*5D
$GNGSA,A,3,09,07,04,16,20,30,27,26,11,03,08,,0.78,0.50,0.59,1*01
$GNGSA,A,3,69,68,79,67,,,,,,,,,0.78,0.50,0.59,2*0A
$GNGSA,A,3,09,31,06,05,04,24,34,15,,,,,0.78,0.50,0.59,3*0C
$GNGSA,A,3,37,20,23,32,19,38,25,,,,,,0.78,0.50,0.59,4*00
$GPGSV,4,1,13,09,87,147,34,07,58,258,31,04,56,117,29,16,40,060,26,1*6D
$GPGSV,4,2,13,46,33,188,28,20,22,315,25,30,21,254,22,27,15,101,24,1*6F
$GPGSV,4,3,13,26,13,044,20,11,10,292,19,03,07,173,18,08,07,132,21,1*61
$GPGSV,4,4,13,06,03,257,,1*53
$GLGSV,2,1,07,78,67,046,14,69,64,321,26,68,60,139,29,79,55,212,28,1*71
$GLGSV,2,2,07,67,11,140,21,86,09,003,,80,03,217,18,1*4A
$GAGSV,3,1,09,09,84,100,28,31,59,128,26,06,58,115,25,05,39,298,25,7*75
$GAGSV,3,2,09,04,32,116,21,24,25,187,19,34,13,286,14,15,09,335,15,7*7C
$GAGSV,3,3,09,36,01,239,09,7*4F
$GBGSV,4,1,13,37,65,212,36,20,60,291,35,23,56,063,36,32,51,166,34,1*7B
$GBGSV,4,2,13,19,15,316,26,38,13,333,25,46,11,227,,25,06,053,22,1*71
$GBGSV,4,3,13,08,06,342,21,12,03,020,19,34,02,045,,41,02,146,11,1*71
$GBGSV,4,4,13,04,01,262,,1*47
$GNRMC,191208.000,A,4910.425330,N,12304.401246,W,0.02,0.00,051224,,,D,V*12
$GNVTG,0.00,T,,M,0.02,N,0.04,K,D*20
$GNGGA,191209.000,4910.425336,N,12304.401222,W,2,30,0.50,11.968,M,-16.816,M,,*7F
$GNGLL,4910.425336,N,12304.401222,W,191209.000,A,D*58
$GNGSA,A,3,09,07,04,16,20,30,27,26,11,03,08,,0.78,0.50,0.59,1*01
$GNGSA,A,3,69,68,79,67,,,,,,,,,0.78,0.50,0.59,2*0A
$GNGSA,A,3,09,31,06,05,04,24,34,15,,,,,0.78,0.50,0.59,3*0C
$GNGSA,A,3,37,20,23,32,19,38,25,,,,,,0.78,0.50,0.59,4*00
$GPGSV,4,1,13,09,87,147,34,07,58,258,31,04,56,117,29,16,40,060,27,1*6C
$GPGSV,4,2,13,46,33,188,28,20,22,315,25,30,21,254,23,27,15,101,25,1*6F
$GPGSV,4,3,13,26,13,044,20,11,10,292,19,03,07,173,17,08,07,132,22,1*6D
$GPGSV,4,4,13,06,03,257,,1*53
$GLGSV,2,1,07,78,67,046,15,69,64,321,26,68,60,139,29,79,55,212,28,1*70
$GLGSV,2,2,07,67,11,140,21,86,09,003,,80,03,217,18,1*4A
$GAGSV,3,1,09,09,84,100,28,31,59,128,26,06,58,115,25,05,39,298,25,7*75
$GAGSV,3,2,09,04,32,116,21,24,25,187,19,34,13,286,14,15,09,335,14,7*7D
$GAGSV,3,3,09,36,01,239,09,7*4F
$GBGSV,4,1,13,37,65,212,36,20,60,291,35,23,56,063,36,32,51,166,34,1*7B
$GBGSV,4,2,13,19,15,316,26,38,13,333,25,46,11,227,,25,06,053,22,1*71
$GBGSV,4,3,13,08,06,342,21,12,03,020,19,34,02,045,,41,02,146,15,1*75
$GBGSV,4,4,13,04,01,262,,1*47
$GNRMC,191209.000,A,4910.425336,N,12304.401222,W,0.02,0.00,051224,,,D,V*17
$GNVTG,0.00,T,,M,0.02,N,0.04,K,D*20
$GNGGA,191210.000,4910.425354,N,12304.401150,W,2,30,0.50,12.136,M,-16.816,M,,*75
$GNGLL,4910.425354,N,12304.401150,W,191210.000,A,D*52
$GNGSA,A,3,09,07,04,16,20,30,27,26,11,03,08,,0.78,0.50,0.59,1*01
$GNGSA,A,3,69,68,79,67,,,,,,,,,0.78,0.50,0.59,2*0A
$GNGSA,A,3,09,31,06,05,04,24,34,15,,,,,0.78,0.50,0.59,3*0C
$GNGSA,A,3,37,20,23,32,19,38,25,,,,,,0.78,0.50,0.59,4*00
$GPGSV,4,1,13,09,87,147,34,07,58,258,31,04,56,117,29,16,40,060,27,1*6C
$GPGSV,4,2,13,46,33,188,28,20,22,315,25,30,21,254,23,27,15,101,24,1*6E
$GPGSV,4,3,13,26,13,044,20,11,10,292,19,03,07,173,17,08,07,132,22,1*6D
$GPGSV,4,4,13,06,03,257,,1*53
$GLGSV,2,1,07,78,67,046,16,69,64,321,26,68,60,139,29,79,55,212,28,1*73
$GLGSV,2,2,07,67,11,140,21,86,09,003,,80,03,217,18,1*4A
$GAGSV,3,1,09,09,84,100,28,31,59,128,26,06,58,115,25,05,39,298,25,7*75
$GAGSV,3,2,09,04,32,116,21,24,25,187,19,34,13,286,15,15,09,335,15,7*7D
$GAGSV,3,3,09,36,01,239,09,7*4F
$GBGSV,4,1,13,37,65,212,36,20,60,291,35,23,56,063,36,32,51,166,34,1*7B
$GBGSV,4,2,13,19,15,316,26,38,13,333,25,46,11,227,,25,06,053,22,1*71
$GBGSV,4,3,13,08,06,342,21,12,03,020,19,34,02,045,,41,02,146,15,1*75
$GBGSV,4,4,13,04,01,262,,1*47
$GNRMC,191210.000,A,4910.425354,N,12304.401150,W,0.02,0.00,051224,,,D,V*1D
$GNVTG,0.00,T,,M,0.02,N,0.04,K,D*20
$GNGGA,191211.000,4910.425378,N,12304.401048,W,2,30,0.50,12.309,M,-16.817,M,,*7D
$GNGLL,4910.425378,N,12304.401048,W,191211.000,A,D*55
$GNGSA,A,3,09,07,04,16,20,30,27,26,11,03,08,,0.78,0.50,0.59,1*01
$GNGSA,A,3,69,68,79,67,,,,,,,,,0.78,0.50,0.59,2*0A
$GNGSA,A,3,09,31,06,05,04,24,34,15,,,,,0.78,0.50,0.59,3*0C
$GNGSA,A,3,37,20,23,32,19,38,25,,,,,,0.78,0.50,0.59,4*00
$GPGSV,4,1,13,09,87,147,34,07,58,258,31,04,56,117,29,16,40,060,27,1*6C
$GPGSV,4,2,13,46,33,188,28,20,22,315,26,30,21,254,24,27,15,101,24,1*6A
$GPGSV,4,3,13,26,13,044,20,11,10,292,19,03,07,173,17,08,07,132,22,1*6D
$GPGSV,4,4,13,06,03,257,,1*53
$GLGSV,2,1,07,78,67,046,16,69,64,321,26,68,60,139,29,79,55,212,28,1*73
$GLGSV,2,2,07,67,11,140,21,86,09,003,,80,03,217,18,1*4A
$GAGSV,3,1,09,09,84,100,28,31,59,128,26,06,58,115,25,05,39,298,25,7*75
$GAGSV,3,2,09,04,32,116,21,24,25,187,19,34,13,286,15,15,09,335,15,7*7D
$GAGSV,3,3,09,36,01,239,09,7*4F
$GBGSV,4,1,13,37,65,212,36,20,60,291,35,23,56,063,36,32,51,166,34,1*7B
$GBGSV,4,2,13,19,15,316,26,38,13,333,25,46,11,227,,25,06,053,22,1*71
$GBGSV,4,3,13,08,06,342,21,12,03,020,19,34,02,045,,41,02,146,14,1*74
$GBGSV,4,4,13,04,01,262,,1*47
$GNRMC,191211.000,A,4910.425378,N,12304.401048,W,0.02,0.00,051224,,,D,V*1A
$GNVTG,0.00,T,,M,0.02,N,0.04,K,D*20
$GNGGA,191212.000,4910.425402,N,12304.400916,W,2,30,0.50,12.420,M,-16.816,M,,*7A
$GNGLL,4910.425402,N,12304.400916,W,191212.000,A,D*5F
$GNGSA,A,3,09,07,04,16,20,30,27,26,11,03,08,,0.78,0.50,0.59,1*01
$GNGSA,A,3,69,68,79,67,,,,,,,,,0.78,0.50,0.59,2*0A
$GNGSA,A,3,09,31,06,05,04,24,34,15,,,,,0.78,0.50,0.59,3*0C
$GNGSA,A,3,37,20,23,32,19,38,25,,,,,,0.78,0.50,0.59,4*00
$GPGSV,4,1,13,09,87,147,34,07,58,258,32,04,56,117,29,16,40,060,27,1*6F
$GPGSV,4,2,13,46,33,188,28,20,22,315,26,30,21,254,25,27,15,101,25,1*6A
$GPGSV,4,3,13,26,13,044,20,11,10,292,19,03,07,173,18,08,07,132,22,1*62
$GPGSV,4,4,13,06,03,257,,1*53
$GLGSV,2,1,07,78,67,046,16,69,64,321,27,68,60,139,29,79,55,212,28,1*72
$GLGSV,2,2,07,67,11,140,21,86,09,003,,80,03,217,19,1*4B
$GAGSV,3,1,09,09,84,100,28,31,59,128,26,06,58,115,25,05,39,298,25,7*75
$GAGSV,3,2,09,04,32,116,21,24,25,187,19,34,13,286,15,15,09,335,15,7*7D
$GAGSV,3,3,09,36,01,239,09,7*4F
$GBGSV,4,1,13,37,65,212,36,20,60,291,35,23,56,063,36,32,51,166,34,1*7B
$GBGSV,4,2,13,19,15,316,27,38,13,333,25,46,11,227,,25,06,053,22,1*70
$GBGSV,4,3,13,08,06,342,21,12,03,020,19,34,02,045,,41,02,146,13,1*73
$GBGSV,4,4,13,04,01,262,,1*47
$GNRMC,191212.000,A,4910.425402,N,12304.400916,W,0.03,0.00,051224,,,D,V*11
$GNVTG,0.00,T,,M,0.03,N,0.05,K,D*20
$GNGGA,191213.000,4910.425438,N,12304.400850,W,2,30,0.50,12.584,M,-16.816,M,,*7E
$GNGLL,4910.425438,N,12304.400850,W,191213.000,A,D*54
$GNGSA,A,3,09,07,04,16,20,30,27,26,11,03,08,,0.78,0.50,0.59,1*01
$GNGSA,A,3,69,68,79,67,,,,,,,,,0.78,0.50,0.59,2*0A
$GNGSA,A,3,09,31,06,05,04,24,34,15,,,,,0.78,0.50,0.59,3*0C
$GNGSA,A,3,37,20,23,32,19,38,25,,,,,,0.78,0.50,0.59,4*00
$GPGSV,4,1,13,09,87,147,34,07,58,258,32,04,56,117,29,16,40,060,27,1*6F
$GPGSV,4,2,13,46,33,188,28,20,22,315,26,30,21,254,25,27,15,101,25,1*6A
$GPGSV,4,3,13,26,13,044,21,11,10,292,19,03,07,173,18,08,07,132,22,1*63
$GPGSV,4,4,13,06,03,257,,1*53
$GLGSV,2,1,07,78,67,046,16,69,64,321,27,68,60,139,29,79,55,212,28,1*72
$GLGSV,2,2,07,67,11,140,21,86,09,003,,80,03,217,19,1*4B
$GAGSV,3,1,09,09,84,100,28,31,59,128,26,06,58,115,25,05,39,298,25,7*75
$GAGSV,3,2,09,04,32,116,22,24,25,187,19,34,13,286,15,15,09,335,15,7*7E
$GAGSV,3,3,09,36,01,239,09,7*4F
$GBGSV,4,1,13,37,65,212,36,20,60,291,36,23,56,063,36,32,51,166,35,1*79
$GBGSV,4,2,13,19,15,316,27,38,13,333,25,46,11,227,,25,06,053,22,1*70
$GBGSV,4,3,13,08,06,342,21,12,03,020,19,34,02,045,,41,02,146,15,1*75
$GBGSV,4,4,13,04,01,262,,1*47
$GNRMC,191213.000,A,4910.425438,N,12304.400850,W,0.03,0.00,051224,,,D,V*1A
$GNVTG,0.00,T,,M,0.03,N,0.05,K,D*20
$GNGGA,191214.000,4910.425366,N,12304.400790,W,2,30,0.50,12.595,M,-16.816,M,,*76
$GNGLL,4910.425366,N,12304.400790,W,191214.000,A,D*5C
$GNGSA,A,3,09,07,04,16,20,30,27,26,11,03,08,,0.78,0.50,0.59,1*01
$GNGSA,A,3,69,68,79,67,,,,,,,,,0.78,0.50,0.59,2*0A
$GNGSA,A,3,09,31,06,05,04,24,34,15,,,,,0.78,0.50,0.59,3*0C
$GNGSA,A,3,37,20,23,32,19,38,25,,,,,,0.78,0.50,0.59,4*00
$GPGSV,4,1,13,09,87,147,34,07,58,258,32,04,56,117,29,16,40,060,27,1*6F
$GPGSV,4,2,13,46,33,188,29,20,22,315,28,30,21,254,25,27,15,101,25,1*65
$GPGSV,4,3,13,26,13,044,22,11,10,292,20,03,07,173,18,08,07,132,23,1*6B
$GPGSV,4,4,13,06,03,257,,1*53
$GLGSV,2,1,07,78,67,046,16,69,64,321,27,68,60,139,29,79,55,212,28,1*72
$GLGSV,2,2,07,67,11,140,22,86,09,003,,80,03,217,19,1*48
$GAGSV,3,1,09,09,84,100,29,31,59,128,27,06,58,115,26,05,39,298,26,7*75
$GAGSV,3,2,09,04,32,116,22,24,25,187,20,34,13,286,16,15,09,335,15,7*77
$GAGSV,3,3,09,36,01,239,09,7*4F
$GBGSV,4,1,13,37,65,212,37,20,60,291,36,23,56,063,36,32,51,166,35,1*78
$GBGSV,4,2,13,19,15,316,27,38,13,333,25,46,11,227,,25,06,053,23,1*71
$GBGSV,4,3,13,08,06,342,21,12,03,020,19,34,02,045,,41,02,146,14,1*74
$GBGSV,4,4,13,04,01,262,,1*47
$GNRMC,191214.000,A,4910.425366,N,12304.400790,W,0.03,0.00,051224,,,D,V*12
$GNVTG,0.00,T,,M,0.03,N,0.05,K,D*20
$GNGGA,191215.000,4910.425366,N,12304.400736,W,2,30,0.50,12.677,M,-16.816,M,,*74
$GNGLL,4910.425366,N,12304.400736,W,191215.000,A,D*51
$GNGSA,A,3,09,07,04,16,20,30,27,26,11,03,08,,0.78,0.50,0.59,1*01
$GNGSA,A,3,69,68,79,67,,,,,,,,,0.78,0.50,0.59,2*0A
$GNGSA,A,3,09,31,06,05,04,24,34,15,,,,,0.78,0.50,0.59,3*0C
$GNGSA,A,3,37,20,23,32,19,38,25,,,,,,0.78,0.50,0.59,4*00
$GPGSV,4,1,13,09,87,147,34,07,58,258,32,04,56,117,30,16,40,060,28,1*68
$GPGSV,4,2,13,46,33,188,29,20,22,315,27,30,21,254,26,27,15,101,26,1*6A
$GPGSV,4,3,13,26,13,044,23,11,10,292,20,03,07,173,19,08,07,132,23,1*6B
$GPGSV,4,4,13,06,03,257,,1*53
$GLGSV,2,1,07,78,67,046,16,69,64,321,27,68,60,139,29,79,55,212,28,1*72
$GLGSV,2,2,07,67,11,140,22,86,09,003,,80,03,217,20,1*42
$GAGSV,3,1,09,09,84,100,29,31,59,128,27,06,58,115,26,05,39,298,26,7*75
$GAGSV,3,2,09,04,32,116,23,24,25,187,20,34,13,286,16,15,09,335,15,7*76
$GAGSV,3,3,09,36,01,239,09,7*4F
$GBGSV,3,1,12,37,65,212,37,20,60,291,36,23,56,063,36,32,51,166,35,1*7E
$GBGSV,3,2,12,19,15,316,27,38,13,333,25,25,06,053,23,08,06,342,21,1*7A
$GBGSV,3,3,12,12,03,020,19,34,02,045,,41,02,146,14,04,01,262,,1*79
$GNRMC,191215.000,A,4910.425366,N,12304.400736,W,0.03,0.00,051224,,,D,V*1F
$GNVTG,0.00,T,,M,0.03,N,0.05,K,D*20
$GNGGA,191216.000,4910.425378,N,12304.400688,W,2,30,0.50,12.805,M,-16.816,M,,*77
$GNGLL,4910.425378,N,12304.400688,W,191216.000,A,D*59
$GNGSA,A,3,09,07,04,16,20,30,27,26,11,03,08,,0.78,0.50,0.59,1*01
$GNGSA,A,3,69,68,79,67,,,,,,,,,0.78,0.50,0.59,2*0A
$GNGSA,A,3,09,31,06,05,04,24,34,15,,,,,0.78,0.50,0.59,3*0C
$GNGSA,A,3,37,20,23,32,19,38,25,,,,,,0.78,0.50,0.59,4*00
$GPGSV,4,1,13,09,87,147,34,07,58,258,33,04,56,117,30,16,40,060,28,1*69
$GPGSV,4,2,13,46,33,188,28,20,22,315,27,30,21,254,25,27,15,101,27,1*69
$GPGSV,4,3,13,26,13,044,21,11,10,292,20,03,07,173,19,08,07,132,24,1*6E
$GPGSV,4,4,13,06,03,257,,1*53
$GLGSV,2,1,07,78,67,046,16,69,64,321,27,68,60,139,29,79,55,212,28,1*72
$GLGSV,2,2,07,67,11,140,22,86,09,003,,80,03,217,20,1*42
$GAGSV,3,1,09,09,84,100,29,31,59,128,27,06,58,115,26,05,39,298,26,7*75
$GAGSV,3,2,09,04,32,116,23,24,25,187,21,34,13,286,16,15,09,335,15,7*77
$GAGSV,3,3,09,36,01,239,10,7*47
$GBGSV,4,1,13,37,65,212,37,20,60,291,36,23,56,063,36,32,51,166,35,1*78
$GBGSV,4,2,13,19,15,316,27,38,13,333,25,46,12,227,,25,06,053,23,1*72
$GBGSV,4,3,13,08,06,342,21,12,03,020,19,34,02,045,,41,02,146,12,1*72
$GBGSV,4,4,13,04,01,262,,1*47
$GNRMC,191216.000,A,4910.425378,N,12304.400688,W,0.02,0.00,051224,,,D,V*16
$GNVTG,0.00,T,,M,0.02,N,0.04,K,D*20
$GNGGA,191217.000,4910.425354,N,12304.400562,W,2,30,0.50,12.888,M,-16.816,M,,*7A
$GNGLL,4910.425354,N,12304.400562,W,191217.000,A,D*51
$GNGSA,A,3,09,07,04,16,20,30,27,26,11,03,08,,0.78,0.50,0.59,1*01
$GNGSA,A,3,69,68,79,67,,,,,,,,,0.78,0.50,0.59,2*0A
$GNGSA,A,3,09,31,06,05,04,24,34,15,,,,,0.78,0.50,0.59,3*0C
$GNGSA,A,3,37,20,23,32,19,38,25,,,,,,0.78,0.50,0.59,4*00
$GPGSV,4,1,13,09,87,147,35,07,58,258,33,04,56,117,31,16,40,060,28,1*69
$GPGSV,4,2,13,46,33,188,28,20,22,315,27,30,21,254,26,27,15,101,27,1*6A
$GPGSV,4,3,13,26,13,044,23,11,10,292,21,03,07,173,19,08,07,132,25,1*6C
$GPGSV,4,4,13,06,03,257,,1*53
$GLGSV,2,1,07,78,67,046,16,69,64,321,27,68,60,139,29,79,55,212,28,1*72
$GLGSV,2,2,07,67,11,140,22,86,09,003,,80,03,217,20,1*42
$GAGSV,3,1,09,09,84,100,30,31,59,128,27,06,58,115,26,05,39,298,26,7*7D
$GAGSV,3,2,09,04,32,116,23,24,25,187,21,34,13,286,16,15,09,335,15,7*77
$GAGSV,3,3,09,36,01,239,10,7*47
$GBGSV,3,1,12,37,65,212,37,20,60,291,36,23,56,063,36,32,51,166,35,1*7E
$GBGSV,3,2,12,19,15,316,27,38,13,333,25,46,12,227,,25,06,053,23,1*74
$GBGSV,3,3,12,08,06,342,22,12,03,020,20,41,02,146,15,04,01,262,,1*7D
$GNRMC,191217.000,A,4910.425354,N,12304.400562,W,0.02,0.00,051224,,,D,V*1E
$GNVTG,0.00,T,,M,0.02,N,0.04,K,D*20
$GNGGA,191218.000,4910.425372,N,12304.400370,W,2,30,0.50,13.056,M,-16.817,M,,*7F
