$GNGGA,191208.000,4910.425750,N,12304.404384,W,2,30,0.51,17.632,M,-16.816,M,,*75
$GNGLL,4910.425750,N,12304.404384,W,191208.000,A,D*55
$GNGSA,A,3,09,07,04,16,20,30,27,26,11,03,08,,0.77,0.51,0.58,1*0E
$GNGSA,A,3,78,69,68,79,67,86,,,,,,,0.77,0.51,0.58,2*04
$GNGSA,A,3,09,31,06,05,04,34,,,,,,,0.77,0.51,0.58,3*01
$GNGSA,A,3,37,20,23,32,19,38,25,,,,,,0.77,0.51,0.58,4*0F
$GPGSV,3,1,12,09,87,147,36,07,58,258,32,04,56,117,30,16,41,060,29,1*6C
$GPGSV,3,2,12,44,33,171,29,20,22,315,28,30,21,254,26,27,15,101,29,1*68
$GPGSV,3,3,12,26,13,044,25,11,10,292,22,03,08,173,19,08,07,132,24,1*61
$GLGSV,2,1,07,78,67,046,28,69,64,321,40,68,60,139,33,79,55,212,38,1*74
$GLGSV,2,2,07,67,11,140,25,86,09,003,27,80,03,217,26,1*46
$GAGSV,3,1,09,09,84,100,32,31,59,128,28,06,58,115,28,05,39,298,29,7*71
$GAGSV,3,2,09,04,32,116,25,24,25,187,22,34,13,286,12,15,09,335,16,7*75
$GAGSV,3,3,09,36,01,239,10,7*47
$GBGSV,4,1,14,37,65,212,33,20,60,291,33,23,56,063,32,32,51,166,31,1*7E
$GBGSV,4,2,14,58,49,236,,19,15,316,25,38,13,333,22,46,11,227,,1*72
$GBGSV,4,3,14,31,08,339,,08,06,342,18,25,06,053,18,12,03,020,18,1*70
$GBGSV,4,4,14,34,02,046,,41,02,146,,1*70
$GNRMC,191208.000,A,4910.425750,N,12304.404384,W,0.02,62.54,051224,,,D,V*2F
$GNVTG,62.54,T,,M,0.02,N,0.04,K,D*15
$PAIRLOG,Full*51
$GNGGA,191209.000,4910.425726,N,12304.404222,W,2,30,0.51,17.345,M,-16.816,M,,*7D
$GNGLL,4910.425726,N,12304.404222,W,191209.000,A,D*58
$GNGSA,A,3,09,07,04,16,20,30,27,26,11,03,08,,0.77,0.51,0.58,1*0E
$GNGSA,A,3,78,69,68,79,67,86,,,,,,,0.77,0.51,0.58,2*04
$GNGSA,A,3,09,31,06,05,04,34,,,,,,,0.77,0.51,0.58,3*01
$GNGSA,A,3,37,20,23,32,19,38,25,,,,,,0.77,0.51,0.58,4*0F
$GPGSV,3,1,12,09,87,147,36,07,58,258,32,04,56,117,30,16,41,060,29,1*6C
$GPGSV,3,2,12,44,33,171,29,20,22,315,28,30,21,254,26,27,15,101,28,1*69
$GPGSV,3,3,12,26,13,044,25,11,10,292,22,03,08,173,20,08,07,132,24,1*6B
$GLGSV,2,1,07,78,67,046,28,69,64,321,40,68,60,139,33,79,55,212,38,1*74
$GLGSV,2,2,07,67,11,140,25,86,09,003,27,80,03,217,26,1*46
$GAGSV,3,1,09,09,84,100,32,31,59,128,28,06,58,115,28,05,39,298,29,7*71
$GAGSV,3,2,09,04,32,116,25,24,25,187,22,34,13,286,12,15,09,335,16,7*75
$GAGSV,3,3,09,36,01,239,10,7*47
$GBGSV,4,1,14,37,65,212,33,20,60,291,32,23,56,063,32,32,51,166,31,1*7F
$GBGSV,4,2,14,58,49,236,,19,15,316,24,38,13,333,22,46,12,227,,1*70
$GBGSV,4,3,14,31,08,339,,08,06,342,18,25,06,053,18,12,03,020,18,1*70
$GBGSV,4,4,14,34,02,046,,41,02,146,,1*70
$GNRMC,191209.000,A,4910.425726,N,12304.404222,W,0.02,62.54,051224,,,D,V*22
$GNVTG,62.54,T,,M,0.02,N,0.03,K,D*12
$PAIRLOG,Full*51
$GNGGA,191210.000,4910.425714,N,12304.404186,W,2,29,0.52,17.168,M,-16.816,M,,*7F
$GNGLL,4910.425714,N,12304.404186,W,191210.000,A,D*5C
$GNGSA,A,3,09,07,04,16,20,30,27,26,11,03,08,,0.80,0.52,0.60,1*0E
$GNGSA,A,3,78,69,68,79,67,86,,,,,,,0.80,0.52,0.60,2*04
$GNGSA,A,3,09,31,06,05,04,,,,,,,,0.80,0.52,0.60,3*06
$GNGSA,A,3,37,20,23,32,19,38,25,,,,,,0.80,0.52,0.60,4*0F
$GPGSV,4,1,13,09,87,147,36,07,58,258,32,04,56,117,30,16,41,060,29,1*6A
$GPGSV,4,2,13,44,33,171,29,20,22,315,28,30,21,254,26,27,15,101,27,1*60
$GPGSV,4,3,13,26,13,044,25,11,10,292,22,03,08,173,19,08,07,132,24,1*67
$GPGSV,4,4,13,06,03,257,,1*53
$GLGSV,2,1,07,78,67,046,28,69,64,321,40,68,60,139,33,79,55,212,38,1*74
$GLGSV,2,2,07,67,11,140,25,86,09,003,27,80,03,217,27,1*47
$GAGSV,3,1,09,09,84,100,32,31,59,128,28,06,58,115,28,05,39,298,29,7*71
$GAGSV,3,2,09,04,32,116,25,24,25,187,22,34,13,286,,15,09,335,16,7*76
$GAGSV,3,3,09,36,01,239,10,7*47
$GBGSV,4,1,13,37,65,212,33,20,60,291,32,23,56,063,32,32,51,166,31,1*78
$GBGSV,4,2,13,58,49,236,,19,15,316,24,38,13,333,22,46,12,227,,1*77
$GBGSV,4,3,13,31,08,339,,08,06,342,18,25,06,053,18,12,03,020,18,1*77
$GBGSV,4,4,13,34,02,046,,1*43
$GNRMC,191210.000,A,4910.425714,N,12304.404186,W,0.02,62.54,051224,,,D,V*26
$GNVTG,62.54,T,,M,0.02,N,0.03,K,D*12
$PAIRLOG,Full*51
$GNGGA,191211.000,4910.425810,N,12304.404084,W,2,29,0.52,16.927,M,-16.816,M,,*74
$GNGLL,4910.425810,N,12304.404084,W,191211.000,A,D*55
$GNGSA,A,3,09,07,04,16,20,30,27,26,11,03,08,,0.80,0.52,0.60,1*0E
$GNGSA,A,3,78,69,68,79,67,86,,,,,,,0.80,0.52,0.60,2*04
$GNGSA,A,3,09,31,06,05,04,,,,,,,,0.80,0.52,0.60,3*06
$GNGSA,A,3,37,20,23,32,19,38,25,,,,,,0.80,0.52,0.60,4*0F
$GPGSV,4,1,13,09,87,147,36,07,58,258,32,04,56,117,30,16,41,060,29,1*6A
$GPGSV,4,2,13,44,33,171,29,20,22,315,28,30,21,254,26,27,15,101,28,1*6F
$GPGSV,4,3,13,26,13,044,25,11,10,292,22,03,08,173,18,08,07,132,24,1*66
$GPGSV,4,4,13,06,03,257,,1*53
$GLGSV,2,1,07,78,67,046,28,69,64,321,40,68,60,139,33,79,55,212,38,1*74
$GLGSV,2,2,07,67,11,140,25,86,09,003,26,80,03,217,27,1*46
$GAGSV,3,1,09,09,84,100,32,31,59,128,28,06,58,115,28,05,39,298,29,7*71
$GAGSV,3,2,09,04,32,116,25,24,25,187,22,34,13,286,,15,09,335,16,7*76
$GAGSV,3,3,09,36,01,239,10,7*47
$GBGSV,4,1,13,37,65,212,33,20,60,291,33,23,56,063,32,32,51,166,31,1*79
$GBGSV,4,2,13,58,49,236,,19,15,316,24,38,13,333,21,46,12,227,,1*74
$GBGSV,4,3,13,31,08,339,,08,06,342,18,25,06,053,18,12,03,020,18,1*77
$GBGSV,4,4,13,34,02,046,,1*43
$GNRMC,191211.000,A,4910.425810,N,12304.404084,W,0.02,62.54,051224,,,D,V*2F
$GNVTG,62.54,T,,M,0.02,N,0.04,K,D*15
$PAIRLOG,Full*51
$GNGGA,191212.000,4910.425870,N,12304.403958,W,2,29,0.52,16.799,M,-16.816,M,,*75
$GNGLL,4910.425870,N,12304.403958,W,191212.000,A,D*5F
$GNGSA,A,3,09,07,04,16,20,30,27,26,11,03,08,,0.80,0.52,0.60,1*0E
$GNGSA,A,3,78,69,68,79,67,86,,,,,,,0.80,0.52,0.60,2*04
$GNGSA,A,3,09,31,06,05,04,,,,,,,,0.80,0.52,0.60,3*06
$GNGSA,A,3,37,20,23,32,19,38,25,,,,,,0.80,0.52,0.60,4*0F
$GPGSV,4,1,13,09,87,147,36,07,58,258,32,04,56,117,30,16,41,060,29,1*6A
$GPGSV,4,2,13,44,33,171,29,20,22,315,28,30,21,254,27,27,15,101,28,1*6E
$GPGSV,4,3,13,26,13,044,25,11,10,292,23,03,08,173,17,08,07,132,24,1*68
$GPGSV,4,4,13,06,03,257,,1*53
$GLGSV,2,1,07,78,67,046,28,69,64,321,40,68,60,139,33,79,55,212,38,1*74
$GLGSV,2,2,07,67,11,140,25,86,09,003,26,80,03,217,28,1*49
$GAGSV,3,1,09,09,84,100,32,31,59,128,28,06,58,115,28,05,39,298,29,7*71
$GAGSV,3,2,09,04,32,116,25,24,25,187,22,34,13,286,,15,09,335,16,7*76
$GAGSV,3,3,09,36,01,239,10,7*47
$GBGSV,4,1,13,37,65,212,33,20,60,291,33,23,56,063,32,32,51,166,31,1*79
$GBGSV,4,2,13,58,49,236,,19,15,316,23,38,13,333,21,46,12,227,,1*73
$GBGSV,4,3,13,31,08,339,,08,06,342,18,25,06,053,18,12,03,020,17,1*78
$GBGSV,4,4,13,34,02,046,,1*43
$GNRMC,191212.000,A,4910.425870,N,12304.403958,W,0.03,62.54,051224,,,D,V*24
$GNVTG,62.54,T,,M,0.03,N,0.05,K,D*15
$PAIRLOG,Full*51
$GNGGA,191213.000,4910.425870,N,12304.403904,W,2,29,0.52,16.606,M,-16.817,M,,*7B
$GNGLL,4910.425870,N,12304.403904,W,191213.000,A,D*57
$GNGSA,A,3,09,07,04,16,20,30,27,26,11,03,08,,0.80,0.52,0.60,1*0E
$GNGSA,A,3,78,69,68,79,67,86,,,,,,,0.80,0.52,0.60,2*04
$GNGSA,A,3,09,31,06,05,04,,,,,,,,0.80,0.52,0.60,3*06
$GNGSA,A,3,37,20,23,32,19,38,25,,,,,,0.80,0.52,0.60,4*0F
$GPGSV,4,1,13,09,87,147,36,07,58,258,32,04,56,117,30,16,41,060,29,1*6A
$GPGSV,4,2,13,44,33,171,29,20,22,315,28,30,21,254,27,27,15,101,29,1*6F
$GPGSV,4,3,13,26,13,044,25,11,10,292,23,03,08,173,19,08,07,132,24,1*66
$GPGSV,4,4,13,06,03,257,,1*53
$GLGSV,2,1,07,78,67,046,28,69,64,321,40,68,60,139,34,79,55,212,38,1*73
$GLGSV,2,2,07,67,11,140,25,86,09,003,26,80,03,217,28,1*49
$GAGSV,3,1,09,09,84,100,31,31,59,128,28,06,58,115,28,05,39,298,29,7*72
$GAGSV,3,2,09,04,32,116,25,24,25,187,22,34,13,286,,15,09,335,17,7*77
$GAGSV,3,3,09,36,01,239,10,7*47
$GBGSV,4,1,13,37,65,212,33,20,60,291,33,23,56,063,32,32,51,166,31,1*79
$GBGSV,4,2,13,58,49,236,,19,15,316,23,38,13,333,21,46,12,227,,1*73
$GBGSV,4,3,13,31,08,339,,08,06,342,18,25,06,053,18,12,03,020,17,1*78
$GBGSV,4,4,13,34,02,046,,1*43
$GNRMC,191213.000,A,4910.425870,N,12304.403904,W,0.03,62.54,051224,,,D,V*2C
$GNVTG,62.54,T,,M,0.03,N,0.05,K,D*15
$PAIRLOG,Full*51
$GNGGA,191214.000,4910.425912,N,12304.403832,W,2,30,0.51,16.399,M,-16.816,M,,*74
$GNGLL,4910.425912,N,12304.403832,W,191214.000,A,D*51
$GNGSA,A,3,09,07,04,16,20,30,27,26,11,03,08,,0.77,0.51,0.58,1*0E
$GNGSA,A,3,78,69,68,79,67,86,,,,,,,0.77,0.51,0.58,2*04
$GNGSA,A,3,09,31,06,05,04,34,,,,,,,0.77,0.51,0.58,3*01
$GNGSA,A,3,37,20,23,32,19,38,25,,,,,,0.77,0.51,0.58,4*0F
$GPGSV,4,1,13,09,87,147,36,07,58,258,32,04,56,117,29,16,41,060,29,1*62
$GPGSV,4,2,13,44,33,171,29,20,22,315,28,30,21,254,27,27,15,101,28,1*6E
$GPGSV,4,3,13,26,13,044,25,11,10,292,23,03,08,173,19,08,07,132,24,1*66
$GPGSV,4,4,13,06,03,257,,1*53
$GLGSV,2,1,07,78,67,046,28,69,64,321,40,68,60,139,34,79,55,212,38,1*73
$GLGSV,2,2,07,67,11,140,25,86,09,003,26,80,03,217,28,1*49
$GAGSV,3,1,09,09,84,100,30,31,59,128,28,06,58,115,27,05,39,298,29,7*7C
$GAGSV,3,2,09,04,32,116,25,24,25,187,21,34,13,286,14,15,09,335,16,7*70
$GAGSV,3,3,09,36,01,239,10,7*47
$GBGSV,4,1,13,37,65,212,32,20,60,291,33,23,56,063,32,32,51,166,31,1*78
$GBGSV,4,2,13,58,49,236,,19,15,316,23,38,13,333,21,46,12,227,,1*73
$GBGSV,4,3,13,31,08,339,,08,06,342,18,25,06,053,18,12,03,020,17,1*78
$GBGSV,4,4,13,34,02,046,,1*43
$GNRMC,191214.000,A,4910.425912,N,12304.403832,W,0.02,62.54,051224,,,D,V*2B
$GNVTG,62.54,T,,M,0.02,N,0.04,K,D*15
$PAIRLOG,Full*51
$GNGGA,191215.000,4910.425882,N,12304.403550,W,2,30,0.51,15.840,M,-16.816,M,,*78
$GNGLL,4910.425882,N,12304.403550,W,191215.000,A,D*51
$GNGSA,A,3,09,07,04,16,20,30,27,26,11,03,08,,0.77,0.51,0.58,1*0E
$GNGSA,A,3,78,69,68,79,67,86,,,,,,,0.77,0.51,0.58,2*04
$GNGSA,A,3,09,31,06,05,04,34,,,,,,,0.77,0.51,0.58,3*01
$GNGSA,A,3,37,20,23,32,19,38,25,,,,,,0.77,0.51,0.58,4*0F
$GPGSV,4,1,13,09,87,147,36,07,58,258,31,04,56,117,29,16,41,060,29,1*61
$GPGSV,4,2,13,44,33,171,29,20,22,315,28,30,21,254,26,27,15,101,27,1*60
$GPGSV,4,3,13,26,13,044,24,11,10,292,22,03,08,173,17,08,07,132,23,1*6F
$GPGSV,4,4,13,06,03,257,,1*53
$GLGSV,2,1,07,78,67,046,29,69,64,321,40,68,60,139,34,79,55,212,38,1*72
$GLGSV,2,2,07,67,11,140,25,86,09,003,26,80,03,217,28,1*49
$GAGSV,3,1,09,09,84,100,30,31,59,128,27,06,58,115,26,05,39,298,28,7*73
$GAGSV,3,2,09,04,32,116,25,24,25,187,21,34,13,286,13,15,09,335,16,7*77
$GAGSV,3,3,09,36,01,239,10,7*47
$GBGSV,4,1,13,37,65,212,32,20,60,291,33,23,56,063,32,32,51,166,31,1*78
$GBGSV,4,2,13,19,15,316,23,38,13,333,21,46,12,227,,31,08,339,,1*77
$GBGSV,4,3,13,08,06,342,18,25,06,053,18,12,03,020,17,34,02,046,,1*7C
$GBGSV,4,4,13,41,02,146,,1*40
$GNRMC,191215.000,A,4910.425882,N,12304.403550,W,0.02,62.54,051224,,,D,V*2B
$GNVTG,62.54,T,,M,0.02,N,0.04,K,D*15
$PAIRLOG,Full*51
$GNGGA,191216.000,4910.425900,N,12304.403472,W,2,30,0.51,15.670,M,-16.816,M,,*7C
$GNGLL,4910.425900,N,12304.403472,W,191216.000,A,D*58
$GNGSA,A,3,09,07,04,16,20,30,27,26,11,03,08,,0.77,0.51,0.58,1*0E
$GNGSA,A,3,78,69,68,79,67,86,,,,,,,0.77,0.51,0.58,2*04
$GNGSA,A,3,09,31,06,05,04,34,,,,,,,0.77,0.51,0.58,3*01
$GNGSA,A,3,37,20,23,32,19,38,25,,,,,,0.77,0.51,0.58,4*0F
$GPGSV,4,1,13,09,87,147,35,07,58,258,31,04,56,117,28,16,41,060,29,1*63
$GPGSV,4,2,13,44,33,171,29,20,22,315,28,30,21,254,25,27,15,101,26,1*62
$GPGSV,4,3,13,26,13,044,23,11,10,292,22,03,08,173,17,08,07,132,22,1*69
$GPGSV,4,4,13,06,03,257,,1*53
$GLGSV,2,1,07,78,67,046,29,69,64,321,40,68,60,139,34,79,55,212,38,1*72
$GLGSV,2,2,07,67,11,140,25,86,09,003,27,80,03,217,28,1*48
$GAGSV,3,1,09,09,84,100,29,31,59,128,27,06,58,115,26,05,39,298,28,7*7B
$GAGSV,3,2,09,04,32,116,24,24,25,187,21,34,13,286,13,15,09,335,15,7*75
$GAGSV,3,3,09,36,01,239,10,7*47
$GBGSV,4,1,13,37,65,212,32,20,60,291,33,23,56,063,32,32,51,166,31,1*78
$GBGSV,4,2,13,58,49,236,,19,15,316,23,38,13,333,22,46,12,227,,1*70
$GBGSV,4,3,13,31,08,339,,08,06,342,18,25,06,053,18,12,03,020,17,1*78
$GBGSV,4,4,13,41,02,146,,1*40
$GNRMC,191216.000,A,4910.425900,N,12304.403472,W,0.02,62.54,051224,,,D,V*22
$GNVTG,62.54,T,,M,0.02,N,0.03,K,D*12
$PAIRLOG,Full*51
$GNGGA,191217.000,4910.425846,N,12304.403244,W,2,30,0.51,15.122,M,-16.816,M,,*7D
$GNGLL,4910.425846,N,12304.403244,W,191217.000,A,D*59
$GNGSA,A,3,09,07,04,16,20,30,27,26,11,03,08,,0.77,0.51,0.58,1*0E
$GNGSA,A,3,78,69,68,79,67,86,,,,,,,0.77,0.51,0.58,2*04
$GNGSA,A,3,09,31,06,05,04,34,,,,,,,0.77,0.51,0.58,3*01
$GNGSA,A,3,37,20,23,32,19,38,25,,,,,,0.77,0.51,0.58,4*0F
$GPGSV,4,1,13,09,87,147,34,07,58,258,31,04,56,117,28,16,41,060,29,1*62
$GPGSV,4,2,13,44,33,171,29,20,22,315,28,30,21,254,25,27,15,101,27,1*63
$GPGSV,4,3,13,26,13,044,24,11,10,292,22,03,08,173,17,08,07,132,22,1*6E
$GPGSV,4,4,13,06,03,257,,1*53
$GLGSV,2,1,07,78,67,046,28,69,64,321,40,68,60,139,34,79,55,212,38,1*73
$GLGSV,2,2,07,67,11,140,25,86,09,003,26,80,03,217,29,1*48
$GAGSV,3,1,09,09,84,100,29,31,59,128,27,06,58,115,25,05,39,298,27,7*77
$GAGSV,3,2,09,04,32,116,24,24,25,187,21,34,13,286,12,15,09,335,15,7*74
$GAGSV,3,3,09,36,01,239,10,7*47
$GBGSV,4,1,13,37,65,212,32,20,60,291,33,23,56,063,32,32,51,166,31,1*78
$GBGSV,4,2,13,58,49,236,,19,15,316,23,38,13,333,21,46,12,227,,1*73
$GBGSV,4,3,13,31,08,339,,08,06,342,18,25,06,053,18,12,03,020,17,1*78
$GBGSV,4,4,13,34,02,046,,1*43
$GNRMC,191217.000,A,4910.425846,N,12304.403244,W,0.02,62.54,051224,,,D,V*23
$GNVTG,62.54,T,,M,0.02,N,0.03,K,D*12
$PAIRLOG,Full*51
$GNGGA,191218.000,4910.425888,N,12304.403238,W,2,30,0.51,14.880,M,-16.816,M,,*7B
