2024-10-29 10:03:27,787 [INFO] Logging setup complete. Logs are being saved to logs/NMEA_20241029_100327787110/console_output_20241029_100327787110.txt
2024-10-29 10:03:46,558 [INFO] Starting log processing for file: C:\PythonProjects\NMEA-Parser-Logger\LG290P RTK Test log 28_10_2024\RTKFloat.txt
2024-10-29 10:03:46,559 [INFO] Processing log file: C:\PythonProjects\NMEA-Parser-Logger\LG290P RTK Test log 28_10_2024\RTKFloat.txt
2024-10-29 10:03:46,561 [INFO] Total lines read from file: 1372
2024-10-29 10:03:46,561 [INFO] Processing sentence: $GNGGA,211803.500,4910.42691357,N,12304.40116480,W,5,10,0.82,9.539,M,-19.737,M,1.5,0569*6C
2024-10-29 10:03:46,561 [INFO] Received Standard NMEA Message: $GNGGA,211803.500,4910.42691357,N,12304.40116480,W,5,10,0.82,9.539,M,-19.737,M,1.5,0569*6C
2024-10-29 10:03:46,562 [INFO] GGA - Fix Data:
  Timestamp: 21:18:03.500000+00:00
  Latitude: 49.17378189283333 N
  Longitude: -123.07335274666667 W
  GPS Quality Indicator: 5
  Number of Satellites in Use: 10
  Horizontal Dilution of Precision (HDOP): 0.82
  Antenna Altitude (Above Mean Sea Level): 9.539 M
  Geoidal Separation: -19.737 M
  Age of Differential GPS Data: 1.5
  Differential Reference Station ID: 0569

2024-10-29 10:03:46,562 [INFO] Processing sentence: $GNRMC,211803.500,A,4910.42691357,N,12304.40116480,W,0.081,066.26,281024,,,F,V*2C
2024-10-29 10:03:46,562 [INFO] Received Standard NMEA Message: $GNRMC,211803.500,A,4910.42691357,N,12304.40116480,W,0.081,066.26,281024,,,F,V*2C
2024-10-29 10:03:46,563 [INFO] RMC - Recommended Minimum:
  Timestamp: 21:18:03.500000+00:00
  Status: A
  Latitude: 49.17378189283333 N
  Longitude: -123.07335274666667 W
  Speed over Ground: 0.081 knots
  Course over Ground: 66.26
  Date: 2024-10-28
  Magnetic Variation:  
  Mode Indicator: F
  Navigational Status: V

2024-10-29 10:03:46,563 [INFO] Processing sentence: $GNGLL,4910.42691357,N,12304.40116480,W,211803.500,A,D*53
2024-10-29 10:03:46,563 [INFO] Received Standard NMEA Message: $GNGLL,4910.42691357,N,12304.40116480,W,211803.500,A,D*53
2024-10-29 10:03:46,563 [INFO] GLL - Geographic Position:
  Latitude: 49.17378189283333 N
  Longitude: -123.07335274666667 W
  Timestamp: 21:18:03.500000+00:00
  Status: A
  FAA Mode: D

2024-10-29 10:03:46,563 [INFO] Processing sentence: $GNVTG,066.26,T,,M,0.081,N,0.150,K,D*2F
2024-10-29 10:03:46,563 [INFO] Received Standard NMEA Message: $GNVTG,066.26,T,,M,0.081,N,0.150,K,D*2F
2024-10-29 10:03:46,563 [INFO] VTG - Course over Ground and Ground Speed:
  True Track: 66.26° T
  Magnetic Track: None° M
  Speed over Ground: 0.081 knots / 0.15 km/h
  FAA Mode: D

2024-10-29 10:03:46,564 [INFO] Processing sentence: $PQTMTXT,1,01,01,01,0x0008ec0705f13dc1*4A
2024-10-29 10:03:46,564 [INFO] Proprietary sentence ignored: $PQTMTXT,1,01,01,01,0x0008ec0705f13dc1*4A
2024-10-29 10:03:46,564 [INFO] Processing sentence: $GNGGA,211804.000,4910.42691176,N,12304.40115654,W,5,10,0.82,9.563,M,-19.737,M,2.0,0569*6E
2024-10-29 10:03:46,564 [INFO] Received Standard NMEA Message: $GNGGA,211804.000,4910.42691176,N,12304.40115654,W,5,10,0.82,9.563,M,-19.737,M,2.0,0569*6E
2024-10-29 10:03:46,564 [INFO] GGA - Fix Data:
  Timestamp: 21:18:04+00:00
  Latitude: 49.173781862666665 N
  Longitude: -123.073352609 W
  GPS Quality Indicator: 5
  Number of Satellites in Use: 10
  Horizontal Dilution of Precision (HDOP): 0.82
  Antenna Altitude (Above Mean Sea Level): 9.563 M
  Geoidal Separation: -19.737 M
  Age of Differential GPS Data: 2.0
  Differential Reference Station ID: 0569

2024-10-29 10:03:46,564 [INFO] Processing sentence: $GNRMC,211804.000,A,4910.42691176,N,12304.40115654,W,0.196,066.26,281024,,,F,V*20
2024-10-29 10:03:46,564 [INFO] Received Standard NMEA Message: $GNRMC,211804.000,A,4910.42691176,N,12304.40115654,W,0.196,066.26,281024,,,F,V*20
2024-10-29 10:03:46,564 [INFO] RMC - Recommended Minimum:
  Timestamp: 21:18:04+00:00
  Status: A
  Latitude: 49.173781862666665 N
  Longitude: -123.073352609 W
  Speed over Ground: 0.196 knots
  Course over Ground: 66.26
  Date: 2024-10-28
  Magnetic Variation:  
  Mode Indicator: F
  Navigational Status: V

2024-10-29 10:03:46,565 [INFO] Processing sentence: $GNGLL,4910.42691176,N,12304.40115654,W,211804.000,A,D*58
2024-10-29 10:03:46,565 [INFO] Received Standard NMEA Message: $GNGLL,4910.42691176,N,12304.40115654,W,211804.000,A,D*58
2024-10-29 10:03:46,565 [INFO] GLL - Geographic Position:
  Latitude: 49.173781862666665 N
  Longitude: -123.073352609 W
  Timestamp: 21:18:04+00:00
  Status: A
  FAA Mode: D

2024-10-29 10:03:46,565 [INFO] Processing sentence: $GNVTG,066.26,T,,M,0.196,N,0.363,K,D*2A
2024-10-29 10:03:46,565 [INFO] Received Standard NMEA Message: $GNVTG,066.26,T,,M,0.196,N,0.363,K,D*2A
2024-10-29 10:03:46,565 [INFO] VTG - Course over Ground and Ground Speed:
  True Track: 66.26° T
  Magnetic Track: None° M
  Speed over Ground: 0.196 knots / 0.363 km/h
  FAA Mode: D

2024-10-29 10:03:46,565 [INFO] Processing sentence: $GNGSA,A,3,03,04,07,09,16,26,,,,,,,1.53,0.82,1.30,1*04
2024-10-29 10:03:46,566 [INFO] Received Standard NMEA Message: $GNGSA,A,3,03,04,07,09,16,26,,,,,,,1.53,0.82,1.30,1*04
2024-10-29 10:03:46,566 [INFO] GSA - Satellite Info:
  Mode: A
  Mode Fix Type: 3
  Satellites Used: 03, 04, 07, 09, 16, 26
  PDOP: 1.53
  HDOP: 0.82
  VDOP: 1.30

2024-10-29 10:03:46,566 [INFO] Processing sentence: $GNGSA,A,3,,,,,,,,,,,,,1.53,0.82,1.30,2*0D
2024-10-29 10:03:46,566 [INFO] Received Standard NMEA Message: $GNGSA,A,3,,,,,,,,,,,,,1.53,0.82,1.30,2*0D
2024-10-29 10:03:46,566 [INFO] GSA - Satellite Info:
  Mode: A
  Mode Fix Type: 3
  Satellites Used: 
  PDOP: 1.53
  HDOP: 0.82
  VDOP: 1.30

2024-10-29 10:03:46,566 [INFO] Processing sentence: $GNGSA,A,3,,,,,,,,,,,,,1.53,0.82,1.30,3*0C
2024-10-29 10:03:46,566 [INFO] Received Standard NMEA Message: $GNGSA,A,3,,,,,,,,,,,,,1.53,0.82,1.30,3*0C
2024-10-29 10:03:46,566 [INFO] GSA - Satellite Info:
  Mode: A
  Mode Fix Type: 3
  Satellites Used: 
  PDOP: 1.53
  HDOP: 0.82
  VDOP: 1.30

2024-10-29 10:03:46,566 [INFO] Processing sentence: $GNGSA,A,3,21,22,36,45,,,,,,,,,1.53,0.82,1.30,4*0C
2024-10-29 10:03:46,566 [INFO] Received Standard NMEA Message: $GNGSA,A,3,21,22,36,45,,,,,,,,,1.53,0.82,1.30,4*0C
2024-10-29 10:03:46,567 [INFO] GSA - Satellite Info:
  Mode: A
  Mode Fix Type: 3
  Satellites Used: 21, 22, 36, 45
  PDOP: 1.53
  HDOP: 0.82
  VDOP: 1.30

2024-10-29 10:03:46,567 [INFO] Processing sentence: $GNGSA,A,3,,,,,,,,,,,,,1.53,0.82,1.30,5*0A
2024-10-29 10:03:46,567 [INFO] Received Standard NMEA Message: $GNGSA,A,3,,,,,,,,,,,,,1.53,0.82,1.30,5*0A
2024-10-29 10:03:46,567 [INFO] GSA - Satellite Info:
  Mode: A
  Mode Fix Type: 3
  Satellites Used: 
  PDOP: 1.53
  HDOP: 0.82
  VDOP: 1.30

2024-10-29 10:03:46,567 [INFO] Processing sentence: $GNGSA,A,3,,,,,,,,,,,,,1.53,0.82,1.30,6*09
2024-10-29 10:03:46,567 [INFO] Received Standard NMEA Message: $GNGSA,A,3,,,,,,,,,,,,,1.53,0.82,1.30,6*09
2024-10-29 10:03:46,567 [INFO] GSA - Satellite Info:
  Mode: A
  Mode Fix Type: 3
  Satellites Used: 
  PDOP: 1.53
  HDOP: 0.82
  VDOP: 1.30

2024-10-29 10:03:46,567 [INFO] Processing sentence: $GPGSV,4,1,13,03,19,174,40,04,67,105,48,06,,,37,07,45,248,48,1*55
2024-10-29 10:03:46,567 [INFO] Received Standard NMEA Message: $GPGSV,4,1,13,03,19,174,40,04,67,105,48,06,,,37,07,45,248,48,1*55
2024-10-29 10:03:46,567 [INFO] GSV - Satellites in View:
  Number of Messages: 4
  Message Number: 1
  Total Satellites in View: 13
  Satellite 1 PRN: 03 - Elevation: 19° - Azimuth: 174° - SNR: 40 dB
  Satellite 2 PRN: 04 - Elevation: 67° - Azimuth: 105° - SNR: 48 dB
  Satellite 3 PRN: 06 - Elevation: ° - Azimuth: ° - SNR: 37 dB
  Satellite 4 PRN: 07 - Elevation: 45° - Azimuth: 248° - SNR: 48 dB

2024-10-29 10:03:46,568 [INFO] Processing sentence: $GPGSV,4,2,13,09,76,302,50,11,,,39,16,46,075,45,20,,,39,1*68
2024-10-29 10:03:46,568 [INFO] Received Standard NMEA Message: $GPGSV,4,2,13,09,76,302,50,11,,,39,16,46,075,45,20,,,39,1*68
2024-10-29 10:03:46,568 [INFO] GSV - Satellites in View:
  Number of Messages: 4
  Message Number: 2
  Total Satellites in View: 13
  Satellite 1 PRN: 09 - Elevation: 76° - Azimuth: 302° - SNR: 50 dB
  Satellite 2 PRN: 11 - Elevation: ° - Azimuth: ° - SNR: 39 dB
  Satellite 3 PRN: 16 - Elevation: 46° - Azimuth: 075° - SNR: 45 dB
  Satellite 4 PRN: 20 - Elevation: ° - Azimuth: ° - SNR: 39 dB

2024-10-29 10:03:46,568 [INFO] Processing sentence: $GPGSV,4,3,13,26,22,047,42,30,,,40,44,,,45,46,,,46,1*56
2024-10-29 10:03:46,568 [INFO] Received Standard NMEA Message: $GPGSV,4,3,13,26,22,047,42,30,,,40,44,,,45,46,,,46,1*56
2024-10-29 10:03:46,568 [INFO] GSV - Satellites in View:
  Number of Messages: 4
  Message Number: 3
  Total Satellites in View: 13
  Satellite 1 PRN: 26 - Elevation: 22° - Azimuth: 047° - SNR: 42 dB
  Satellite 2 PRN: 30 - Elevation: ° - Azimuth: ° - SNR: 40 dB
  Satellite 3 PRN: 44 - Elevation: ° - Azimuth: ° - SNR: 45 dB
  Satellite 4 PRN: 46 - Elevation: ° - Azimuth: ° - SNR: 46 dB

2024-10-29 10:03:46,568 [INFO] Processing sentence: $GPGSV,4,4,13,48,,,45,1*6B
2024-10-29 10:03:46,568 [INFO] Received Standard NMEA Message: $GPGSV,4,4,13,48,,,45,1*6B
2024-10-29 10:03:46,568 [INFO] GSV - Satellites in View:
  Number of Messages: 4
  Message Number: 4
  Total Satellites in View: 13
  Satellite 1 PRN: 48 - Elevation: ° - Azimuth: ° - SNR: 45 dB
  Satellite 2 PRN: 1 - Elevation: ° - Azimuth: ° - SNR:  dB
  Satellite 3 PRN:  - Elevation: ° - Azimuth: ° - SNR:  dB
  Satellite 4 PRN:  - Elevation: ° - Azimuth: ° - SNR:  dB

2024-10-29 10:03:46,569 [INFO] Processing sentence: $GPGSV,2,1,08,03,19,174,31,04,67,105,49,06,,,35,07,45,248,40,6*53
2024-10-29 10:03:46,569 [INFO] Received Standard NMEA Message: $GPGSV,2,1,08,03,19,174,31,04,67,105,49,06,,,35,07,45,248,40,6*53
2024-10-29 10:03:46,569 [INFO] GSV - Satellites in View:
  Number of Messages: 2
  Message Number: 1
  Total Satellites in View: 08
  Satellite 1 PRN: 03 - Elevation: 19° - Azimuth: 174° - SNR: 31 dB
  Satellite 2 PRN: 04 - Elevation: 67° - Azimuth: 105° - SNR: 49 dB
  Satellite 3 PRN: 06 - Elevation: ° - Azimuth: ° - SNR: 35 dB
  Satellite 4 PRN: 07 - Elevation: 45° - Azimuth: 248° - SNR: 40 dB

2024-10-29 10:03:46,569 [INFO] Processing sentence: $GPGSV,2,2,08,09,76,302,45,11,,,38,26,22,047,35,30,,,36,6*6F
2024-10-29 10:03:46,569 [INFO] Received Standard NMEA Message: $GPGSV,2,2,08,09,76,302,45,11,,,38,26,22,047,35,30,,,36,6*6F
2024-10-29 10:03:46,569 [INFO] GSV - Satellites in View:
  Number of Messages: 2
  Message Number: 2
  Total Satellites in View: 08
  Satellite 1 PRN: 09 - Elevation: 76° - Azimuth: 302° - SNR: 45 dB
  Satellite 2 PRN: 11 - Elevation: ° - Azimuth: ° - SNR: 38 dB
  Satellite 3 PRN: 26 - Elevation: 22° - Azimuth: 047° - SNR: 35 dB
  Satellite 4 PRN: 30 - Elevation: ° - Azimuth: ° - SNR: 36 dB

2024-10-29 10:03:46,569 [INFO] Processing sentence: $GPGSV,1,1,00,8*6D
2024-10-29 10:03:46,569 [INFO] Received Standard NMEA Message: $GPGSV,1,1,00,8*6D
2024-10-29 10:03:46,569 [INFO] GSV - Satellites in View:
  Number of Messages: 1
  Message Number: 1
  Total Satellites in View: 00
  Satellite 1 PRN: 8 - Elevation: ° - Azimuth: ° - SNR:  dB
  Satellite 2 PRN:  - Elevation: ° - Azimuth: ° - SNR:  dB
  Satellite 3 PRN:  - Elevation: ° - Azimuth: ° - SNR:  dB
  Satellite 4 PRN:  - Elevation: ° - Azimuth: ° - SNR:  dB

2024-10-29 10:03:46,570 [INFO] Processing sentence: $GLGSV,1,1,00,1*78
2024-10-29 10:03:46,570 [INFO] Received Standard NMEA Message: $GLGSV,1,1,00,1*78
2024-10-29 10:03:46,570 [INFO] GSV - Satellites in View:
  Number of Messages: 1
  Message Number: 1
  Total Satellites in View: 00
  Satellite 1 PRN: 1 - Elevation: ° - Azimuth: ° - SNR:  dB
  Satellite 2 PRN:  - Elevation: ° - Azimuth: ° - SNR:  dB
  Satellite 3 PRN:  - Elevation: ° - Azimuth: ° - SNR:  dB
  Satellite 4 PRN:  - Elevation: ° - Azimuth: ° - SNR:  dB

2024-10-29 10:03:46,570 [INFO] Processing sentence: $GLGSV,1,1,00,3*7A
2024-10-29 10:03:46,570 [INFO] Received Standard NMEA Message: $GLGSV,1,1,00,3*7A
2024-10-29 10:03:46,570 [INFO] GSV - Satellites in View:
  Number of Messages: 1
  Message Number: 1
  Total Satellites in View: 00
  Satellite 1 PRN: 3 - Elevation: ° - Azimuth: ° - SNR:  dB
  Satellite 2 PRN:  - Elevation: ° - Azimuth: ° - SNR:  dB
  Satellite 3 PRN:  - Elevation: ° - Azimuth: ° - SNR:  dB
  Satellite 4 PRN:  - Elevation: ° - Azimuth: ° - SNR:  dB

2024-10-29 10:03:46,570 [INFO] Processing sentence: $GAGSV,1,1,00,7*73
2024-10-29 10:03:46,571 [INFO] Received Standard NMEA Message: $GAGSV,1,1,00,7*73
2024-10-29 10:03:46,571 [INFO] GSV - Satellites in View:
  Number of Messages: 1
  Message Number: 1
  Total Satellites in View: 00
  Satellite 1 PRN: 7 - Elevation: ° - Azimuth: ° - SNR:  dB
  Satellite 2 PRN:  - Elevation: ° - Azimuth: ° - SNR:  dB
  Satellite 3 PRN:  - Elevation: ° - Azimuth: ° - SNR:  dB
  Satellite 4 PRN:  - Elevation: ° - Azimuth: ° - SNR:  dB

2024-10-29 10:03:46,571 [INFO] Processing sentence: $GAGSV,1,1,00,2*76
2024-10-29 10:03:46,571 [INFO] Received Standard NMEA Message: $GAGSV,1,1,00,2*76
2024-10-29 10:03:46,571 [INFO] GSV - Satellites in View:
  Number of Messages: 1
  Message Number: 1
  Total Satellites in View: 00
  Satellite 1 PRN: 2 - Elevation: ° - Azimuth: ° - SNR:  dB
  Satellite 2 PRN:  - Elevation: ° - Azimuth: ° - SNR:  dB
  Satellite 3 PRN:  - Elevation: ° - Azimuth: ° - SNR:  dB
  Satellite 4 PRN:  - Elevation: ° - Azimuth: ° - SNR:  dB

2024-10-29 10:03:46,571 [INFO] Processing sentence: $GAGSV,1,1,00,1*75
2024-10-29 10:03:46,571 [INFO] Received Standard NMEA Message: $GAGSV,1,1,00,1*75
2024-10-29 10:03:46,571 [INFO] GSV - Satellites in View:
  Number of Messages: 1
  Message Number: 1
  Total Satellites in View: 00
  Satellite 1 PRN: 1 - Elevation: ° - Azimuth: ° - SNR:  dB
  Satellite 2 PRN:  - Elevation: ° - Azimuth: ° - SNR:  dB
  Satellite 3 PRN:  - Elevation: ° - Azimuth: ° - SNR:  dB
  Satellite 4 PRN:  - Elevation: ° - Azimuth: ° - SNR:  dB

2024-10-29 10:03:46,571 [INFO] Processing sentence: $GAGSV,1,1,00,5*71
2024-10-29 10:03:46,571 [INFO] Received Standard NMEA Message: $GAGSV,1,1,00,5*71
2024-10-29 10:03:46,571 [INFO] GSV - Satellites in View:
  Number of Messages: 1
  Message Number: 1
  Total Satellites in View: 00
  Satellite 1 PRN: 5 - Elevation: ° - Azimuth: ° - SNR:  dB
  Satellite 2 PRN:  - Elevation: ° - Azimuth: ° - SNR:  dB
  Satellite 3 PRN:  - Elevation: ° - Azimuth: ° - SNR:  dB
  Satellite 4 PRN:  - Elevation: ° - Azimuth: ° - SNR:  dB

2024-10-29 10:03:46,572 [INFO] Processing sentence: $GBGSV,2,1,07,21,74,266,51,22,41,149,48,26,,,43,36,43,058,47,1*4E
2024-10-29 10:03:46,572 [INFO] Received Standard NMEA Message: $GBGSV,2,1,07,21,74,266,51,22,41,149,48,26,,,43,36,43,058,47,1*4E
2024-10-29 10:03:46,572 [INFO] GSV - Satellites in View:
  Number of Messages: 2
  Message Number: 1
  Total Satellites in View: 07
  Satellite 1 PRN: 21 - Elevation: 74° - Azimuth: 266° - SNR: 51 dB
  Satellite 2 PRN: 22 - Elevation: 41° - Azimuth: 149° - SNR: 48 dB
  Satellite 3 PRN: 26 - Elevation: ° - Azimuth: ° - SNR: 43 dB
  Satellite 4 PRN: 36 - Elevation: 43° - Azimuth: 058° - SNR: 47 dB

2024-10-29 10:03:46,572 [INFO] Processing sentence: $GBGSV,2,2,07,38,,,41,42,,,46,45,74,173,51,1*48
2024-10-29 10:03:46,572 [INFO] Received Standard NMEA Message: $GBGSV,2,2,07,38,,,41,42,,,46,45,74,173,51,1*48
2024-10-29 10:03:46,572 [INFO] GSV - Satellites in View:
  Number of Messages: 2
  Message Number: 2
  Total Satellites in View: 07
  Satellite 1 PRN: 38 - Elevation: ° - Azimuth: ° - SNR: 41 dB
  Satellite 2 PRN: 42 - Elevation: ° - Azimuth: ° - SNR: 46 dB
  Satellite 3 PRN: 45 - Elevation: 74° - Azimuth: 173° - SNR: 51 dB
  Satellite 4 PRN: 1 - Elevation: ° - Azimuth: ° - SNR:  dB

2024-10-29 10:03:46,572 [INFO] Processing sentence: $GBGSV,1,1,00,B*05
2024-10-29 10:03:46,572 [INFO] Received Standard NMEA Message: $GBGSV,1,1,00,B*05
2024-10-29 10:03:46,572 [INFO] GSV - Satellites in View:
  Number of Messages: 1
  Message Number: 1
  Total Satellites in View: 00
  Satellite 1 PRN: B - Elevation: ° - Azimuth: ° - SNR:  dB
  Satellite 2 PRN:  - Elevation: ° - Azimuth: ° - SNR:  dB
  Satellite 3 PRN:  - Elevation: ° - Azimuth: ° - SNR:  dB
  Satellite 4 PRN:  - Elevation: ° - Azimuth: ° - SNR:  dB

2024-10-29 10:03:46,572 [INFO] Processing sentence: $GBGSV,2,1,07,21,74,266,50,22,41,149,48,26,,,42,36,43,058,48,8*48
2024-10-29 10:03:46,572 [INFO] Received Standard NMEA Message: $GBGSV,2,1,07,21,74,266,50,22,41,149,48,26,,,42,36,43,058,48,8*48
2024-10-29 10:03:46,572 [INFO] GSV - Satellites in View:
  Number of Messages: 2
  Message Number: 1
  Total Satellites in View: 07
  Satellite 1 PRN: 21 - Elevation: 74° - Azimuth: 266° - SNR: 50 dB
  Satellite 2 PRN: 22 - Elevation: 41° - Azimuth: 149° - SNR: 48 dB
  Satellite 3 PRN: 26 - Elevation: ° - Azimuth: ° - SNR: 42 dB
  Satellite 4 PRN: 36 - Elevation: 43° - Azimuth: 058° - SNR: 48 dB

2024-10-29 10:03:46,572 [INFO] Processing sentence: $GBGSV,2,2,07,38,,,38,42,,,44,45,74,173,49,8*44
2024-10-29 10:03:46,572 [INFO] Received Standard NMEA Message: $GBGSV,2,2,07,38,,,38,42,,,44,45,74,173,49,8*44
2024-10-29 10:03:46,572 [INFO] GSV - Satellites in View:
  Number of Messages: 2
  Message Number: 2
  Total Satellites in View: 07
  Satellite 1 PRN: 38 - Elevation: ° - Azimuth: ° - SNR: 38 dB
  Satellite 2 PRN: 42 - Elevation: ° - Azimuth: ° - SNR: 44 dB
  Satellite 3 PRN: 45 - Elevation: 74° - Azimuth: 173° - SNR: 49 dB
  Satellite 4 PRN: 8 - Elevation: ° - Azimuth: ° - SNR:  dB

2024-10-29 10:03:46,573 [INFO] Processing sentence: $GBGSV,2,1,07,21,74,266,51,22,41,149,46,26,,,42,36,43,058,45,3*41
2024-10-29 10:03:46,573 [INFO] Received Standard NMEA Message: $GBGSV,2,1,07,21,74,266,51,22,41,149,46,26,,,42,36,43,058,45,3*41
2024-10-29 10:03:46,573 [INFO] GSV - Satellites in View:
  Number of Messages: 2
  Message Number: 1
  Total Satellites in View: 07
  Satellite 1 PRN: 21 - Elevation: 74° - Azimuth: 266° - SNR: 51 dB
  Satellite 2 PRN: 22 - Elevation: 41° - Azimuth: 149° - SNR: 46 dB
  Satellite 3 PRN: 26 - Elevation: ° - Azimuth: ° - SNR: 42 dB
  Satellite 4 PRN: 36 - Elevation: 43° - Azimuth: 058° - SNR: 45 dB

2024-10-29 10:03:46,573 [INFO] Processing sentence: $GBGSV,2,2,07,38,,,38,42,,,43,45,74,173,50,3*40
2024-10-29 10:03:46,573 [INFO] Received Standard NMEA Message: $GBGSV,2,2,07,38,,,38,42,,,43,45,74,173,50,3*40
2024-10-29 10:03:46,573 [INFO] GSV - Satellites in View:
  Number of Messages: 2
  Message Number: 2
  Total Satellites in View: 07
  Satellite 1 PRN: 38 - Elevation: ° - Azimuth: ° - SNR: 38 dB
  Satellite 2 PRN: 42 - Elevation: ° - Azimuth: ° - SNR: 43 dB
  Satellite 3 PRN: 45 - Elevation: 74° - Azimuth: 173° - SNR: 50 dB
  Satellite 4 PRN: 3 - Elevation: ° - Azimuth: ° - SNR:  dB

2024-10-29 10:03:46,573 [INFO] Processing sentence: $GBGSV,2,1,07,21,74,266,51,22,41,149,49,26,,,42,36,43,058,48,5*45
2024-10-29 10:03:46,573 [INFO] Received Standard NMEA Message: $GBGSV,2,1,07,21,74,266,51,22,41,149,49,26,,,42,36,43,058,48,5*45
2024-10-29 10:03:46,573 [INFO] GSV - Satellites in View:
  Number of Messages: 2
  Message Number: 1
  Total Satellites in View: 07
  Satellite 1 PRN: 21 - Elevation: 74° - Azimuth: 266° - SNR: 51 dB
  Satellite 2 PRN: 22 - Elevation: 41° - Azimuth: 149° - SNR: 49 dB
  Satellite 3 PRN: 26 - Elevation: ° - Azimuth: ° - SNR: 42 dB
  Satellite 4 PRN: 36 - Elevation: 43° - Azimuth: 058° - SNR: 48 dB

2024-10-29 10:03:46,574 [INFO] Processing sentence: $GBGSV,2,2,07,38,,,40,42,,,47,45,74,173,52,5*4F
2024-10-29 10:03:46,574 [INFO] Received Standard NMEA Message: $GBGSV,2,2,07,38,,,40,42,,,47,45,74,173,52,5*4F
2024-10-29 10:03:46,574 [INFO] GSV - Satellites in View:
  Number of Messages: 2
  Message Number: 2
  Total Satellites in View: 07
  Satellite 1 PRN: 38 - Elevation: ° - Azimuth: ° - SNR: 40 dB
  Satellite 2 PRN: 42 - Elevation: ° - Azimuth: ° - SNR: 47 dB
  Satellite 3 PRN: 45 - Elevation: 74° - Azimuth: 173° - SNR: 52 dB
  Satellite 4 PRN: 5 - Elevation: ° - Azimuth: ° - SNR:  dB

2024-10-29 10:03:46,574 [INFO] Processing sentence: $GBGSV,2,1,07,21,74,266,51,22,41,149,52,26,,,44,36,43,058,51,6*42
2024-10-29 10:03:46,574 [INFO] Received Standard NMEA Message: $GBGSV,2,1,07,21,74,266,51,22,41,149,52,26,,,44,36,43,058,51,6*42
2024-10-29 10:03:46,575 [INFO] GSV - Satellites in View:
  Number of Messages: 2
  Message Number: 1
  Total Satellites in View: 07
  Satellite 1 PRN: 21 - Elevation: 74° - Azimuth: 266° - SNR: 51 dB
  Satellite 2 PRN: 22 - Elevation: 41° - Azimuth: 149° - SNR: 52 dB
  Satellite 3 PRN: 26 - Elevation: ° - Azimuth: ° - SNR: 44 dB
  Satellite 4 PRN: 36 - Elevation: 43° - Azimuth: 058° - SNR: 51 dB

2024-10-29 10:03:46,575 [INFO] Processing sentence: $GBGSV,2,2,07,38,,,39,42,,,47,45,74,173,52,6*42
2024-10-29 10:03:46,575 [INFO] Received Standard NMEA Message: $GBGSV,2,2,07,38,,,39,42,,,47,45,74,173,52,6*42
2024-10-29 10:03:46,575 [INFO] GSV - Satellites in View:
  Number of Messages: 2
  Message Number: 2
  Total Satellites in View: 07
  Satellite 1 PRN: 38 - Elevation: ° - Azimuth: ° - SNR: 39 dB
  Satellite 2 PRN: 42 - Elevation: ° - Azimuth: ° - SNR: 47 dB
  Satellite 3 PRN: 45 - Elevation: 74° - Azimuth: 173° - SNR: 52 dB
  Satellite 4 PRN: 6 - Elevation: ° - Azimuth: ° - SNR:  dB

2024-10-29 10:03:46,575 [INFO] Processing sentence: $GQGSV,1,1,00,1*65
2024-10-29 10:03:46,575 [INFO] Received Standard NMEA Message: $GQGSV,1,1,00,1*65
2024-10-29 10:03:46,575 [INFO] GSV - Satellites in View:
  Number of Messages: 1
  Message Number: 1
  Total Satellites in View: 00
  Satellite 1 PRN: 1 - Elevation: ° - Azimuth: ° - SNR:  dB
  Satellite 2 PRN:  - Elevation: ° - Azimuth: ° - SNR:  dB
  Satellite 3 PRN:  - Elevation: ° - Azimuth: ° - SNR:  dB
  Satellite 4 PRN:  - Elevation: ° - Azimuth: ° - SNR:  dB

2024-10-29 10:03:46,575 [INFO] Processing sentence: $GQGSV,1,1,00,6*62
2024-10-29 10:03:46,576 [INFO] Received Standard NMEA Message: $GQGSV,1,1,00,6*62
2024-10-29 10:03:46,576 [INFO] GSV - Satellites in View:
  Number of Messages: 1
  Message Number: 1
  Total Satellites in View: 00
  Satellite 1 PRN: 6 - Elevation: ° - Azimuth: ° - SNR:  dB
  Satellite 2 PRN:  - Elevation: ° - Azimuth: ° - SNR:  dB
  Satellite 3 PRN:  - Elevation: ° - Azimuth: ° - SNR:  dB
  Satellite 4 PRN:  - Elevation: ° - Azimuth: ° - SNR:  dB

2024-10-29 10:03:46,576 [INFO] Processing sentence: $GQGSV,1,1,00,8*6C
2024-10-29 10:03:46,576 [INFO] Received Standard NMEA Message: $GQGSV,1,1,00,8*6C
2024-10-29 10:03:46,576 [INFO] GSV - Satellites in View:
  Number of Messages: 1
  Message Number: 1
  Total Satellites in View: 00
  Satellite 1 PRN: 8 - Elevation: ° - Azimuth: ° - SNR:  dB
  Satellite 2 PRN:  - Elevation: ° - Azimuth: ° - SNR:  dB
  Satellite 3 PRN:  - Elevation: ° - Azimuth: ° - SNR:  dB
  Satellite 4 PRN:  - Elevation: ° - Azimuth: ° - SNR:  dB

2024-10-29 10:03:46,576 [INFO] Processing sentence: $GIGSV,1,1,00,1*7D
2024-10-29 10:03:46,576 [INFO] Received Standard NMEA Message: $GIGSV,1,1,00,1*7D
2024-10-29 10:03:46,576 [INFO] GSV - Satellites in View:
  Number of Messages: 1
  Message Number: 1
  Total Satellites in View: 00
  Satellite 1 PRN: 1 - Elevation: ° - Azimuth: ° - SNR:  dB
  Satellite 2 PRN:  - Elevation: ° - Azimuth: ° - SNR:  dB
  Satellite 3 PRN:  - Elevation: ° - Azimuth: ° - SNR:  dB
  Satellite 4 PRN:  - Elevation: ° - Azimuth: ° - SNR:  dB

2024-10-29 10:03:46,577 [INFO] Processing sentence: $PQTMTXT,1,01,01,01,0x0008ec0705f13dc1*4A
2024-10-29 10:03:46,577 [INFO] Proprietary sentence ignored: $PQTMTXT,1,01,01,01,0x0008ec0705f13dc1*4A
2024-10-29 10:03:46,577 [INFO] Processing sentence: $GNGGA,211804.500,4910.42688085,N,12304.40116536,W,5,10,0.85,9.354,M,-19.737,M,2.5,0569*6A
2024-10-29 10:03:46,577 [INFO] Received Standard NMEA Message: $GNGGA,211804.500,4910.42688085,N,12304.40116536,W,5,10,0.85,9.354,M,-19.737,M,2.5,0569*6A
2024-10-29 10:03:46,577 [INFO] GGA - Fix Data:
  Timestamp: 21:18:04.500000+00:00
  Latitude: 49.1737813475 N
  Longitude: -123.073352756 W
  GPS Quality Indicator: 5
  Number of Satellites in Use: 10
  Horizontal Dilution of Precision (HDOP): 0.85
  Antenna Altitude (Above Mean Sea Level): 9.354 M
  Geoidal Separation: -19.737 M
  Age of Differential GPS Data: 2.5
  Differential Reference Station ID: 0569

2024-10-29 10:03:46,577 [INFO] Processing sentence: $GNRMC,211804.500,A,4910.42688085,N,12304.40116536,W,0.184,066.26,281024,,,F,V*27
2024-10-29 10:03:46,577 [INFO] Received Standard NMEA Message: $GNRMC,211804.500,A,4910.42688085,N,12304.40116536,W,0.184,066.26,281024,,,F,V*27
2024-10-29 10:03:46,577 [INFO] RMC - Recommended Minimum:
  Timestamp: 21:18:04.500000+00:00
  Status: A
  Latitude: 49.1737813475 N
  Longitude: -123.073352756 W
  Speed over Ground: 0.184 knots
  Course over Ground: 66.26
  Date: 2024-10-28
  Magnetic Variation:  
  Mode Indicator: F
  Navigational Status: V

2024-10-29 10:03:46,578 [INFO] Processing sentence: $GNGLL,4910.42688085,N,12304.40116536,W,211804.500,A,D*5C
2024-10-29 10:03:46,578 [INFO] Received Standard NMEA Message: $GNGLL,4910.42688085,N,12304.40116536,W,211804.500,A,D*5C
2024-10-29 10:03:46,578 [INFO] GLL - Geographic Position:
  Latitude: 49.1737813475 N
  Longitude: -123.073352756 W
  Timestamp: 21:18:04.500000+00:00
  Status: A
  FAA Mode: D

2024-10-29 10:03:46,578 [INFO] Processing sentence: $GNVTG,066.26,T,,M,0.184,N,0.341,K,D*29
2024-10-29 10:03:46,578 [INFO] Received Standard NMEA Message: $GNVTG,066.26,T,,M,0.184,N,0.341,K,D*29
2024-10-29 10:03:46,578 [INFO] VTG - Course over Ground and Ground Speed:
  True Track: 66.26° T
  Magnetic Track: None° M
  Speed over Ground: 0.184 knots / 0.341 km/h
  FAA Mode: D

2024-10-29 10:03:46,578 [INFO] Processing sentence: $PQTMTXT,1,01,01,01,0x0008ec0705f13dc1*4A
2024-10-29 10:03:46,578 [INFO] Proprietary sentence ignored: $PQTMTXT,1,01,01,01,0x0008ec0705f13dc1*4A
2024-10-29 10:03:46,578 [INFO] Processing sentence: $GNGGA,211805.000,4910.42686352,N,12304.40117245,W,5,10,0.85,9.231,M,-19.737,M,3.0,0569*6D
2024-10-29 10:03:46,578 [INFO] Received Standard NMEA Message: $GNGGA,211805.000,4910.42686352,N,12304.40117245,W,5,10,0.85,9.231,M,-19.737,M,3.0,0569*6D
2024-10-29 10:03:46,579 [INFO] GGA - Fix Data:
  Timestamp: 21:18:05+00:00
  Latitude: 49.17378105866667 N
  Longitude: -123.07335287416667 W
  GPS Quality Indicator: 5
  Number of Satellites in Use: 10
  Horizontal Dilution of Precision (HDOP): 0.85
  Antenna Altitude (Above Mean Sea Level): 9.231 M
  Geoidal Separation: -19.737 M
  Age of Differential GPS Data: 3.0
  Differential Reference Station ID: 0569

2024-10-29 10:03:46,579 [INFO] Processing sentence: $GNRMC,211805.000,A,4910.42686352,N,12304.40117245,W,0.082,066.26,281024,,,F,V*21
2024-10-29 10:03:46,579 [INFO] Received Standard NMEA Message: $GNRMC,211805.000,A,4910.42686352,N,12304.40117245,W,0.082,066.26,281024,,,F,V*21
2024-10-29 10:03:46,579 [INFO] RMC - Recommended Minimum:
  Timestamp: 21:18:05+00:00
  Status: A
  Latitude: 49.17378105866667 N
  Longitude: -123.07335287416667 W
  Speed over Ground: 0.082 knots
  Course over Ground: 66.26
  Date: 2024-10-28
  Magnetic Variation:  
  Mode Indicator: F
  Navigational Status: V

2024-10-29 10:03:46,579 [INFO] Processing sentence: $GNGLL,4910.42686352,N,12304.40117245,W,211805.000,A,D*5D
2024-10-29 10:03:46,579 [INFO] Received Standard NMEA Message: $GNGLL,4910.42686352,N,12304.40117245,W,211805.000,A,D*5D
2024-10-29 10:03:46,579 [INFO] GLL - Geographic Position:
  Latitude: 49.17378105866667 N
  Longitude: -123.07335287416667 W
  Timestamp: 21:18:05+00:00
  Status: A
  FAA Mode: D

2024-10-29 10:03:46,579 [INFO] Processing sentence: $GNVTG,066.26,T,,M,0.082,N,0.151,K,D*2D
2024-10-29 10:03:46,580 [INFO] Received Standard NMEA Message: $GNVTG,066.26,T,,M,0.082,N,0.151,K,D*2D
2024-10-29 10:03:46,580 [INFO] VTG - Course over Ground and Ground Speed:
  True Track: 66.26° T
  Magnetic Track: None° M
  Speed over Ground: 0.082 knots / 0.151 km/h
  FAA Mode: D

2024-10-29 10:03:46,580 [INFO] Processing sentence: $GNGSA,A,3,03,04,07,09,16,26,,,,,,,1.58,0.85,1.32,1*0A
2024-10-29 10:03:46,580 [INFO] Received Standard NMEA Message: $GNGSA,A,3,03,04,07,09,16,26,,,,,,,1.58,0.85,1.32,1*0A
2024-10-29 10:03:46,580 [INFO] GSA - Satellite Info:
  Mode: A
  Mode Fix Type: 3
  Satellites Used: 03, 04, 07, 09, 16, 26
  PDOP: 1.58
  HDOP: 0.85
  VDOP: 1.32

2024-10-29 10:03:46,580 [INFO] Processing sentence: $GNGSA,A,3,,,,,,,,,,,,,1.58,0.85,1.32,2*03
2024-10-29 10:03:46,580 [INFO] Received Standard NMEA Message: $GNGSA,A,3,,,,,,,,,,,,,1.58,0.85,1.32,2*03
2024-10-29 10:03:46,580 [INFO] GSA - Satellite Info:
  Mode: A
  Mode Fix Type: 3
  Satellites Used: 
  PDOP: 1.58
  HDOP: 0.85
  VDOP: 1.32

2024-10-29 10:03:46,580 [INFO] Processing sentence: $GNGSA,A,3,,,,,,,,,,,,,1.58,0.85,1.32,3*02
2024-10-29 10:03:46,581 [INFO] Received Standard NMEA Message: $GNGSA,A,3,,,,,,,,,,,,,1.58,0.85,1.32,3*02
2024-10-29 10:03:46,581 [INFO] GSA - Satellite Info:
  Mode: A
  Mode Fix Type: 3
  Satellites Used: 
  PDOP: 1.58
  HDOP: 0.85
  VDOP: 1.32

2024-10-29 10:03:46,581 [INFO] Processing sentence: $GNGSA,A,3,21,22,36,45,,,,,,,,,1.58,0.85,1.32,4*02
2024-10-29 10:03:46,581 [INFO] Received Standard NMEA Message: $GNGSA,A,3,21,22,36,45,,,,,,,,,1.58,0.85,1.32,4*02
2024-10-29 10:03:46,581 [INFO] GSA - Satellite Info:
  Mode: A
  Mode Fix Type: 3
  Satellites Used: 21, 22, 36, 45
  PDOP: 1.58
  HDOP: 0.85
  VDOP: 1.32

2024-10-29 10:03:46,581 [INFO] Processing sentence: $GNGSA,A,3,,,,,,,,,,,,,1.58,0.85,1.32,5*04
2024-10-29 10:03:46,581 [INFO] Received Standard NMEA Message: $GNGSA,A,3,,,,,,,,,,,,,1.58,0.85,1.32,5*04
2024-10-29 10:03:46,581 [INFO] GSA - Satellite Info:
  Mode: A
  Mode Fix Type: 3
  Satellites Used: 
  PDOP: 1.58
  HDOP: 0.85
  VDOP: 1.32

2024-10-29 10:03:46,581 [INFO] Processing sentence: $GNGSA,A,3,,,,,,,,,,,,,1.58,0.85,1.32,6*07
2024-10-29 10:03:46,581 [INFO] Received Standard NMEA Message: $GNGSA,A,3,,,,,,,,,,,,,1.58,0.85,1.32,6*07
2024-10-29 10:03:46,581 [INFO] GSA - Satellite Info:
  Mode: A
  Mode Fix Type: 3
  Satellites Used: 
  PDOP: 1.58
  HDOP: 0.85
  VDOP: 1.32

2024-10-29 10:03:46,581 [INFO] Processing sentence: $GPGSV,4,1,13,03,19,174,40,04,67,105,48,06,,,37,07,45,248,48,1*55
2024-10-29 10:03:46,581 [INFO] Received Standard NMEA Message: $GPGSV,4,1,13,03,19,174,40,04,67,105,48,06,,,37,07,45,248,48,1*55
2024-10-29 10:03:46,582 [INFO] GSV - Satellites in View:
  Number of Messages: 4
  Message Number: 1
  Total Satellites in View: 13
  Satellite 1 PRN: 03 - Elevation: 19° - Azimuth: 174° - SNR: 40 dB
  Satellite 2 PRN: 04 - Elevation: 67° - Azimuth: 105° - SNR: 48 dB
  Satellite 3 PRN: 06 - Elevation: ° - Azimuth: ° - SNR: 37 dB
  Satellite 4 PRN: 07 - Elevation: 45° - Azimuth: 248° - SNR: 48 dB

2024-10-29 10:03:46,582 [INFO] Processing sentence: $GPGSV,4,2,13,09,76,302,51,11,,,39,16,46,075,46,20,,,39,1*6A
2024-10-29 10:03:46,582 [INFO] Received Standard NMEA Message: $GPGSV,4,2,13,09,76,302,51,11,,,39,16,46,075,46,20,,,39,1*6A
2024-10-29 10:03:46,582 [INFO] GSV - Satellites in View:
  Number of Messages: 4
  Message Number: 2
  Total Satellites in View: 13
  Satellite 1 PRN: 09 - Elevation: 76° - Azimuth: 302° - SNR: 51 dB
  Satellite 2 PRN: 11 - Elevation: ° - Azimuth: ° - SNR: 39 dB
  Satellite 3 PRN: 16 - Elevation: 46° - Azimuth: 075° - SNR: 46 dB
  Satellite 4 PRN: 20 - Elevation: ° - Azimuth: ° - SNR: 39 dB

2024-10-29 10:03:46,582 [INFO] Processing sentence: $GPGSV,4,3,13,26,22,047,42,30,,,40,44,,,44,46,,,45,1*54
2024-10-29 10:03:46,582 [INFO] Received Standard NMEA Message: $GPGSV,4,3,13,26,22,047,42,30,,,40,44,,,44,46,,,45,1*54
2024-10-29 10:03:46,582 [INFO] GSV - Satellites in View:
  Number of Messages: 4
  Message Number: 3
  Total Satellites in View: 13
  Satellite 1 PRN: 26 - Elevation: 22° - Azimuth: 047° - SNR: 42 dB
  Satellite 2 PRN: 30 - Elevation: ° - Azimuth: ° - SNR: 40 dB
  Satellite 3 PRN: 44 - Elevation: ° - Azimuth: ° - SNR: 44 dB
  Satellite 4 PRN: 46 - Elevation: ° - Azimuth: ° - SNR: 45 dB

2024-10-29 10:03:46,583 [INFO] Processing sentence: $GPGSV,4,4,13,48,,,44,1*6A
2024-10-29 10:03:46,583 [INFO] Received Standard NMEA Message: $GPGSV,4,4,13,48,,,44,1*6A
2024-10-29 10:03:46,583 [INFO] GSV - Satellites in View:
  Number of Messages: 4
  Message Number: 4
  Total Satellites in View: 13
  Satellite 1 PRN: 48 - Elevation: ° - Azimuth: ° - SNR: 44 dB
  Satellite 2 PRN: 1 - Elevation: ° - Azimuth: ° - SNR:  dB
  Satellite 3 PRN:  - Elevation: ° - Azimuth: ° - SNR:  dB
  Satellite 4 PRN:  - Elevation: ° - Azimuth: ° - SNR:  dB

2024-10-29 10:03:46,583 [INFO] Processing sentence: $GPGSV,2,1,08,03,19,174,30,04,67,105,49,06,,,35,07,45,248,40,6*52
2024-10-29 10:03:46,583 [INFO] Received Standard NMEA Message: $GPGSV,2,1,08,03,19,174,30,04,67,105,49,06,,,35,07,45,248,40,6*52
2024-10-29 10:03:46,583 [INFO] GSV - Satellites in View:
  Number of Messages: 2
  Message Number: 1
  Total Satellites in View: 08
  Satellite 1 PRN: 03 - Elevation: 19° - Azimuth: 174° - SNR: 30 dB
  Satellite 2 PRN: 04 - Elevation: 67° - Azimuth: 105° - SNR: 49 dB
  Satellite 3 PRN: 06 - Elevation: ° - Azimuth: ° - SNR: 35 dB
  Satellite 4 PRN: 07 - Elevation: 45° - Azimuth: 248° - SNR: 40 dB

2024-10-29 10:03:46,583 [INFO] Processing sentence: $GPGSV,2,2,08,09,76,302,45,11,,,38,26,22,047,35,30,,,36,6*6F
2024-10-29 10:03:46,583 [INFO] Received Standard NMEA Message: $GPGSV,2,2,08,09,76,302,45,11,,,38,26,22,047,35,30,,,36,6*6F
2024-10-29 10:03:46,583 [INFO] GSV - Satellites in View:
  Number of Messages: 2
  Message Number: 2
  Total Satellites in View: 08
  Satellite 1 PRN: 09 - Elevation: 76° - Azimuth: 302° - SNR: 45 dB
  Satellite 2 PRN: 11 - Elevation: ° - Azimuth: ° - SNR: 38 dB
  Satellite 3 PRN: 26 - Elevation: 22° - Azimuth: 047° - SNR: 35 dB
  Satellite 4 PRN: 30 - Elevation: ° - Azimuth: ° - SNR: 36 dB

2024-10-29 10:03:46,584 [INFO] Processing sentence: $GPGSV,1,1,00,8*6D
2024-10-29 10:03:46,584 [INFO] Received Standard NMEA Message: $GPGSV,1,1,00,8*6D
2024-10-29 10:03:46,584 [INFO] GSV - Satellites in View:
  Number of Messages: 1
  Message Number: 1
  Total Satellites in View: 00
  Satellite 1 PRN: 8 - Elevation: ° - Azimuth: ° - SNR:  dB
  Satellite 2 PRN:  - Elevation: ° - Azimuth: ° - SNR:  dB
  Satellite 3 PRN:  - Elevation: ° - Azimuth: ° - SNR:  dB
  Satellite 4 PRN:  - Elevation: ° - Azimuth: ° - SNR:  dB

2024-10-29 10:03:46,584 [INFO] Processing sentence: $GLGSV,1,1,00,1*78
2024-10-29 10:03:46,584 [INFO] Received Standard NMEA Message: $GLGSV,1,1,00,1*78
2024-10-29 10:03:46,584 [INFO] GSV - Satellites in View:
  Number of Messages: 1
  Message Number: 1
  Total Satellites in View: 00
  Satellite 1 PRN: 1 - Elevation: ° - Azimuth: ° - SNR:  dB
  Satellite 2 PRN:  - Elevation: ° - Azimuth: ° - SNR:  dB
  Satellite 3 PRN:  - Elevation: ° - Azimuth: ° - SNR:  dB
  Satellite 4 PRN:  - Elevation: ° - Azimuth: ° - SNR:  dB

2024-10-29 10:03:46,584 [INFO] Processing sentence: $GLGSV,1,1,00,3*7A
2024-10-29 10:03:46,584 [INFO] Received Standard NMEA Message: $GLGSV,1,1,00,3*7A
2024-10-29 10:03:46,584 [INFO] GSV - Satellites in View:
  Number of Messages: 1
  Message Number: 1
  Total Satellites in View: 00
  Satellite 1 PRN: 3 - Elevation: ° - Azimuth: ° - SNR:  dB
  Satellite 2 PRN:  - Elevation: ° - Azimuth: ° - SNR:  dB
  Satellite 3 PRN:  - Elevation: ° - Azimuth: ° - SNR:  dB
  Satellite 4 PRN:  - Elevation: ° - Azimuth: ° - SNR:  dB

2024-10-29 10:03:46,584 [INFO] Processing sentence: $GAGSV,1,1,00,7*73
2024-10-29 10:03:46,585 [INFO] Received Standard NMEA Message: $GAGSV,1,1,00,7*73
2024-10-29 10:03:46,585 [INFO] GSV - Satellites in View:
  Number of Messages: 1
  Message Number: 1
  Total Satellites in View: 00
  Satellite 1 PRN: 7 - Elevation: ° - Azimuth: ° - SNR:  dB
  Satellite 2 PRN:  - Elevation: ° - Azimuth: ° - SNR:  dB
  Satellite 3 PRN:  - Elevation: ° - Azimuth: ° - SNR:  dB
  Satellite 4 PRN:  - Elevation: ° - Azimuth: ° - SNR:  dB

2024-10-29 10:03:46,585 [INFO] Processing sentence: $GAGSV,1,1,00,2*76
2024-10-29 10:03:46,585 [INFO] Received Standard NMEA Message: $GAGSV,1,1,00,2*76
2024-10-29 10:03:46,585 [INFO] GSV - Satellites in View:
  Number of Messages: 1
  Message Number: 1
  Total Satellites in View: 00
  Satellite 1 PRN: 2 - Elevation: ° - Azimuth: ° - SNR:  dB
  Satellite 2 PRN:  - Elevation: ° - Azimuth: ° - SNR:  dB
  Satellite 3 PRN:  - Elevation: ° - Azimuth: ° - SNR:  dB
  Satellite 4 PRN:  - Elevation: ° - Azimuth: ° - SNR:  dB

2024-10-29 10:03:46,585 [INFO] Processing sentence: $GAGSV,1,1,00,1*75
2024-10-29 10:03:46,585 [INFO] Received Standard NMEA Message: $GAGSV,1,1,00,1*75
2024-10-29 10:03:46,585 [INFO] GSV - Satellites in View:
  Number of Messages: 1
  Message Number: 1
  Total Satellites in View: 00
  Satellite 1 PRN: 1 - Elevation: ° - Azimuth: ° - SNR:  dB
  Satellite 2 PRN:  - Elevation: ° - Azimuth: ° - SNR:  dB
  Satellite 3 PRN:  - Elevation: ° - Azimuth: ° - SNR:  dB
  Satellite 4 PRN:  - Elevation: ° - Azimuth: ° - SNR:  dB

2024-10-29 10:03:46,585 [INFO] Processing sentence: $GAGSV,1,1,00,5*71
2024-10-29 10:03:46,585 [INFO] Received Standard NMEA Message: $GAGSV,1,1,00,5*71
2024-10-29 10:03:46,585 [INFO] GSV - Satellites in View:
  Number of Messages: 1
  Message Number: 1
  Total Satellites in View: 00
  Satellite 1 PRN: 5 - Elevation: ° - Azimuth: ° - SNR:  dB
  Satellite 2 PRN:  - Elevation: ° - Azimuth: ° - SNR:  dB
  Satellite 3 PRN:  - Elevation: ° - Azimuth: ° - SNR:  dB
  Satellite 4 PRN:  - Elevation: ° - Azimuth: ° - SNR:  dB

2024-10-29 10:03:46,586 [INFO] Processing sentence: $GBGSV,2,1,07,21,74,266,52,22,41,149,48,26,,,43,36,43,058,47,1*4D
2024-10-29 10:03:46,586 [INFO] Received Standard NMEA Message: $GBGSV,2,1,07,21,74,266,52,22,41,149,48,26,,,43,36,43,058,47,1*4D
2024-10-29 10:03:46,586 [INFO] GSV - Satellites in View:
  Number of Messages: 2
  Message Number: 1
  Total Satellites in View: 07
  Satellite 1 PRN: 21 - Elevation: 74° - Azimuth: 266° - SNR: 52 dB
  Satellite 2 PRN: 22 - Elevation: 41° - Azimuth: 149° - SNR: 48 dB
  Satellite 3 PRN: 26 - Elevation: ° - Azimuth: ° - SNR: 43 dB
  Satellite 4 PRN: 36 - Elevation: 43° - Azimuth: 058° - SNR: 47 dB

2024-10-29 10:03:46,586 [INFO] Processing sentence: $GBGSV,2,2,07,38,,,41,42,,,46,45,74,173,51,1*48
2024-10-29 10:03:46,586 [INFO] Received Standard NMEA Message: $GBGSV,2,2,07,38,,,41,42,,,46,45,74,173,51,1*48
2024-10-29 10:03:46,586 [INFO] GSV - Satellites in View:
  Number of Messages: 2
  Message Number: 2
  Total Satellites in View: 07
  Satellite 1 PRN: 38 - Elevation: ° - Azimuth: ° - SNR: 41 dB
  Satellite 2 PRN: 42 - Elevation: ° - Azimuth: ° - SNR: 46 dB
  Satellite 3 PRN: 45 - Elevation: 74° - Azimuth: 173° - SNR: 51 dB
  Satellite 4 PRN: 1 - Elevation: ° - Azimuth: ° - SNR:  dB

2024-10-29 10:03:46,586 [INFO] Processing sentence: $GBGSV,1,1,00,B*05
2024-10-29 10:03:46,586 [INFO] Received Standard NMEA Message: $GBGSV,1,1,00,B*05
2024-10-29 10:03:46,586 [INFO] GSV - Satellites in View:
  Number of Messages: 1
  Message Number: 1
  Total Satellites in View: 00
  Satellite 1 PRN: B - Elevation: ° - Azimuth: ° - SNR:  dB
  Satellite 2 PRN:  - Elevation: ° - Azimuth: ° - SNR:  dB
  Satellite 3 PRN:  - Elevation: ° - Azimuth: ° - SNR:  dB
  Satellite 4 PRN:  - Elevation: ° - Azimuth: ° - SNR:  dB

2024-10-29 10:03:46,586 [INFO] Processing sentence: $GBGSV,2,1,07,21,74,266,50,22,41,149,48,26,,,42,36,43,058,48,8*48
2024-10-29 10:03:46,587 [INFO] Received Standard NMEA Message: $GBGSV,2,1,07,21,74,266,50,22,41,149,48,26,,,42,36,43,058,48,8*48
2024-10-29 10:03:46,587 [INFO] GSV - Satellites in View:
  Number of Messages: 2
  Message Number: 1
  Total Satellites in View: 07
  Satellite 1 PRN: 21 - Elevation: 74° - Azimuth: 266° - SNR: 50 dB
  Satellite 2 PRN: 22 - Elevation: 41° - Azimuth: 149° - SNR: 48 dB
  Satellite 3 PRN: 26 - Elevation: ° - Azimuth: ° - SNR: 42 dB
  Satellite 4 PRN: 36 - Elevation: 43° - Azimuth: 058° - SNR: 48 dB

2024-10-29 10:03:46,587 [INFO] Processing sentence: $GBGSV,2,2,07,38,,,38,42,,,45,45,74,173,49,8*45
2024-10-29 10:03:46,587 [INFO] Received Standard NMEA Message: $GBGSV,2,2,07,38,,,38,42,,,45,45,74,173,49,8*45
2024-10-29 10:03:46,587 [INFO] GSV - Satellites in View:
  Number of Messages: 2
  Message Number: 2
  Total Satellites in View: 07
  Satellite 1 PRN: 38 - Elevation: ° - Azimuth: ° - SNR: 38 dB
  Satellite 2 PRN: 42 - Elevation: ° - Azimuth: ° - SNR: 45 dB
  Satellite 3 PRN: 45 - Elevation: 74° - Azimuth: 173° - SNR: 49 dB
  Satellite 4 PRN: 8 - Elevation: ° - Azimuth: ° - SNR:  dB

2024-10-29 10:03:46,587 [INFO] Processing sentence: $GBGSV,2,1,07,21,74,266,51,22,41,149,46,26,,,41,36,43,058,45,3*42
2024-10-29 10:03:46,587 [INFO] Received Standard NMEA Message: $GBGSV,2,1,07,21,74,266,51,22,41,149,46,26,,,41,36,43,058,45,3*42
2024-10-29 10:03:46,587 [INFO] GSV - Satellites in View:
  Number of Messages: 2
  Message Number: 1
  Total Satellites in View: 07
  Satellite 1 PRN: 21 - Elevation: 74° - Azimuth: 266° - SNR: 51 dB
  Satellite 2 PRN: 22 - Elevation: 41° - Azimuth: 149° - SNR: 46 dB
  Satellite 3 PRN: 26 - Elevation: ° - Azimuth: ° - SNR: 41 dB
  Satellite 4 PRN: 36 - Elevation: 43° - Azimuth: 058° - SNR: 45 dB

2024-10-29 10:03:46,587 [INFO] Processing sentence: $GBGSV,2,2,07,38,,,38,42,,,43,45,74,173,50,3*40
2024-10-29 10:03:46,587 [INFO] Received Standard NMEA Message: $GBGSV,2,2,07,38,,,38,42,,,43,45,74,173,50,3*40
2024-10-29 10:03:46,588 [INFO] GSV - Satellites in View:
  Number of Messages: 2
  Message Number: 2
  Total Satellites in View: 07
  Satellite 1 PRN: 38 - Elevation: ° - Azimuth: ° - SNR: 38 dB
  Satellite 2 PRN: 42 - Elevation: ° - Azimuth: ° - SNR: 43 dB
  Satellite 3 PRN: 45 - Elevation: 74° - Azimuth: 173° - SNR: 50 dB
  Satellite 4 PRN: 3 - Elevation: ° - Azimuth: ° - SNR:  dB

2024-10-29 10:03:46,588 [INFO] Processing sentence: $GBGSV,2,1,07,21,74,266,51,22,41,149,49,26,,,42,36,43,058,48,5*45
2024-10-29 10:03:46,588 [INFO] Received Standard NMEA Message: $GBGSV,2,1,07,21,74,266,51,22,41,149,49,26,,,42,36,43,058,48,5*45
2024-10-29 10:03:46,588 [INFO] GSV - Satellites in View:
  Number of Messages: 2
  Message Number: 1
  Total Satellites in View: 07
  Satellite 1 PRN: 21 - Elevation: 74° - Azimuth: 266° - SNR: 51 dB
  Satellite 2 PRN: 22 - Elevation: 41° - Azimuth: 149° - SNR: 49 dB
  Satellite 3 PRN: 26 - Elevation: ° - Azimuth: ° - SNR: 42 dB
  Satellite 4 PRN: 36 - Elevation: 43° - Azimuth: 058° - SNR: 48 dB

2024-10-29 10:03:46,588 [INFO] Processing sentence: $GBGSV,2,2,07,38,,,40,42,,,47,45,74,173,52,5*4F
2024-10-29 10:03:46,588 [INFO] Received Standard NMEA Message: $GBGSV,2,2,07,38,,,40,42,,,47,45,74,173,52,5*4F
2024-10-29 10:03:46,588 [INFO] GSV - Satellites in View:
  Number of Messages: 2
  Message Number: 2
  Total Satellites in View: 07
  Satellite 1 PRN: 38 - Elevation: ° - Azimuth: ° - SNR: 40 dB
  Satellite 2 PRN: 42 - Elevation: ° - Azimuth: ° - SNR: 47 dB
  Satellite 3 PRN: 45 - Elevation: 74° - Azimuth: 173° - SNR: 52 dB
  Satellite 4 PRN: 5 - Elevation: ° - Azimuth: ° - SNR:  dB

2024-10-29 10:03:46,588 [INFO] Processing sentence: $GBGSV,2,1,07,21,74,266,51,22,41,149,52,26,,,44,36,43,058,51,6*42
2024-10-29 10:03:46,589 [INFO] Received Standard NMEA Message: $GBGSV,2,1,07,21,74,266,51,22,41,149,52,26,,,44,36,43,058,51,6*42
2024-10-29 10:03:46,589 [INFO] GSV - Satellites in View:
  Number of Messages: 2
  Message Number: 1
  Total Satellites in View: 07
  Satellite 1 PRN: 21 - Elevation: 74° - Azimuth: 266° - SNR: 51 dB
  Satellite 2 PRN: 22 - Elevation: 41° - Azimuth: 149° - SNR: 52 dB
  Satellite 3 PRN: 26 - Elevation: ° - Azimuth: ° - SNR: 44 dB
  Satellite 4 PRN: 36 - Elevation: 43° - Azimuth: 058° - SNR: 51 dB

2024-10-29 10:03:46,589 [INFO] Processing sentence: $GBGSV,2,2,07,38,,,40,42,,,47,45,74,173,52,6*4C
2024-10-29 10:03:46,589 [INFO] Received Standard NMEA Message: $GBGSV,2,2,07,38,,,40,42,,,47,45,74,173,52,6*4C
2024-10-29 10:03:46,589 [INFO] GSV - Satellites in View:
  Number of Messages: 2
  Message Number: 2
  Total Satellites in View: 07
  Satellite 1 PRN: 38 - Elevation: ° - Azimuth: ° - SNR: 40 dB
  Satellite 2 PRN: 42 - Elevation: ° - Azimuth: ° - SNR: 47 dB
  Satellite 3 PRN: 45 - Elevation: 74° - Azimuth: 173° - SNR: 52 dB
  Satellite 4 PRN: 6 - Elevation: ° - Azimuth: ° - SNR:  dB

2024-10-29 10:03:46,589 [INFO] Processing sentence: $GQGSV,1,1,00,1*65
2024-10-29 10:03:46,589 [INFO] Received Standard NMEA Message: $GQGSV,1,1,00,1*65
2024-10-29 10:03:46,589 [INFO] GSV - Satellites in View:
  Number of Messages: 1
  Message Number: 1
  Total Satellites in View: 00
  Satellite 1 PRN: 1 - Elevation: ° - Azimuth: ° - SNR:  dB
  Satellite 2 PRN:  - Elevation: ° - Azimuth: ° - SNR:  dB
  Satellite 3 PRN:  - Elevation: ° - Azimuth: ° - SNR:  dB
  Satellite 4 PRN:  - Elevation: ° - Azimuth: ° - SNR:  dB

2024-10-29 10:03:46,589 [INFO] Processing sentence: $GQGSV,1,1,00,6*62
2024-10-29 10:03:46,589 [INFO] Received Standard NMEA Message: $GQGSV,1,1,00,6*62
2024-10-29 10:03:46,589 [INFO] GSV - Satellites in View:
  Number of Messages: 1
  Message Number: 1
  Total Satellites in View: 00
  Satellite 1 PRN: 6 - Elevation: ° - Azimuth: ° - SNR:  dB
  Satellite 2 PRN:  - Elevation: ° - Azimuth: ° - SNR:  dB
  Satellite 3 PRN:  - Elevation: ° - Azimuth: ° - SNR:  dB
  Satellite 4 PRN:  - Elevation: ° - Azimuth: ° - SNR:  dB

2024-10-29 10:03:46,590 [INFO] Processing sentence: $GQGSV,1,1,00,8*6C
2024-10-29 10:03:46,590 [INFO] Received Standard NMEA Message: $GQGSV,1,1,00,8*6C
2024-10-29 10:03:46,590 [INFO] GSV - Satellites in View:
  Number of Messages: 1
  Message Number: 1
  Total Satellites in View: 00
  Satellite 1 PRN: 8 - Elevation: ° - Azimuth: ° - SNR:  dB
  Satellite 2 PRN:  - Elevation: ° - Azimuth: ° - SNR:  dB
  Satellite 3 PRN:  - Elevation: ° - Azimuth: ° - SNR:  dB
  Satellite 4 PRN:  - Elevation: ° - Azimuth: ° - SNR:  dB

2024-10-29 10:03:46,590 [INFO] Processing sentence: $GIGSV,1,1,00,1*7D
2024-10-29 10:03:46,590 [INFO] Received Standard NMEA Message: $GIGSV,1,1,00,1*7D
2024-10-29 10:03:46,590 [INFO] GSV - Satellites in View:
  Number of Messages: 1
  Message Number: 1
  Total Satellites in View: 00
  Satellite 1 PRN: 1 - Elevation: ° - Azimuth: ° - SNR:  dB
  Satellite 2 PRN:  - Elevation: ° - Azimuth: ° - SNR:  dB
  Satellite 3 PRN:  - Elevation: ° - Azimuth: ° - SNR:  dB
  Satellite 4 PRN:  - Elevation: ° - Azimuth: ° - SNR:  dB

2024-10-29 10:03:46,590 [INFO] Processing sentence: $PQTMTXT,1,01,01,01,0x0008ec0705f13dc1*4A
2024-10-29 10:03:46,590 [INFO] Proprietary sentence ignored: $PQTMTXT,1,01,01,01,0x0008ec0705f13dc1*4A
2024-10-29 10:03:46,590 [INFO] Processing sentence: $GNGGA,211805.500,4910.42684598,N,12304.40108059,W,5,10,0.82,9.326,M,-19.737,M,2.5,0569*6F
2024-10-29 10:03:46,590 [INFO] Received Standard NMEA Message: $GNGGA,211805.500,4910.42684598,N,12304.40108059,W,5,10,0.82,9.326,M,-19.737,M,2.5,0569*6F
2024-10-29 10:03:46,590 [INFO] GGA - Fix Data:
  Timestamp: 21:18:05.500000+00:00
  Latitude: 49.17378076633333 N
  Longitude: -123.07335134316666 W
  GPS Quality Indicator: 5
  Number of Satellites in Use: 10
  Horizontal Dilution of Precision (HDOP): 0.82
  Antenna Altitude (Above Mean Sea Level): 9.326 M
  Geoidal Separation: -19.737 M
  Age of Differential GPS Data: 2.5
  Differential Reference Station ID: 0569

2024-10-29 10:03:46,590 [INFO] Processing sentence: $GNRMC,211805.500,A,4910.42684598,N,12304.40108059,W,0.035,066.26,281024,,,F,V*2B
2024-10-29 10:03:46,590 [INFO] Received Standard NMEA Message: $GNRMC,211805.500,A,4910.42684598,N,12304.40108059,W,0.035,066.26,281024,,,F,V*2B
2024-10-29 10:03:46,591 [INFO] RMC - Recommended Minimum:
  Timestamp: 21:18:05.500000+00:00
  Status: A
  Latitude: 49.17378076633333 N
  Longitude: -123.07335134316666 W
  Speed over Ground: 0.035 knots
  Course over Ground: 66.26
  Date: 2024-10-28
  Magnetic Variation:  
  Mode Indicator: F
  Navigational Status: V

2024-10-29 10:03:46,591 [INFO] Processing sentence: $GNGLL,4910.42684598,N,12304.40108059,W,211805.500,A,D*5B
2024-10-29 10:03:46,591 [INFO] Received Standard NMEA Message: $GNGLL,4910.42684598,N,12304.40108059,W,211805.500,A,D*5B
2024-10-29 10:03:46,591 [INFO] GLL - Geographic Position:
  Latitude: 49.17378076633333 N
  Longitude: -123.07335134316666 W
  Timestamp: 21:18:05.500000+00:00
  Status: A
  FAA Mode: D

2024-10-29 10:03:46,591 [INFO] Processing sentence: $GNVTG,066.26,T,,M,0.035,N,0.064,K,D*26
2024-10-29 10:03:46,591 [INFO] Received Standard NMEA Message: $GNVTG,066.26,T,,M,0.035,N,0.064,K,D*26
2024-10-29 10:03:46,591 [INFO] VTG - Course over Ground and Ground Speed:
  True Track: 66.26° T
  Magnetic Track: None° M
  Speed over Ground: 0.035 knots / 0.064 km/h
  FAA Mode: D

2024-10-29 10:03:46,592 [INFO] Processing sentence: $PQTMTXT,1,01,01,01,0x0008ec0705f13dc1*4A
2024-10-29 10:03:46,592 [INFO] Proprietary sentence ignored: $PQTMTXT,1,01,01,01,0x0008ec0705f13dc1*4A
2024-10-29 10:03:46,592 [INFO] Processing sentence: $GNGGA,211806.000,4910.42684027,N,12304.40104019,W,5,10,0.82,9.353,M,-19.737,M,3.0,0569*66
2024-10-29 10:03:46,592 [INFO] Received Standard NMEA Message: $GNGGA,211806.000,4910.42684027,N,12304.40104019,W,5,10,0.82,9.353,M,-19.737,M,3.0,0569*66
2024-10-29 10:03:46,592 [INFO] GGA - Fix Data:
  Timestamp: 21:18:06+00:00
  Latitude: 49.17378067116667 N
  Longitude: -123.07335066983333 W
  GPS Quality Indicator: 5
  Number of Satellites in Use: 10
  Horizontal Dilution of Precision (HDOP): 0.82
  Antenna Altitude (Above Mean Sea Level): 9.353 M
  Geoidal Separation: -19.737 M
  Age of Differential GPS Data: 3.0
  Differential Reference Station ID: 0569

2024-10-29 10:03:46,592 [INFO] Processing sentence: $GNRMC,211806.000,A,4910.42684027,N,12304.40104019,W,0.056,066.26,281024,,,F,V*21
2024-10-29 10:03:46,592 [INFO] Received Standard NMEA Message: $GNRMC,211806.000,A,4910.42684027,N,12304.40104019,W,0.056,066.26,281024,,,F,V*21
2024-10-29 10:03:46,592 [INFO] RMC - Recommended Minimum:
  Timestamp: 21:18:06+00:00
  Status: A
  Latitude: 49.17378067116667 N
  Longitude: -123.07335066983333 W
  Speed over Ground: 0.056 knots
  Course over Ground: 66.26
  Date: 2024-10-28
  Magnetic Variation:  
  Mode Indicator: F
  Navigational Status: V

2024-10-29 10:03:46,593 [INFO] Processing sentence: $GNGLL,4910.42684027,N,12304.40104019,W,211806.000,A,D*54
2024-10-29 10:03:46,593 [INFO] Received Standard NMEA Message: $GNGLL,4910.42684027,N,12304.40104019,W,211806.000,A,D*54
2024-10-29 10:03:46,593 [INFO] GLL - Geographic Position:
  Latitude: 49.17378067116667 N
  Longitude: -123.07335066983333 W
  Timestamp: 21:18:06+00:00
  Status: A
  FAA Mode: D

2024-10-29 10:03:46,593 [INFO] Processing sentence: $GNVTG,066.26,T,,M,0.056,N,0.104,K,D*24
2024-10-29 10:03:46,593 [INFO] Received Standard NMEA Message: $GNVTG,066.26,T,,M,0.056,N,0.104,K,D*24
2024-10-29 10:03:46,593 [INFO] VTG - Course over Ground and Ground Speed:
  True Track: 66.26° T
  Magnetic Track: None° M
  Speed over Ground: 0.056 knots / 0.104 km/h
  FAA Mode: D

2024-10-29 10:03:46,593 [INFO] Processing sentence: $GNGSA,A,3,03,04,07,09,16,26,,,,,,,1.53,0.82,1.30,1*04
2024-10-29 10:03:46,593 [INFO] Received Standard NMEA Message: $GNGSA,A,3,03,04,07,09,16,26,,,,,,,1.53,0.82,1.30,1*04
2024-10-29 10:03:46,593 [INFO] GSA - Satellite Info:
  Mode: A
  Mode Fix Type: 3
  Satellites Used: 03, 04, 07, 09, 16, 26
  PDOP: 1.53
  HDOP: 0.82
  VDOP: 1.30

2024-10-29 10:03:46,593 [INFO] Processing sentence: $GNGSA,A,3,,,,,,,,,,,,,1.53,0.82,1.30,2*0D
2024-10-29 10:03:46,593 [INFO] Received Standard NMEA Message: $GNGSA,A,3,,,,,,,,,,,,,1.53,0.82,1.30,2*0D
2024-10-29 10:03:46,594 [INFO] GSA - Satellite Info:
  Mode: A
  Mode Fix Type: 3
  Satellites Used: 
  PDOP: 1.53
  HDOP: 0.82
  VDOP: 1.30

2024-10-29 10:03:46,594 [INFO] Processing sentence: $GNGSA,A,3,,,,,,,,,,,,,1.53,0.82,1.30,3*0C
2024-10-29 10:03:46,594 [INFO] Received Standard NMEA Message: $GNGSA,A,3,,,,,,,,,,,,,1.53,0.82,1.30,3*0C
2024-10-29 10:03:46,594 [INFO] GSA - Satellite Info:
  Mode: A
  Mode Fix Type: 3
  Satellites Used: 
  PDOP: 1.53
  HDOP: 0.82
  VDOP: 1.30

2024-10-29 10:03:46,594 [INFO] Processing sentence: $GNGSA,A,3,21,22,36,45,,,,,,,,,1.53,0.82,1.30,4*0C
2024-10-29 10:03:46,594 [INFO] Received Standard NMEA Message: $GNGSA,A,3,21,22,36,45,,,,,,,,,1.53,0.82,1.30,4*0C
2024-10-29 10:03:46,594 [INFO] GSA - Satellite Info:
  Mode: A
  Mode Fix Type: 3
  Satellites Used: 21, 22, 36, 45
  PDOP: 1.53
  HDOP: 0.82
  VDOP: 1.30

2024-10-29 10:03:46,594 [INFO] Processing sentence: $GNGSA,A,3,,,,,,,,,,,,,1.53,0.82,1.30,5*0A
2024-10-29 10:03:46,594 [INFO] Received Standard NMEA Message: $GNGSA,A,3,,,,,,,,,,,,,1.53,0.82,1.30,5*0A
2024-10-29 10:03:46,594 [INFO] GSA - Satellite Info:
  Mode: A
  Mode Fix Type: 3
  Satellites Used: 
  PDOP: 1.53
  HDOP: 0.82
  VDOP: 1.30

2024-10-29 10:03:46,594 [INFO] Processing sentence: $GNGSA,A,3,,,,,,,,,,,,,1.53,0.82,1.30,6*09
2024-10-29 10:03:46,594 [INFO] Received Standard NMEA Message: $GNGSA,A,3,,,,,,,,,,,,,1.53,0.82,1.30,6*09
2024-10-29 10:03:46,595 [INFO] GSA - Satellite Info:
  Mode: A
  Mode Fix Type: 3
  Satellites Used: 
  PDOP: 1.53
  HDOP: 0.82
  VDOP: 1.30

2024-10-29 10:03:46,595 [INFO] Processing sentence: $GPGSV,4,1,13,03,19,174,40,04,67,105,48,06,,,37,07,45,248,49,1*54
2024-10-29 10:03:46,595 [INFO] Received Standard NMEA Message: $GPGSV,4,1,13,03,19,174,40,04,67,105,48,06,,,37,07,45,248,49,1*54
2024-10-29 10:03:46,595 [INFO] GSV - Satellites in View:
  Number of Messages: 4
  Message Number: 1
  Total Satellites in View: 13
  Satellite 1 PRN: 03 - Elevation: 19° - Azimuth: 174° - SNR: 40 dB
  Satellite 2 PRN: 04 - Elevation: 67° - Azimuth: 105° - SNR: 48 dB
  Satellite 3 PRN: 06 - Elevation: ° - Azimuth: ° - SNR: 37 dB
  Satellite 4 PRN: 07 - Elevation: 45° - Azimuth: 248° - SNR: 49 dB

2024-10-29 10:03:46,595 [INFO] Processing sentence: $GPGSV,4,2,13,09,76,302,51,11,,,38,16,46,075,46,20,,,39,1*6B
2024-10-29 10:03:46,595 [INFO] Received Standard NMEA Message: $GPGSV,4,2,13,09,76,302,51,11,,,38,16,46,075,46,20,,,39,1*6B
2024-10-29 10:03:46,595 [INFO] GSV - Satellites in View:
  Number of Messages: 4
  Message Number: 2
  Total Satellites in View: 13
  Satellite 1 PRN: 09 - Elevation: 76° - Azimuth: 302° - SNR: 51 dB
  Satellite 2 PRN: 11 - Elevation: ° - Azimuth: ° - SNR: 38 dB
  Satellite 3 PRN: 16 - Elevation: 46° - Azimuth: 075° - SNR: 46 dB
  Satellite 4 PRN: 20 - Elevation: ° - Azimuth: ° - SNR: 39 dB

2024-10-29 10:03:46,595 [INFO] Processing sentence: $GPGSV,4,3,13,26,22,047,42,30,,,40,44,,,44,46,,,46,1*57
2024-10-29 10:03:46,595 [INFO] Received Standard NMEA Message: $GPGSV,4,3,13,26,22,047,42,30,,,40,44,,,44,46,,,46,1*57
2024-10-29 10:03:46,596 [INFO] GSV - Satellites in View:
  Number of Messages: 4
  Message Number: 3
  Total Satellites in View: 13
  Satellite 1 PRN: 26 - Elevation: 22° - Azimuth: 047° - SNR: 42 dB
  Satellite 2 PRN: 30 - Elevation: ° - Azimuth: ° - SNR: 40 dB
  Satellite 3 PRN: 44 - Elevation: ° - Azimuth: ° - SNR: 44 dB
  Satellite 4 PRN: 46 - Elevation: ° - Azimuth: ° - SNR: 46 dB

2024-10-29 10:03:46,596 [INFO] Processing sentence: $GPGSV,4,4,13,48,,,45,1*6B
2024-10-29 10:03:46,596 [INFO] Received Standard NMEA Message: $GPGSV,4,4,13,48,,,45,1*6B
2024-10-29 10:03:46,596 [INFO] GSV - Satellites in View:
  Number of Messages: 4
  Message Number: 4
  Total Satellites in View: 13
  Satellite 1 PRN: 48 - Elevation: ° - Azimuth: ° - SNR: 45 dB
  Satellite 2 PRN: 1 - Elevation: ° - Azimuth: ° - SNR:  dB
  Satellite 3 PRN:  - Elevation: ° - Azimuth: ° - SNR:  dB
  Satellite 4 PRN:  - Elevation: ° - Azimuth: ° - SNR:  dB

2024-10-29 10:03:46,596 [INFO] Processing sentence: $GPGSV,2,1,08,03,19,174,30,04,67,105,49,06,,,34,07,45,248,40,6*53
2024-10-29 10:03:46,596 [INFO] Received Standard NMEA Message: $GPGSV,2,1,08,03,19,174,30,04,67,105,49,06,,,34,07,45,248,40,6*53
2024-10-29 10:03:46,596 [INFO] GSV - Satellites in View:
  Number of Messages: 2
  Message Number: 1
  Total Satellites in View: 08
  Satellite 1 PRN: 03 - Elevation: 19° - Azimuth: 174° - SNR: 30 dB
  Satellite 2 PRN: 04 - Elevation: 67° - Azimuth: 105° - SNR: 49 dB
  Satellite 3 PRN: 06 - Elevation: ° - Azimuth: ° - SNR: 34 dB
  Satellite 4 PRN: 07 - Elevation: 45° - Azimuth: 248° - SNR: 40 dB

2024-10-29 10:03:46,596 [INFO] Processing sentence: $GPGSV,2,2,08,09,76,302,45,11,,,38,26,22,047,35,30,,,36,6*6F
2024-10-29 10:03:46,596 [INFO] Received Standard NMEA Message: $GPGSV,2,2,08,09,76,302,45,11,,,38,26,22,047,35,30,,,36,6*6F
2024-10-29 10:03:46,597 [INFO] GSV - Satellites in View:
  Number of Messages: 2
  Message Number: 2
  Total Satellites in View: 08
  Satellite 1 PRN: 09 - Elevation: 76° - Azimuth: 302° - SNR: 45 dB
  Satellite 2 PRN: 11 - Elevation: ° - Azimuth: ° - SNR: 38 dB
  Satellite 3 PRN: 26 - Elevation: 22° - Azimuth: 047° - SNR: 35 dB
  Satellite 4 PRN: 30 - Elevation: ° - Azimuth: ° - SNR: 36 dB

2024-10-29 10:03:46,597 [INFO] Processing sentence: $GPGSV,1,1,00,8*6D
2024-10-29 10:03:46,597 [INFO] Received Standard NMEA Message: $GPGSV,1,1,00,8*6D
2024-10-29 10:03:46,597 [INFO] GSV - Satellites in View:
  Number of Messages: 1
  Message Number: 1
  Total Satellites in View: 00
  Satellite 1 PRN: 8 - Elevation: ° - Azimuth: ° - SNR:  dB
  Satellite 2 PRN:  - Elevation: ° - Azimuth: ° - SNR:  dB
  Satellite 3 PRN:  - Elevation: ° - Azimuth: ° - SNR:  dB
  Satellite 4 PRN:  - Elevation: ° - Azimuth: ° - SNR:  dB

2024-10-29 10:03:46,597 [INFO] Processing sentence: $GLGSV,1,1,00,1*78
2024-10-29 10:03:46,597 [INFO] Received Standard NMEA Message: $GLGSV,1,1,00,1*78
2024-10-29 10:03:46,597 [INFO] GSV - Satellites in View:
  Number of Messages: 1
  Message Number: 1
  Total Satellites in View: 00
  Satellite 1 PRN: 1 - Elevation: ° - Azimuth: ° - SNR:  dB
  Satellite 2 PRN:  - Elevation: ° - Azimuth: ° - SNR:  dB
  Satellite 3 PRN:  - Elevation: ° - Azimuth: ° - SNR:  dB
  Satellite 4 PRN:  - Elevation: ° - Azimuth: ° - SNR:  dB

2024-10-29 10:03:46,597 [INFO] Processing sentence: $GLGSV,1,1,00,3*7A
2024-10-29 10:03:46,597 [INFO] Received Standard NMEA Message: $GLGSV,1,1,00,3*7A
2024-10-29 10:03:46,597 [INFO] GSV - Satellites in View:
  Number of Messages: 1
  Message Number: 1
  Total Satellites in View: 00
  Satellite 1 PRN: 3 - Elevation: ° - Azimuth: ° - SNR:  dB
  Satellite 2 PRN:  - Elevation: ° - Azimuth: ° - SNR:  dB
  Satellite 3 PRN:  - Elevation: ° - Azimuth: ° - SNR:  dB
  Satellite 4 PRN:  - Elevation: ° - Azimuth: ° - SNR:  dB

2024-10-29 10:03:46,598 [INFO] Processing sentence: $GAGSV,1,1,00,7*73
2024-10-29 10:03:46,598 [INFO] Received Standard NMEA Message: $GAGSV,1,1,00,7*73
2024-10-29 10:03:46,598 [INFO] GSV - Satellites in View:
  Number of Messages: 1
  Message Number: 1
  Total Satellites in View: 00
  Satellite 1 PRN: 7 - Elevation: ° - Azimuth: ° - SNR:  dB
  Satellite 2 PRN:  - Elevation: ° - Azimuth: ° - SNR:  dB
  Satellite 3 PRN:  - Elevation: ° - Azimuth: ° - SNR:  dB
  Satellite 4 PRN:  - Elevation: ° - Azimuth: ° - SNR:  dB

2024-10-29 10:03:46,598 [INFO] Processing sentence: $GAGSV,1,1,00,2*76
2024-10-29 10:03:46,598 [INFO] Received Standard NMEA Message: $GAGSV,1,1,00,2*76
2024-10-29 10:03:46,598 [INFO] GSV - Satellites in View:
  Number of Messages: 1
  Message Number: 1
  Total Satellites in View: 00
  Satellite 1 PRN: 2 - Elevation: ° - Azimuth: ° - SNR:  dB
  Satellite 2 PRN:  - Elevation: ° - Azimuth: ° - SNR:  dB
  Satellite 3 PRN:  - Elevation: ° - Azimuth: ° - SNR:  dB
  Satellite 4 PRN:  - Elevation: ° - Azimuth: ° - SNR:  dB

2024-10-29 10:03:46,598 [INFO] Processing sentence: $GAGSV,1,1,00,1*75
2024-10-29 10:03:46,598 [INFO] Received Standard NMEA Message: $GAGSV,1,1,00,1*75
2024-10-29 10:03:46,598 [INFO] GSV - Satellites in View:
  Number of Messages: 1
  Message Number: 1
  Total Satellites in View: 00
  Satellite 1 PRN: 1 - Elevation: ° - Azimuth: ° - SNR:  dB
  Satellite 2 PRN:  - Elevation: ° - Azimuth: ° - SNR:  dB
  Satellite 3 PRN:  - Elevation: ° - Azimuth: ° - SNR:  dB
  Satellite 4 PRN:  - Elevation: ° - Azimuth: ° - SNR:  dB

2024-10-29 10:03:46,598 [INFO] Processing sentence: $GAGSV,1,1,00,5*71
2024-10-29 10:03:46,598 [INFO] Received Standard NMEA Message: $GAGSV,1,1,00,5*71
2024-10-29 10:03:46,599 [INFO] GSV - Satellites in View:
  Number of Messages: 1
