2024-12-05 09:49:27,209 [INFO] Console logging setup complete. Logs are being saved to logs/NMEA_20241205_094927207964\console_output_20241205_094927207964.txt
2024-12-05 09:49:27,298 [INFO] Connected to serial port COM9 with baudrate 115200.
2024-12-05 09:49:28,147 [INFO] Standard NMEA Message: $GNGGA,174929.000,4910.426212,N,12304.398936,W,2,27,0.52,6.314,M,-16.816,M,,*43
2024-12-05 09:49:28,147 [INFO] GGA - Fix Data:
  Timestamp: 17:49:29+00:00
  Latitude: 49.1737702 N
  Longitude: -123.0733156 W
  GPS Quality Indicator: 2
  Number of Satellites in Use: 27
  Horizontal Dilution of Precision (HDOP): 0.52
  Antenna Altitude (Above Mean Sea Level): 6.314 M
  Geoidal Separation: -16.816 M
  Age of Differential GPS Data: 
  Differential Reference Station ID: 

2024-12-05 09:49:28,153 [INFO] Standard NMEA Message: $GNGLL,4910.426212,N,12304.398936,W,174929.000,A,D*57
2024-12-05 09:49:28,156 [INFO] GLL - Geographic Position:
  Latitude: 49.1737702 N
  Longitude: -123.0733156 W
  Timestamp: 17:49:29+00:00
  Status: A
  FAA Mode: D

2024-12-05 09:49:28,158 [INFO] Standard NMEA Message: $GNGSA,A,3,04,09,03,16,26,31,07,06,11,,,,0.90,0.52,0.74,1*02
2024-12-05 09:49:28,163 [INFO] GSA - Satellite Info:
  Mode: A
  Mode Fix Type: 3
  Satellites Used: 04, 09, 03, 16, 26, 31, 07, 06, 11
  PDOP: 0.90
  HDOP: 0.52
  VDOP: 0.74

2024-12-05 09:49:28,173 [INFO] Standard NMEA Message: $GNGSA,A,3,68,67,79,85,,,,,,,,,0.90,0.52,0.74,2*03
2024-12-05 09:49:28,178 [INFO] GSA - Satellite Info:
  Mode: A
  Mode Fix Type: 3
  Satellites Used: 68, 67, 79, 85
  PDOP: 0.90
  HDOP: 0.52
  VDOP: 0.74

2024-12-05 09:49:28,180 [INFO] Standard NMEA Message: $GNGSA,A,3,06,09,04,31,36,34,21,11,,,,,0.90,0.52,0.74,3*06
2024-12-05 09:49:28,188 [INFO] GSA - Satellite Info:
  Mode: A
  Mode Fix Type: 3
  Satellites Used: 06, 09, 04, 31, 36, 34, 21, 11
  PDOP: 0.90
  HDOP: 0.52
  VDOP: 0.74

2024-12-05 09:49:28,201 [INFO] Standard NMEA Message: $GNGSA,A,3,32,23,25,41,20,37,,,,,,,0.90,0.52,0.74,4*0D
2024-12-05 09:49:28,212 [INFO] GSA - Satellite Info:
  Mode: A
  Mode Fix Type: 3
  Satellites Used: 32, 23, 25, 41, 20, 37
  PDOP: 0.90
  HDOP: 0.52
  VDOP: 0.74

2024-12-05 09:49:28,221 [INFO] Standard NMEA Message: $GPGSV,3,1,12,04,82,348,38,09,54,293,37,03,46,173,36,16,42,113,33,1*68
2024-12-05 09:49:28,236 [INFO] GSV - Satellites in View:
  Number of Messages: 3
  Message Number: 1
  Total Satellites in View: 12
  Satellite 1 PRN: 04 - Elevation: 82° - Azimuth: 348° - SNR: 38 dB
  Satellite 2 PRN: 09 - Elevation: 54° - Azimuth: 293° - SNR: 37 dB
  Satellite 3 PRN: 03 - Elevation: 46° - Azimuth: 173° - SNR: 36 dB
  Satellite 4 PRN: 16 - Elevation: 42° - Azimuth: 113° - SNR: 33 dB

2024-12-05 09:49:28,247 [INFO] Standard NMEA Message: $GPGSV,3,2,12,26,39,068,35,48,33,182,32,31,27,058,34,07,25,233,31,1*6B
2024-12-05 09:49:28,253 [INFO] GSV - Satellites in View:
  Number of Messages: 3
  Message Number: 2
  Total Satellites in View: 12
  Satellite 1 PRN: 26 - Elevation: 39° - Azimuth: 068° - SNR: 35 dB
  Satellite 2 PRN: 48 - Elevation: 33° - Azimuth: 182° - SNR: 32 dB
  Satellite 3 PRN: 31 - Elevation: 27° - Azimuth: 058° - SNR: 34 dB
  Satellite 4 PRN: 07 - Elevation: 25° - Azimuth: 233° - SNR: 31 dB

2024-12-05 09:49:28,271 [INFO] Standard NMEA Message: $GPGSV,3,3,12,06,23,288,31,11,12,325,28,29,03,024,26,28,01,057,,1*6E
2024-12-05 09:49:28,280 [INFO] GSV - Satellites in View:
  Number of Messages: 3
  Message Number: 3
  Total Satellites in View: 12
  Satellite 1 PRN: 06 - Elevation: 23° - Azimuth: 288° - SNR: 31 dB
  Satellite 2 PRN: 11 - Elevation: 12° - Azimuth: 325° - SNR: 28 dB
  Satellite 3 PRN: 29 - Elevation: 03° - Azimuth: 024° - SNR: 26 dB
  Satellite 4 PRN: 28 - Elevation: 01° - Azimuth: 057° - SNR:  dB

2024-12-05 09:49:28,301 [INFO] Standard NMEA Message: $GLGSV,2,1,07,68,71,342,32,78,58,169,21,67,48,109,28,84,18,300,,1*76
2024-12-05 09:49:28,312 [INFO] GSV - Satellites in View:
  Number of Messages: 2
  Message Number: 1
  Total Satellites in View: 07
  Satellite 1 PRN: 68 - Elevation: 71° - Azimuth: 342° - SNR: 32 dB
  Satellite 2 PRN: 78 - Elevation: 58° - Azimuth: 169° - SNR: 21 dB
  Satellite 3 PRN: 67 - Elevation: 48° - Azimuth: 109° - SNR: 28 dB
  Satellite 4 PRN: 84 - Elevation: 18° - Azimuth: 300° - SNR:  dB

2024-12-05 09:49:28,327 [INFO] Standard NMEA Message: $GLGSV,2,2,07,79,11,196,21,85,11,351,23,76,05,028,18,1*40
2024-12-05 09:49:28,341 [INFO] GSV - Satellites in View:
  Number of Messages: 2
  Message Number: 2
  Total Satellites in View: 07
  Satellite 1 PRN: 79 - Elevation: 11° - Azimuth: 196° - SNR: 21 dB
  Satellite 2 PRN: 85 - Elevation: 11° - Azimuth: 351° - SNR: 23 dB
  Satellite 3 PRN: 76 - Elevation: 05° - Azimuth: 028° - SNR: 18 dB
  Satellite 4 PRN: 1 - Elevation: ° - Azimuth: ° - SNR:  dB

2024-12-05 09:49:28,350 [INFO] Standard NMEA Message: $GAGSV,3,1,10,06,83,038,35,09,66,297,35,04,58,089,32,31,30,153,29,7*77
2024-12-05 09:49:28,367 [INFO] GSV - Satellites in View:
  Number of Messages: 3
  Message Number: 1
  Total Satellites in View: 10
  Satellite 1 PRN: 06 - Elevation: 83° - Azimuth: 038° - SNR: 35 dB
  Satellite 2 PRN: 09 - Elevation: 66° - Azimuth: 297° - SNR: 35 dB
  Satellite 3 PRN: 04 - Elevation: 58° - Azimuth: 089° - SNR: 32 dB
  Satellite 4 PRN: 31 - Elevation: 30° - Azimuth: 153° - SNR: 29 dB

2024-12-05 09:49:28,379 [INFO] Standard NMEA Message: $GAGSV,3,2,10,36,26,259,26,34,21,314,24,21,16,036,26,05,14,283,17,7*76
2024-12-05 09:49:28,390 [INFO] GSV - Satellites in View:
  Number of Messages: 3
  Message Number: 2
  Total Satellites in View: 10
  Satellite 1 PRN: 36 - Elevation: 26° - Azimuth: 259° - SNR: 26 dB
  Satellite 2 PRN: 34 - Elevation: 21° - Azimuth: 314° - SNR: 24 dB
  Satellite 3 PRN: 21 - Elevation: 16° - Azimuth: 036° - SNR: 26 dB
  Satellite 4 PRN: 05 - Elevation: 14° - Azimuth: 283° - SNR: 17 dB

2024-12-05 09:49:28,402 [INFO] Standard NMEA Message: $GAGSV,3,3,10,11,08,213,20,19,02,098,,7*73
2024-12-05 09:49:28,413 [INFO] GSV - Satellites in View:
  Number of Messages: 3
  Message Number: 3
  Total Satellites in View: 10
  Satellite 1 PRN: 11 - Elevation: 08° - Azimuth: 213° - SNR: 20 dB
  Satellite 2 PRN: 19 - Elevation: 02° - Azimuth: 098° - SNR:  dB
  Satellite 3 PRN: 7 - Elevation: ° - Azimuth: ° - SNR:  dB
  Satellite 4 PRN:  - Elevation: ° - Azimuth: ° - SNR:  dB

2024-12-05 09:49:28,426 [INFO] Standard NMEA Message: $GBGSV,3,1,09,32,85,237,40,23,69,138,38,25,35,054,36,41,33,131,36,1*7A
2024-12-05 09:49:28,437 [INFO] GSV - Satellites in View:
  Number of Messages: 3
  Message Number: 1
  Total Satellites in View: 09
  Satellite 1 PRN: 32 - Elevation: 85° - Azimuth: 237° - SNR: 40 dB
  Satellite 2 PRN: 23 - Elevation: 69° - Azimuth: 138° - SNR: 38 dB
  Satellite 3 PRN: 25 - Elevation: 35° - Azimuth: 054° - SNR: 36 dB
  Satellite 4 PRN: 41 - Elevation: 33° - Azimuth: 131° - SNR: 36 dB

2024-12-05 09:49:28,444 [INFO] Standard NMEA Message: $GBGSV,3,2,09,20,29,305,37,37,29,202,34,35,02,344,,38,01,331,,1*71
2024-12-05 09:49:28,458 [INFO] GSV - Satellites in View:
  Number of Messages: 3
  Message Number: 2
  Total Satellites in View: 09
  Satellite 1 PRN: 20 - Elevation: 29° - Azimuth: 305° - SNR: 37 dB
  Satellite 2 PRN: 37 - Elevation: 29° - Azimuth: 202° - SNR: 34 dB
  Satellite 3 PRN: 35 - Elevation: 02° - Azimuth: 344° - SNR:  dB
  Satellite 4 PRN: 38 - Elevation: 01° - Azimuth: 331° - SNR:  dB

2024-12-05 09:49:28,472 [INFO] Standard NMEA Message: $GBGSV,3,3,09,04,01,262,,1*4C
2024-12-05 09:49:28,487 [INFO] GSV - Satellites in View:
  Number of Messages: 3
  Message Number: 3
  Total Satellites in View: 09
  Satellite 1 PRN: 04 - Elevation: 01° - Azimuth: 262° - SNR:  dB
  Satellite 2 PRN: 1 - Elevation: ° - Azimuth: ° - SNR:  dB
  Satellite 3 PRN:  - Elevation: ° - Azimuth: ° - SNR:  dB
  Satellite 4 PRN:  - Elevation: ° - Azimuth: ° - SNR:  dB

2024-12-05 09:49:28,506 [INFO] Standard NMEA Message: $GNRMC,174929.000,A,4910.426212,N,12304.398936,W,0.03,0.00,051224,,,D,V*19
2024-12-05 09:49:28,524 [INFO] RMC - Recommended Minimum:
  Timestamp: 17:49:29+00:00
  Status: A
  Latitude: 49.1737702 N
  Longitude: -123.0733156 W
  Speed over Ground: 0.03 knots
  Course over Ground: 0.0
  Date: 2024-12-05
  Magnetic Variation:  
  Mode Indicator: D
  Navigational Status: V

2024-12-05 09:49:28,532 [INFO] Standard NMEA Message: $GNVTG,0.00,T,,M,0.03,N,0.05,K,D*20
2024-12-05 09:49:28,545 [INFO] VTG - Course over Ground and Ground Speed:
  True Track: 0.0° T
  Magnetic Track: None° M
  Speed over Ground: 0.03 knots / 0.05 km/h
  FAA Mode: D

2024-12-05 09:49:29,150 [INFO] Standard NMEA Message: $GNGGA,174930.000,4910.426194,N,12304.399098,W,2,27,0.52,6.337,M,-16.817,M,,*4A
2024-12-05 09:49:29,157 [INFO] GGA - Fix Data:
  Timestamp: 17:49:30+00:00
  Latitude: 49.1737699 N
  Longitude: -123.0733183 W
  GPS Quality Indicator: 2
  Number of Satellites in Use: 27
  Horizontal Dilution of Precision (HDOP): 0.52
  Antenna Altitude (Above Mean Sea Level): 6.337 M
  Geoidal Separation: -16.817 M
  Age of Differential GPS Data: 
  Differential Reference Station ID: 

2024-12-05 09:49:29,169 [INFO] Standard NMEA Message: $GNGLL,4910.426194,N,12304.399098,W,174930.000,A,D*5E
2024-12-05 09:49:29,180 [INFO] GLL - Geographic Position:
  Latitude: 49.1737699 N
  Longitude: -123.0733183 W
  Timestamp: 17:49:30+00:00
  Status: A
  FAA Mode: D

2024-12-05 09:49:29,192 [INFO] Standard NMEA Message: $GNGSA,A,3,04,09,03,16,26,31,07,06,11,,,,0.90,0.52,0.74,1*02
2024-12-05 09:49:29,203 [INFO] GSA - Satellite Info:
  Mode: A
  Mode Fix Type: 3
  Satellites Used: 04, 09, 03, 16, 26, 31, 07, 06, 11
  PDOP: 0.90
  HDOP: 0.52
  VDOP: 0.74

2024-12-05 09:49:29,217 [INFO] Standard NMEA Message: $GNGSA,A,3,68,67,79,85,,,,,,,,,0.90,0.52,0.74,2*03
2024-12-05 09:49:29,230 [INFO] GSA - Satellite Info:
  Mode: A
  Mode Fix Type: 3
  Satellites Used: 68, 67, 79, 85
  PDOP: 0.90
  HDOP: 0.52
  VDOP: 0.74

2024-12-05 09:49:29,238 [INFO] Standard NMEA Message: $GNGSA,A,3,06,09,04,31,36,34,21,11,,,,,0.90,0.52,0.74,3*06
2024-12-05 09:49:29,250 [INFO] GSA - Satellite Info:
  Mode: A
  Mode Fix Type: 3
  Satellites Used: 06, 09, 04, 31, 36, 34, 21, 11
  PDOP: 0.90
  HDOP: 0.52
  VDOP: 0.74

2024-12-05 09:49:29,257 [INFO] Standard NMEA Message: $GNGSA,A,3,32,23,25,41,20,37,,,,,,,0.90,0.52,0.74,4*0D
2024-12-05 09:49:29,266 [INFO] GSA - Satellite Info:
  Mode: A
  Mode Fix Type: 3
  Satellites Used: 32, 23, 25, 41, 20, 37
  PDOP: 0.90
  HDOP: 0.52
  VDOP: 0.74

2024-12-05 09:49:29,277 [INFO] Standard NMEA Message: $GPGSV,3,1,12,04,82,348,38,09,54,293,37,03,46,173,36,16,42,113,33,1*68
2024-12-05 09:49:29,286 [INFO] GSV - Satellites in View:
  Number of Messages: 3
  Message Number: 1
  Total Satellites in View: 12
  Satellite 1 PRN: 04 - Elevation: 82° - Azimuth: 348° - SNR: 38 dB
  Satellite 2 PRN: 09 - Elevation: 54° - Azimuth: 293° - SNR: 37 dB
  Satellite 3 PRN: 03 - Elevation: 46° - Azimuth: 173° - SNR: 36 dB
  Satellite 4 PRN: 16 - Elevation: 42° - Azimuth: 113° - SNR: 33 dB

2024-12-05 09:49:29,297 [INFO] Standard NMEA Message: $GPGSV,3,2,12,26,39,068,35,48,33,182,32,31,27,058,33,07,25,233,31,1*6C
2024-12-05 09:49:29,302 [INFO] GSV - Satellites in View:
  Number of Messages: 3
  Message Number: 2
  Total Satellites in View: 12
  Satellite 1 PRN: 26 - Elevation: 39° - Azimuth: 068° - SNR: 35 dB
  Satellite 2 PRN: 48 - Elevation: 33° - Azimuth: 182° - SNR: 32 dB
  Satellite 3 PRN: 31 - Elevation: 27° - Azimuth: 058° - SNR: 33 dB
  Satellite 4 PRN: 07 - Elevation: 25° - Azimuth: 233° - SNR: 31 dB

2024-12-05 09:49:29,315 [INFO] Standard NMEA Message: $GPGSV,3,3,12,06,23,288,31,11,12,325,27,29,03,024,25,28,01,057,,1*62
2024-12-05 09:49:29,324 [INFO] GSV - Satellites in View:
  Number of Messages: 3
  Message Number: 3
  Total Satellites in View: 12
  Satellite 1 PRN: 06 - Elevation: 23° - Azimuth: 288° - SNR: 31 dB
  Satellite 2 PRN: 11 - Elevation: 12° - Azimuth: 325° - SNR: 27 dB
  Satellite 3 PRN: 29 - Elevation: 03° - Azimuth: 024° - SNR: 25 dB
  Satellite 4 PRN: 28 - Elevation: 01° - Azimuth: 057° - SNR:  dB

2024-12-05 09:49:29,338 [INFO] Standard NMEA Message: $GLGSV,2,1,07,68,71,342,32,78,58,169,21,67,48,109,28,84,18,300,,1*76
2024-12-05 09:49:29,351 [INFO] GSV - Satellites in View:
  Number of Messages: 2
  Message Number: 1
  Total Satellites in View: 07
  Satellite 1 PRN: 68 - Elevation: 71° - Azimuth: 342° - SNR: 32 dB
  Satellite 2 PRN: 78 - Elevation: 58° - Azimuth: 169° - SNR: 21 dB
  Satellite 3 PRN: 67 - Elevation: 48° - Azimuth: 109° - SNR: 28 dB
  Satellite 4 PRN: 84 - Elevation: 18° - Azimuth: 300° - SNR:  dB

2024-12-05 09:49:29,358 [INFO] Standard NMEA Message: $GLGSV,2,2,07,79,11,196,20,85,11,351,23,76,05,028,18,1*41
2024-12-05 09:49:29,359 [INFO] GSV - Satellites in View:
  Number of Messages: 2
  Message Number: 2
  Total Satellites in View: 07
  Satellite 1 PRN: 79 - Elevation: 11° - Azimuth: 196° - SNR: 20 dB
  Satellite 2 PRN: 85 - Elevation: 11° - Azimuth: 351° - SNR: 23 dB
  Satellite 3 PRN: 76 - Elevation: 05° - Azimuth: 028° - SNR: 18 dB
  Satellite 4 PRN: 1 - Elevation: ° - Azimuth: ° - SNR:  dB

2024-12-05 09:49:29,362 [INFO] Standard NMEA Message: $GAGSV,3,1,10,06,83,038,35,09,66,297,35,04,58,089,32,31,30,153,29,7*77
2024-12-05 09:49:29,372 [INFO] GSV - Satellites in View:
  Number of Messages: 3
  Message Number: 1
  Total Satellites in View: 10
  Satellite 1 PRN: 06 - Elevation: 83° - Azimuth: 038° - SNR: 35 dB
  Satellite 2 PRN: 09 - Elevation: 66° - Azimuth: 297° - SNR: 35 dB
  Satellite 3 PRN: 04 - Elevation: 58° - Azimuth: 089° - SNR: 32 dB
  Satellite 4 PRN: 31 - Elevation: 30° - Azimuth: 153° - SNR: 29 dB

2024-12-05 09:49:29,385 [INFO] Standard NMEA Message: $GAGSV,3,2,10,36,26,259,26,34,21,314,24,21,16,036,25,05,14,283,17,7*75
2024-12-05 09:49:29,395 [INFO] GSV - Satellites in View:
  Number of Messages: 3
  Message Number: 2
  Total Satellites in View: 10
  Satellite 1 PRN: 36 - Elevation: 26° - Azimuth: 259° - SNR: 26 dB
  Satellite 2 PRN: 34 - Elevation: 21° - Azimuth: 314° - SNR: 24 dB
  Satellite 3 PRN: 21 - Elevation: 16° - Azimuth: 036° - SNR: 25 dB
  Satellite 4 PRN: 05 - Elevation: 14° - Azimuth: 283° - SNR: 17 dB

2024-12-05 09:49:29,408 [INFO] Standard NMEA Message: $GAGSV,3,3,10,11,08,213,20,19,02,098,,7*73
2024-12-05 09:49:29,418 [INFO] GSV - Satellites in View:
  Number of Messages: 3
  Message Number: 3
  Total Satellites in View: 10
  Satellite 1 PRN: 11 - Elevation: 08° - Azimuth: 213° - SNR: 20 dB
  Satellite 2 PRN: 19 - Elevation: 02° - Azimuth: 098° - SNR:  dB
  Satellite 3 PRN: 7 - Elevation: ° - Azimuth: ° - SNR:  dB
  Satellite 4 PRN:  - Elevation: ° - Azimuth: ° - SNR:  dB

2024-12-05 09:49:29,422 [INFO] Standard NMEA Message: $GBGSV,3,1,09,32,85,237,40,23,69,138,38,25,35,054,36,41,33,131,36,1*7A
2024-12-05 09:49:29,437 [INFO] GSV - Satellites in View:
  Number of Messages: 3
  Message Number: 1
  Total Satellites in View: 09
  Satellite 1 PRN: 32 - Elevation: 85° - Azimuth: 237° - SNR: 40 dB
  Satellite 2 PRN: 23 - Elevation: 69° - Azimuth: 138° - SNR: 38 dB
  Satellite 3 PRN: 25 - Elevation: 35° - Azimuth: 054° - SNR: 36 dB
  Satellite 4 PRN: 41 - Elevation: 33° - Azimuth: 131° - SNR: 36 dB

2024-12-05 09:49:29,452 [INFO] Standard NMEA Message: $GBGSV,3,2,09,20,29,305,37,37,29,202,34,35,02,344,,38,01,331,,1*71
2024-12-05 09:49:29,462 [INFO] GSV - Satellites in View:
  Number of Messages: 3
  Message Number: 2
  Total Satellites in View: 09
  Satellite 1 PRN: 20 - Elevation: 29° - Azimuth: 305° - SNR: 37 dB
  Satellite 2 PRN: 37 - Elevation: 29° - Azimuth: 202° - SNR: 34 dB
  Satellite 3 PRN: 35 - Elevation: 02° - Azimuth: 344° - SNR:  dB
  Satellite 4 PRN: 38 - Elevation: 01° - Azimuth: 331° - SNR:  dB

2024-12-05 09:49:29,475 [INFO] Standard NMEA Message: $GBGSV,3,3,09,04,01,262,,1*4C
2024-12-05 09:49:29,486 [INFO] GSV - Satellites in View:
  Number of Messages: 3
  Message Number: 3
  Total Satellites in View: 09
  Satellite 1 PRN: 04 - Elevation: 01° - Azimuth: 262° - SNR:  dB
  Satellite 2 PRN: 1 - Elevation: ° - Azimuth: ° - SNR:  dB
  Satellite 3 PRN:  - Elevation: ° - Azimuth: ° - SNR:  dB
  Satellite 4 PRN:  - Elevation: ° - Azimuth: ° - SNR:  dB

2024-12-05 09:49:29,498 [INFO] Standard NMEA Message: $GNRMC,174930.000,A,4910.426194,N,12304.399098,W,0.03,0.00,051224,,,D,V*10
2024-12-05 09:49:29,508 [INFO] RMC - Recommended Minimum:
  Timestamp: 17:49:30+00:00
  Status: A
  Latitude: 49.1737699 N
  Longitude: -123.0733183 W
  Speed over Ground: 0.03 knots
  Course over Ground: 0.0
  Date: 2024-12-05
  Magnetic Variation:  
  Mode Indicator: D
  Navigational Status: V

2024-12-05 09:49:29,521 [INFO] Standard NMEA Message: $GNVTG,0.00,T,,M,0.03,N,0.05,K,D*20
2024-12-05 09:49:29,531 [INFO] VTG - Course over Ground and Ground Speed:
  True Track: 0.0° T
  Magnetic Track: None° M
  Speed over Ground: 0.03 knots / 0.05 km/h
  FAA Mode: D

2024-12-05 09:49:30,136 [INFO] Standard NMEA Message: $GNGGA,174931.000,4910.426128,N,12304.399176,W,2,27,0.52,6.398,M,-16.817,M,,*48
2024-12-05 09:49:30,142 [INFO] GGA - Fix Data:
  Timestamp: 17:49:31+00:00
  Latitude: 49.1737688 N
  Longitude: -123.0733196 W
  GPS Quality Indicator: 2
  Number of Satellites in Use: 27
  Horizontal Dilution of Precision (HDOP): 0.52
  Antenna Altitude (Above Mean Sea Level): 6.398 M
  Geoidal Separation: -16.817 M
  Age of Differential GPS Data: 
  Differential Reference Station ID: 

2024-12-05 09:49:30,154 [INFO] Standard NMEA Message: $GNGLL,4910.426128,N,12304.399176,W,174931.000,A,D*59
2024-12-05 09:49:30,166 [INFO] GLL - Geographic Position:
  Latitude: 49.1737688 N
  Longitude: -123.0733196 W
  Timestamp: 17:49:31+00:00
  Status: A
  FAA Mode: D

2024-12-05 09:49:30,169 [INFO] Standard NMEA Message: $GNGSA,A,3,04,09,03,16,26,31,07,06,11,,,,0.90,0.52,0.74,1*02
2024-12-05 09:49:30,170 [INFO] GSA - Satellite Info:
  Mode: A
  Mode Fix Type: 3
  Satellites Used: 04, 09, 03, 16, 26, 31, 07, 06, 11
  PDOP: 0.90
  HDOP: 0.52
  VDOP: 0.74

2024-12-05 09:49:30,171 [INFO] Standard NMEA Message: $GNGSA,A,3,68,67,79,85,,,,,,,,,0.90,0.52,0.74,2*03
2024-12-05 09:49:30,172 [INFO] GSA - Satellite Info:
  Mode: A
  Mode Fix Type: 3
  Satellites Used: 68, 67, 79, 85
  PDOP: 0.90
  HDOP: 0.52
  VDOP: 0.74

2024-12-05 09:49:30,174 [INFO] Standard NMEA Message: $GNGSA,A,3,06,09,04,31,36,34,21,11,,,,,0.90,0.52,0.74,3*06
2024-12-05 09:49:30,175 [INFO] GSA - Satellite Info:
  Mode: A
  Mode Fix Type: 3
  Satellites Used: 06, 09, 04, 31, 36, 34, 21, 11
  PDOP: 0.90
  HDOP: 0.52
  VDOP: 0.74

2024-12-05 09:49:30,177 [INFO] Standard NMEA Message: $GNGSA,A,3,32,23,25,41,20,37,,,,,,,0.90,0.52,0.74,4*0D
2024-12-05 09:49:30,183 [INFO] GSA - Satellite Info:
  Mode: A
  Mode Fix Type: 3
  Satellites Used: 32, 23, 25, 41, 20, 37
  PDOP: 0.90
  HDOP: 0.52
  VDOP: 0.74

2024-12-05 09:49:30,196 [INFO] Standard NMEA Message: $GPGSV,3,1,12,04,82,348,38,09,54,293,37,03,46,173,36,16,42,113,33,1*68
2024-12-05 09:49:30,206 [INFO] GSV - Satellites in View:
  Number of Messages: 3
  Message Number: 1
  Total Satellites in View: 12
  Satellite 1 PRN: 04 - Elevation: 82° - Azimuth: 348° - SNR: 38 dB
  Satellite 2 PRN: 09 - Elevation: 54° - Azimuth: 293° - SNR: 37 dB
  Satellite 3 PRN: 03 - Elevation: 46° - Azimuth: 173° - SNR: 36 dB
  Satellite 4 PRN: 16 - Elevation: 42° - Azimuth: 113° - SNR: 33 dB

2024-12-05 09:49:30,216 [INFO] Standard NMEA Message: $GPGSV,3,2,12,26,39,068,35,48,33,182,32,31,27,058,33,07,25,233,31,1*6C
2024-12-05 09:49:30,226 [INFO] GSV - Satellites in View:
  Number of Messages: 3
  Message Number: 2
  Total Satellites in View: 12
  Satellite 1 PRN: 26 - Elevation: 39° - Azimuth: 068° - SNR: 35 dB
  Satellite 2 PRN: 48 - Elevation: 33° - Azimuth: 182° - SNR: 32 dB
  Satellite 3 PRN: 31 - Elevation: 27° - Azimuth: 058° - SNR: 33 dB
  Satellite 4 PRN: 07 - Elevation: 25° - Azimuth: 233° - SNR: 31 dB

2024-12-05 09:49:30,233 [INFO] Standard NMEA Message: $GPGSV,3,3,12,06,23,288,31,11,12,325,27,29,03,024,25,28,01,057,,1*62
2024-12-05 09:49:30,239 [INFO] GSV - Satellites in View:
  Number of Messages: 3
  Message Number: 3
  Total Satellites in View: 12
  Satellite 1 PRN: 06 - Elevation: 23° - Azimuth: 288° - SNR: 31 dB
  Satellite 2 PRN: 11 - Elevation: 12° - Azimuth: 325° - SNR: 27 dB
  Satellite 3 PRN: 29 - Elevation: 03° - Azimuth: 024° - SNR: 25 dB
  Satellite 4 PRN: 28 - Elevation: 01° - Azimuth: 057° - SNR:  dB

2024-12-05 09:49:30,247 [INFO] Standard NMEA Message: $GLGSV,2,1,07,68,71,342,32,78,58,169,21,67,48,109,27,84,18,300,,1*79
2024-12-05 09:49:30,248 [INFO] GSV - Satellites in View:
  Number of Messages: 2
  Message Number: 1
  Total Satellites in View: 07
  Satellite 1 PRN: 68 - Elevation: 71° - Azimuth: 342° - SNR: 32 dB
  Satellite 2 PRN: 78 - Elevation: 58° - Azimuth: 169° - SNR: 21 dB
  Satellite 3 PRN: 67 - Elevation: 48° - Azimuth: 109° - SNR: 27 dB
  Satellite 4 PRN: 84 - Elevation: 18° - Azimuth: 300° - SNR:  dB

2024-12-05 09:49:30,250 [INFO] Standard NMEA Message: $GLGSV,2,2,07,79,11,196,20,85,11,351,23,76,05,028,18,1*41
2024-12-05 09:49:30,260 [INFO] GSV - Satellites in View:
  Number of Messages: 2
  Message Number: 2
  Total Satellites in View: 07
  Satellite 1 PRN: 79 - Elevation: 11° - Azimuth: 196° - SNR: 20 dB
  Satellite 2 PRN: 85 - Elevation: 11° - Azimuth: 351° - SNR: 23 dB
  Satellite 3 PRN: 76 - Elevation: 05° - Azimuth: 028° - SNR: 18 dB
  Satellite 4 PRN: 1 - Elevation: ° - Azimuth: ° - SNR:  dB

2024-12-05 09:49:30,269 [INFO] Standard NMEA Message: $GAGSV,3,1,10,06,83,038,35,09,66,297,35,04,58,089,32,31,30,153,29,7*77
2024-12-05 09:49:30,271 [INFO] GSV - Satellites in View:
  Number of Messages: 3
  Message Number: 1
  Total Satellites in View: 10
  Satellite 1 PRN: 06 - Elevation: 83° - Azimuth: 038° - SNR: 35 dB
  Satellite 2 PRN: 09 - Elevation: 66° - Azimuth: 297° - SNR: 35 dB
  Satellite 3 PRN: 04 - Elevation: 58° - Azimuth: 089° - SNR: 32 dB
  Satellite 4 PRN: 31 - Elevation: 30° - Azimuth: 153° - SNR: 29 dB

2024-12-05 09:49:30,273 [INFO] Standard NMEA Message: $GAGSV,3,2,10,36,26,259,26,34,21,314,24,21,16,036,25,05,14,283,16,7*74
2024-12-05 09:49:30,280 [INFO] GSV - Satellites in View:
  Number of Messages: 3
  Message Number: 2
  Total Satellites in View: 10
  Satellite 1 PRN: 36 - Elevation: 26° - Azimuth: 259° - SNR: 26 dB
  Satellite 2 PRN: 34 - Elevation: 21° - Azimuth: 314° - SNR: 24 dB
  Satellite 3 PRN: 21 - Elevation: 16° - Azimuth: 036° - SNR: 25 dB
  Satellite 4 PRN: 05 - Elevation: 14° - Azimuth: 283° - SNR: 16 dB

2024-12-05 09:49:30,286 [INFO] Standard NMEA Message: $GAGSV,3,3,10,11,08,213,20,19,02,098,,7*73
2024-12-05 09:49:30,287 [INFO] GSV - Satellites in View:
  Number of Messages: 3
  Message Number: 3
  Total Satellites in View: 10
  Satellite 1 PRN: 11 - Elevation: 08° - Azimuth: 213° - SNR: 20 dB
  Satellite 2 PRN: 19 - Elevation: 02° - Azimuth: 098° - SNR:  dB
  Satellite 3 PRN: 7 - Elevation: ° - Azimuth: ° - SNR:  dB
  Satellite 4 PRN:  - Elevation: ° - Azimuth: ° - SNR:  dB

2024-12-05 09:49:30,290 [INFO] Standard NMEA Message: $GBGSV,3,1,09,32,85,237,40,23,69,138,38,25,35,054,36,41,33,131,36,1*7A
2024-12-05 09:49:30,291 [INFO] GSV - Satellites in View:
  Number of Messages: 3
  Message Number: 1
  Total Satellites in View: 09
  Satellite 1 PRN: 32 - Elevation: 85° - Azimuth: 237° - SNR: 40 dB
  Satellite 2 PRN: 23 - Elevation: 69° - Azimuth: 138° - SNR: 38 dB
  Satellite 3 PRN: 25 - Elevation: 35° - Azimuth: 054° - SNR: 36 dB
  Satellite 4 PRN: 41 - Elevation: 33° - Azimuth: 131° - SNR: 36 dB

2024-12-05 09:49:30,293 [INFO] Standard NMEA Message: $GBGSV,3,2,09,20,29,305,37,37,29,202,34,35,02,344,,38,01,331,,1*71
2024-12-05 09:49:30,295 [INFO] GSV - Satellites in View:
  Number of Messages: 3
  Message Number: 2
  Total Satellites in View: 09
  Satellite 1 PRN: 20 - Elevation: 29° - Azimuth: 305° - SNR: 37 dB
  Satellite 2 PRN: 37 - Elevation: 29° - Azimuth: 202° - SNR: 34 dB
  Satellite 3 PRN: 35 - Elevation: 02° - Azimuth: 344° - SNR:  dB
  Satellite 4 PRN: 38 - Elevation: 01° - Azimuth: 331° - SNR:  dB

2024-12-05 09:49:30,309 [INFO] Standard NMEA Message: $GBGSV,3,3,09,04,01,262,,1*4C
2024-12-05 09:49:30,315 [INFO] GSV - Satellites in View:
  Number of Messages: 3
  Message Number: 3
  Total Satellites in View: 09
  Satellite 1 PRN: 04 - Elevation: 01° - Azimuth: 262° - SNR:  dB
  Satellite 2 PRN: 1 - Elevation: ° - Azimuth: ° - SNR:  dB
  Satellite 3 PRN:  - Elevation: ° - Azimuth: ° - SNR:  dB
  Satellite 4 PRN:  - Elevation: ° - Azimuth: ° - SNR:  dB

2024-12-05 09:49:30,325 [INFO] Standard NMEA Message: $GNRMC,174931.000,A,4910.426128,N,12304.399176,W,0.03,0.00,051224,,,D,V*17
2024-12-05 09:49:30,337 [INFO] RMC - Recommended Minimum:
  Timestamp: 17:49:31+00:00
  Status: A
  Latitude: 49.1737688 N
  Longitude: -123.0733196 W
  Speed over Ground: 0.03 knots
  Course over Ground: 0.0
  Date: 2024-12-05
  Magnetic Variation:  
  Mode Indicator: D
  Navigational Status: V

2024-12-05 09:49:30,343 [INFO] Standard NMEA Message: $GNVTG,0.00,T,,M,0.03,N,0.05,K,D*20
2024-12-05 09:49:30,351 [INFO] VTG - Course over Ground and Ground Speed:
  True Track: 0.0° T
  Magnetic Track: None° M
  Speed over Ground: 0.03 knots / 0.05 km/h
  FAA Mode: D

2024-12-05 09:49:31,147 [INFO] Standard NMEA Message: $GNGGA,174932.000,4910.426122,N,12304.399326,W,2,27,0.52,6.390,M,-16.816,M,,*4F
2024-12-05 09:49:31,149 [INFO] GGA - Fix Data:
  Timestamp: 17:49:32+00:00
  Latitude: 49.1737687 N
  Longitude: -123.0733221 W
  GPS Quality Indicator: 2
  Number of Satellites in Use: 27
  Horizontal Dilution of Precision (HDOP): 0.52
  Antenna Altitude (Above Mean Sea Level): 6.39 M
  Geoidal Separation: -16.816 M
  Age of Differential GPS Data: 
  Differential Reference Station ID: 

2024-12-05 09:49:31,153 [INFO] Standard NMEA Message: $GNGLL,4910.426122,N,12304.399326,W,174932.000,A,D*57
2024-12-05 09:49:31,156 [INFO] GLL - Geographic Position:
  Latitude: 49.1737687 N
  Longitude: -123.0733221 W
  Timestamp: 17:49:32+00:00
  Status: A
  FAA Mode: D

2024-12-05 09:49:31,159 [INFO] Standard NMEA Message: $GNGSA,A,3,04,09,03,16,26,31,07,06,11,,,,0.90,0.52,0.74,1*02
2024-12-05 09:49:31,169 [INFO] GSA - Satellite Info:
  Mode: A
  Mode Fix Type: 3
  Satellites Used: 04, 09, 03, 16, 26, 31, 07, 06, 11
  PDOP: 0.90
  HDOP: 0.52
  VDOP: 0.74

2024-12-05 09:49:31,178 [INFO] Standard NMEA Message: $GNGSA,A,3,68,67,79,85,,,,,,,,,0.90,0.52,0.74,2*03
2024-12-05 09:49:31,188 [INFO] GSA - Satellite Info:
  Mode: A
  Mode Fix Type: 3
  Satellites Used: 68, 67, 79, 85
  PDOP: 0.90
  HDOP: 0.52
  VDOP: 0.74

2024-12-05 09:49:31,199 [INFO] Standard NMEA Message: $GNGSA,A,3,06,09,04,31,36,34,21,11,,,,,0.90,0.52,0.74,3*06
2024-12-05 09:49:31,209 [INFO] GSA - Satellite Info:
  Mode: A
  Mode Fix Type: 3
  Satellites Used: 06, 09, 04, 31, 36, 34, 21, 11
  PDOP: 0.90
  HDOP: 0.52
  VDOP: 0.74

2024-12-05 09:49:31,221 [INFO] Standard NMEA Message: $GNGSA,A,3,32,23,25,41,20,37,,,,,,,0.90,0.52,0.74,4*0D
2024-12-05 09:49:31,230 [INFO] GSA - Satellite Info:
  Mode: A
  Mode Fix Type: 3
  Satellites Used: 32, 23, 25, 41, 20, 37
  PDOP: 0.90
  HDOP: 0.52
  VDOP: 0.74

2024-12-05 09:49:31,244 [INFO] Standard NMEA Message: $GPGSV,3,1,12,04,82,348,38,09,54,293,37,03,45,173,36,16,42,113,33,1*6B
2024-12-05 09:49:31,255 [INFO] GSV - Satellites in View:
  Number of Messages: 3
  Message Number: 1
  Total Satellites in View: 12
  Satellite 1 PRN: 04 - Elevation: 82° - Azimuth: 348° - SNR: 38 dB
  Satellite 2 PRN: 09 - Elevation: 54° - Azimuth: 293° - SNR: 37 dB
  Satellite 3 PRN: 03 - Elevation: 45° - Azimuth: 173° - SNR: 36 dB
  Satellite 4 PRN: 16 - Elevation: 42° - Azimuth: 113° - SNR: 33 dB

2024-12-05 09:49:31,262 [INFO] Standard NMEA Message: $GPGSV,3,2,12,26,39,068,35,48,33,182,32,31,27,058,33,07,25,233,31,1*6C
2024-12-05 09:49:31,275 [INFO] GSV - Satellites in View:
  Number of Messages: 3
  Message Number: 2
  Total Satellites in View: 12
  Satellite 1 PRN: 26 - Elevation: 39° - Azimuth: 068° - SNR: 35 dB
  Satellite 2 PRN: 48 - Elevation: 33° - Azimuth: 182° - SNR: 32 dB
  Satellite 3 PRN: 31 - Elevation: 27° - Azimuth: 058° - SNR: 33 dB
  Satellite 4 PRN: 07 - Elevation: 25° - Azimuth: 233° - SNR: 31 dB

2024-12-05 09:49:31,288 [INFO] Standard NMEA Message: $GPGSV,3,3,12,06,23,288,30,11,12,325,27,29,03,024,25,28,01,057,,1*63
2024-12-05 09:49:31,298 [INFO] GSV - Satellites in View:
  Number of Messages: 3
  Message Number: 3
  Total Satellites in View: 12
  Satellite 1 PRN: 06 - Elevation: 23° - Azimuth: 288° - SNR: 30 dB
  Satellite 2 PRN: 11 - Elevation: 12° - Azimuth: 325° - SNR: 27 dB
  Satellite 3 PRN: 29 - Elevation: 03° - Azimuth: 024° - SNR: 25 dB
  Satellite 4 PRN: 28 - Elevation: 01° - Azimuth: 057° - SNR:  dB

2024-12-05 09:49:31,310 [INFO] Standard NMEA Message: $GLGSV,2,1,07,68,71,342,32,78,58,169,21,67,48,109,28,84,18,300,,1*76
2024-12-05 09:49:31,320 [INFO] GSV - Satellites in View:
  Number of Messages: 2
  Message Number: 1
  Total Satellites in View: 07
  Satellite 1 PRN: 68 - Elevation: 71° - Azimuth: 342° - SNR: 32 dB
  Satellite 2 PRN: 78 - Elevation: 58° - Azimuth: 169° - SNR: 21 dB
  Satellite 3 PRN: 67 - Elevation: 48° - Azimuth: 109° - SNR: 28 dB
  Satellite 4 PRN: 84 - Elevation: 18° - Azimuth: 300° - SNR:  dB

2024-12-05 09:49:31,331 [INFO] Standard NMEA Message: $GLGSV,2,2,07,79,11,196,20,85,11,351,22,76,05,028,18,1*40
2024-12-05 09:49:31,337 [INFO] GSV - Satellites in View:
  Number of Messages: 2
  Message Number: 2
  Total Satellites in View: 07
  Satellite 1 PRN: 79 - Elevation: 11° - Azimuth: 196° - SNR: 20 dB
  Satellite 2 PRN: 85 - Elevation: 11° - Azimuth: 351° - SNR: 22 dB
  Satellite 3 PRN: 76 - Elevation: 05° - Azimuth: 028° - SNR: 18 dB
  Satellite 4 PRN: 1 - Elevation: ° - Azimuth: ° - SNR:  dB

2024-12-05 09:49:31,349 [INFO] Standard NMEA Message: $GAGSV,3,1,10,06,83,038,34,09,66,297,35,04,58,089,32,31,30,153,29,7*76
2024-12-05 09:49:31,354 [INFO] GSV - Satellites in View:
  Number of Messages: 3
  Message Number: 1
  Total Satellites in View: 10
  Satellite 1 PRN: 06 - Elevation: 83° - Azimuth: 038° - SNR: 34 dB
  Satellite 2 PRN: 09 - Elevation: 66° - Azimuth: 297° - SNR: 35 dB
  Satellite 3 PRN: 04 - Elevation: 58° - Azimuth: 089° - SNR: 32 dB
  Satellite 4 PRN: 31 - Elevation: 30° - Azimuth: 153° - SNR: 29 dB

2024-12-05 09:49:31,367 [INFO] Standard NMEA Message: $GAGSV,3,2,10,36,26,259,25,34,21,314,24,21,16,036,25,05,14,283,16,7*77
2024-12-05 09:49:31,377 [INFO] GSV - Satellites in View:
  Number of Messages: 3
  Message Number: 2
  Total Satellites in View: 10
  Satellite 1 PRN: 36 - Elevation: 26° - Azimuth: 259° - SNR: 25 dB
  Satellite 2 PRN: 34 - Elevation: 21° - Azimuth: 314° - SNR: 24 dB
  Satellite 3 PRN: 21 - Elevation: 16° - Azimuth: 036° - SNR: 25 dB
  Satellite 4 PRN: 05 - Elevation: 14° - Azimuth: 283° - SNR: 16 dB

2024-12-05 09:49:31,389 [INFO] Standard NMEA Message: $GAGSV,3,3,10,11,08,213,20,19,02,098,,7*73
2024-12-05 09:49:31,400 [INFO] GSV - Satellites in View:
  Number of Messages: 3
  Message Number: 3
  Total Satellites in View: 10
  Satellite 1 PRN: 11 - Elevation: 08° - Azimuth: 213° - SNR: 20 dB
  Satellite 2 PRN: 19 - Elevation: 02° - Azimuth: 098° - SNR:  dB
  Satellite 3 PRN: 7 - Elevation: ° - Azimuth: ° - SNR:  dB
  Satellite 4 PRN:  - Elevation: ° - Azimuth: ° - SNR:  dB

2024-12-05 09:49:31,413 [INFO] Standard NMEA Message: $GBGSV,3,1,09,32,85,237,40,23,69,138,38,25,35,054,36,41,33,131,36,1*7A
2024-12-05 09:49:31,419 [INFO] GSV - Satellites in View:
  Number of Messages: 3
  Message Number: 1
  Total Satellites in View: 09
  Satellite 1 PRN: 32 - Elevation: 85° - Azimuth: 237° - SNR: 40 dB
  Satellite 2 PRN: 23 - Elevation: 69° - Azimuth: 138° - SNR: 38 dB
  Satellite 3 PRN: 25 - Elevation: 35° - Azimuth: 054° - SNR: 36 dB
  Satellite 4 PRN: 41 - Elevation: 33° - Azimuth: 131° - SNR: 36 dB

2024-12-05 09:49:31,426 [INFO] Standard NMEA Message: $GBGSV,3,2,09,20,29,305,37,37,29,202,34,35,02,344,,38,01,331,,1*71
2024-12-05 09:49:31,436 [INFO] GSV - Satellites in View:
  Number of Messages: 3
  Message Number: 2
  Total Satellites in View: 09
  Satellite 1 PRN: 20 - Elevation: 29° - Azimuth: 305° - SNR: 37 dB
  Satellite 2 PRN: 37 - Elevation: 29° - Azimuth: 202° - SNR: 34 dB
  Satellite 3 PRN: 35 - Elevation: 02° - Azimuth: 344° - SNR:  dB
  Satellite 4 PRN: 38 - Elevation: 01° - Azimuth: 331° - SNR:  dB

2024-12-05 09:49:31,449 [INFO] Standard NMEA Message: $GBGSV,3,3,09,04,01,262,,1*4C
2024-12-05 09:49:31,455 [INFO] GSV - Satellites in View:
  Number of Messages: 3
  Message Number: 3
  Total Satellites in View: 09
  Satellite 1 PRN: 04 - Elevation: 01° - Azimuth: 262° - SNR:  dB
  Satellite 2 PRN: 1 - Elevation: ° - Azimuth: ° - SNR:  dB
  Satellite 3 PRN:  - Elevation: ° - Azimuth: ° - SNR:  dB
  Satellite 4 PRN:  - Elevation: ° - Azimuth: ° - SNR:  dB

2024-12-05 09:49:31,470 [INFO] Standard NMEA Message: $GNRMC,174932.000,A,4910.426122,N,12304.399326,W,0.02,0.00,051224,,,D,V*18
2024-12-05 09:49:31,479 [INFO] RMC - Recommended Minimum:
  Timestamp: 17:49:32+00:00
  Status: A
  Latitude: 49.1737687 N
  Longitude: -123.0733221 W
  Speed over Ground: 0.02 knots
  Course over Ground: 0.0
  Date: 2024-12-05
  Magnetic Variation:  
  Mode Indicator: D
  Navigational Status: V

2024-12-05 09:49:31,486 [INFO] Standard NMEA Message: $GNVTG,0.00,T,,M,0.02,N,0.04,K,D*20
2024-12-05 09:49:31,496 [INFO] VTG - Course over Ground and Ground Speed:
  True Track: 0.0° T
  Magnetic Track: None° M
  Speed over Ground: 0.02 knots / 0.04 km/h
  FAA Mode: D

2024-12-05 09:49:32,138 [INFO] Standard NMEA Message: $GNGGA,174933.000,4910.426104,N,12304.399506,W,2,27,0.52,6.496,M,-16.816,M,,*4F
2024-12-05 09:49:32,140 [INFO] GGA - Fix Data:
  Timestamp: 17:49:33+00:00
  Latitude: 49.1737684 N
  Longitude: -123.0733251 W
  GPS Quality Indicator: 2
  Number of Satellites in Use: 27
  Horizontal Dilution of Precision (HDOP): 0.52
  Antenna Altitude (Above Mean Sea Level): 6.496 M
  Geoidal Separation: -16.816 M
  Age of Differential GPS Data: 
  Differential Reference Station ID: 

2024-12-05 09:49:32,154 [INFO] Standard NMEA Message: $GNGLL,4910.426104,N,12304.399506,W,174933.000,A,D*56
2024-12-05 09:49:32,166 [INFO] GLL - Geographic Position:
  Latitude: 49.1737684 N
  Longitude: -123.0733251 W
  Timestamp: 17:49:33+00:00
  Status: A
  FAA Mode: D

2024-12-05 09:49:32,181 [INFO] Standard NMEA Message: $GNGSA,A,3,04,09,03,16,26,31,07,06,11,,,,0.90,0.52,0.74,1*02
2024-12-05 09:49:32,192 [INFO] GSA - Satellite Info:
  Mode: A
  Mode Fix Type: 3
  Satellites Used: 04, 09, 03, 16, 26, 31, 07, 06, 11
  PDOP: 0.90
  HDOP: 0.52
  VDOP: 0.74

2024-12-05 09:49:32,204 [INFO] Standard NMEA Message: $GNGSA,A,3,68,67,79,85,,,,,,,,,0.90,0.52,0.74,2*03
2024-12-05 09:49:32,214 [INFO] GSA - Satellite Info:
  Mode: A
  Mode Fix Type: 3
  Satellites Used: 68, 67, 79, 85
  PDOP: 0.90
  HDOP: 0.52
  VDOP: 0.74

2024-12-05 09:49:32,229 [INFO] Standard NMEA Message: $GNGSA,A,3,06,09,04,31,36,34,21,11,,,,,0.90,0.52,0.74,3*06
2024-12-05 09:49:32,241 [INFO] GSA - Satellite Info:
  Mode: A
  Mode Fix Type: 3
  Satellites Used: 06, 09, 04, 31, 36, 34, 21, 11
  PDOP: 0.90
  HDOP: 0.52
  VDOP: 0.74

2024-12-05 09:49:32,250 [INFO] Standard NMEA Message: $GNGSA,A,3,32,23,25,41,20,37,,,,,,,0.90,0.52,0.74,4*0D
2024-12-05 09:49:32,262 [INFO] GSA - Satellite Info:
  Mode: A
  Mode Fix Type: 3
  Satellites Used: 32, 23, 25, 41, 20, 37
  PDOP: 0.90
  HDOP: 0.52
  VDOP: 0.74

2024-12-05 09:49:32,275 [INFO] Standard NMEA Message: $GPGSV,3,1,12,04,83,358,37,09,54,293,37,03,45,173,36,16,42,113,33,1*64
2024-12-05 09:49:32,287 [INFO] GSV - Satellites in View:
  Number of Messages: 3
  Message Number: 1
  Total Satellites in View: 12
  Satellite 1 PRN: 04 - Elevation: 83° - Azimuth: 358° - SNR: 37 dB
  Satellite 2 PRN: 09 - Elevation: 54° - Azimuth: 293° - SNR: 37 dB
  Satellite 3 PRN: 03 - Elevation: 45° - Azimuth: 173° - SNR: 36 dB
  Satellite 4 PRN: 16 - Elevation: 42° - Azimuth: 113° - SNR: 33 dB

2024-12-05 09:49:32,302 [INFO] Standard NMEA Message: $GPGSV,3,2,12,26,39,068,35,48,33,182,32,31,27,058,32,07,25,233,31,1*6D
2024-12-05 09:49:32,313 [INFO] GSV - Satellites in View:
  Number of Messages: 3
  Message Number: 2
  Total Satellites in View: 12
  Satellite 1 PRN: 26 - Elevation: 39° - Azimuth: 068° - SNR: 35 dB
  Satellite 2 PRN: 48 - Elevation: 33° - Azimuth: 182° - SNR: 32 dB
  Satellite 3 PRN: 31 - Elevation: 27° - Azimuth: 058° - SNR: 32 dB
  Satellite 4 PRN: 07 - Elevation: 25° - Azimuth: 233° - SNR: 31 dB

2024-12-05 09:49:32,325 [INFO] Standard NMEA Message: $GPGSV,3,3,12,06,23,288,30,11,12,325,27,29,03,024,25,28,01,057,,1*63
2024-12-05 09:49:32,331 [INFO] GSV - Satellites in View:
  Number of Messages: 3
  Message Number: 3
  Total Satellites in View: 12
  Satellite 1 PRN: 06 - Elevation: 23° - Azimuth: 288° - SNR: 30 dB
  Satellite 2 PRN: 11 - Elevation: 12° - Azimuth: 325° - SNR: 27 dB
  Satellite 3 PRN: 29 - Elevation: 03° - Azimuth: 024° - SNR: 25 dB
  Satellite 4 PRN: 28 - Elevation: 01° - Azimuth: 057° - SNR:  dB

2024-12-05 09:49:32,344 [INFO] Standard NMEA Message: $GLGSV,2,1,07,68,71,342,32,78,58,169,21,67,48,109,28,84,18,300,,1*76
2024-12-05 09:49:32,357 [INFO] GSV - Satellites in View:
  Number of Messages: 2
  Message Number: 1
  Total Satellites in View: 07
  Satellite 1 PRN: 68 - Elevation: 71° - Azimuth: 342° - SNR: 32 dB
  Satellite 2 PRN: 78 - Elevation: 58° - Azimuth: 169° - SNR: 21 dB
  Satellite 3 PRN: 67 - Elevation: 48° - Azimuth: 109° - SNR: 28 dB
  Satellite 4 PRN: 84 - Elevation: 18° - Azimuth: 300° - SNR:  dB

2024-12-05 09:49:32,370 [INFO] Standard NMEA Message: $GLGSV,2,2,07,79,11,196,20,85,11,351,22,76,05,028,18,1*40
2024-12-05 09:49:32,381 [INFO] GSV - Satellites in View:
  Number of Messages: 2
  Message Number: 2
  Total Satellites in View: 07
  Satellite 1 PRN: 79 - Elevation: 11° - Azimuth: 196° - SNR: 20 dB
  Satellite 2 PRN: 85 - Elevation: 11° - Azimuth: 351° - SNR: 22 dB
  Satellite 3 PRN: 76 - Elevation: 05° - Azimuth: 028° - SNR: 18 dB
  Satellite 4 PRN: 1 - Elevation: ° - Azimuth: ° - SNR:  dB

2024-12-05 09:49:32,389 [INFO] Standard NMEA Message: $GAGSV,3,1,10,06,83,038,34,09,66,297,35,04,58,089,32,31,30,153,29,7*76
2024-12-05 09:49:32,395 [INFO] GSV - Satellites in View:
  Number of Messages: 3
  Message Number: 1
  Total Satellites in View: 10
  Satellite 1 PRN: 06 - Elevation: 83° - Azimuth: 038° - SNR: 34 dB
  Satellite 2 PRN: 09 - Elevation: 66° - Azimuth: 297° - SNR: 35 dB
  Satellite 3 PRN: 04 - Elevation: 58° - Azimuth: 089° - SNR: 32 dB
  Satellite 4 PRN: 31 - Elevation: 30° - Azimuth: 153° - SNR: 29 dB

2024-12-05 09:49:32,409 [INFO] Standard NMEA Message: $GAGSV,3,2,10,36,26,259,25,34,21,314,24,21,16,036,25,05,14,283,16,7*77
2024-12-05 09:49:32,415 [INFO] GSV - Satellites in View:
  Number of Messages: 3
  Message Number: 2
  Total Satellites in View: 10
  Satellite 1 PRN: 36 - Elevation: 26° - Azimuth: 259° - SNR: 25 dB
  Satellite 2 PRN: 34 - Elevation: 21° - Azimuth: 314° - SNR: 24 dB
  Satellite 3 PRN: 21 - Elevation: 16° - Azimuth: 036° - SNR: 25 dB
  Satellite 4 PRN: 05 - Elevation: 14° - Azimuth: 283° - SNR: 16 dB

2024-12-05 09:49:32,426 [INFO] Standard NMEA Message: $GAGSV,3,3,10,11,08,213,20,19,02,098,,7*73
2024-12-05 09:49:32,437 [INFO] GSV - Satellites in View:
  Number of Messages: 3
  Message Number: 3
  Total Satellites in View: 10
  Satellite 1 PRN: 11 - Elevation: 08° - Azimuth: 213° - SNR: 20 dB
  Satellite 2 PRN: 19 - Elevation: 02° - Azimuth: 098° - SNR:  dB
  Satellite 3 PRN: 7 - Elevation: ° - Azimuth: ° - SNR:  dB
  Satellite 4 PRN:  - Elevation: ° - Azimuth: ° - SNR:  dB

2024-12-05 09:49:32,444 [INFO] Standard NMEA Message: $GBGSV,3,1,09,32,85,237,40,23,69,138,38,25,35,054,36,41,33,131,36,1*7A
2024-12-05 09:49:32,454 [INFO] GSV - Satellites in View:
  Number of Messages: 3
  Message Number: 1
  Total Satellites in View: 09
  Satellite 1 PRN: 32 - Elevation: 85° - Azimuth: 237° - SNR: 40 dB
  Satellite 2 PRN: 23 - Elevation: 69° - Azimuth: 138° - SNR: 38 dB
  Satellite 3 PRN: 25 - Elevation: 35° - Azimuth: 054° - SNR: 36 dB
  Satellite 4 PRN: 41 - Elevation: 33° - Azimuth: 131° - SNR: 36 dB

2024-12-05 09:49:32,465 [INFO] Standard NMEA Message: $GBGSV,3,2,09,20,29,305,37,37,29,202,34,35,02,344,,38,01,331,,1*71
2024-12-05 09:49:32,475 [INFO] GSV - Satellites in View:
  Number of Messages: 3
  Message Number: 2
  Total Satellites in View: 09
  Satellite 1 PRN: 20 - Elevation: 29° - Azimuth: 305° - SNR: 37 dB
  Satellite 2 PRN: 37 - Elevation: 29° - Azimuth: 202° - SNR: 34 dB
  Satellite 3 PRN: 35 - Elevation: 02° - Azimuth: 344° - SNR:  dB
  Satellite 4 PRN: 38 - Elevation: 01° - Azimuth: 331° - SNR:  dB

2024-12-05 09:49:32,487 [INFO] Standard NMEA Message: $GBGSV,3,3,09,04,01,262,,1*4C
2024-12-05 09:49:32,497 [INFO] GSV - Satellites in View:
  Number of Messages: 3
  Message Number: 3
  Total Satellites in View: 09
  Satellite 1 PRN: 04 - Elevation: 01° - Azimuth: 262° - SNR:  dB
  Satellite 2 PRN: 1 - Elevation: ° - Azimuth: ° - SNR:  dB
  Satellite 3 PRN:  - Elevation: ° - Azimuth: ° - SNR:  dB
  Satellite 4 PRN:  - Elevation: ° - Azimuth: ° - SNR:  dB

2024-12-05 09:49:32,510 [INFO] Standard NMEA Message: $GNRMC,174933.000,A,4910.426104,N,12304.399506,W,0.02,0.00,051224,,,D,V*19
2024-12-05 09:49:32,521 [INFO] RMC - Recommended Minimum:
  Timestamp: 17:49:33+00:00
  Status: A
  Latitude: 49.1737684 N
  Longitude: -123.0733251 W
  Speed over Ground: 0.02 knots
  Course over Ground: 0.0
  Date: 2024-12-05
  Magnetic Variation:  
  Mode Indicator: D
  Navigational Status: V

2024-12-05 09:49:32,533 [INFO] Standard NMEA Message: $GNVTG,0.00,T,,M,0.02,N,0.04,K,D*20
2024-12-05 09:49:32,542 [INFO] VTG - Course over Ground and Ground Speed:
  True Track: 0.0° T
  Magnetic Track: None° M
  Speed over Ground: 0.02 knots / 0.04 km/h
  FAA Mode: D

2024-12-05 09:49:33,130 [INFO] Standard NMEA Message: $GNGGA,174934.000,4910.426014,N,12304.399680,W,2,27,0.52,6.627,M,-16.816,M,,*4D
2024-12-05 09:49:33,139 [INFO] GGA - Fix Data:
  Timestamp: 17:49:34+00:00
  Latitude: 49.1737669 N
  Longitude: -123.073328 W
  GPS Quality Indicator: 2
  Number of Satellites in Use: 27
  Horizontal Dilution of Precision (HDOP): 0.52
  Antenna Altitude (Above Mean Sea Level): 6.627 M
  Geoidal Separation: -16.816 M
  Age of Differential GPS Data: 
  Differential Reference Station ID: 

2024-12-05 09:49:33,150 [INFO] Standard NMEA Message: $GNGLL,4910.426014,N,12304.399680,W,174934.000,A,D*5C
2024-12-05 09:49:33,161 [INFO] GLL - Geographic Position:
  Latitude: 49.1737669 N
  Longitude: -123.073328 W
  Timestamp: 17:49:34+00:00
  Status: A
  FAA Mode: D

2024-12-05 09:49:33,172 [INFO] Standard NMEA Message: $GNGSA,A,3,04,09,03,16,26,31,07,06,11,,,,0.90,0.52,0.74,1*02
2024-12-05 09:49:33,183 [INFO] GSA - Satellite Info:
  Mode: A
  Mode Fix Type: 3
  Satellites Used: 04, 09, 03, 16, 26, 31, 07, 06, 11
  PDOP: 0.90
  HDOP: 0.52
  VDOP: 0.74

2024-12-05 09:49:33,194 [INFO] Standard NMEA Message: $GNGSA,A,3,68,67,79,85,,,,,,,,,0.90,0.52,0.74,2*03
2024-12-05 09:49:33,204 [INFO] GSA - Satellite Info:
  Mode: A
  Mode Fix Type: 3
  Satellites Used: 68, 67, 79, 85
  PDOP: 0.90
  HDOP: 0.52
  VDOP: 0.74

2024-12-05 09:49:33,216 [INFO] Standard NMEA Message: $GNGSA,A,3,06,09,04,31,36,34,21,11,,,,,0.90,0.52,0.74,3*06
2024-12-05 09:49:33,228 [INFO] GSA - Satellite Info:
  Mode: A
  Mode Fix Type: 3
  Satellites Used: 06, 09, 04, 31, 36, 34, 21, 11
  PDOP: 0.90
  HDOP: 0.52
  VDOP: 0.74

2024-12-05 09:49:33,240 [INFO] Standard NMEA Message: $GNGSA,A,3,32,23,25,41,20,37,,,,,,,0.90,0.52,0.74,4*0D
2024-12-05 09:49:33,251 [INFO] GSA - Satellite Info:
  Mode: A
  Mode Fix Type: 3
  Satellites Used: 32, 23, 25, 41, 20, 37
  PDOP: 0.90
  HDOP: 0.52
  VDOP: 0.74

2024-12-05 09:49:33,263 [INFO] Standard NMEA Message: $GPGSV,3,1,12,04,83,358,37,09,54,293,37,03,45,173,36,16,42,113,33,1*64
2024-12-05 09:49:33,271 [INFO] GSV - Satellites in View:
  Number of Messages: 3
  Message Number: 1
  Total Satellites in View: 12
  Satellite 1 PRN: 04 - Elevation: 83° - Azimuth: 358° - SNR: 37 dB
  Satellite 2 PRN: 09 - Elevation: 54° - Azimuth: 293° - SNR: 37 dB
  Satellite 3 PRN: 03 - Elevation: 45° - Azimuth: 173° - SNR: 36 dB
  Satellite 4 PRN: 16 - Elevation: 42° - Azimuth: 113° - SNR: 33 dB

2024-12-05 09:49:33,290 [INFO] Standard NMEA Message: $GPGSV,3,2,12,26,39,068,35,48,33,182,32,31,27,058,32,07,25,233,31,1*6D
2024-12-05 09:49:33,300 [INFO] GSV - Satellites in View:
  Number of Messages: 3
  Message Number: 2
  Total Satellites in View: 12
  Satellite 1 PRN: 26 - Elevation: 39° - Azimuth: 068° - SNR: 35 dB
  Satellite 2 PRN: 48 - Elevation: 33° - Azimuth: 182° - SNR: 32 dB
  Satellite 3 PRN: 31 - Elevation: 27° - Azimuth: 058° - SNR: 32 dB
  Satellite 4 PRN: 07 - Elevation: 25° - Azimuth: 233° - SNR: 31 dB

2024-12-05 09:49:33,314 [INFO] Standard NMEA Message: $GPGSV,3,3,12,06,23,288,30,11,12,325,27,29,03,024,25,28,01,057,,1*63
2024-12-05 09:49:33,323 [INFO] GSV - Satellites in View:
  Number of Messages: 3
  Message Number: 3
  Total Satellites in View: 12
  Satellite 1 PRN: 06 - Elevation: 23° - Azimuth: 288° - SNR: 30 dB
  Satellite 2 PRN: 11 - Elevation: 12° - Azimuth: 325° - SNR: 27 dB
  Satellite 3 PRN: 29 - Elevation: 03° - Azimuth: 024° - SNR: 25 dB
  Satellite 4 PRN: 28 - Elevation: 01° - Azimuth: 057° - SNR:  dB

2024-12-05 09:49:33,336 [INFO] Standard NMEA Message: $GLGSV,2,1,07,68,71,342,32,78,58,169,20,67,48,109,28,84,18,300,,1*77
2024-12-05 09:49:33,349 [INFO] GSV - Satellites in View:
  Number of Messages: 2
  Message Number: 1
  Total Satellites in View: 07
  Satellite 1 PRN: 68 - Elevation: 71° - Azimuth: 342° - SNR: 32 dB
  Satellite 2 PRN: 78 - Elevation: 58° - Azimuth: 169° - SNR: 20 dB
  Satellite 3 PRN: 67 - Elevation: 48° - Azimuth: 109° - SNR: 28 dB
  Satellite 4 PRN: 84 - Elevation: 18° - Azimuth: 300° - SNR:  dB

2024-12-05 09:49:33,363 [INFO] Standard NMEA Message: $GLGSV,2,2,07,79,11,196,20,85,11,351,22,76,05,028,18,1*40
2024-12-05 09:49:33,373 [INFO] GSV - Satellites in View:
  Number of Messages: 2
  Message Number: 2
  Total Satellites in View: 07
  Satellite 1 PRN: 79 - Elevation: 11° - Azimuth: 196° - SNR: 20 dB
  Satellite 2 PRN: 85 - Elevation: 11° - Azimuth: 351° - SNR: 22 dB
  Satellite 3 PRN: 76 - Elevation: 05° - Azimuth: 028° - SNR: 18 dB
  Satellite 4 PRN: 1 - Elevation: ° - Azimuth: ° - SNR:  dB

2024-12-05 09:49:33,387 [INFO] Standard NMEA Message: $GAGSV,3,1,10,06,83,038,34,09,66,297,35,04,58,089,32,31,30,153,29,7*76
2024-12-05 09:49:33,398 [INFO] GSV - Satellites in View:
  Number of Messages: 3
  Message Number: 1
  Total Satellites in View: 10
  Satellite 1 PRN: 06 - Elevation: 83° - Azimuth: 038° - SNR: 34 dB
  Satellite 2 PRN: 09 - Elevation: 66° - Azimuth: 297° - SNR: 35 dB
  Satellite 3 PRN: 04 - Elevation: 58° - Azimuth: 089° - SNR: 32 dB
  Satellite 4 PRN: 31 - Elevation: 30° - Azimuth: 153° - SNR: 29 dB

2024-12-05 09:49:33,405 [INFO] Standard NMEA Message: $GAGSV,3,2,10,36,26,259,25,34,21,314,24,21,16,036,25,05,14,283,16,7*77
2024-12-05 09:49:33,410 [INFO] GSV - Satellites in View:
  Number of Messages: 3
  Message Number: 2
  Total Satellites in View: 10
  Satellite 1 PRN: 36 - Elevation: 26° - Azimuth: 259° - SNR: 25 dB
  Satellite 2 PRN: 34 - Elevation: 21° - Azimuth: 314° - SNR: 24 dB
  Satellite 3 PRN: 21 - Elevation: 16° - Azimuth: 036° - SNR: 25 dB
  Satellite 4 PRN: 05 - Elevation: 14° - Azimuth: 283° - SNR: 16 dB

2024-12-05 09:49:33,423 [INFO] Standard NMEA Message: $GAGSV,3,3,10,11,08,213,20,19,02,098,,7*73
2024-12-05 09:49:33,429 [INFO] GSV - Satellites in View:
  Number of Messages: 3
  Message Number: 3
  Total Satellites in View: 10
  Satellite 1 PRN: 11 - Elevation: 08° - Azimuth: 213° - SNR: 20 dB
  Satellite 2 PRN: 19 - Elevation: 02° - Azimuth: 098° - SNR:  dB
  Satellite 3 PRN: 7 - Elevation: ° - Azimuth: ° - SNR:  dB
  Satellite 4 PRN:  - Elevation: ° - Azimuth: ° - SNR:  dB

2024-12-05 09:49:33,443 [INFO] Standard NMEA Message: $GBGSV,3,1,09,32,85,237,40,23,69,138,38,25,35,054,36,41,33,131,36,1*7A
2024-12-05 09:49:33,455 [INFO] GSV - Satellites in View:
  Number of Messages: 3
  Message Number: 1
  Total Satellites in View: 09
  Satellite 1 PRN: 32 - Elevation: 85° - Azimuth: 237° - SNR: 40 dB
  Satellite 2 PRN: 23 - Elevation: 69° - Azimuth: 138° - SNR: 38 dB
  Satellite 3 PRN: 25 - Elevation: 35° - Azimuth: 054° - SNR: 36 dB
  Satellite 4 PRN: 41 - Elevation: 33° - Azimuth: 131° - SNR: 36 dB

2024-12-05 09:49:33,466 [INFO] Standard NMEA Message: $GBGSV,3,2,09,20,29,305,37,37,29,202,34,35,02,344,,38,01,331,,1*71
2024-12-05 09:49:33,472 [INFO] GSV - Satellites in View:
  Number of Messages: 3
  Message Number: 2
  Total Satellites in View: 09
  Satellite 1 PRN: 20 - Elevation: 29° - Azimuth: 305° - SNR: 37 dB
  Satellite 2 PRN: 37 - Elevation: 29° - Azimuth: 202° - SNR: 34 dB
  Satellite 3 PRN: 35 - Elevation: 02° - Azimuth: 344° - SNR:  dB
  Satellite 4 PRN: 38 - Elevation: 01° - Azimuth: 331° - SNR:  dB

2024-12-05 09:49:33,484 [INFO] Standard NMEA Message: $GBGSV,3,3,09,04,01,262,,1*4C
2024-12-05 09:49:33,496 [INFO] GSV - Satellites in View:
  Number of Messages: 3
  Message Number: 3
  Total Satellites in View: 09
  Satellite 1 PRN: 04 - Elevation: 01° - Azimuth: 262° - SNR:  dB
  Satellite 2 PRN: 1 - Elevation: ° - Azimuth: ° - SNR:  dB
  Satellite 3 PRN:  - Elevation: ° - Azimuth: ° - SNR:  dB
  Satellite 4 PRN:  - Elevation: ° - Azimuth: ° - SNR:  dB

2024-12-05 09:49:33,510 [INFO] Standard NMEA Message: $GNRMC,174934.000,A,4910.426014,N,12304.399680,W,0.02,0.00,051224,,,D,V*13
2024-12-05 09:49:33,521 [INFO] RMC - Recommended Minimum:
  Timestamp: 17:49:34+00:00
  Status: A
  Latitude: 49.1737669 N
  Longitude: -123.073328 W
  Speed over Ground: 0.02 knots
  Course over Ground: 0.0
  Date: 2024-12-05
  Magnetic Variation:  
  Mode Indicator: D
  Navigational Status: V

2024-12-05 09:49:33,529 [INFO] Standard NMEA Message: $GNVTG,0.00,T,,M,0.02,N,0.04,K,D*20
2024-12-05 09:49:33,539 [INFO] VTG - Course over Ground and Ground Speed:
  True Track: 0.0° T
  Magnetic Track: None° M
  Speed over Ground: 0.02 knots / 0.04 km/h
  FAA Mode: D

2024-12-05 09:49:34,146 [INFO] Standard NMEA Message: $GNGGA,174935.000,4910.425942,N,12304.399890,W,2,27,0.52,6.693,M,-16.816,M,,*45
2024-12-05 09:49:34,147 [INFO] GGA - Fix Data:
  Timestamp: 17:49:35+00:00
  Latitude: 49.1737657 N
  Longitude: -123.0733315 W
  GPS Quality Indicator: 2
  Number of Satellites in Use: 27
  Horizontal Dilution of Precision (HDOP): 0.52
  Antenna Altitude (Above Mean Sea Level): 6.693 M
  Geoidal Separation: -16.816 M
  Age of Differential GPS Data: 
  Differential Reference Station ID: 

2024-12-05 09:49:34,161 [INFO] Standard NMEA Message: $GNGLL,4910.425942,N,12304.399890,W,174935.000,A,D*5B
2024-12-05 09:49:34,171 [INFO] GLL - Geographic Position:
  Latitude: 49.1737657 N
  Longitude: -123.0733315 W
  Timestamp: 17:49:35+00:00
  Status: A
  FAA Mode: D

2024-12-05 09:49:34,182 [INFO] Standard NMEA Message: $GNGSA,A,3,04,09,03,16,26,31,07,06,11,,,,0.90,0.52,0.74,1*02
2024-12-05 09:49:34,188 [INFO] GSA - Satellite Info:
  Mode: A
  Mode Fix Type: 3
  Satellites Used: 04, 09, 03, 16, 26, 31, 07, 06, 11
  PDOP: 0.90
  HDOP: 0.52
  VDOP: 0.74

2024-12-05 09:49:34,200 [INFO] Standard NMEA Message: $GNGSA,A,3,68,67,79,85,,,,,,,,,0.90,0.52,0.74,2*03
2024-12-05 09:49:34,212 [INFO] GSA - Satellite Info:
  Mode: A
  Mode Fix Type: 3
  Satellites Used: 68, 67, 79, 85
  PDOP: 0.90
  HDOP: 0.52
  VDOP: 0.74

2024-12-05 09:49:34,223 [INFO] Standard NMEA Message: $GNGSA,A,3,06,09,04,31,36,34,21,11,,,,,0.90,0.52,0.74,3*06
2024-12-05 09:49:34,232 [INFO] GSA - Satellite Info:
  Mode: A
  Mode Fix Type: 3
  Satellites Used: 06, 09, 04, 31, 36, 34, 21, 11
  PDOP: 0.90
  HDOP: 0.52
  VDOP: 0.74

2024-12-05 09:49:34,246 [INFO] Standard NMEA Message: $GNGSA,A,3,32,23,25,41,20,37,,,,,,,0.90,0.52,0.74,4*0D
2024-12-05 09:49:34,256 [INFO] GSA - Satellite Info:
  Mode: A
  Mode Fix Type: 3
  Satellites Used: 32, 23, 25, 41, 20, 37
  PDOP: 0.90
  HDOP: 0.52
  VDOP: 0.74

2024-12-05 09:49:34,269 [INFO] Standard NMEA Message: $GPGSV,3,1,12,04,83,358,37,09,54,293,37,03,45,173,36,16,42,113,33,1*64
2024-12-05 09:49:34,277 [INFO] GSV - Satellites in View:
  Number of Messages: 3
  Message Number: 1
  Total Satellites in View: 12
  Satellite 1 PRN: 04 - Elevation: 83° - Azimuth: 358° - SNR: 37 dB
  Satellite 2 PRN: 09 - Elevation: 54° - Azimuth: 293° - SNR: 37 dB
  Satellite 3 PRN: 03 - Elevation: 45° - Azimuth: 173° - SNR: 36 dB
  Satellite 4 PRN: 16 - Elevation: 42° - Azimuth: 113° - SNR: 33 dB

2024-12-05 09:49:34,290 [INFO] Standard NMEA Message: $GPGSV,3,2,12,26,39,068,35,48,33,182,32,31,27,058,32,07,25,233,31,1*6D
2024-12-05 09:49:34,299 [INFO] GSV - Satellites in View:
  Number of Messages: 3
  Message Number: 2
  Total Satellites in View: 12
  Satellite 1 PRN: 26 - Elevation: 39° - Azimuth: 068° - SNR: 35 dB
  Satellite 2 PRN: 48 - Elevation: 33° - Azimuth: 182° - SNR: 32 dB
  Satellite 3 PRN: 31 - Elevation: 27° - Azimuth: 058° - SNR: 32 dB
  Satellite 4 PRN: 07 - Elevation: 25° - Azimuth: 233° - SNR: 31 dB

2024-12-05 09:49:34,305 [INFO] Standard NMEA Message: $GPGSV,3,3,12,06,23,286,30,11,12,325,27,29,03,024,25,28,01,057,,1*6D
2024-12-05 09:49:34,316 [INFO] GSV - Satellites in View:
  Number of Messages: 3
  Message Number: 3
  Total Satellites in View: 12
  Satellite 1 PRN: 06 - Elevation: 23° - Azimuth: 286° - SNR: 30 dB
  Satellite 2 PRN: 11 - Elevation: 12° - Azimuth: 325° - SNR: 27 dB
  Satellite 3 PRN: 29 - Elevation: 03° - Azimuth: 024° - SNR: 25 dB
  Satellite 4 PRN: 28 - Elevation: 01° - Azimuth: 057° - SNR:  dB

2024-12-05 09:49:34,327 [INFO] Standard NMEA Message: $GLGSV,2,1,07,68,71,342,31,78,58,169,20,67,48,109,28,84,18,300,,1*74
2024-12-05 09:49:34,338 [INFO] GSV - Satellites in View:
  Number of Messages: 2
  Message Number: 1
  Total Satellites in View: 07
  Satellite 1 PRN: 68 - Elevation: 71° - Azimuth: 342° - SNR: 31 dB
  Satellite 2 PRN: 78 - Elevation: 58° - Azimuth: 169° - SNR: 20 dB
  Satellite 3 PRN: 67 - Elevation: 48° - Azimuth: 109° - SNR: 28 dB
  Satellite 4 PRN: 84 - Elevation: 18° - Azimuth: 300° - SNR:  dB

2024-12-05 09:49:34,350 [INFO] Standard NMEA Message: $GLGSV,2,2,07,79,11,196,20,85,11,351,22,76,05,028,17,1*4F
2024-12-05 09:49:34,361 [INFO] GSV - Satellites in View:
  Number of Messages: 2
  Message Number: 2
  Total Satellites in View: 07
  Satellite 1 PRN: 79 - Elevation: 11° - Azimuth: 196° - SNR: 20 dB
  Satellite 2 PRN: 85 - Elevation: 11° - Azimuth: 351° - SNR: 22 dB
  Satellite 3 PRN: 76 - Elevation: 05° - Azimuth: 028° - SNR: 17 dB
  Satellite 4 PRN: 1 - Elevation: ° - Azimuth: ° - SNR:  dB

2024-12-05 09:49:34,373 [INFO] Standard NMEA Message: $GAGSV,3,1,10,06,83,038,34,09,66,297,35,04,58,089,33,31,30,153,29,7*77
2024-12-05 09:49:34,383 [INFO] GSV - Satellites in View:
  Number of Messages: 3
  Message Number: 1
  Total Satellites in View: 10
  Satellite 1 PRN: 06 - Elevation: 83° - Azimuth: 038° - SNR: 34 dB
  Satellite 2 PRN: 09 - Elevation: 66° - Azimuth: 297° - SNR: 35 dB
  Satellite 3 PRN: 04 - Elevation: 58° - Azimuth: 089° - SNR: 33 dB
  Satellite 4 PRN: 31 - Elevation: 30° - Azimuth: 153° - SNR: 29 dB

2024-12-05 09:49:34,397 [INFO] Standard NMEA Message: $GAGSV,3,2,10,36,26,259,25,34,21,314,24,21,16,036,25,05,14,283,16,7*77
2024-12-05 09:49:34,408 [INFO] GSV - Satellites in View:
  Number of Messages: 3
  Message Number: 2
  Total Satellites in View: 10
  Satellite 1 PRN: 36 - Elevation: 26° - Azimuth: 259° - SNR: 25 dB
  Satellite 2 PRN: 34 - Elevation: 21° - Azimuth: 314° - SNR: 24 dB
  Satellite 3 PRN: 21 - Elevation: 16° - Azimuth: 036° - SNR: 25 dB
  Satellite 4 PRN: 05 - Elevation: 14° - Azimuth: 283° - SNR: 16 dB

2024-12-05 09:49:34,422 [INFO] Standard NMEA Message: $GAGSV,3,3,10,11,08,213,20,19,02,098,,7*73
2024-12-05 09:49:34,428 [INFO] GSV - Satellites in View:
  Number of Messages: 3
  Message Number: 3
  Total Satellites in View: 10
  Satellite 1 PRN: 11 - Elevation: 08° - Azimuth: 213° - SNR: 20 dB
  Satellite 2 PRN: 19 - Elevation: 02° - Azimuth: 098° - SNR:  dB
  Satellite 3 PRN: 7 - Elevation: ° - Azimuth: ° - SNR:  dB
  Satellite 4 PRN:  - Elevation: ° - Azimuth: ° - SNR:  dB

2024-12-05 09:49:34,435 [INFO] Standard NMEA Message: $GBGSV,3,1,09,32,85,237,40,23,69,138,38,25,35,054,36,41,33,131,36,1*7A
2024-12-05 09:49:34,446 [INFO] GSV - Satellites in View:
  Number of Messages: 3
  Message Number: 1
  Total Satellites in View: 09
  Satellite 1 PRN: 32 - Elevation: 85° - Azimuth: 237° - SNR: 40 dB
  Satellite 2 PRN: 23 - Elevation: 69° - Azimuth: 138° - SNR: 38 dB
  Satellite 3 PRN: 25 - Elevation: 35° - Azimuth: 054° - SNR: 36 dB
  Satellite 4 PRN: 41 - Elevation: 33° - Azimuth: 131° - SNR: 36 dB

2024-12-05 09:49:34,458 [INFO] Standard NMEA Message: $GBGSV,3,2,09,20,29,305,37,37,29,202,34,35,02,344,,38,01,331,,1*71
2024-12-05 09:49:34,470 [INFO] GSV - Satellites in View:
  Number of Messages: 3
  Message Number: 2
  Total Satellites in View: 09
  Satellite 1 PRN: 20 - Elevation: 29° - Azimuth: 305° - SNR: 37 dB
  Satellite 2 PRN: 37 - Elevation: 29° - Azimuth: 202° - SNR: 34 dB
  Satellite 3 PRN: 35 - Elevation: 02° - Azimuth: 344° - SNR:  dB
  Satellite 4 PRN: 38 - Elevation: 01° - Azimuth: 331° - SNR:  dB

2024-12-05 09:49:34,481 [INFO] Standard NMEA Message: $GBGSV,3,3,09,04,01,262,,1*4C
2024-12-05 09:49:34,492 [INFO] GSV - Satellites in View:
  Number of Messages: 3
  Message Number: 3
  Total Satellites in View: 09
  Satellite 1 PRN: 04 - Elevation: 01° - Azimuth: 262° - SNR:  dB
  Satellite 2 PRN: 1 - Elevation: ° - Azimuth: ° - SNR:  dB
  Satellite 3 PRN:  - Elevation: ° - Azimuth: ° - SNR:  dB
  Satellite 4 PRN:  - Elevation: ° - Azimuth: ° - SNR:  dB

2024-12-05 09:49:34,506 [INFO] Standard NMEA Message: $GNRMC,174935.000,A,4910.425942,N,12304.399890,W,0.03,0.00,051224,,,D,V*15
2024-12-05 09:49:34,517 [INFO] RMC - Recommended Minimum:
  Timestamp: 17:49:35+00:00
  Status: A
  Latitude: 49.1737657 N
  Longitude: -123.0733315 W
  Speed over Ground: 0.03 knots
  Course over Ground: 0.0
  Date: 2024-12-05
  Magnetic Variation:  
  Mode Indicator: D
  Navigational Status: V

2024-12-05 09:49:34,528 [INFO] Standard NMEA Message: $GNVTG,0.00,T,,M,0.03,N,0.05,K,D*20
2024-12-05 09:49:34,538 [INFO] VTG - Course over Ground and Ground Speed:
  True Track: 0.0° T
  Magnetic Track: None° M
  Speed over Ground: 0.03 knots / 0.05 km/h
  FAA Mode: D

2024-12-05 09:49:35,149 [INFO] Standard NMEA Message: $GNGGA,174936.000,4910.425864,N,12304.400058,W,2,27,0.52,6.779,M,-16.816,M,,*4D
2024-12-05 09:49:35,154 [INFO] GGA - Fix Data:
  Timestamp: 17:49:36+00:00
  Latitude: 49.1737644 N
  Longitude: -123.0733343 W
  GPS Quality Indicator: 2
  Number of Satellites in Use: 27
  Horizontal Dilution of Precision (HDOP): 0.52
  Antenna Altitude (Above Mean Sea Level): 6.779 M
  Geoidal Separation: -16.816 M
  Age of Differential GPS Data: 
  Differential Reference Station ID: 

2024-12-05 09:49:35,162 [INFO] Standard NMEA Message: $GNGLL,4910.425864,N,12304.400058,W,174936.000,A,D*56
2024-12-05 09:49:35,173 [INFO] GLL - Geographic Position:
  Latitude: 49.1737644 N
  Longitude: -123.0733343 W
  Timestamp: 17:49:36+00:00
  Status: A
  FAA Mode: D

2024-12-05 09:49:35,186 [INFO] Standard NMEA Message: $GNGSA,A,3,04,09,03,16,26,31,07,06,11,,,,0.90,0.52,0.74,1*02
2024-12-05 09:49:35,195 [INFO] GSA - Satellite Info:
  Mode: A
  Mode Fix Type: 3
  Satellites Used: 04, 09, 03, 16, 26, 31, 07, 06, 11
  PDOP: 0.90
  HDOP: 0.52
  VDOP: 0.74

2024-12-05 09:49:35,206 [INFO] Standard NMEA Message: $GNGSA,A,3,68,67,79,85,,,,,,,,,0.90,0.52,0.74,2*03
2024-12-05 09:49:35,216 [INFO] GSA - Satellite Info:
  Mode: A
  Mode Fix Type: 3
  Satellites Used: 68, 67, 79, 85
  PDOP: 0.90
  HDOP: 0.52
  VDOP: 0.74

2024-12-05 09:49:35,222 [INFO] Standard NMEA Message: $GNGSA,A,3,06,09,04,31,36,34,21,11,,,,,0.90,0.52,0.74,3*06
2024-12-05 09:49:35,233 [INFO] GSA - Satellite Info:
  Mode: A
  Mode Fix Type: 3
  Satellites Used: 06, 09, 04, 31, 36, 34, 21, 11
  PDOP: 0.90
  HDOP: 0.52
  VDOP: 0.74

2024-12-05 09:49:35,235 [INFO] Standard NMEA Message: $GNGSA,A,3,32,23,25,41,20,37,,,,,,,0.90,0.52,0.74,4*0D
