$GNGGA,174929.000,4910.426212,N,12304.398936,W,2,27,0.52,6.314,M,-16.816,M,,*43
$GNGLL,4910.426212,N,12304.398936,W,174929.000,A,D*57
$GNGSA,A,3,04,09,03,16,26,31,07,06,11,,,,0.90,0.52,0.74,1*02
$GNGSA,A,3,68,67,79,85,,,,,,,,,0.90,0.52,0.74,2*03
$GNGSA,A,3,06,09,04,31,36,34,21,11,,,,,0.90,0.52,0.74,3*06
$GNGSA,A,3,32,23,25,41,20,37,,,,,,,0.90,0.52,0.74,4*0D
$GPGSV,3,1,12,04,82,348,38,09,54,293,37,03,46,173,36,16,42,113,33,1*68
$GPGSV,3,2,12,26,39,068,35,48,33,182,32,31,27,058,34,07,25,233,31,1*6B
$GPGSV,3,3,12,06,23,288,31,11,12,325,28,29,03,024,26,28,01,057,,1*6E
$GLGSV,2,1,07,68,71,342,32,78,58,169,21,67,48,109,28,84,18,300,,1*76
$GLGSV,2,2,07,79,11,196,21,85,11,351,23,76,05,028,18,1*40
$GAGSV,3,1,10,06,83,038,35,09,66,297,35,04,58,089,32,31,30,153,29,7*77
$GAGSV,3,2,10,36,26,259,26,34,21,314,24,21,16,036,26,05,14,283,17,7*76
$GAGSV,3,3,10,11,08,213,20,19,02,098,,7*73
$GBGSV,3,1,09,32,85,237,40,23,69,138,38,25,35,054,36,41,33,131,36,1*7A
$GBGSV,3,2,09,20,29,305,37,37,29,202,34,35,02,344,,38,01,331,,1*71
$GBGSV,3,3,09,04,01,262,,1*4C
$GNRMC,174929.000,A,4910.426212,N,12304.398936,W,0.03,0.00,051224,,,D,V*19
$GNVTG,0.00,T,,M,0.03,N,0.05,K,D*20
$GNGGA,174930.000,4910.426194,N,12304.399098,W,2,27,0.52,6.337,M,-16.817,M,,*4A
$GNGLL,4910.426194,N,12304.399098,W,174930.000,A,D*5E
$GNGSA,A,3,04,09,03,16,26,31,07,06,11,,,,0.90,0.52,0.74,1*02
$GNGSA,A,3,68,67,79,85,,,,,,,,,0.90,0.52,0.74,2*03
$GNGSA,A,3,06,09,04,31,36,34,21,11,,,,,0.90,0.52,0.74,3*06
$GNGSA,A,3,32,23,25,41,20,37,,,,,,,0.90,0.52,0.74,4*0D
$GPGSV,3,1,12,04,82,348,38,09,54,293,37,03,46,173,36,16,42,113,33,1*68
$GPGSV,3,2,12,26,39,068,35,48,33,182,32,31,27,058,33,07,25,233,31,1*6C
$GPGSV,3,3,12,06,23,288,31,11,12,325,27,29,03,024,25,28,01,057,,1*62
$GLGSV,2,1,07,68,71,342,32,78,58,169,21,67,48,109,28,84,18,300,,1*76
$GLGSV,2,2,07,79,11,196,20,85,11,351,23,76,05,028,18,1*41
$GAGSV,3,1,10,06,83,038,35,09,66,297,35,04,58,089,32,31,30,153,29,7*77
$GAGSV,3,2,10,36,26,259,26,34,21,314,24,21,16,036,25,05,14,283,17,7*75
$GAGSV,3,3,10,11,08,213,20,19,02,098,,7*73
$GBGSV,3,1,09,32,85,237,40,23,69,138,38,25,35,054,36,41,33,131,36,1*7A
$GBGSV,3,2,09,20,29,305,37,37,29,202,34,35,02,344,,38,01,331,,1*71
$GBGSV,3,3,09,04,01,262,,1*4C
$GNRMC,174930.000,A,4910.426194,N,12304.399098,W,0.03,0.00,051224,,,D,V*10
$GNVTG,0.00,T,,M,0.03,N,0.05,K,D*20
$GNGGA,174931.000,4910.426128,N,12304.399176,W,2,27,0.52,6.398,M,-16.817,M,,*48
$GNGLL,4910.426128,N,12304.399176,W,174931.000,A,D*59
$GNGSA,A,3,04,09,03,16,26,31,07,06,11,,,,0.90,0.52,0.74,1*02
$GNGSA,A,3,68,67,79,85,,,,,,,,,0.90,0.52,0.74,2*03
$GNGSA,A,3,06,09,04,31,36,34,21,11,,,,,0.90,0.52,0.74,3*06
$GNGSA,A,3,32,23,25,41,20,37,,,,,,,0.90,0.52,0.74,4*0D
$GPGSV,3,1,12,04,82,348,38,09,54,293,37,03,46,173,36,16,42,113,33,1*68
$GPGSV,3,2,12,26,39,068,35,48,33,182,32,31,27,058,33,07,25,233,31,1*6C
$GPGSV,3,3,12,06,23,288,31,11,12,325,27,29,03,024,25,28,01,057,,1*62
$GLGSV,2,1,07,68,71,342,32,78,58,169,21,67,48,109,27,84,18,300,,1*79
$GLGSV,2,2,07,79,11,196,20,85,11,351,23,76,05,028,18,1*41
$GAGSV,3,1,10,06,83,038,35,09,66,297,35,04,58,089,32,31,30,153,29,7*77
$GAGSV,3,2,10,36,26,259,26,34,21,314,24,21,16,036,25,05,14,283,16,7*74
$GAGSV,3,3,10,11,08,213,20,19,02,098,,7*73
$GBGSV,3,1,09,32,85,237,40,23,69,138,38,25,35,054,36,41,33,131,36,1*7A
$GBGSV,3,2,09,20,29,305,37,37,29,202,34,35,02,344,,38,01,331,,1*71
$GBGSV,3,3,09,04,01,262,,1*4C
$GNRMC,174931.000,A,4910.426128,N,12304.399176,W,0.03,0.00,051224,,,D,V*17
$GNVTG,0.00,T,,M,0.03,N,0.05,K,D*20
$GNGGA,174932.000,4910.426122,N,12304.399326,W,2,27,0.52,6.390,M,-16.816,M,,*4F
$GNGLL,4910.426122,N,12304.399326,W,174932.000,A,D*57
$GNGSA,A,3,04,09,03,16,26,31,07,06,11,,,,0.90,0.52,0.74,1*02
$GNGSA,A,3,68,67,79,85,,,,,,,,,0.90,0.52,0.74,2*03
$GNGSA,A,3,06,09,04,31,36,34,21,11,,,,,0.90,0.52,0.74,3*06
$GNGSA,A,3,32,23,25,41,20,37,,,,,,,0.90,0.52,0.74,4*0D
$GPGSV,3,1,12,04,82,348,38,09,54,293,37,03,45,173,36,16,42,113,33,1*6B
$GPGSV,3,2,12,26,39,068,35,48,33,182,32,31,27,058,33,07,25,233,31,1*6C
$GPGSV,3,3,12,06,23,288,30,11,12,325,27,29,03,024,25,28,01,057,,1*63
$GLGSV,2,1,07,68,71,342,32,78,58,169,21,67,48,109,28,84,18,300,,1*76
$GLGSV,2,2,07,79,11,196,20,85,11,351,22,76,05,028,18,1*40
$GAGSV,3,1,10,06,83,038,34,09,66,297,35,04,58,089,32,31,30,153,29,7*76
$GAGSV,3,2,10,36,26,259,25,34,21,314,24,21,16,036,25,05,14,283,16,7*77
$GAGSV,3,3,10,11,08,213,20,19,02,098,,7*73
$GBGSV,3,1,09,32,85,237,40,23,69,138,38,25,35,054,36,41,33,131,36,1*7A
$GBGSV,3,2,09,20,29,305,37,37,29,202,34,35,02,344,,38,01,331,,1*71
$GBGSV,3,3,09,04,01,262,,1*4C
$GNRMC,174932.000,A,4910.426122,N,12304.399326,W,0.02,0.00,051224,,,D,V*18
$GNVTG,0.00,T,,M,0.02,N,0.04,K,D*20
$GNGGA,174933.000,4910.426104,N,12304.399506,W,2,27,0.52,6.496,M,-16.816,M,,*4F
$GNGLL,4910.426104,N,12304.399506,W,174933.000,A,D*56
$GNGSA,A,3,04,09,03,16,26,31,07,06,11,,,,0.90,0.52,0.74,1*02
$GNGSA,A,3,68,67,79,85,,,,,,,,,0.90,0.52,0.74,2*03
$GNGSA,A,3,06,09,04,31,36,34,21,11,,,,,0.90,0.52,0.74,3*06
$GNGSA,A,3,32,23,25,41,20,37,,,,,,,0.90,0.52,0.74,4*0D
$GPGSV,3,1,12,04,83,358,37,09,54,293,37,03,45,173,36,16,42,113,33,1*64
$GPGSV,3,2,12,26,39,068,35,48,33,182,32,31,27,058,32,07,25,233,31,1*6D
$GPGSV,3,3,12,06,23,288,30,11,12,325,27,29,03,024,25,28,01,057,,1*63
$GLGSV,2,1,07,68,71,342,32,78,58,169,21,67,48,109,28,84,18,300,,1*76
$GLGSV,2,2,07,79,11,196,20,85,11,351,22,76,05,028,18,1*40
$GAGSV,3,1,10,06,83,038,34,09,66,297,35,04,58,089,32,31,30,153,29,7*76
$GAGSV,3,2,10,36,26,259,25,34,21,314,24,21,16,036,25,05,14,283,16,7*77
$GAGSV,3,3,10,11,08,213,20,19,02,098,,7*73
$GBGSV,3,1,09,32,85,237,40,23,69,138,38,25,35,054,36,41,33,131,36,1*7A
$GBGSV,3,2,09,20,29,305,37,37,29,202,34,35,02,344,,38,01,331,,1*71
$GBGSV,3,3,09,04,01,262,,1*4C
$GNRMC,174933.000,A,4910.426104,N,12304.399506,W,0.02,0.00,051224,,,D,V*19
$GNVTG,0.00,T,,M,0.02,N,0.04,K,D*20
$GNGGA,174934.000,4910.426014,N,12304.399680,W,2,27,0.52,6.627,M,-16.816,M,,*4D
$GNGLL,4910.426014,N,12304.399680,W,174934.000,A,D*5C
$GNGSA,A,3,04,09,03,16,26,31,07,06,11,,,,0.90,0.52,0.74,1*02
$GNGSA,A,3,68,67,79,85,,,,,,,,,0.90,0.52,0.74,2*03
$GNGSA,A,3,06,09,04,31,36,34,21,11,,,,,0.90,0.52,0.74,3*06
$GNGSA,A,3,32,23,25,41,20,37,,,,,,,0.90,0.52,0.74,4*0D
$GPGSV,3,1,12,04,83,358,37,09,54,293,37,03,45,173,36,16,42,113,33,1*64
$GPGSV,3,2,12,26,39,068,35,48,33,182,32,31,27,058,32,07,25,233,31,1*6D
$GPGSV,3,3,12,06,23,288,30,11,12,325,27,29,03,024,25,28,01,057,,1*63
$GLGSV,2,1,07,68,71,342,32,78,58,169,20,67,48,109,28,84,18,300,,1*77
$GLGSV,2,2,07,79,11,196,20,85,11,351,22,76,05,028,18,1*40
$GAGSV,3,1,10,06,83,038,34,09,66,297,35,04,58,089,32,31,30,153,29,7*76
$GAGSV,3,2,10,36,26,259,25,34,21,314,24,21,16,036,25,05,14,283,16,7*77
$GAGSV,3,3,10,11,08,213,20,19,02,098,,7*73
$GBGSV,3,1,09,32,85,237,40,23,69,138,38,25,35,054,36,41,33,131,36,1*7A
$GBGSV,3,2,09,20,29,305,37,37,29,202,34,35,02,344,,38,01,331,,1*71
$GBGSV,3,3,09,04,01,262,,1*4C
$GNRMC,174934.000,A,4910.426014,N,12304.399680,W,0.02,0.00,051224,,,D,V*13
$GNVTG,0.00,T,,M,0.02,N,0.04,K,D*20
$GNGGA,174935.000,4910.425942,N,12304.399890,W,2,27,0.52,6.693,M,-16.816,M,,*45
$GNGLL,4910.425942,N,12304.399890,W,174935.000,A,D*5B
$GNGSA,A,3,04,09,03,16,26,31,07,06,11,,,,0.90,0.52,0.74,1*02
$GNGSA,A,3,68,67,79,85,,,,,,,,,0.90,0.52,0.74,2*03
$GNGSA,A,3,06,09,04,31,36,34,21,11,,,,,0.90,0.52,0.74,3*06
$GNGSA,A,3,32,23,25,41,20,37,,,,,,,0.90,0.52,0.74,4*0D
$GPGSV,3,1,12,04,83,358,37,09,54,293,37,03,45,173,36,16,42,113,33,1*64
$GPGSV,3,2,12,26,39,068,35,48,33,182,32,31,27,058,32,07,25,233,31,1*6D
$GPGSV,3,3,12,06,23,286,30,11,12,325,27,29,03,024,25,28,01,057,,1*6D
$GLGSV,2,1,07,68,71,342,31,78,58,169,20,67,48,109,28,84,18,300,,1*74
$GLGSV,2,2,07,79,11,196,20,85,11,351,22,76,05,028,17,1*4F
$GAGSV,3,1,10,06,83,038,34,09,66,297,35,04,58,089,33,31,30,153,29,7*77
$GAGSV,3,2,10,36,26,259,25,34,21,314,24,21,16,036,25,05,14,283,16,7*77
$GAGSV,3,3,10,11,08,213,20,19,02,098,,7*73
$GBGSV,3,1,09,32,85,237,40,23,69,138,38,25,35,054,36,41,33,131,36,1*7A
$GBGSV,3,2,09,20,29,305,37,37,29,202,34,35,02,344,,38,01,331,,1*71
$GBGSV,3,3,09,04,01,262,,1*4C
$GNRMC,174935.000,A,4910.425942,N,12304.399890,W,0.03,0.00,051224,,,D,V*15
$GNVTG,0.00,T,,M,0.03,N,0.05,K,D*20
$GNGGA,174936.000,4910.425864,N,12304.400058,W,2,27,0.52,6.779,M,-16.816,M,,*4D
$GNGLL,4910.425864,N,12304.400058,W,174936.000,A,D*56
$GNGSA,A,3,04,09,03,16,26,31,07,06,11,,,,0.90,0.52,0.74,1*02
$GNGSA,A,3,68,67,79,85,,,,,,,,,0.90,0.52,0.74,2*03
$GNGSA,A,3,06,09,04,31,36,34,21,11,,,,,0.90,0.52,0.74,3*06
$GNGSA,A,3,32,23,25,41,20,37,,,,,,,0.90,0.52,0.74,4*0D
$GPGSV,3,1,12,04,83,358,37,09,54,293,37,03,45,173,36,16,42,113,33,1*64
$GPGSV,3,2,12,26,39,068,35,48,33,182,32,31,27,058,32,07,26,234,31,1*69
$GPGSV,3,3,12,06,23,286,30,11,12,325,27,29,03,024,25,28,01,057,,1*6D
$GLGSV,2,1,07,68,71,342,31,78,58,169,21,67,48,109,28,84,18,300,,1*75
$GLGSV,2,2,07,79,11,196,20,85,11,351,22,76,05,028,17,1*4F
$GAGSV,3,1,10,06,83,038,34,09,66,297,35,04,58,089,33,31,30,153,29,7*77
$GAGSV,3,2,10,36,26,259,25,34,21,314,24,21,16,036,25,05,14,283,16,7*77
$GAGSV,3,3,10,11,08,213,20,19,02,098,,7*73
$GBGSV,3,1,09,32,85,237,40,23,69,138,38,25,35,054,36,41,33,131,36,1*7A
$GBGSV,3,2,09,20,29,305,37,37,29,202,34,35,02,344,,38,01,331,,1*71
$GBGSV,3,3,09,04,01,262,,1*4C
$GNRMC,174936.000,A,4910.425864,N,12304.400058,W,0.03,0.00,051224,,,D,V*18
$GNVTG,0.00,T,,M,0.03,N,0.05,K,D*20
$PAIR010,0,1,2343,409794*3B
$GNGGA,174937.000,4910.425822,N,12304.400250,W,2,27,0.52,6.933,M,-16.816,M,,*44
$GNGLL,4910.425822,N,12304.400250,W,174937.000,A,D*5F
$GNGSA,A,3,04,09,03,16,26,31,07,06,11,,,,0.90,0.52,0.74,1*02
$GNGSA,A,3,68,67,79,85,,,,,,,,,0.90,0.52,0.74,2*03
$GNGSA,A,3,06,09,04,31,36,34,21,11,,,,,0.90,0.52,0.74,3*06
$GNGSA,A,3,32,23,25,41,20,37,,,,,,,0.90,0.52,0.74,4*0D
$GPGSV,3,1,12,04,83,358,37,09,54,293,37,03,45,173,36,16,42,113,33,1*64
$GPGSV,3,2,12,26,39,068,35,48,33,182,32,31,27,058,32,07,26,234,31,1*69
$GPGSV,3,3,12,06,23,286,30,11,12,325,27,29,03,024,25,28,01,057,,1*6D
$GLGSV,2,1,07,68,71,342,31,78,58,169,21,67,48,109,28,84,18,300,,1*75
$GLGSV,2,2,07,79,11,196,20,85,11,351,23,76,05,028,17,1*4E
$GAGSV,3,1,10,06,83,038,34,09,66,297,35,04,58,089,33,31,30,153,28,7*76
$GAGSV,3,2,10,36,26,259,25,34,21,314,24,21,16,036,25,05,14,283,16,7*77
$GAGSV,3,3,10,11,08,213,20,19,02,098,,7*73
$GBGSV,3,1,09,32,85,237,40,23,69,138,38,25,35,054,36,41,33,131,36,1*7A
$GBGSV,3,2,09,20,29,305,37,37,29,202,34,35,02,344,,38,01,331,,1*71
$GBGSV,3,3,09,04,01,262,,1*4C
$GNRMC,174937.000,A,4910.425822,N,12304.400250,W,0.03,0.00,051224,,,D,V*11
$GNVTG,0.00,T,,M,0.03,N,0.05,K,D*20
$GNGGA,174938.000,4910.425816,N,12304.400388,W,2,27,0.52,6.984,M,-16.817,M,,*45
$GNGLL,4910.425816,N,12304.400388,W,174938.000,A,D*53
$GNGSA,A,3,04,09,03,16,26,31,07,06,11,,,,0.90,0.52,0.74,1*02
$GNGSA,A,3,68,67,79,85,,,,,,,,,0.90,0.52,0.74,2*03
$GNGSA,A,3,06,09,04,31,36,34,21,11,,,,,0.90,0.52,0.74,3*06
$GNGSA,A,3,32,23,25,41,20,37,,,,,,,0.90,0.52,0.74,4*0D
$GPGSV,3,1,12,04,83,358,37,09,55,294,37,03,45,173,36,16,42,113,33,1*62
$GPGSV,3,2,12,26,39,068,35,48,33,182,32,31,27,058,32,07,26,234,31,1*69
$GPGSV,3,3,12,06,23,286,29,11,12,325,27,29,03,024,25,28,01,057,,1*65
$GLGSV,2,1,07,68,71,342,31,78,58,169,21,67,48,109,27,84,18,300,,1*7A
$GLGSV,2,2,07,79,11,196,19,85,11,351,23,76,05,028,17,1*44
$GAGSV,3,1,10,06,83,038,34,09,66,297,34,04,58,089,33,31,30,153,28,7*77
$GAGSV,3,2,10,36,26,259,25,34,21,314,23,21,16,036,25,05,14,283,16,7*70
$GAGSV,3,3,10,11,08,213,20,19,02,098,,7*73
$GBGSV,3,1,09,32,85,237,40,23,69,138,38,25,35,054,36,41,33,131,36,1*7A
$GBGSV,3,2,09,20,29,305,37,37,29,202,34,35,02,344,,38,01,331,,1*71
$GBGSV,3,3,09,04,01,262,,1*4C
$GNRMC,174938.000,A,4910.425816,N,12304.400388,W,0.03,0.00,051224,,,D,V*1D
$GNVTG,0.00,T,,M,0.03,N,0.05,K,D*20
$GNGGA,174939.000,4910.425822,N,12304.400556,W,2,27,0.52,7.044,M,-16.817,M,,*42
$GNGLL,4910.425822,N,12304.400556,W,174939.000,A,D*50
$GNGSA,A,3,04,09,03,16,26,31,07,06,11,,,,0.90,0.52,0.74,1*02
$GNGSA,A,3,68,67,79,85,,,,,,,,,0.90,0.52,0.74,2*03
$GNGSA,A,3,06,09,04,31,36,34,21,11,,,,,0.90,0.52,0.74,3*06
$GNGSA,A,3,32,23,25,41,20,37,,,,,,,0.90,0.52,0.74,4*0D
$GPGSV,3,1,12,04,83,358,37,09,55,294,37,03,45,173,36,16,42,113,33,1*62
$GPGSV,3,2,12,26,39,068,35,48,33,182,32,31,27,058,32,07,26,234,31,1*69
$GPGSV,3,3,12,06,23,286,29,11,12,325,27,29,03,024,25,28,01,057,,1*65
$GLGSV,2,1,07,68,71,342,31,78,58,169,21,67,48,109,27,84,18,300,,1*7A
$GLGSV,2,2,07,79,11,196,19,85,11,351,22,76,05,028,17,1*45
$GAGSV,3,1,10,06,83,038,34,09,66,297,34,04,58,089,33,31,30,153,28,7*77
$GAGSV,3,2,10,36,26,259,25,34,21,314,23,21,16,036,25,05,14,283,16,7*70
$GAGSV,3,3,10,11,08,213,20,19,02,098,,7*73
$GBGSV,3,1,09,32,85,237,40,23,69,138,38,25,35,054,36,41,33,131,36,1*7A
$GBGSV,3,2,09,20,29,305,37,37,29,202,34,35,02,344,,38,01,331,,1*71
$GBGSV,3,3,09,04,01,262,,1*4C
$GNRMC,174939.000,A,4910.425822,N,12304.400556,W,0.03,0.00,051224,,,D,V*1E
$GNVTG,0.00,T,,M,0.03,N,0.05,K,D*20
$GNGGA,174940.000,4910.425840,N,12304.400718,W,2,27,0.52,7.044,M,-16.817,M,,*40
$GNGLL,4910.425840,N,12304.400718,W,174940.000,A,D*52
$GNGSA,A,3,04,09,03,16,26,31,07,06,11,,,,0.90,0.52,0.74,1*02
$GNGSA,A,3,68,67,79,85,,,,,,,,,0.90,0.52,0.74,2*03
$GNGSA,A,3,06,09,04,31,36,34,21,11,,,,,0.90,0.52,0.74,3*06
$GNGSA,A,3,32,23,25,41,20,37,,,,,,,0.90,0.52,0.74,4*0D
$GPGSV,3,1,12,04,83,358,37,09,55,294,37,03,45,173,36,16,42,113,33,1*62
$GPGSV,3,2,12,26,39,068,35,48,33,182,32,31,27,058,32,07,26,234,31,1*69
$GPGSV,3,3,12,06,23,286,29,11,12,324,28,29,03,024,25,28,01,057,,1*6B
$GLGSV,2,1,07,68,71,342,31,78,58,169,21,67,48,109,27,84,18,300,,1*7A
$GLGSV,2,2,07,79,11,196,19,85,11,351,22,76,05,028,17,1*45
$GAGSV,3,1,10,06,83,038,34,09,66,297,34,04,58,089,33,31,30,153,28,7*77
$GAGSV,3,2,10,36,26,259,26,34,21,314,23,21,16,036,25,05,14,283,16,7*73
$GAGSV,3,3,10,11,08,213,20,19,02,098,,7*73
$GBGSV,3,1,09,32,85,237,40,23,69,138,38,25,35,054,36,41,33,131,36,1*7A
$GBGSV,3,2,09,20,29,305,37,37,29,202,34,35,02,344,,38,01,331,,1*71
$GBGSV,3,3,09,04,01,262,,1*4C
$GNRMC,174940.000,A,4910.425840,N,12304.400718,W,0.02,0.00,051224,,,D,V*1D
$GNVTG,0.00,T,,M,0.02,N,0.04,K,D*20

$GNGGA,174941.000,4910.425834,N,12304.400940,W,2,27,0.52,7.067,M,-16.816,M,,*41
$GNGLL,4910.425834,N,12304.400940,W,174941.000,A,D*53
$GNGSA,A,3,04,09,03,16,26,31,07,06,11,,,,0.90,0.52,0.74,1*02
$GNGSA,A,3,68,67,79,85,,,,,,,,,0.90,0.52,0.74,2*03
$GNGSA,A,3,06,09,04,31,36,34,21,11,,,,,0.90,0.52,0.74,3*06
$GNGSA,A,3,32,23,25,41,20,37,,,,,,,0.90,0.52,0.74,4*0D
$GPGSV,3,1,12,04,83,358,37,09,55,294,37,03,45,173,36,16,42,113,33,1*62
$GPGSV,3,2,12,26,39,068,35,48,33,182,32,31,27,058,32,07,26,234,31,1*69
$GPGSV,3,3,12,06,23,286,29,11,12,324,28,29,03,024,25,28,01,057,,1*6B
$GLGSV,2,1,07,68,71,342,31,78,58,169,21,67,48,109,27,84,18,300,,1*7A
$GLGSV,2,2,07,79,11,196,19,85,11,351,22,76,05,028,17,1*45
$GAGSV,3,1,10,06,83,038,34,09,66,297,34,04,58,089,33,31,30,153,28,7*77
$GAGSV,3,2,10,36,26,259,25,34,21,314,22,21,16,036,25,05,14,283,16,7*71
$GAGSV,3,3,10,11,08,213,20,19,02,098,,7*73
$GBGSV,3,1,09,32,85,237,40,23,69,138,38,25,35,054,36,41,33,131,36,1*7A
$GBGSV,3,2,09,20,29,305,37,37,29,202,34,35,02,344,,38,01,331,,1*71
$GBGSV,3,3,09,04,01,262,,1*4C
$GNRMC,174941.000,A,4910.425834,N,12304.400940,W,0.03,0.00,051224,,,D,V*1D
$GNVTG,0.00,T,,M,0.03,N,0.05,K,D*20
$GNGGA,174942.000,4910.425846,N,12304.401126,W,2,27,0.52,7.011,M,-16.817,M,,*4E
$GNGLL,4910.425846,N,12304.401126,W,174942.000,A,D*5C
$GNGSA,A,3,04,09,03,16,26,31,07,06,11,,,,0.90,0.52,0.74,1*02
$GNGSA,A,3,68,67,79,85,,,,,,,,,0.90,0.52,0.74,2*03
$GNGSA,A,3,06,09,04,31,36,34,21,11,,,,,0.90,0.52,0.74,3*06
$GNGSA,A,3,32,23,25,41,20,37,,,,,,,0.90,0.52,0.74,4*0D
$GPGSV,3,1,12,04,83,358,37,09,55,294,37,03,45,173,36,16,42,113,33,1*62
$GPGSV,3,2,12,26,39,068,35,48,33,182,32,31,27,058,32,07,26,234,31,1*69
$GPGSV,3,3,12,06,23,286,29,11,12,324,28,29,03,024,25,28,01,057,,1*6B
$GLGSV,2,1,07,68,71,342,31,78,58,169,21,67,48,109,27,84,18,300,,1*7A
$GLGSV,2,2,07,79,11,196,19,85,11,351,22,76,05,028,18,1*4A
$GAGSV,3,1,10,06,83,038,34,09,66,297,34,04,58,089,33,31,30,153,27,7*78
$GAGSV,3,2,10,36,26,259,25,34,21,314,21,21,16,036,25,05,14,283,16,7*72
$GAGSV,3,3,10,11,08,213,19,19,02,098,,7*79
$GBGSV,3,1,09,32,85,237,40,23,69,138,38,25,35,054,36,41,33,131,36,1*7A
$GBGSV,3,2,09,20,29,305,37,37,29,202,34,35,02,344,,38,01,331,,1*71
$GBGSV,3,3,09,04,01,262,,1*4C
$GNRMC,174942.000,A,4910.425846,N,12304.401126,W,0.03,0.00,051224,,,D,V*12
$GNVTG,0.00,T,,M,0.03,N,0.05,K,D*20
$GNGGA,174943.000,4910.425864,N,12304.401378,W,2,27,0.52,7.005,M,-16.817,M,,*43
$GNGLL,4910.425864,N,12304.401378,W,174943.000,A,D*54
$GNGSA,A,3,04,09,03,16,26,31,07,06,11,,,,0.90,0.52,0.74,1*02
$GNGSA,A,3,68,67,79,85,,,,,,,,,0.90,0.52,0.74,2*03
$GNGSA,A,3,06,09,04,31,36,34,21,11,,,,,0.90,0.52,0.74,3*06
$GNGSA,A,3,32,23,25,41,20,37,,,,,,,0.90,0.52,0.74,4*0D
$GPGSV,3,1,12,04,83,358,38,09,55,294,37,03,45,173,36,16,42,113,33,1*6D
$GPGSV,3,2,12,26,39,068,35,48,33,182,32,31,27,058,32,07,26,234,31,1*69
$GPGSV,3,3,12,06,23,286,29,11,12,324,28,29,03,024,24,28,01,057,,1*6A
$GLGSV,2,1,07,68,71,342,31,78,58,169,21,67,48,109,27,84,18,300,,1*7A
$GLGSV,2,2,07,79,11,196,19,85,11,351,22,76,05,028,18,1*4A
$GAGSV,3,1,10,06,83,038,34,09,66,297,34,04,58,089,33,31,30,153,27,7*78
$GAGSV,3,2,10,36,26,259,25,34,21,314,21,21,16,036,25,05,14,283,17,7*73
$GAGSV,3,3,10,11,08,213,19,19,02,098,,7*79
$GBGSV,3,1,09,32,85,237,41,23,69,138,38,25,35,054,36,41,33,131,36,1*7B
$GBGSV,3,2,09,20,29,305,37,37,29,202,34,35,02,344,,38,01,331,,1*71
$GBGSV,3,3,09,04,01,262,,1*4C
$GNRMC,174943.000,A,4910.425864,N,12304.401378,W,0.03,0.00,051224,,,D,V*1A
$GNVTG,0.00,T,,M,0.03,N,0.06,K,D*23
$GNGGA,174944.000,4910.425828,N,12304.401654,W,2,27,0.52,6.925,M,-16.817,M,,*4D
$GNGLL,4910.425828,N,12304.401654,W,174944.000,A,D*50
$GNGSA,A,3,04,09,03,16,26,31,07,06,11,,,,0.90,0.52,0.74,1*02
$GNGSA,A,3,68,67,79,85,,,,,,,,,0.90,0.52,0.74,2*03
$GNGSA,A,3,06,09,04,31,36,34,21,11,,,,,0.90,0.52,0.74,3*06
$GNGSA,A,3,32,23,25,41,20,37,,,,,,,0.90,0.52,0.74,4*0D
$GPGSV,3,1,12,04,83,358,38,09,55,294,37,03,45,173,36,16,42,113,33,1*6D
$GPGSV,3,2,12,26,39,068,35,48,33,182,32,31,27,058,32,07,26,234,31,1*69
$GPGSV,3,3,12,06,23,286,29,11,12,324,28,29,03,024,25,28,01,057,,1*6B
$GLGSV,2,1,07,68,71,342,31,78,58,169,21,67,48,109,27,84,18,300,,1*7A
$GLGSV,2,2,07,79,11,196,19,85,11,351,22,76,05,028,17,1*45
$GAGSV,3,1,10,06,83,038,34,09,66,297,34,04,58,089,33,31,30,153,27,7*78
$GAGSV,3,2,10,36,26,259,25,34,21,314,22,21,16,036,26,05,14,283,17,7*73
$GAGSV,3,3,10,11,08,213,19,19,02,098,,7*79
$GBGSV,3,1,09,32,85,237,41,23,69,138,38,25,35,054,36,41,33,131,36,1*7B
$GBGSV,3,2,09,20,29,305,37,37,29,202,34,35,02,344,,38,01,331,,1*71
$GBGSV,3,3,09,04,01,262,,1*4C
$GNRMC,174944.000,A,4910.425828,N,12304.401654,W,0.03,0.00,051224,,,D,V*1E
$GNVTG,0.00,T,,M,0.03,N,0.06,K,D*23
$GNGGA,174945.000,4910.425834,N,12304.401876,W,2,27,0.52,6.870,M,-16.817,M,,*4E
$GNGLL,4910.425834,N,12304.401876,W,174945.000,A,D*52
$GNGSA,A,3,04,09,03,16,26,31,07,06,11,,,,0.90,0.52,0.74,1*02
$GNGSA,A,3,68,67,79,85,,,,,,,,,0.90,0.52,0.74,2*03
$GNGSA,A,3,06,09,04,31,36,34,21,11,,,,,0.90,0.52,0.74,3*06
$GNGSA,A,3,32,23,25,41,20,37,,,,,,,0.90,0.52,0.74,4*0D
$GPGSV,3,1,12,04,83,358,38,09,55,294,37,03,45,173,36,16,43,112,33,1*6D
$GPGSV,3,2,12,26,39,068,35,48,33,182,32,31,27,058,32,07,26,234,31,1*69
$GPGSV,3,3,12,06,23,286,29,11,12,324,28,29,03,024,25,28,01,057,,1*6B
$GLGSV,2,1,07,68,71,342,30,78,58,169,20,67,48,109,27,84,18,300,,1*7A
$GLGSV,2,2,07,79,11,196,19,85,11,351,22,76,05,028,17,1*45
$GAGSV,3,1,10,06,83,038,34,09,66,297,34,04,58,089,33,31,30,153,27,7*78
$GAGSV,3,2,10,36,26,259,25,34,21,314,22,21,16,036,26,05,14,283,17,7*73
$GAGSV,3,3,10,11,08,213,19,19,02,098,,7*79
$GBGSV,3,1,09,32,85,237,41,23,69,138,38,25,35,054,36,41,33,131,36,1*7B
$GBGSV,3,2,09,20,29,305,37,37,29,202,34,35,02,344,,38,01,331,,1*71
$GBGSV,3,3,09,04,01,262,,1*4C
$GNRMC,174945.000,A,4910.425834,N,12304.401876,W,0.04,0.00,051224,,,D,V*1B
$GNVTG,0.00,T,,M,0.04,N,0.07,K,D*25
$GNGGA,174946.000,4910.425834,N,12304.402128,W,2,27,0.52,6.778,M,-16.816,M,,*4A
$GNGLL,4910.425834,N,12304.402128,W,174946.000,A,D*50
$GNGSA,A,3,04,09,03,16,26,31,07,06,11,,,,0.90,0.52,0.74,1*02
$GNGSA,A,3,68,67,79,85,,,,,,,,,0.90,0.52,0.74,2*03
$GNGSA,A,3,06,09,04,31,36,34,21,11,,,,,0.90,0.52,0.74,3*06
$GNGSA,A,3,32,23,25,41,20,37,,,,,,,0.90,0.52,0.74,4*0D
$GPGSV,3,1,12,04,83,358,38,09,55,294,37,03,45,173,36,16,43,112,33,1*6D
$GPGSV,3,2,12,26,39,068,35,48,33,182,32,31,27,058,32,07,26,234,31,1*69
$GPGSV,3,3,12,06,23,286,29,11,12,324,28,29,03,024,25,28,01,057,,1*6B
$GLGSV,2,1,07,68,71,342,30,78,58,169,19,67,48,109,27,84,18,300,,1*70
$GLGSV,2,2,07,79,11,196,18,85,11,351,21,76,05,028,17,1*47
$GAGSV,3,1,10,06,83,038,34,09,66,297,34,04,58,089,33,31,30,153,27,7*78
$GAGSV,3,2,10,36,26,259,25,34,21,314,22,21,16,036,26,05,14,283,17,7*73
$GAGSV,3,3,10,11,08,213,19,19,02,098,,7*79
$GBGSV,3,1,09,32,85,237,41,23,69,138,38,25,35,054,36,41,33,131,36,1*7B
$GBGSV,3,2,09,20,29,305,37,37,29,202,34,35,02,344,,38,01,331,,1*71
$GBGSV,3,3,09,04,01,262,,1*4C
$GNRMC,174946.000,A,4910.425834,N,12304.402128,W,0.04,0.00,051224,,,D,V*19
$GNVTG,0.00,T,,M,0.04,N,0.07,K,D*25
$GNGGA,174947.000,4910.425798,N,12304.402452,W,2,27,0.52,6.619,M,-16.817,M,,*4D
$GNGLL,4910.425798,N,12304.402452,W,174947.000,A,D*50
$GNGSA,A,3,04,09,03,16,26,31,07,06,11,,,,0.90,0.52,0.74,1*02
$GNGSA,A,3,68,67,79,85,,,,,,,,,0.90,0.52,0.74,2*03
$GNGSA,A,3,06,09,04,31,36,34,21,11,,,,,0.90,0.52,0.74,3*06
$GNGSA,A,3,32,23,25,41,20,37,,,,,,,0.90,0.52,0.74,4*0D
$GPGSV,3,1,12,04,83,358,38,09,55,294,37,03,45,173,36,16,43,112,33,1*6D
$GPGSV,3,2,12,26,39,068,35,48,33,182,32,31,27,058,32,07,26,234,31,1*69
$GPGSV,3,3,12,06,23,286,29,11,12,324,29,29,03,024,23,28,01,057,,1*6C
$GLGSV,2,1,07,68,71,342,30,78,58,169,19,67,48,109,28,84,18,300,,1*7F
$GLGSV,2,2,07,79,11,196,19,85,11,351,21,76,05,028,17,1*46
$GAGSV,3,1,10,06,83,038,34,09,66,297,34,04,58,089,33,31,30,153,27,7*78
$GAGSV,3,2,10,36,26,259,25,34,21,314,22,21,16,036,26,05,14,283,17,7*73
$GAGSV,3,3,10,11,08,213,19,19,02,098,,7*79
$GBGSV,3,1,09,32,85,237,41,23,69,138,38,25,35,054,36,41,33,131,36,1*7B
$GBGSV,3,2,09,20,29,305,37,37,29,202,34,35,02,344,,38,01,331,,1*71
$GBGSV,3,3,09,04,01,262,,1*4C
$GNRMC,174947.000,A,4910.425798,N,12304.402452,W,0.04,0.00,051224,,,D,V*19
$GNVTG,0.00,T,,M,0.04,N,0.08,K,D*2A
$GNGGA,174948.000,4910.425804,N,12304.402740,W,2,27,0.52,6.466,M,-16.816,M,,*43
$GNGLL,4910.425804,N,12304.402740,W,174948.000,A,D*55
$GNGSA,A,3,04,09,03,16,26,31,07,06,11,,,,0.90,0.52,0.74,1*02
$GNGSA,A,3,68,67,79,85,,,,,,,,,0.90,0.52,0.74,2*03
$GNGSA,A,3,06,09,04,31,36,34,21,11,,,,,0.90,0.52,0.74,3*06
$GNGSA,A,3,32,23,25,41,20,37,,,,,,,0.90,0.52,0.74,4*0D
$GPGSV,3,1,12,04,83,358,38,09,55,294,37,03,45,173,36,16,43,112,33,1*6D
$GPGSV,3,2,12,26,39,068,35,48,33,182,32,31,27,058,32,07,26,234,31,1*69
$GPGSV,3,3,12,06,23,286,29,11,12,324,29,29,03,024,24,28,01,057,,1*6B
$GLGSV,2,1,07,68,71,342,31,78,58,169,19,67,48,109,28,84,18,300,,1*7E
$GLGSV,2,2,07,79,11,196,19,85,11,351,22,76,05,028,17,1*45
$GAGSV,3,1,10,06,83,038,34,09,66,297,34,04,58,089,33,31,30,153,27,7*78
$GAGSV,3,2,10,36,26,259,25,34,21,314,21,21,16,036,26,05,14,283,17,7*70
$GAGSV,3,3,10,11,08,213,19,19,02,098,,7*79
$GBGSV,3,1,09,32,85,237,41,23,69,138,38,25,35,054,36,41,33,131,36,1*7B
$GBGSV,3,2,09,20,29,305,37,37,29,202,34,35,02,344,,38,01,331,,1*71
$GBGSV,3,3,09,04,01,262,,1*4C
$GNRMC,174948.000,A,4910.425804,N,12304.402740,W,0.04,0.00,051224,,,D,V*1C
$GNVTG,0.00,T,,M,0.04,N,0.08,K,D*2A
$GNGGA,174949.000,4910.425768,N,12304.403028,W,2,27,0.52,6.361,M,-16.816,M,,*4F
$GNGLL,4910.425768,N,12304.403028,W,174949.000,A,D*59
$GNGSA,A,3,04,09,03,16,26,31,07,06,11,,,,0.90,0.52,0.74,1*02
$GNGSA,A,3,68,67,79,85,,,,,,,,,0.90,0.52,0.74,2*03
$GNGSA,A,3,06,09,04,31,36,34,21,11,,,,,0.90,0.52,0.74,3*06
$GNGSA,A,3,32,23,25,41,20,37,,,,,,,0.90,0.52,0.74,4*0D
$GPGSV,3,1,12,04,83,358,38,09,55,294,37,03,45,173,36,16,43,112,33,1*6D
$GPGSV,3,2,12,26,39,068,35,48,33,182,32,31,27,058,32,07,26,234,31,1*69
$GPGSV,3,3,12,06,23,286,29,11,12,324,29,29,03,024,24,28,01,057,,1*6B
$GLGSV,2,1,07,68,71,342,31,78,58,169,19,67,48,109,28,84,18,300,,1*7E
$GLGSV,2,2,07,79,11,196,19,85,11,351,21,76,05,028,17,1*46
$GAGSV,3,1,10,06,83,038,34,09,66,297,34,04,58,089,33,31,30,153,28,7*77
$GAGSV,3,2,10,36,26,259,25,34,21,314,22,21,16,036,26,05,14,283,17,7*73
$GAGSV,3,3,10,11,08,213,19,19,02,098,,7*79
$GBGSV,3,1,09,32,85,237,41,23,69,138,38,25,35,054,36,41,33,131,36,1*7B
$GBGSV,3,2,09,20,29,305,37,37,29,202,34,35,02,344,,38,01,331,,1*71
$GBGSV,3,3,09,04,01,262,,1*4C
$GNRMC,174949.000,A,4910.425768,N,12304.403028,W,0.04,0.00,051224,,,D,V*10
$GNVTG,0.00,T,,M,0.04,N,0.08,K,D*2A
$GNGGA,174950.000,4910.425768,N,12304.403190,W,2,27,0.52,6.239,M,-16.816,M,,*49
$GNGLL,4910.425768,N,12304.403190,W,174950.000,A,D*53
$GNGSA,A,3,04,09,03,16,26,31,07,06,11,,,,0.90,0.52,0.74,1*02
$GNGSA,A,3,68,67,79,85,,,,,,,,,0.90,0.52,0.74,2*03
$GNGSA,A,3,06,09,04,31,36,34,21,11,,,,,0.90,0.52,0.74,3*06
$GNGSA,A,3,32,23,25,41,20,37,,,,,,,0.90,0.52,0.74,4*0D
$GPGSV,3,1,12,04,83,358,38,09,55,294,37,03,45,173,36,16,43,112,33,1*6D
$GPGSV,3,2,12,26,39,068,35,48,33,182,32,31,27,058,32,07,26,234,31,1*69
$GPGSV,3,3,12,06,23,286,29,11,12,324,29,29,03,024,24,28,01,057,,1*6B
$GLGSV,2,1,07,68,71,342,31,78,58,169,19,67,48,109,28,84,18,300,,1*7E
$GLGSV,2,2,07,79,11,196,19,85,11,351,21,76,05,028,17,1*46
$GAGSV,3,1,10,06,83,038,34,09,66,297,34,04,58,089,33,31,30,153,28,7*77
$GAGSV,3,2,10,36,26,259,25,34,21,314,22,21,16,036,26,05,14,283,17,7*73
$GAGSV,3,3,10,11,08,213,19,19,02,098,,7*79
$GBGSV,3,1,09,32,85,237,40,23,69,138,38,25,35,054,36,41,33,131,36,1*7A
$GBGSV,3,2,09,20,29,305,37,37,29,202,34,35,02,344,,38,01,331,,1*71
$GBGSV,3,3,09,04,01,262,,1*4C
$GNRMC,174950.000,A,4910.425768,N,12304.403190,W,0.04,0.00,051224,,,D,V*1A
$GNVTG,0.00,T,,M,0.04,N,0.07,K,D*25
$GNGGA,174951.000,4910.425708,N,12304.403364,W,2,27,0.52,6.275,M,-16.816,M,,*4F
$GNGLL,4910.425708,N,12304.403364,W,174951.000,A,D*5D
$GNGSA,A,3,04,09,03,16,26,31,07,06,11,,,,0.90,0.52,0.74,1*02
$GNGSA,A,3,68,67,79,85,,,,,,,,,0.90,0.52,0.74,2*03
$GNGSA,A,3,06,09,04,31,36,34,21,11,,,,,0.90,0.52,0.74,3*06
$GNGSA,A,3,32,23,25,41,20,37,,,,,,,0.90,0.52,0.74,4*0D
$GPGSV,3,1,12,04,83,358,38,09,55,294,37,03,45,173,36,16,43,112,34,1*6A
$GPGSV,3,2,12,26,39,068,35,48,33,182,32,31,27,058,32,07,26,234,31,1*69
$GPGSV,3,3,12,06,23,286,29,11,12,324,29,29,03,024,25,28,01,057,,1*6A
$GLGSV,2,1,07,68,71,342,31,78,58,169,20,67,48,109,28,84,18,300,,1*74
$GLGSV,2,2,07,79,11,196,19,85,11,351,22,76,05,028,17,1*45
$GAGSV,3,1,10,06,83,038,34,09,66,297,34,04,58,089,33,31,30,153,28,7*77
$GAGSV,3,2,10,36,26,259,25,34,21,314,22,21,16,036,27,05,14,283,17,7*72
$GAGSV,3,3,10,11,08,213,19,19,02,098,,7*79
$GBGSV,3,1,09,32,85,237,40,23,69,138,38,25,35,054,36,41,33,131,36,1*7A
$GBGSV,3,2,09,20,29,305,37,37,29,202,34,35,02,344,,38,01,331,,1*71
$GBGSV,3,3,09,04,01,262,,1*4C
$GNRMC,174951.000,A,4910.425708,N,12304.403364,W,0.03,0.00,051224,,,D,V*13
$GNVTG,0.00,T,,M,0.03,N,0.06,K,D*23
$GNGGA,174952.000,4910.425666,N,12304.403502,W,2,27,0.52,6.230,M,-16.816,M,,*42
$GNGLL,4910.425666,N,12304.403502,W,174952.000,A,D*51
$GNGSA,A,3,04,09,03,16,26,31,07,06,11,,,,0.90,0.52,0.74,1*02
$GNGSA,A,3,68,67,79,85,,,,,,,,,0.90,0.52,0.74,2*03
$GNGSA,A,3,06,09,04,31,36,34,21,11,,,,,0.90,0.52,0.74,3*06
$GNGSA,A,3,32,23,25,41,20,37,,,,,,,0.90,0.52,0.74,4*0D
$GPGSV,3,1,12,04,83,358,38,09,55,294,38,03,45,173,36,16,43,112,34,1*65
$GPGSV,3,2,12,26,39,068,35,48,33,182,32,31,27,058,33,07,26,234,31,1*68
$GPGSV,3,3,12,06,23,286,30,11,12,324,30,29,03,024,25,28,01,057,,1*6A
$GLGSV,2,1,07,68,71,342,31,78,58,169,20,67,48,109,28,84,18,300,,1*74
$GLGSV,2,2,07,79,11,196,19,85,11,351,22,76,05,028,17,1*45
$GAGSV,3,1,10,06,83,038,34,09,66,297,34,04,58,089,33,31,30,153,29,7*76
$GAGSV,3,2,10,36,26,259,26,34,21,314,22,21,16,036,27,05,14,283,17,7*71
$GAGSV,3,3,10,11,08,213,19,19,02,098,,7*79
$GBGSV,3,1,09,32,85,237,40,23,69,138,38,25,35,054,36,41,33,131,36,1*7A
$GBGSV,3,2,09,20,29,305,37,37,29,202,34,35,02,344,,38,01,331,,1*71
$GBGSV,3,3,09,04,01,262,,1*4C
$GNRMC,174952.000,A,4910.425666,N,12304.403502,W,0.03,0.00,051224,,,D,V*1F
$GNVTG,0.00,T,,M,0.03,N,0.05,K,D*20
$GNGGA,174953.000,4910.425606,N,12304.403580,W,2,27,0.52,6.211,M,-16.816,M,,*4C
$GNGLL,4910.425606,N,12304.403580,W,174953.000,A,D*5C
$GNGSA,A,3,04,09,03,16,26,31,07,06,11,,,,0.90,0.52,0.74,1*02
$GNGSA,A,3,68,67,79,85,,,,,,,,,0.90,0.52,0.74,2*03
$GNGSA,A,3,06,09,04,31,36,34,21,11,,,,,0.90,0.52,0.74,3*06
$GNGSA,A,3,32,23,25,41,20,37,,,,,,,0.90,0.52,0.74,4*0D
$GPGSV,3,1,12,04,83,358,38,09,55,294,38,03,45,173,36,16,43,112,34,1*65
$GPGSV,3,2,12,26,39,068,35,48,33,182,32,31,27,058,33,07,26,234,32,1*6B
$GPGSV,3,3,12,06,23,286,30,11,12,324,30,29,03,024,26,28,01,057,,1*69
$GLGSV,2,1,07,68,71,342,31,78,58,169,20,67,48,109,28,84,18,300,,1*74
$GLGSV,2,2,07,79,11,196,19,85,11,351,21,76,05,028,17,1*46
$GAGSV,3,1,10,06,83,038,34,09,66,297,34,04,58,089,33,31,30,153,29,7*76
$GAGSV,3,2,10,36,26,259,26,34,21,314,23,21,16,036,27,05,14,283,17,7*70
$GAGSV,3,3,10,11,08,213,19,19,02,098,,7*79
$GBGSV,3,1,09,32,85,237,40,23,69,138,38,25,35,054,36,41,33,131,36,1*7A
$GBGSV,3,2,09,20,29,305,37,37,29,202,34,35,02,344,,38,01,331,,1*71
$GBGSV,3,3,09,04,01,262,,1*4C
$GNRMC,174953.000,A,4910.425606,N,12304.403580,W,0.02,0.00,051224,,,D,V*13
$GNVTG,0.00,T,,M,0.02,N,0.04,K,D*20
$GNGGA,174954.000,4910.425600,N,12304.403622,W,2,27,0.52,6.262,M,-16.816,M,,*42
$GNGLL,4910.425600,N,12304.403622,W,174954.000,A,D*56
$GNGSA,A,3,04,09,03,16,26,31,07,06,11,,,,0.90,0.52,0.74,1*02
$GNGSA,A,3,68,67,79,85,,,,,,,,,0.90,0.52,0.74,2*03
$GNGSA,A,3,06,09,04,31,36,34,21,11,,,,,0.90,0.52,0.74,3*06
$GNGSA,A,3,32,23,25,41,20,37,,,,,,,0.90,0.52,0.74,4*0D
$GPGSV,3,1,12,04,83,358,38,09,55,294,38,03,45,173,36,16,43,112,34,1*65
$GPGSV,3,2,12,26,39,068,35,48,33,182,32,31,27,058,33,07,26,234,32,1*6B
$GPGSV,3,3,12,06,23,286,30,11,12,324,30,29,03,024,25,28,01,057,,1*6A
$GLGSV,2,1,07,68,71,342,31,78,58,169,20,67,48,109,29,84,18,300,,1*75
$GLGSV,2,2,07,79,11,196,19,85,11,351,24,76,05,028,17,1*43
$GAGSV,3,1,10,06,83,038,34,09,66,297,34,04,58,089,33,31,30,153,29,7*76
$GAGSV,3,2,10,36,26,259,26,34,21,314,23,21,16,036,27,05,14,283,17,7*70
$GAGSV,3,3,10,11,08,213,19,19,02,098,,7*79
$GBGSV,3,1,09,32,85,237,40,23,69,138,38,25,35,054,36,41,33,131,36,1*7A
$GBGSV,3,2,09,20,29,305,37,37,29,202,34,35,02,344,,38,01,331,,1*71
$GBGSV,3,3,09,04,01,262,,1*4C
$GNRMC,174954.000,A,4910.425600,N,12304.403622,W,0.02,0.00,051224,,,D,V*19
$GNVTG,0.00,T,,M,0.02,N,0.04,K,D*20
$GNGGA,174955.000,4910.425606,N,12304.403658,W,2,27,0.52,6.325,M,-16.817,M,,*4B
$GNGLL,4910.425606,N,12304.403658,W,174955.000,A,D*5C
$GNGSA,A,3,04,09,03,16,26,31,07,06,11,,,,0.90,0.52,0.74,1*02
$GNGSA,A,3,68,67,79,85,,,,,,,,,0.90,0.52,0.74,2*03
$GNGSA,A,3,06,09,04,31,36,34,21,11,,,,,0.90,0.52,0.74,3*06
$GNGSA,A,3,32,23,25,41,20,37,,,,,,,0.90,0.52,0.74,4*0D
$GPGSV,3,1,12,04,83,358,38,09,55,294,38,03,45,173,36,16,43,112,34,1*65
$GPGSV,3,2,12,26,38,067,35,48,33,182,32,31,27,058,33,07,26,234,32,1*65
$GPGSV,3,3,12,06,23,286,31,11,12,324,30,29,03,024,25,28,01,057,,1*6B
$GLGSV,2,1,07,68,71,342,32,78,58,169,20,67,48,109,29,84,18,300,,1*76
$GLGSV,2,2,07,79,11,196,19,85,11,351,24,76,05,028,17,1*43
$GAGSV,3,1,10,06,83,038,34,09,66,297,34,04,58,089,33,31,30,153,29,7*76
$GAGSV,3,2,10,36,26,259,26,34,21,314,22,21,16,036,27,05,14,283,17,7*71
$GAGSV,3,3,10,11,08,213,19,19,02,098,,7*79
$GBGSV,3,1,09,32,85,237,40,23,69,138,38,25,35,054,36,41,33,131,36,1*7A
$GBGSV,3,2,09,20,29,305,37,37,29,202,34,35,02,344,,38,01,331,,1*71
$GBGSV,3,3,09,04,01,262,,1*4C
$GNRMC,174955.000,A,4910.425606,N,12304.403658,W,0.01,0.00,051224,,,D,V*10
$GNVTG,0.00,T,,M,0.01,N,0.03,K,D*24
$GNGGA,174956.000,4910.425666,N,12304.403568,W,2,27,0.52,6.291,M,-16.816,M,,*41
$GNGLL,4910.425666,N,12304.403568,W,174956.000,A,D*59
$GNGSA,A,3,04,09,03,16,26,31,07,06,11,,,,0.90,0.52,0.74,1*02
$GNGSA,A,3,68,67,79,85,,,,,,,,,0.90,0.52,0.74,2*03
$GNGSA,A,3,06,09,04,31,36,34,21,11,,,,,0.90,0.52,0.74,3*06
$GNGSA,A,3,32,23,25,41,20,37,,,,,,,0.90,0.52,0.74,4*0D
$GPGSV,3,1,12,04,83,358,38,09,55,294,38,03,45,173,36,16,43,112,34,1*65
$GPGSV,3,2,12,26,38,067,35,48,33,182,32,31,27,058,33,07,26,234,32,1*65
$GPGSV,3,3,12,06,23,286,31,11,12,324,30,29,03,024,25,28,01,057,,1*6B
$GLGSV,2,1,07,68,71,342,32,78,58,169,20,67,48,109,29,84,18,300,,1*76
$GLGSV,2,2,07,79,11,196,19,85,11,351,24,76,05,028,17,1*43
$GAGSV,3,1,10,06,83,038,34,09,66,297,34,04,58,089,33,31,30,153,29,7*76
$GAGSV,3,2,10,36,26,259,26,34,21,314,22,21,16,036,27,05,14,283,17,7*71
$GAGSV,3,3,10,11,08,213,19,19,02,098,,7*79
$GBGSV,3,1,09,32,85,237,40,23,69,138,38,25,35,054,36,41,33,131,36,1*7A
$GBGSV,3,2,09,20,29,305,37,37,29,202,34,35,02,344,,38,01,331,,1*71
$GBGSV,3,3,09,04,01,262,,1*4C
$GNRMC,174956.000,A,4910.425666,N,12304.403568,W,0.01,0.00,051224,,,D,V*15
$GNVTG,0.00,T,,M,0.01,N,0.02,K,D*25
$GNGGA,174957.000,4910.425744,N,12304.403562,W,2,27,0.52,6.244,M,-16.816,M,,*43
$GNGLL,4910.425744,N,12304.403562,W,174957.000,A,D*53
$GNGSA,A,3,04,09,03,16,26,31,07,06,11,,,,0.90,0.52,0.74,1*02
$GNGSA,A,3,68,67,85,79,,,,,,,,,0.90,0.52,0.74,2*03
$GNGSA,A,3,06,09,04,31,36,34,21,11,,,,,0.90,0.52,0.74,3*06
$GNGSA,A,3,32,23,25,41,20,37,,,,,,,0.90,0.52,0.74,4*0D
$GPGSV,3,1,11,04,83,358,38,09,55,294,38,03,45,173,36,16,43,112,34,1*66
$GPGSV,3,2,11,26,38,067,35,48,33,182,32,31,27,058,33,07,26,234,32,1*66
$GPGSV,3,3,11,06,23,286,31,11,12,324,30,29,03,024,25,1*51
$GLGSV,2,1,07,68,71,342,32,78,58,169,20,67,48,109,29,84,18,300,,1*76
$GLGSV,2,2,07,85,11,351,24,79,11,196,19,76,05,028,17,1*43
$GAGSV,3,1,10,06,83,038,34,09,66,297,34,04,58,089,33,31,30,153,29,7*76
$GAGSV,3,2,10,36,26,259,26,34,21,314,22,21,16,036,27,05,14,283,17,7*71
$GAGSV,3,3,10,11,08,213,18,19,02,098,,7*78
$GBGSV,3,1,09,32,85,237,40,23,69,138,38,25,35,054,36,41,33,131,36,1*7A
$GBGSV,3,2,09,20,29,305,37,37,29,202,34,35,02,344,,38,01,331,,1*71
$GBGSV,3,3,09,04,01,262,,1*4C
$GNRMC,174957.000,A,4910.425744,N,12304.403562,W,0.02,0.00,051224,,,D,V*1C
$GNVTG,0.00,T,,M,0.02,N,0.03,K,D*27
$GNGGA,174958.000,4910.425810,N,12304.403550,W,2,27,0.52,6.166,M,-16.816,M,,*40
$GNGLL,4910.425810,N,12304.403550,W,174958.000,A,D*53
$GNGSA,A,3,04,09,03,16,26,31,07,06,11,,,,0.90,0.52,0.74,1*02
$GNGSA,A,3,68,67,85,79,,,,,,,,,0.90,0.52,0.74,2*03
