$GNGGA,190533.000,4910.427040,N,12304.400622,W,2,32,0.47,14.460,M,-16.817,M,,*70
$GNGLL,4910.427040,N,12304.400622,W,190533.000,A,D*52
$GNGSA,A,3,09,04,07,16,20,30,26,27,11,03,08,06,0.73,0.47,0.55,1*06
$GNGSA,A,3,68,69,79,67,,,,,,,,,0.73,0.47,0.55,2*0B
$GNGSA,A,3,09,06,31,05,04,24,34,15,,,,,0.73,0.47,0.55,3*0D
$GNGSA,A,3,37,23,20,32,38,19,25,41,,,,,0.73,0.47,0.55,4*04
$GPGSV,4,1,13,09,89,187,37,04,57,116,32,07,56,256,34,16,42,062,32,1*66
$GPGSV,4,2,13,46,33,188,30,20,21,317,25,30,20,252,26,26,15,045,27,1*67
$GPGSV,4,3,13,27,14,103,23,11,11,294,23,03,09,173,22,08,05,133,24,1*69
$GPGSV,4,4,13,06,04,258,17,1*5D
$GLGSV,2,1,07,78,70,049,,68,63,136,30,69,61,321,28,79,52,210,30,1*7E
$GLGSV,2,2,07,67,13,139,20,86,09,006,,85,06,316,16,1*4C
$GAGSV,3,1,09,09,86,086,32,06,60,113,28,31,58,131,29,05,37,297,24,7*75
$GAGSV,3,2,09,04,33,114,26,24,23,187,23,34,14,287,17,15,09,336,16,7*72
$GAGSV,3,3,09,36,03,240,11,7*4A
$GBGSV,4,1,13,37,62,211,36,23,58,065,36,20,58,295,36,32,54,165,36,1*7F
$GBGSV,4,2,13,38,12,334,23,19,12,316,27,46,09,226,,25,08,053,27,1*74
$GBGSV,4,3,13,08,05,341,18,41,04,145,25,12,03,022,,34,01,048,,1*7D
$GBGSV,4,4,13,04,01,262,,1*47
$GNRMC,190533.000,A,4910.427040,N,12304.400622,W,0.02,0.00,051224,,,D,V*1D
$GNVTG,0.00,T,,M,0.02,N,0.04,K,D*20
$GNGGA,190534.000,4910.427094,N,12304.400484,W,2,30,0.50,14.927,M,-16.816,M,,*7B
$GNGLL,4910.427094,N,12304.400484,W,190534.000,A,D*52
$GNGSA,A,3,09,04,07,16,20,30,26,27,11,03,08,,0.78,0.50,0.60,1*0B
$GNGSA,A,3,68,69,79,67,,,,,,,,,0.78,0.50,0.60,2*00
$GNGSA,A,3,09,06,31,05,04,24,34,15,,,,,0.78,0.50,0.60,3*06
$GNGSA,A,3,37,23,20,32,38,19,25,,,,,,0.78,0.50,0.60,4*0A
$GPGSV,4,1,13,09,89,187,37,04,57,116,32,07,56,256,34,16,42,062,33,1*67
$GPGSV,4,2,13,46,33,188,30,20,21,317,25,30,20,252,28,26,15,045,27,1*69
$GPGSV,4,3,13,27,14,103,23,11,11,294,25,03,09,173,23,08,05,133,24,1*6E
$GPGSV,4,4,13,06,04,258,18,1*52
$GLGSV,2,1,07,78,70,049,,68,63,136,30,69,61,321,28,79,52,210,30,1*7E
$GLGSV,2,2,07,67,13,139,20,86,09,006,,85,06,316,16,1*4C
$GAGSV,3,1,09,09,86,086,32,06,60,113,28,31,58,131,29,05,37,297,25,7*74
$GAGSV,3,2,09,04,33,114,27,24,23,187,24,34,14,287,17,15,09,336,16,7*74
$GAGSV,3,3,09,36,03,240,11,7*4A
$GBGSV,4,1,13,37,62,211,36,23,58,065,36,20,58,295,36,32,54,165,36,1*7F
$GBGSV,4,2,13,38,12,334,23,19,12,316,27,46,09,226,,25,08,053,27,1*74
$GBGSV,4,3,13,08,05,341,18,41,04,145,26,12,03,022,,34,01,048,,1*7E
$GBGSV,4,4,13,04,01,262,,1*47
$GNRMC,190534.000,A,4910.427094,N,12304.400484,W,0.03,0.00,051224,,,D,V*1C
$GNVTG,0.00,T,,M,0.03,N,0.05,K,D*20
$GNGGA,190535.000,4910.427124,N,12304.400436,W,2,30,0.50,15.374,M,-16.817,M,,*75
$GNGLL,4910.427124,N,12304.400436,W,190535.000,A,D*50
$GNGSA,A,3,09,04,07,16,20,30,26,27,11,03,08,,0.78,0.50,0.60,1*0B
$GNGSA,A,3,68,69,79,67,,,,,,,,,0.78,0.50,0.60,2*00
$GNGSA,A,3,09,06,31,05,04,24,34,15,,,,,0.78,0.50,0.60,3*06
$GNGSA,A,3,37,23,20,32,38,19,25,,,,,,0.78,0.50,0.60,4*0A
$GPGSV,4,1,13,09,89,187,37,04,57,116,33,07,56,256,35,16,42,062,33,1*67
$GPGSV,4,2,13,46,33,188,30,20,21,317,26,30,20,252,27,26,15,045,27,1*65
$GPGSV,4,3,13,27,14,103,23,11,11,294,24,03,09,173,23,08,05,133,24,1*6F
$GPGSV,4,4,13,06,04,258,17,1*5D
$GLGSV,2,1,07,78,70,049,,68,63,136,30,69,61,321,28,79,52,210,30,1*7E
$GLGSV,2,2,07,67,13,139,20,86,09,006,,85,06,316,16,1*4C
$GAGSV,3,1,09,09,86,086,32,06,60,113,29,31,58,131,29,05,37,297,25,7*75
$GAGSV,3,2,09,04,33,114,27,24,23,187,24,34,14,287,17,15,09,336,16,7*74
$GAGSV,3,3,09,36,03,240,11,7*4A
$GBGSV,4,1,13,37,62,211,36,23,58,065,36,20,58,295,36,32,54,165,36,1*7F
$GBGSV,4,2,13,38,12,334,23,19,12,316,27,46,09,226,,25,08,053,27,1*74
$GBGSV,4,3,13,08,05,341,18,41,04,145,26,12,03,022,,34,01,048,,1*7E
$GBGSV,4,4,13,04,01,262,,1*47
$GNRMC,190535.000,A,4910.427124,N,12304.400436,W,0.03,0.00,051224,,,D,V*1E
$GNVTG,0.00,T,,M,0.03,N,0.05,K,D*20
$GNGGA,190536.000,4910.427154,N,12304.400334,W,2,30,0.50,15.885,M,-16.816,M,,*70
$GNGLL,4910.427154,N,12304.400334,W,190536.000,A,D*51
$GNGSA,A,3,09,04,07,16,20,30,26,27,11,03,08,,0.78,0.50,0.60,1*0B
$GNGSA,A,3,68,69,79,67,,,,,,,,,0.78,0.50,0.60,2*00
$GNGSA,A,3,09,06,31,05,04,24,34,15,,,,,0.78,0.50,0.60,3*06
$GNGSA,A,3,37,23,20,32,38,19,25,,,,,,0.78,0.50,0.60,4*0A
$GPGSV,4,1,13,09,89,187,38,04,57,116,33,07,56,256,35,16,42,062,33,1*68
$GPGSV,4,2,13,46,33,188,30,20,21,317,26,30,20,252,27,26,15,045,26,1*64
$GPGSV,4,3,13,27,14,103,23,11,11,294,25,03,09,173,23,08,05,133,24,1*6E
$GPGSV,4,4,13,06,04,258,17,1*5D
$GLGSV,2,1,07,78,70,049,,68,63,136,29,69,61,321,28,79,52,210,30,1*76
$GLGSV,2,2,07,67,13,139,19,86,09,006,,85,06,316,16,1*46
$GAGSV,3,1,09,09,86,086,32,06,60,113,29,31,58,131,29,05,37,297,26,7*76
$GAGSV,3,2,09,04,33,114,27,24,23,187,24,34,14,287,18,15,09,336,16,7*7B
$GAGSV,3,3,09,36,03,240,11,7*4A
$GBGSV,4,1,13,37,62,211,36,23,58,065,36,20,58,295,36,32,54,165,36,1*7F
$GBGSV,4,2,13,38,12,334,23,19,12,316,27,46,09,226,,25,08,053,27,1*74
$GBGSV,4,3,13,08,05,341,18,41,04,145,26,12,03,022,,34,01,048,,1*7E
$GBGSV,4,4,13,04,01,262,,1*47
$GNRMC,190536.000,A,4910.427154,N,12304.400334,W,0.03,0.00,051224,,,D,V*1F
$GNVTG,0.00,T,,M,0.03,N,0.05,K,D*20
$PAIR010,0,1,2343,414354*3F
$GNGGA,190537.000,4910.427178,N,12304.400262,W,2,30,0.50,16.226,M,-16.816,M,,*7D
