$GNGGA,193528.000,4910.429422,N,12304.401966,W,2,26,0.65,12.006,M,-16.816,M,,*7F
$GNGLL,4910.429422,N,12304.401966,W,193528.000,A,D*5B
$GNGSA,A,3,09,07,04,16,30,20,27,08,05,,,,1.04,0.65,0.81,1*0A
$GNGSA,A,3,69,79,68,,,,,,,,,,1.04,0.65,0.81,2*02
$GNGSA,A,3,09,31,06,05,24,04,15,,,,,,1.04,0.65,0.81,3*02
$GNGSA,A,3,37,20,23,32,19,38,34,,,,,,1.04,0.65,0.81,4*09
$GPGSV,3,1,12,09,75,141,32,07,68,270,32,04,44,125,28,44,33,171,26,1*6D
$GPGSV,3,2,12,16,32,051,27,30,31,260,25,20,27,306,25,27,22,091,26,1*6F
$GPGSV,3,3,12,08,16,125,24,05,07,331,21,26,04,043,15,11,04,283,,1*66
$GLGSV,2,1,07,69,77,308,23,79,68,223,27,78,54,042,,68,47,149,28,1*7C
$GLGSV,2,2,07,80,14,222,23,70,12,324,,86,09,352,,1*43
$GAGSV,2,1,08,09,76,124,27,31,64,110,27,06,50,123,27,05,47,300,24,7*72
$GAGSV,2,2,08,24,34,188,23,04,24,122,22,15,09,327,19,34,08,279,08,7*71
$GBGSV,4,1,14,37,75,214,38,20,65,273,39,23,47,061,35,32,41,167,33,1*76
$GBGSV,4,2,14,19,23,315,31,46,20,232,,38,16,332,27,08,10,341,22,1*7E
$GBGSV,4,3,14,34,05,038,25,11,03,060,15,12,03,012,20,43,02,080,,1*77
$GBGSV,4,4,14,13,02,346,,04,01,262,,1*71
$GNRMC,193528.000,A,4910.429422,N,12304.401966,W,0.02,0.00,051224,,,D,V*14
$GNVTG,0.00,T,,M,0.02,N,0.03,K,D*27
$GNGGA,193529.000,4910.429410,N,12304.401966,W,2,26,0.65,11.938,M,-16.816,M,,*78
$GNGLL,4910.429410,N,12304.401966,W,193529.000,A,D*5B
$GNGSA,A,3,09,07,04,16,30,20,27,08,05,,,,1.04,0.65,0.81,1*0A
$GNGSA,A,3,69,79,68,,,,,,,,,,1.04,0.65,0.81,2*02
$GNGSA,A,3,09,31,06,05,24,04,15,,,,,,1.04,0.65,0.81,3*02
$GNGSA,A,3,37,20,23,32,19,38,34,,,,,,1.04,0.65,0.81,4*09
$GPGSV,3,1,12,09,75,141,32,07,68,270,32,04,44,125,29,44,33,171,26,1*6C
$GPGSV,3,2,12,16,32,051,27,30,31,260,25,20,27,306,25,27,22,091,26,1*6F
$GPGSV,3,3,12,08,16,125,24,05,07,331,22,26,04,043,15,11,04,283,,1*65
$GLGSV,2,1,06,69,77,308,23,79,68,223,27,68,47,149,28,80,14,222,22,1*7A
$GLGSV,2,2,06,70,12,324,,86,09,352,,1*7C
$GAGSV,2,1,08,09,76,124,27,31,64,110,27,06,50,123,27,05,47,300,24,7*72
$GAGSV,2,2,08,24,34,188,23,04,24,122,22,15,09,327,19,34,08,279,08,7*71
$GBGSV,4,1,14,37,75,214,38,20,65,273,39,23,47,061,36,32,41,167,34,1*72
$GBGSV,4,2,14,19,23,315,31,46,20,232,,38,16,332,27,08,10,341,22,1*7E
$GBGSV,4,3,14,34,05,038,25,11,03,060,15,12,03,012,21,43,02,080,,1*76
$GBGSV,4,4,14,13,02,346,,04,01,262,,1*71
$GNRMC,193529.000,A,4910.429410,N,12304.401966,W,0.02,0.00,051224,,,D,V*14
$GNVTG,0.00,T,,M,0.02,N,0.03,K,D*27
$GNGGA,193530.000,4910.429368,N,12304.401936,W,2,26,0.65,11.912,M,-16.816,M,,*75
$GNGLL,4910.429368,N,12304.401936,W,193530.000,A,D*5E
$GNGSA,A,3,09,07,04,16,30,20,27,08,05,,,,1.04,0.65,0.81,1*0A
$GNGSA,A,3,69,79,68,,,,,,,,,,1.04,0.65,0.81,2*02
$GNGSA,A,3,09,31,06,05,24,04,15,,,,,,1.04,0.65,0.81,3*02
$GNGSA,A,3,37,20,23,32,19,38,34,,,,,,1.04,0.65,0.81,4*09
$GPGSV,3,1,12,09,75,141,33,07,68,270,33,04,44,125,30,44,33,171,26,1*64
$GPGSV,3,2,12,16,32,051,29,30,31,260,26,20,27,305,26,27,22,091,26,1*62
$GPGSV,3,3,12,08,16,125,25,05,07,331,24,26,04,043,16,11,04,283,,1*61
$GLGSV,2,1,07,69,77,308,23,79,68,223,27,78,54,042,,68,47,149,28,1*7C
$GLGSV,2,2,07,80,14,222,22,70,12,324,,86,09,352,,1*42
$GAGSV,2,1,08,09,76,124,28,31,64,110,28,06,50,123,28,05,47,300,25,7*7C
$GAGSV,2,2,08,24,34,188,24,04,24,122,22,15,09,327,19,34,08,279,08,7*76
$GBGSV,4,1,14,37,75,214,38,20,65,273,39,23,47,061,36,32,41,167,34,1*72
$GBGSV,4,2,14,19,23,315,31,46,20,232,,38,16,332,27,08,10,341,22,1*7E
$GBGSV,4,3,14,34,05,038,25,11,03,060,14,12,03,012,21,43,02,080,,1*77
$GBGSV,4,4,14,13,02,346,,04,01,262,,1*71
$GNRMC,193530.000,A,4910.429368,N,12304.401936,W,0.02,0.00,051224,,,D,V*11
$GNVTG,0.00,T,,M,0.02,N,0.03,K,D*27
$GNGGA,193531.000,4910.429320,N,12304.402008,W,2,27,0.61,11.760,M,-16.817,M,,*70
$GNGLL,4910.429320,N,12304.402008,W,193531.000,A,D*54
$GNGSA,A,3,09,07,04,16,30,20,27,08,05,,,,0.96,0.61,0.75,1*0F
$GNGSA,A,3,69,79,68,,,,,,,,,,0.96,0.61,0.75,2*07
$GNGSA,A,3,09,31,06,05,24,04,15,34,,,,,0.96,0.61,0.75,3*00
$GNGSA,A,3,37,20,23,32,19,38,34,,,,,,0.96,0.61,0.75,4*0C
$GPGSV,3,1,12,09,75,141,34,07,68,270,33,04,44,125,30,44,33,171,26,1*63
$GPGSV,3,2,12,16,32,051,28,30,31,260,26,20,27,305,27,27,22,091,26,1*62
$GPGSV,3,3,12,08,16,125,27,05,07,331,24,26,04,043,17,11,04,283,,1*62
$GLGSV,2,1,07,69,77,308,22,79,68,223,27,78,54,042,,68,47,149,28,1*7D
$GLGSV,2,2,07,80,14,222,22,70,12,324,,86,09,352,,1*42
$GAGSV,2,1,08,09,76,124,28,31,64,110,28,06,50,123,28,05,47,300,25,7*7C
$GAGSV,2,2,08,24,34,188,24,04,24,122,22,15,09,327,19,34,08,279,08,7*76
$GBGSV,4,1,14,37,75,214,38,20,65,273,39,23,47,061,36,32,41,167,34,1*72
$GBGSV,4,2,14,19,23,315,31,46,20,232,,38,16,332,27,08,10,341,22,1*7E
$GBGSV,4,3,14,34,05,038,25,11,03,060,13,12,03,012,21,43,02,080,,1*70
$GBGSV,4,4,14,13,02,346,,04,01,262,,1*71
$GNRMC,193531.000,A,4910.429320,N,12304.402008,W,0.01,0.00,051224,,,D,V*18
$GNVTG,0.00,T,,M,0.01,N,0.03,K,D*24
$GNGGA,193532.000,4910.429260,N,12304.401996,W,2,27,0.61,11.679,M,-16.816,M,,*73
$GNGLL,4910.429260,N,12304.401996,W,193532.000,A,D*5F
$GNGSA,A,3,09,07,04,16,30,20,27,08,05,,,,0.96,0.61,0.75,1*0F
$GNGSA,A,3,69,79,68,,,,,,,,,,0.96,0.61,0.75,2*07
$GNGSA,A,3,09,31,06,05,24,04,15,34,,,,,0.96,0.61,0.75,3*00
$GNGSA,A,3,37,20,23,32,19,38,34,,,,,,0.96,0.61,0.75,4*0C
$GPGSV,3,1,12,09,75,141,34,07,68,270,33,04,44,125,30,44,33,171,26,1*63
$GPGSV,3,2,12,16,32,051,27,30,31,260,26,20,27,305,25,27,22,091,26,1*6F
$GPGSV,3,3,12,08,16,125,26,05,07,331,23,26,04,043,17,11,04,283,,1*64
$GLGSV,2,1,07,69,77,308,23,79,68,223,27,78,54,042,,68,47,149,28,1*7C
$GLGSV,2,2,07,80,14,222,21,70,12,324,,86,09,352,,1*41
$GAGSV,2,1,08,09,76,124,28,31,64,110,28,06,50,123,28,05,47,300,25,7*7C
$GAGSV,2,2,08,24,34,188,24,04,24,122,21,15,09,327,19,34,08,279,09,7*74
$GBGSV,4,1,14,37,75,214,38,20,65,273,39,23,47,061,36,32,41,167,35,1*73
$GBGSV,4,2,14,19,23,315,32,46,20,232,,38,16,332,27,08,10,341,22,1*7D
$GBGSV,4,3,14,34,05,038,25,11,03,060,13,12,03,012,21,43,02,080,,1*70
$GBGSV,4,4,14,13,02,346,,04,01,262,,1*71
$GNRMC,193532.000,A,4910.429260,N,12304.401996,W,0.01,0.00,051224,,,D,V*13
$GNVTG,0.00,T,,M,0.01,N,0.03,K,D*24
$GNGGA,193533.000,4910.429146,N,12304.401936,W,2,27,0.61,11.348,M,-16.816,M,,*78
$GNGLL,4910.429146,N,12304.401936,W,193533.000,A,D*53
$GNGSA,A,3,09,07,04,16,30,20,27,08,05,,,,0.96,0.61,0.75,1*0F
$GNGSA,A,3,69,79,68,,,,,,,,,,0.96,0.61,0.75,2*07
$GNGSA,A,3,09,31,06,05,24,04,15,34,,,,,0.96,0.61,0.75,3*00
$GNGSA,A,3,37,20,23,32,19,38,34,,,,,,0.96,0.61,0.75,4*0C
$GPGSV,3,1,12,09,75,141,34,07,68,270,33,04,44,125,30,44,33,171,26,1*63
$GPGSV,3,2,12,16,32,051,27,30,31,260,26,20,27,305,25,27,22,091,26,1*6F
$GPGSV,3,3,12,08,16,125,25,05,07,331,23,26,04,043,17,11,04,283,,1*67
$GLGSV,2,1,07,69,77,308,23,79,68,223,27,78,54,042,,68,47,149,28,1*7C
$GLGSV,2,2,07,80,14,222,21,70,12,324,,86,09,352,,1*41
$GAGSV,2,1,08,09,76,124,28,31,64,110,28,06,50,123,28,05,47,300,25,7*7C
$GAGSV,2,2,08,24,34,188,24,04,24,122,21,15,09,327,19,34,08,279,09,7*74
$GBGSV,4,1,14,37,75,214,38,20,65,273,39,23,47,061,36,32,41,167,35,1*73
$GBGSV,4,2,14,19,23,315,32,46,20,232,,38,16,332,27,08,10,341,22,1*7D
$GBGSV,4,3,14,34,05,038,25,11,03,060,13,12,03,012,21,43,02,080,,1*70
$GBGSV,4,4,14,13,02,346,,04,01,262,,1*71
$GNRMC,193533.000,A,4910.429146,N,12304.401936,W,0.02,0.00,051224,,,D,V*1C
$GNVTG,0.00,T,,M,0.02,N,0.03,K,D*27
$GNGGA,193534.000,4910.428972,N,12304.401762,W,2,27,0.61,10.873,M,-16.817,M,,*7D
$GNGLL,4910.428972,N,12304.401762,W,193534.000,A,D*55
$GNGSA,A,3,09,07,04,16,30,20,27,08,05,,,,0.96,0.61,0.75,1*0F
$GNGSA,A,3,69,79,68,,,,,,,,,,0.96,0.61,0.75,2*07
$GNGSA,A,3,09,31,06,05,24,04,15,34,,,,,0.96,0.61,0.75,3*00
$GNGSA,A,3,37,20,23,32,19,38,34,,,,,,0.96,0.61,0.75,4*0C
$GPGSV,3,1,12,09,75,141,34,07,68,270,33,04,44,125,30,44,33,171,26,1*63
$GPGSV,3,2,12,16,32,051,27,30,31,260,28,20,27,305,24,27,22,091,26,1*60
$GPGSV,3,3,12,08,16,125,27,05,07,331,23,26,04,043,17,11,04,283,,1*65
$GLGSV,2,1,07,69,77,308,23,79,68,223,27,78,54,042,,68,47,149,28,1*7C
$GLGSV,2,2,07,80,14,222,21,70,12,324,,86,09,352,,1*41
$GAGSV,2,1,08,09,76,124,28,31,64,110,28,06,50,123,28,05,47,300,26,7*7F
$GAGSV,2,2,08,24,34,188,24,04,24,122,21,15,09,327,19,34,08,279,09,7*74
$GBGSV,4,1,14,37,75,214,38,20,65,273,39,23,47,061,35,32,41,167,34,1*71
$GBGSV,4,2,14,19,23,315,32,46,20,232,,38,16,332,27,08,10,341,22,1*7D
$GBGSV,4,3,14,34,05,038,25,11,03,060,13,12,03,012,21,43,02,080,,1*70
$GBGSV,4,4,14,13,02,346,,04,01,262,,1*71
$GNRMC,193534.000,A,4910.428972,N,12304.401762,W,0.02,0.00,051224,,,D,V*1A
$GNVTG,0.00,T,,M,0.02,N,0.04,K,D*20
$GNGGA,193535.000,4910.428882,N,12304.401810,W,2,27,0.61,10.888,M,-16.816,M,,*7D
$GNGLL,4910.428882,N,12304.401810,W,193535.000,A,D*50
$GNGSA,A,3,09,07,04,16,30,20,27,08,05,,,,0.96,0.61,0.75,1*0F
$GNGSA,A,3,69,79,68,,,,,,,,,,0.96,0.61,0.75,2*07
$GNGSA,A,3,09,31,06,05,24,04,15,34,,,,,0.96,0.61,0.75,3*00
$GNGSA,A,3,37,20,23,32,19,38,34,,,,,,0.96,0.61,0.75,4*0C
$GPGSV,3,1,12,09,75,141,34,07,68,270,34,04,44,125,30,44,33,171,27,1*65
$GPGSV,3,2,12,16,32,051,28,30,31,260,28,20,27,305,27,27,22,091,26,1*6C
$GPGSV,3,3,12,08,16,125,27,05,07,331,24,26,04,043,17,11,04,283,,1*62
$GLGSV,2,1,07,69,77,308,23,79,68,223,27,78,54,042,,68,47,149,28,1*7C
$GLGSV,2,2,07,80,14,222,21,70,12,324,,86,09,352,,1*41
$GAGSV,2,1,08,09,76,124,29,31,64,110,28,06,50,123,28,05,47,300,26,7*7E
$GAGSV,2,2,08,24,34,188,24,04,24,122,21,15,09,327,19,34,08,279,10,7*7C
$GBGSV,4,1,14,37,75,214,38,20,65,273,39,23,47,061,35,32,41,167,34,1*71
$GBGSV,4,2,14,19,23,315,32,46,20,232,,38,16,332,27,08,10,341,22,1*7D
$GBGSV,4,3,14,34,05,038,25,11,03,060,12,12,03,012,21,43,02,080,,1*71
$GBGSV,4,4,14,13,02,346,,04,01,262,,1*71
$GNRMC,193535.000,A,4910.428882,N,12304.401810,W,0.03,0.00,051224,,,D,V*1E
$GNVTG,0.00,T,,M,0.03,N,0.05,K,D*20
$GNGGA,193536.000,4910.428738,N,12304.401954,W,2,27,0.61,10.787,M,-16.817,M,,*70
$GNGLL,4910.428738,N,12304.401954,W,193536.000,A,D*5C
$GNGSA,A,3,09,07,04,16,30,20,27,08,05,,,,0.96,0.61,0.75,1*0F
$GNGSA,A,3,69,79,68,,,,,,,,,,0.96,0.61,0.75,2*07
$GNGSA,A,3,09,31,06,05,24,04,15,34,,,,,0.96,0.61,0.75,3*00
$GNGSA,A,3,37,20,23,32,19,38,34,,,,,,0.96,0.61,0.75,4*0C
$GPGSV,3,1,12,09,75,141,34,07,68,270,34,04,44,125,30,44,33,171,27,1*65
$GPGSV,3,2,12,16,32,051,29,30,31,260,28,20,27,305,27,27,22,091,26,1*6D
$GPGSV,3,3,12,08,16,125,26,05,07,331,24,26,04,043,17,11,04,283,,1*63
$GLGSV,2,1,06,69,77,308,23,79,68,223,27,68,47,149,28,80,14,222,21,1*79
$GLGSV,2,2,06,70,12,324,,86,09,352,,1*7C
$GAGSV,2,1,08,09,76,124,29,31,64,110,29,06,50,123,28,05,47,300,26,7*7F
$GAGSV,2,2,08,24,34,188,24,04,24,122,21,15,09,327,19,34,08,279,10,7*7C
$GBGSV,4,1,14,37,75,214,38,20,65,273,39,23,47,061,35,32,41,167,34,1*71
$GBGSV,4,2,14,19,23,315,32,46,20,232,,38,16,332,27,08,10,341,22,1*7D
$GBGSV,4,3,14,34,05,038,25,11,03,060,12,12,03,012,21,43,02,080,,1*71
$GBGSV,4,4,14,13,02,346,,04,01,262,,1*71
$GNRMC,193536.000,A,4910.428738,N,12304.401954,W,0.03,0.00,051224,,,D,V*12
$GNVTG,0.00,T,,M,0.03,N,0.06,K,D*23
$PAIR010,0,1,2343,416154*3F
$GNGGA,193537.000,4910.428660,N,12304.401876,W,2,27,0.61,10.382,M,-16.816,M,,*7C
$GNGLL,4910.428660,N,12304.401876,W,193537.000,A,D*50
$GNGSA,A,3,09,07,04,16,30,20,27,08,05,,,,0.96,0.61,0.75,1*0F
$GNGSA,A,3,69,79,68,,,,,,,,,,0.96,0.61,0.75,2*07
$GNGSA,A,3,09,31,06,05,24,04,15,34,,,,,0.96,0.61,0.75,3*00
$GNGSA,A,3,37,20,23,32,19,38,34,,,,,,0.96,0.61,0.75,4*0C
$GPGSV,3,1,12,09,75,141,34,07,68,270,34,04,44,125,30,44,33,171,27,1*65
$GPGSV,3,2,12,16,32,051,28,30,31,260,26,20,27,305,26,27,22,091,26,1*63
$GPGSV,3,3,12,08,16,125,25,05,07,331,24,26,04,043,17,11,04,283,,1*60
$GLGSV,2,1,06,69,77,308,23,79,68,223,27,68,47,149,28,80,14,222,21,1*79
$GLGSV,2,2,06,70,12,324,,86,09,352,,1*7C
$GAGSV,2,1,08,09,76,124,29,31,64,110,29,06,50,123,28,05,47,300,26,7*7F
$GAGSV,2,2,08,24,34,188,24,04,24,122,21,15,09,327,20,34,08,279,10,7*76
$GBGSV,4,1,14,37,75,214,38,20,65,273,39,23,47,061,35,32,41,167,34,1*71
$GBGSV,4,2,14,19,23,315,32,46,20,232,,38,16,332,27,08,10,341,22,1*7D
$GBGSV,4,3,14,34,05,038,25,11,03,060,12,12,03,012,21,43,02,080,,1*71
$GBGSV,4,4,14,13,02,346,,04,01,262,,1*71
$GNRMC,193537.000,A,4910.428660,N,12304.401876,W,0.03,0.00,051224,,,D,V*1E
$GNVTG,0.00,T,,M,0.03,N,0.06,K,D*23
$GNGGA,193538.000,4910.428684,N,12304.401750,W,2,27,0.61,10.138,M,-16.816,M,,*71
$GNGLL,4910.428684,N,12304.401750,W,193538.000,A,D*5E
$GNGSA,A,3,09,07,04,16,30,20,27,08,05,,,,0.96,0.61,0.75,1*0F
$GNGSA,A,3,69,79,68,,,,,,,,,,0.96,0.61,0.75,2*07
$GNGSA,A,3,09,31,06,05,24,04,15,34,,,,,0.96,0.61,0.75,3*00
$GNGSA,A,3,37,20,23,32,19,38,34,,,,,,0.96,0.61,0.75,4*0C
$GPGSV,3,1,12,09,75,141,33,07,68,270,34,04,44,125,29,44,33,171,27,1*6A
$GPGSV,3,2,12,16,32,051,27,30,31,260,26,20,27,305,25,27,22,091,26,1*6F
$GPGSV,3,3,12,08,16,125,25,05,07,331,23,26,04,043,17,11,04,283,,1*67
$GLGSV,2,1,07,69,77,308,23,79,68,223,27,78,54,042,,68,47,149,28,1*7C
$GLGSV,2,2,07,80,14,222,21,70,12,324,,86,09,352,,1*41
$GAGSV,2,1,08,09,76,124,28,31,64,110,29,06,50,123,28,05,47,300,25,7*7D
$GAGSV,2,2,08,24,34,188,24,04,24,122,21,15,09,327,20,34,08,279,10,7*76
$GBGSV,4,1,14,37,75,214,38,20,65,273,39,23,47,061,35,32,41,167,35,1*70
$GBGSV,4,2,14,19,23,315,32,46,20,232,,38,16,332,27,08,10,341,22,1*7D
$GBGSV,4,3,14,34,05,038,25,11,03,060,12,12,03,012,21,43,02,080,,1*71
$GBGSV,4,4,14,13,02,346,,04,01,262,,1*71
$GNRMC,193538.000,A,4910.428684,N,12304.401750,W,0.03,0.00,051224,,,D,V*10
$GNVTG,0.00,T,,M,0.03,N,0.06,K,D*23
$GNGGA,193539.000,4910.428666,N,12304.401612,W,2,27,0.61,9.939,M,-16.816,M,,*4A
$GNGLL,4910.428666,N,12304.401612,W,193539.000,A,D*54
$GNGSA,A,3,09,07,04,16,30,20,27,08,05,,,,0.96,0.61,0.75,1*0F
$GNGSA,A,3,69,79,68,,,,,,,,,,0.96,0.61,0.75,2*07
$GNGSA,A,3,09,31,06,05,24,04,15,34,,,,,0.96,0.61,0.75,3*00
$GNGSA,A,3,37,20,23,32,19,38,34,,,,,,0.96,0.61,0.75,4*0C
$GPGSV,3,1,12,09,75,141,33,07,68,270,34,04,44,125,29,44,33,171,27,1*6A
$GPGSV,3,2,12,16,32,051,27,30,31,260,27,20,27,305,25,27,22,091,26,1*6E
$GPGSV,3,3,12,08,16,125,25,05,07,331,22,26,04,043,17,11,04,283,,1*66
$GLGSV,2,1,06,69,77,308,23,79,68,223,27,68,47,149,28,80,14,222,21,1*79
$GLGSV,2,2,06,70,12,324,,86,09,352,,1*7C
$GAGSV,2,1,08,09,76,124,28,31,64,110,29,06,50,123,28,05,47,300,25,7*7D
$GAGSV,2,2,08,24,34,188,24,04,24,122,21,15,09,327,20,34,08,279,10,7*76
$GBGSV,4,1,14,37,75,214,38,20,65,273,39,23,47,061,35,32,41,167,35,1*70
$GBGSV,4,2,14,19,23,315,32,46,20,232,,38,16,332,27,08,10,341,22,1*7D
$GBGSV,4,3,14,34,05,038,25,11,03,060,12,12,03,012,21,43,02,080,,1*71
$GBGSV,4,4,14,13,02,346,,04,01,262,,1*71
$GNRMC,193539.000,A,4910.428666,N,12304.401612,W,0.03,0.00,051224,,,D,V*1A
$GNVTG,0.00,T,,M,0.03,N,0.06,K,D*23
$GNGGA,193540.000,4910.428564,N,12304.401522,W,2,27,0.61,9.743,M,-16.816,M,,*46
$GNGLL,4910.428564,N,12304.401522,W,193540.000,A,D*5B
$GNGSA,A,3,09,07,04,16,30,20,27,08,05,,,,0.96,0.61,0.75,1*0F
$GNGSA,A,3,69,79,68,,,,,,,,,,0.96,0.61,0.75,2*07
$GNGSA,A,3,09,31,06,05,24,04,15,34,,,,,0.96,0.61,0.75,3*00
$GNGSA,A,3,37,20,23,32,19,38,34,,,,,,0.96,0.61,0.75,4*0C
$GPGSV,3,1,12,09,75,141,33,07,68,270,34,04,44,125,29,44,33,171,27,1*6A
$GPGSV,3,2,12,16,32,051,27,30,31,260,28,20,27,305,25,27,22,091,26,1*61
$GPGSV,3,3,12,08,16,125,25,05,07,331,23,26,04,043,17,11,04,283,,1*67
$GLGSV,2,1,07,69,77,308,23,79,68,223,27,78,54,042,,68,47,149,28,1*7C
$GLGSV,2,2,07,80,14,222,21,70,12,324,,86,09,352,,1*41
$GAGSV,2,1,08,09,76,124,29,31,64,110,29,06,50,123,28,05,47,300,25,7*7C
$GAGSV,2,2,08,24,34,188,24,04,24,122,20,15,09,327,20,34,08,279,10,7*77
$GBGSV,4,1,14,37,75,214,38,20,65,273,39,23,47,061,35,32,41,167,35,1*70
$GBGSV,4,2,14,19,23,315,32,46,20,232,,38,16,332,26,08,10,341,22,1*7C
$GBGSV,4,3,14,34,05,038,25,11,03,060,12,12,03,012,20,43,02,080,,1*70
$GBGSV,4,4,14,13,02,346,,04,01,262,,1*71
$GNRMC,193540.000,A,4910.428564,N,12304.401522,W,0.03,0.00,051224,,,D,V*15
$GNVTG,0.00,T,,M,0.03,N,0.05,K,D*20
$GNGGA,193541.000,4910.428504,N,12304.401450,W,2,27,0.61,9.575,M,-16.816,M,,*42
$GNGLL,4910.428504,N,12304.401450,W,193541.000,A,D*58
$GNGSA,A,3,09,07,04,16,30,20,27,08,05,,,,0.96,0.61,0.75,1*0F
$GNGSA,A,3,69,79,68,,,,,,,,,,0.96,0.61,0.75,2*07
$GNGSA,A,3,09,31,06,05,24,04,15,34,,,,,0.96,0.61,0.75,3*00
$GNGSA,A,3,37,20,23,32,19,38,34,,,,,,0.96,0.61,0.75,4*0C
$GPGSV,3,1,12,09,75,141,33,07,68,270,34,04,44,125,29,44,33,171,27,1*6A
$GPGSV,3,2,12,16,32,051,27,30,31,260,27,20,27,305,25,27,22,091,26,1*6E
$GPGSV,3,3,12,08,16,125,25,05,07,331,22,26,04,043,17,11,04,283,,1*66
$GLGSV,2,1,06,69,77,308,23,79,68,223,27,68,47,149,28,80,14,222,21,1*79
$GLGSV,2,2,06,70,12,324,,86,09,352,,1*7C
$GAGSV,2,1,08,09,76,124,29,31,64,110,28,06,50,123,28,05,47,300,25,7*7D
$GAGSV,2,2,08,24,34,188,24,04,24,122,20,15,09,327,20,34,08,279,10,7*77
$GBGSV,4,1,14,37,75,214,38,20,65,273,39,23,47,061,35,32,41,167,35,1*70
$GBGSV,4,2,14,19,23,315,32,46,20,232,,38,16,332,27,08,10,341,22,1*7D
$GBGSV,4,3,14,34,05,038,25,11,03,060,13,12,03,012,20,43,02,080,,1*71
$GBGSV,4,4,14,13,02,346,,04,01,262,,1*71
$GNRMC,193541.000,A,4910.428504,N,12304.401450,W,0.02,0.00,051224,,,D,V*17
$GNVTG,0.00,T,,M,0.02,N,0.04,K,D*20
$GNGGA,193542.000,4910.428414,N,12304.401258,W,2,27,0.61,9.471,M,-16.816,M,,*4A
$GNGLL,4910.428414,N,12304.401258,W,193542.000,A,D*55
$GNGSA,A,3,09,07,04,16,30,20,27,08,05,,,,0.96,0.61,0.75,1*0F
$GNGSA,A,3,69,79,68,,,,,,,,,,0.96,0.61,0.75,2*07
$GNGSA,A,3,09,31,06,05,24,04,15,34,,,,,0.96,0.61,0.75,3*00
$GNGSA,A,3,37,20,23,32,19,38,34,,,,,,0.96,0.61,0.75,4*0C
$GPGSV,3,1,12,09,75,141,33,07,68,271,34,04,44,125,29,44,33,171,27,1*6B
$GPGSV,3,2,12,16,32,051,27,30,31,260,27,20,27,305,25,27,22,091,26,1*6E
$GPGSV,3,3,12,08,16,125,27,05,07,331,22,26,04,043,17,11,04,282,,1*65
$GLGSV,2,1,07,69,77,307,24,79,68,223,28,78,54,042,,68,47,149,28,1*7B
$GLGSV,2,2,07,80,14,222,22,70,12,324,,86,09,352,,1*42
$GAGSV,2,1,08,09,75,125,29,31,64,110,28,06,50,123,28,05,47,300,25,7*7F
$GAGSV,2,2,08,24,35,188,24,04,24,122,20,15,09,327,20,34,07,279,11,7*78
$GBGSV,4,1,14,37,76,214,38,20,65,272,39,23,47,061,35,32,40,167,35,1*73
$GBGSV,4,2,14,19,23,315,32,46,20,232,,38,16,332,27,08,10,341,22,1*7D
$GBGSV,4,3,14,34,05,038,25,12,03,012,20,11,03,060,13,13,02,346,,1*7D
$GBGSV,4,4,14,43,02,080,,04,01,262,,1*7D
$GNRMC,193542.000,A,4910.428414,N,12304.401258,W,0.03,0.00,051224,,,D,V*1B
$GNVTG,0.00,T,,M,0.03,N,0.05,K,D*20
$GNGGA,193543.000,4910.428276,N,12304.401024,W,2,27,0.61,9.203,M,-16.816,M,,*43
$GNGLL,4910.428276,N,12304.401024,W,193543.000,A,D*5F
$GNGSA,A,3,09,07,04,16,30,20,27,08,05,,,,0.96,0.61,0.75,1*0F
$GNGSA,A,3,69,79,68,,,,,,,,,,0.96,0.61,0.75,2*07
$GNGSA,A,3,09,31,06,05,24,04,15,34,,,,,0.96,0.61,0.75,3*00
$GNGSA,A,3,37,20,23,32,19,38,34,,,,,,0.96,0.61,0.75,4*0C
$GPGSV,3,1,12,09,75,141,34,07,68,271,34,04,44,125,29,44,33,171,27,1*6C
$GPGSV,3,2,12,16,32,051,28,30,31,260,27,20,27,305,27,27,22,091,26,1*63
$GPGSV,3,3,12,08,16,125,27,05,07,331,23,26,04,043,17,11,04,282,,1*64
$GLGSV,2,1,07,69,77,307,24,79,68,223,28,78,54,042,,68,47,149,28,1*7B
$GLGSV,2,2,07,80,14,222,22,70,12,324,,86,09,352,,1*42
$GAGSV,2,1,08,09,75,125,29,31,64,110,28,06,50,123,28,05,47,300,25,7*7F
$GAGSV,2,2,08,24,35,188,24,04,24,122,21,15,09,327,20,34,07,279,11,7*79
$GBGSV,4,1,14,37,76,214,38,20,65,272,39,23,47,061,35,32,40,167,35,1*73
$GBGSV,4,2,14,19,23,315,32,46,20,232,,38,16,332,27,08,10,341,22,1*7D
$GBGSV,4,3,14,34,05,038,24,12,03,012,20,11,03,060,13,13,02,346,,1*7C
$GBGSV,4,4,14,43,02,080,,04,01,262,,1*7D
$GNRMC,193543.000,A,4910.428276,N,12304.401024,W,0.03,0.00,051224,,,D,V*11
$GNVTG,0.00,T,,M,0.03,N,0.06,K,D*23
$GNGGA,193544.000,4910.428156,N,12304.400940,W,2,27,0.61,8.989,M,-16.816,M,,*47
$GNGLL,4910.428156,N,12304.400940,W,193544.000,A,D*53
$GNGSA,A,3,09,07,04,16,30,20,27,08,05,,,,0.96,0.61,0.75,1*0F
$GNGSA,A,3,69,79,68,,,,,,,,,,0.96,0.61,0.75,2*07
$GNGSA,A,3,09,31,06,05,24,04,15,34,,,,,0.96,0.61,0.75,3*00
$GNGSA,A,3,37,20,23,32,19,38,34,,,,,,0.96,0.61,0.75,4*0C
$GPGSV,3,1,12,09,75,141,34,07,68,271,34,04,44,125,30,44,33,171,27,1*64
$GPGSV,3,2,12,16,32,051,28,30,31,260,27,20,27,305,26,27,22,091,26,1*62
$GPGSV,3,3,12,08,16,125,27,05,07,331,23,26,04,043,17,11,04,282,,1*64
$GLGSV,2,1,07,69,77,307,25,79,68,223,29,78,54,042,,68,47,149,27,1*74
$GLGSV,2,2,07,80,14,222,22,70,12,324,,86,09,352,,1*42
$GAGSV,2,1,08,09,75,125,29,31,64,110,29,06,50,123,28,05,47,300,25,7*7E
$GAGSV,2,2,08,24,35,188,25,04,24,122,21,15,09,327,20,34,07,279,11,7*78
$GBGSV,4,1,14,37,76,214,38,20,65,272,39,23,47,061,35,32,40,167,35,1*73
$GBGSV,4,2,14,19,23,315,32,46,20,232,,38,16,332,27,08,10,341,22,1*7D
$GBGSV,4,3,14,34,05,038,24,12,03,012,20,11,03,060,13,13,02,346,,1*7C
$GBGSV,4,4,14,43,02,080,,04,01,262,,1*7D
$GNRMC,193544.000,A,4910.428156,N,12304.400940,W,0.04,0.00,051224,,,D,V*1A
$GNVTG,0.00,T,,M,0.04,N,0.07,K,D*25
$GNGGA,193545.000,4910.428024,N,12304.400868,W,2,27,0.61,8.686,M,-16.817,M,,*48
$GNGLL,4910.428024,N,12304.400868,W,193545.000,A,D*5D
$GNGSA,A,3,09,07,04,16,30,20,27,08,05,,,,0.96,0.61,0.75,1*0F
$GNGSA,A,3,69,79,68,,,,,,,,,,0.96,0.61,0.75,2*07
$GNGSA,A,3,09,31,06,05,24,04,15,34,,,,,0.96,0.61,0.75,3*00
$GNGSA,A,3,37,20,23,32,19,38,34,,,,,,0.96,0.61,0.75,4*0C
$GPGSV,3,1,12,09,75,141,35,07,68,271,34,04,44,125,30,44,33,171,28,1*6A
$GPGSV,3,2,12,16,32,051,28,30,31,260,28,20,27,305,28,27,22,091,26,1*63
$GPGSV,3,3,12,08,16,125,28,05,07,331,23,26,04,043,17,11,04,282,,1*6B
$GLGSV,2,1,07,69,77,307,25,79,68,223,30,78,54,042,,68,47,149,27,1*7C
$GLGSV,2,2,07,80,14,222,23,70,12,324,,86,09,352,,1*43
$GAGSV,2,1,08,09,75,125,29,31,64,110,29,06,50,123,28,05,47,300,26,7*7D
$GAGSV,2,2,08,24,35,188,26,04,24,122,21,15,09,327,20,34,07,279,11,7*7B
$GBGSV,4,1,14,37,76,214,38,20,65,272,39,23,47,061,35,32,40,167,34,1*72
$GBGSV,4,2,14,19,23,315,32,46,20,232,,38,16,332,27,08,10,341,21,1*7E
$GBGSV,4,3,14,34,05,038,24,12,03,012,20,11,03,060,13,13,02,346,,1*7C
$GBGSV,4,4,14,43,02,080,,04,01,262,,1*7D
$GNRMC,193545.000,A,4910.428024,N,12304.400868,W,0.04,0.00,051224,,,D,V*14
$GNVTG,0.00,T,,M,0.04,N,0.07,K,D*25
$GNGGA,193546.000,4910.427880,N,12304.400808,W,2,27,0.61,8.323,M,-16.816,M,,*4F
$GNGLL,4910.427880,N,12304.400808,W,193546.000,A,D*51
$GNGSA,A,3,09,07,04,16,30,20,27,08,05,,,,0.96,0.61,0.75,1*0F
$GNGSA,A,3,69,79,68,,,,,,,,,,0.96,0.61,0.75,2*07
$GNGSA,A,3,09,31,06,05,24,04,15,34,,,,,0.96,0.61,0.75,3*00
$GNGSA,A,3,37,20,23,32,19,38,34,,,,,,0.96,0.61,0.75,4*0C
$GPGSV,3,1,12,09,75,141,35,07,68,271,34,04,44,125,30,44,33,171,28,1*6A
$GPGSV,3,2,12,16,32,051,28,30,31,260,28,20,27,305,26,27,22,091,26,1*6D
$GPGSV,3,3,12,08,16,125,27,05,07,331,23,26,04,043,17,11,04,282,,1*64
$GLGSV,2,1,07,69,77,307,26,79,68,223,30,78,54,042,,68,47,149,26,1*7E
$GLGSV,2,2,07,80,14,222,23,70,12,324,,86,09,352,,1*43
$GAGSV,2,1,08,09,75,125,30,31,64,110,29,06,50,123,28,05,47,300,26,7*75
$GAGSV,2,2,08,24,35,188,26,04,24,122,21,15,09,327,20,34,07,279,11,7*7B
$GBGSV,4,1,14,37,76,214,38,20,65,272,39,23,47,061,35,32,40,167,34,1*72
$GBGSV,4,2,14,19,23,315,32,46,20,232,,38,16,332,27,08,10,341,21,1*7E
$GBGSV,4,3,14,34,05,038,23,12,03,012,20,11,03,060,13,13,02,346,,1*7B
$GBGSV,4,4,14,43,02,080,,04,01,262,,1*7D
$GNRMC,193546.000,A,4910.427880,N,12304.400808,W,0.04,0.00,051224,,,D,V*18
$GNVTG,0.00,T,,M,0.04,N,0.07,K,D*25
$GNGGA,193547.000,4910.427694,N,12304.400832,W,2,27,0.61,8.020,M,-16.816,M,,*4C
$GNGLL,4910.427694,N,12304.400832,W,193547.000,A,D*52
$GNGSA,A,3,09,07,04,16,30,20,27,08,05,,,,0.96,0.61,0.75,1*0F
$GNGSA,A,3,69,79,68,,,,,,,,,,0.96,0.61,0.75,2*07
$GNGSA,A,3,09,31,06,05,24,04,15,34,,,,,0.96,0.61,0.75,3*00
$GNGSA,A,3,37,20,23,32,19,38,34,,,,,,0.96,0.61,0.75,4*0C
$GPGSV,3,1,12,09,75,141,35,07,68,271,34,04,44,125,30,44,33,171,28,1*6A
$GPGSV,3,2,12,16,32,051,28,30,31,260,28,20,27,305,26,27,22,091,26,1*6D
$GPGSV,3,3,12,08,16,125,27,05,07,331,23,26,04,043,17,11,04,282,,1*64
$GLGSV,2,1,07,69,77,307,26,79,68,223,30,78,54,042,,68,47,149,26,1*7E
$GLGSV,2,2,07,80,14,222,22,70,12,324,,86,09,352,,1*42
$GAGSV,2,1,08,09,75,125,30,31,64,110,29,06,50,123,28,05,47,300,26,7*75
$GAGSV,2,2,08,24,35,188,26,04,24,122,21,15,09,327,20,34,07,279,11,7*7B
$GBGSV,4,1,14,37,76,214,38,20,65,272,39,23,47,061,35,32,40,167,34,1*72
$GBGSV,4,2,14,19,23,315,32,46,20,232,,38,16,332,27,08,10,341,21,1*7E
$GBGSV,4,3,14,34,05,038,23,12,03,012,21,11,03,060,13,13,02,346,,1*7A
$GBGSV,4,4,14,43,02,080,,04,01,262,,1*7D
$GNRMC,193547.000,A,4910.427694,N,12304.400832,W,0.03,0.00,051224,,,D,V*1C
$GNVTG,0.00,T,,M,0.03,N,0.06,K,D*23
$GNGGA,193548.000,4910.427442,N,12304.401036,W,2,27,0.61,7.786,M,-16.816,M,,*43
$GNGLL,4910.427442,N,12304.401036,W,193548.000,A,D*59
$GNGSA,A,3,09,07,04,16,30,20,27,08,05,,,,0.96,0.61,0.75,1*0F
$GNGSA,A,3,69,79,68,,,,,,,,,,0.96,0.61,0.75,2*07
$GNGSA,A,3,09,31,06,05,24,04,15,34,,,,,0.96,0.61,0.75,3*00
$GNGSA,A,3,37,20,23,32,19,38,34,,,,,,0.96,0.61,0.75,4*0C
$GPGSV,3,1,12,09,75,141,35,07,68,271,34,04,44,125,30,44,33,171,28,1*6A
$GPGSV,3,2,12,16,32,051,29,30,31,260,28,20,27,305,26,27,22,091,26,1*6C
$GPGSV,3,3,12,08,16,125,27,05,07,331,23,26,04,043,17,11,04,282,,1*64
$GLGSV,2,1,06,69,77,307,26,79,68,223,30,68,47,149,26,80,14,222,22,1*78
$GLGSV,2,2,06,70,12,324,,86,09,352,,1*7C
$GAGSV,2,1,08,09,75,125,31,31,64,110,30,06,50,123,28,05,47,300,26,7*7C
$GAGSV,2,2,08,24,35,188,26,04,24,122,21,15,09,327,20,34,07,279,11,7*7B
$GBGSV,4,1,14,37,76,214,38,20,65,272,39,23,47,061,35,32,40,167,34,1*72
$GBGSV,4,2,14,19,23,315,32,46,20,232,,38,16,332,27,08,10,341,21,1*7E
$GBGSV,4,3,14,34,05,038,23,11,03,060,12,12,03,012,21,43,02,080,,1*77
$GBGSV,4,4,14,13,02,346,,04,01,262,,1*71
$GNRMC,193548.000,A,4910.427442,N,12304.401036,W,0.04,0.00,051224,,,D,V*10
$GNVTG,0.00,T,,M,0.04,N,0.07,K,D*25
$GNGGA,193549.000,4910.427292,N,12304.401096,W,2,27,0.61,7.554,M,-16.816,M,,*4E
$GNGLL,4910.427292,N,12304.401096,W,193549.000,A,D*59
$GNGSA,A,3,09,07,04,16,30,20,27,08,05,,,,0.96,0.61,0.75,1*0F
$GNGSA,A,3,69,79,68,,,,,,,,,,0.96,0.61,0.75,2*07
$GNGSA,A,3,09,31,06,05,24,04,15,34,,,,,0.96,0.61,0.75,3*00
$GNGSA,A,3,37,20,23,32,19,38,34,,,,,,0.96,0.61,0.75,4*0C
$GPGSV,3,1,12,09,75,141,35,07,68,271,34,04,44,125,30,44,33,171,28,1*6A
$GPGSV,3,2,12,16,32,051,29,30,31,260,28,20,27,305,26,27,22,091,25,1*6F
$GPGSV,3,3,12,08,16,125,27,05,07,331,23,26,04,043,17,11,04,282,,1*64
$GLGSV,2,1,07,69,77,307,25,79,68,223,29,78,54,042,,68,47,149,26,1*75
$GLGSV,2,2,07,80,14,222,21,70,12,324,,86,09,352,,1*41
$GAGSV,2,1,08,09,75,125,30,31,64,110,30,06,50,123,28,05,47,300,26,7*7D
$GAGSV,2,2,08,24,35,188,26,04,24,122,21,15,09,327,20,34,07,279,11,7*7B
$GBGSV,4,1,14,37,76,214,38,20,65,272,39,23,47,061,35,32,40,167,34,1*72
$GBGSV,4,2,14,19,23,315,32,46,20,232,,38,16,332,26,08,10,341,21,1*7F
$GBGSV,4,3,14,34,05,038,23,12,03,012,21,11,03,060,12,13,02,346,,1*7B
$GBGSV,4,4,14,43,02,080,,04,01,262,,1*7D
$GNRMC,193549.000,A,4910.427292,N,12304.401096,W,0.03,0.00,051224,,,D,V*17
$GNVTG,0.00,T,,M,0.03,N,0.06,K,D*23
$GNGGA,193550.000,4910.427100,N,12304.401276,W,2,27,0.61,7.415,M,-16.816,M,,*46
$GNGLL,4910.427100,N,12304.401276,W,193550.000,A,D*55
$GNGSA,A,3,09,07,04,16,30,20,27,08,05,,,,0.96,0.61,0.75,1*0F
$GNGSA,A,3,69,79,68,,,,,,,,,,0.96,0.61,0.75,2*07
$GNGSA,A,3,09,31,06,05,24,04,15,34,,,,,0.96,0.61,0.75,3*00
$GNGSA,A,3,37,20,23,32,19,38,34,,,,,,0.96,0.61,0.75,4*0C
$GPGSV,3,1,12,09,75,141,35,07,68,271,34,04,44,125,30,44,33,171,28,1*6A
$GPGSV,3,2,12,16,32,051,29,30,31,260,28,20,27,305,26,27,22,091,25,1*6F
$GPGSV,3,3,12,08,16,125,27,05,07,331,23,26,04,043,17,11,04,282,,1*64
$GLGSV,2,1,07,69,77,307,25,79,68,223,29,78,54,042,,68,47,149,26,1*75
$GLGSV,2,2,07,80,14,222,21,70,12,324,,86,09,352,,1*41
$GAGSV,2,1,08,09,75,125,30,31,64,110,29,06,50,123,28,05,47,300,26,7*75
$GAGSV,2,2,08,24,35,188,26,04,24,122,21,15,09,327,20,34,07,279,11,7*7B
$GBGSV,4,1,14,37,76,214,38,20,65,272,39,23,47,061,35,32,40,167,34,1*72
$GBGSV,4,2,14,19,23,315,32,46,20,232,,38,16,332,26,08,10,341,21,1*7F
$GBGSV,4,3,14,34,05,038,23,12,03,012,21,11,03,060,13,13,02,346,,1*7A
$GBGSV,4,4,14,43,02,080,,04,01,262,,1*7D
$GNRMC,193550.000,A,4910.427100,N,12304.401276,W,0.03,0.00,051224,,,D,V*1B
$GNVTG,0.00,T,,M,0.03,N,0.06,K,D*23
$GNGGA,193551.000,4910.426944,N,12304.401354,W,2,27,0.61,7.348,M,-16.816,M,,*40
$GNGLL,4910.426944,N,12304.401354,W,193551.000,A,D*5C
$GNGSA,A,3,09,07,04,16,30,20,27,08,05,,,,0.96,0.61,0.75,1*0F
$GNGSA,A,3,69,79,68,,,,,,,,,,0.96,0.61,0.75,2*07
$GNGSA,A,3,09,31,06,05,24,04,15,34,,,,,0.96,0.61,0.75,3*00
$GNGSA,A,3,37,20,23,32,19,38,34,,,,,,0.96,0.61,0.75,4*0C
$GPGSV,3,1,12,09,75,141,35,07,68,271,34,04,44,125,30,44,33,171,28,1*6A
$GPGSV,3,2,12,16,32,051,28,30,31,260,28,20,27,305,25,27,22,091,24,1*6C
$GPGSV,3,3,12,08,16,125,27,05,07,331,23,26,04,043,17,11,04,282,,1*64
$GLGSV,2,1,07,69,77,307,25,79,68,223,29,78,54,042,,68,47,149,26,1*75
$GLGSV,2,2,07,80,14,222,20,70,12,324,,86,09,352,,1*40
$GAGSV,2,1,08,09,75,125,30,31,64,110,29,06,50,123,28,05,47,300,26,7*75
$GAGSV,2,2,08,24,35,188,26,04,24,122,21,15,09,327,20,34,07,279,11,7*7B
$GBGSV,4,1,14,37,76,214,38,20,65,272,39,23,47,061,35,32,40,167,34,1*72
$GBGSV,4,2,14,19,23,315,32,46,20,232,,38,16,332,26,08,10,341,21,1*7F
$GBGSV,4,3,14,34,05,038,23,12,03,012,21,11,03,060,13,13,02,346,,1*7A
$GBGSV,4,4,14,43,02,080,,04,01,262,,1*7D
$GNRMC,193551.000,A,4910.426944,N,12304.401354,W,0.03,0.00,051224,,,D,V*12
$GNVTG,0.00,T,,M,0.03,N,0.05,K,D*20
$GNGGA,193552.000,4910.426842,N,12304.401330,W,2,27,0.61,7.156,M,-16.816,M,,*4B
$GNGLL,4910.426842,N,12304.401330,W,193552.000,A,D*5A
$GNGSA,A,3,09,07,04,16,30,20,27,08,05,,,,0.96,0.61,0.75,1*0F
$GNGSA,A,3,69,79,68,,,,,,,,,,0.96,0.61,0.75,2*07
$GNGSA,A,3,09,31,06,05,24,04,15,34,,,,,0.96,0.61,0.75,3*00
$GNGSA,A,3,37,20,23,32,19,38,34,,,,,,0.96,0.61,0.75,4*0C
$GPGSV,3,1,12,09,75,141,35,07,68,271,34,04,44,125,30,44,33,171,28,1*6A
$GPGSV,3,2,12,16,32,051,28,30,31,260,28,20,27,305,26,27,22,091,24,1*6F
$GPGSV,3,3,12,08,16,125,27,05,07,331,23,26,04,043,17,11,04,282,,1*64
$GLGSV,2,1,07,69,77,307,25,79,68,223,29,78,54,042,,68,47,149,25,1*76
$GLGSV,2,2,07,80,14,222,20,70,12,324,,86,09,352,,1*40
$GAGSV,2,1,08,09,75,125,30,31,64,110,29,06,50,123,28,05,47,300,26,7*75
$GAGSV,2,2,08,24,35,188,26,04,24,122,21,15,09,327,20,34,07,279,10,7*7A
$GBGSV,4,1,14,37,76,214,38,20,65,272,39,23,47,061,35,32,40,167,34,1*72
$GBGSV,4,2,14,19,23,315,32,46,20,232,,38,16,332,26,08,10,341,22,1*7C
$GBGSV,4,3,14,34,05,038,23,12,03,012,21,11,03,060,13,13,02,346,,1*7A
$GBGSV,4,4,14,43,02,080,,04,01,262,,1*7D
$GNRMC,193552.000,A,4910.426842,N,12304.401330,W,0.02,0.00,051224,,,D,V*15
$GNVTG,0.00,T,,M,0.02,N,0.04,K,D*20
$GNGGA,193553.000,4910.426656,N,12304.401384,W,2,27,0.61,6.926,M,-16.816,M,,*40
$GNGLL,4910.426656,N,12304.401384,W,193553.000,A,D*5F
$GNGSA,A,3,09,07,04,16,30,20,27,08,05,,,,0.96,0.61,0.75,1*0F
$GNGSA,A,3,69,79,68,,,,,,,,,,0.96,0.61,0.75,2*07
$GNGSA,A,3,09,31,06,05,24,04,15,34,,,,,0.96,0.61,0.75,3*00
$GNGSA,A,3,37,20,23,32,19,38,34,,,,,,0.96,0.61,0.75,4*0C
$GPGSV,3,1,12,09,75,141,35,07,68,271,34,04,44,125,30,44,33,171,28,1*6A
$GPGSV,3,2,12,16,32,051,28,30,31,260,28,20,27,305,26,27,22,091,24,1*6F
$GPGSV,3,3,12,08,16,125,27,05,07,331,23,26,04,043,17,11,04,282,,1*64
$GLGSV,2,1,06,69,77,307,26,79,68,223,29,68,47,149,24,80,14,222,20,1*70
$GLGSV,2,2,06,70,12,324,,86,09,352,,1*7C
$GAGSV,2,1,08,09,75,125,30,31,64,110,29,06,50,123,28,05,47,300,26,7*75
$GAGSV,2,2,08,24,35,188,26,04,24,122,21,15,09,327,20,34,07,279,10,7*7A
$GBGSV,4,1,14,37,76,214,38,20,65,272,39,23,47,061,35,32,40,167,34,1*72
$GBGSV,4,2,14,19,23,315,32,46,20,232,,38,16,332,26,08,10,341,21,1*7F
$GBGSV,4,3,14,34,05,038,23,11,03,060,,12,03,012,21,43,02,080,,1*74
$GBGSV,4,4,14,13,02,346,,04,01,262,,1*71
$GNRMC,193553.000,A,4910.426656,N,12304.401384,W,0.02,0.00,051224,,,D,V*10
$GNVTG,0.00,T,,M,0.02,N,0.04,K,D*20
$GNGGA,193554.000,4910.426446,N,12304.401420,W,2,27,0.61,6.652,M,-16.816,M,,*41
$GNGLL,4910.426446,N,12304.401420,W,193554.000,A,D*52
$GNGSA,A,3,09,07,04,16,30,20,27,08,05,,,,0.96,0.61,0.75,1*0F
$GNGSA,A,3,69,79,68,,,,,,,,,,0.96,0.61,0.75,2*07
$GNGSA,A,3,09,31,06,05,24,04,15,34,,,,,0.96,0.61,0.75,3*00
$GNGSA,A,3,37,20,23,32,19,38,34,,,,,,0.96,0.61,0.75,4*0C
$GPGSV,3,1,12,09,75,141,35,07,68,271,34,04,44,125,30,44,33,171,28,1*6A
$GPGSV,3,2,12,16,32,051,28,30,31,260,28,20,27,305,27,27,22,091,24,1*6E
$GPGSV,3,3,12,08,16,125,27,05,07,331,23,26,04,043,17,11,04,282,,1*64
$GLGSV,2,1,07,69,77,307,26,79,68,223,29,78,54,042,,68,47,149,24,1*74
$GLGSV,2,2,07,80,14,222,20,70,12,324,,86,09,352,,1*40
$GAGSV,2,1,08,09,75,125,30,31,64,110,29,06,50,123,28,05,47,300,26,7*75
$GAGSV,2,2,08,24,35,188,26,04,24,122,21,15,09,327,20,34,07,279,10,7*7A
$GBGSV,4,1,14,37,76,214,38,20,65,272,39,23,47,061,35,32,40,167,34,1*72
$GBGSV,4,2,14,19,23,315,32,46,20,232,,38,16,332,26,08,10,341,21,1*7F
$GBGSV,4,3,14,34,05,038,23,12,03,012,21,11,03,060,,13,02,346,,1*78
$GBGSV,4,4,14,43,02,080,,04,01,262,,1*7D
$GNRMC,193554.000,A,4910.426446,N,12304.401420,W,0.03,0.00,051224,,,D,V*1C
$GNVTG,0.00,T,,M,0.03,N,0.05,K,D*20
$GNGGA,193555.000,4910.426290,N,12304.401414,W,2,27,0.61,6.549,M,-16.816,M,,*43
$GNGLL,4910.426290,N,12304.401414,W,193555.000,A,D*59
$GNGSA,A,3,09,07,04,16,30,20,27,08,05,,,,0.96,0.61,0.75,1*0F
$GNGSA,A,3,69,79,68,,,,,,,,,,0.96,0.61,0.75,2*07
$GNGSA,A,3,09,31,06,05,24,04,15,34,,,,,0.96,0.61,0.75,3*00
$GNGSA,A,3,37,20,23,32,19,38,34,,,,,,0.96,0.61,0.75,4*0C
$GPGSV,3,1,12,09,75,141,35,07,68,271,34,04,44,125,30,44,33,171,28,1*6A
$GPGSV,3,2,12,16,32,051,28,30,31,260,28,20,27,305,28,27,22,091,23,1*66
$GPGSV,3,3,12,08,16,125,27,05,07,331,23,26,04,043,17,11,04,282,,1*64
$GLGSV,2,1,06,69,77,307,25,79,68,223,29,78,54,042,,68,47,149,25,1*77
$GLGSV,2,2,06,80,14,222,21,70,12,324,,1*73
$GAGSV,2,1,08,09,75,125,30,31,64,110,29,06,50,123,28,05,47,300,26,7*75
$GAGSV,2,2,08,24,35,188,26,04,24,122,21,15,09,327,20,34,07,279,10,7*7A
$GBGSV,4,1,14,37,76,214,38,20,65,272,38,23,47,061,35,32,40,167,34,1*73
$GBGSV,4,2,14,19,23,315,32,46,20,232,,38,16,332,25,08,10,341,21,1*7C
$GBGSV,4,3,14,34,05,038,23,11,03,060,,12,03,012,20,43,02,080,,1*75
$GBGSV,4,4,14,13,02,346,,04,01,262,,1*71
$GNRMC,193555.000,A,4910.426290,N,12304.401414,W,0.03,0.00,051224,,,D,V*17
$GNVTG,0.00,T,,M,0.03,N,0.05,K,D*20
$GNGGA,193556.000,4910.426086,N,12304.401498,W,2,27,0.61,6.442,M,-16.816,M,,*4B
$GNGLL,4910.426086,N,12304.401498,W,193556.000,A,D*5B
$GNGSA,A,3,09,07,04,16,30,20,27,08,05,,,,0.96,0.61,0.75,1*0F
$GNGSA,A,3,69,79,68,,,,,,,,,,0.96,0.61,0.75,2*07
$GNGSA,A,3,09,31,06,05,24,04,15,34,,,,,0.96,0.61,0.75,3*00
$GNGSA,A,3,37,20,23,32,19,38,34,,,,,,0.96,0.61,0.75,4*0C
$GPGSV,3,1,12,09,75,141,35,07,68,271,34,04,44,125,30,44,33,171,28,1*6A
$GPGSV,3,2,12,16,32,051,28,30,31,260,28,20,27,305,28,27,22,091,23,1*66
$GPGSV,3,3,12,08,16,125,27,05,07,331,23,26,04,043,17,11,04,282,,1*64
$GLGSV,2,1,07,69,77,307,25,79,68,223,29,78,54,042,,68,47,149,26,1*75
$GLGSV,2,2,07,80,14,222,21,70,12,324,,86,09,352,,1*41
$GAGSV,2,1,08,09,75,125,30,31,64,110,29,06,50,123,28,05,47,300,26,7*75
$GAGSV,2,2,08,24,35,188,26,04,24,122,21,15,09,327,20,34,07,279,10,7*7A
$GBGSV,4,1,14,37,76,214,38,20,65,272,38,23,47,061,35,32,40,167,34,1*73
$GBGSV,4,2,14,19,23,315,31,46,20,232,,38,16,332,25,08,10,341,21,1*7F
$GBGSV,4,3,14,34,05,038,23,12,03,012,20,11,03,060,,13,02,346,,1*79
$GBGSV,4,4,14,43,02,080,,04,01,262,,1*7D
$GNRMC,193556.000,A,4910.426086,N,12304.401498,W,0.03,0.00,051224,,,D,V*15
$GNVTG,0.00,T,,M,0.03,N,0.06,K,D*23
$GNGGA,193557.000,4910.425906,N,12304.401570,W,2,27,0.61,6.380,M,-16.816,M,,*46
$GNGLL,4910.425906,N,12304.401570,W,193557.000,A,D*5F
$GNGSA,A,3,09,07,04,16,30,20,27,08,05,,,,0.96,0.61,0.75,1*0F
$GNGSA,A,3,69,79,68,,,,,,,,,,0.96,0.61,0.75,2*07
$GNGSA,A,3,09,31,06,05,24,04,15,34,,,,,0.96,0.61,0.75,3*00
$GNGSA,A,3,37,20,23,32,19,38,34,,,,,,0.96,0.61,0.75,4*0C
$GPGSV,3,1,12,09,75,141,35,07,68,271,34,04,44,125,30,44,33,171,28,1*6A
$GPGSV,3,2,12,16,32,051,28,30,31,260,28,20,27,305,28,27,22,091,24,1*61
$GPGSV,3,3,12,08,16,125,27,05,07,331,23,26,04,043,17,11,04,282,,1*64
$GLGSV,2,1,07,69,77,307,25,79,68,223,29,78,54,042,,68,47,149,24,1*77
$GLGSV,2,2,07,80,14,222,21,70,12,324,,86,09,352,,1*41
$GAGSV,2,1,08,09,75,125,30,31,64,110,29,06,50,123,28,05,47,300,26,7*75
$GAGSV,2,2,08,24,35,188,26,04,24,122,21,15,09,327,20,34,07,279,10,7*7A
$GBGSV,4,1,14,37,76,214,38,20,65,272,38,23,47,061,34,32,40,167,34,1*72
$GBGSV,4,2,14,19,23,315,31,46,20,232,,38,16,332,25,08,10,341,20,1*7E
$GBGSV,4,3,14,34,05,038,23,12,03,012,20,11,03,060,,13,02,346,,1*79
$GBGSV,4,4,14,43,02,080,,04,01,262,,1*7D
$GNRMC,193557.000,A,4910.425906,N,12304.401570,W,0.04,0.00,051224,,,D,V*16
$GNVTG,0.00,T,,M,0.04,N,0.07,K,D*25
$GNGGA,193558.000,4910.425750,N,12304.401618,W,2,27,0.61,6.254,M,-16.817,M,,*40
