$GNGGA,193528.000,4910.427544,N,12304.398744,W,2,26,0.57,6.189,M,-16.817,M,,*4A
$GNGLL,4910.427544,N,12304.398744,W,193528.000,A,D*5D
$GNGSA,A,3,09,07,04,16,30,20,27,08,,,,,0.97,0.57,0.78,1*03
$GNGSA,A,3,69,79,78,68,80,86,,,,,,,0.97,0.57,0.78,2*07
$GNGSA,A,3,09,31,06,05,24,04,,,,,,,0.97,0.57,0.78,3*0A
$GNGSA,A,3,37,20,23,32,19,38,,,,,,,0.97,0.57,0.78,4*02
$GPGSV,3,1,10,09,75,141,31,07,68,270,29,04,44,125,26,16,32,051,27,1*6C
$GPGSV,3,2,10,30,31,260,22,20,27,306,22,27,22,091,22,08,16,125,21,1*64
$GPGSV,3,3,10,26,04,043,15,42,,,,1*50
$GLGSV,2,1,08,69,76,310,40,79,67,222,39,78,55,042,29,68,48,148,35,1*77
$GLGSV,2,2,08,80,13,222,31,70,11,323,,86,09,353,28,87,07,037,,1*7B
$GAGSV,2,1,07,09,76,123,25,31,64,112,24,06,51,122,24,05,46,300,24,7*7B
$GAGSV,2,2,07,24,34,188,21,04,25,121,19,15,10,328,18,7*4B
$GBGSV,2,1,08,37,75,214,36,20,65,274,36,23,47,061,33,32,41,167,32,1*7C
$GBGSV,2,2,08,19,23,315,30,38,15,332,23,08,10,342,18,12,03,012,18,1*70
$GNRMC,193528.000,A,4910.427544,N,12304.398744,W,0.02,37.44,051224,,,D,V*26
$GNVTG,37.44,T,,M,0.02,N,0.03,K,D*13
$PAIRLOG,Full*51
$GNGGA,193529.000,4910.427544,N,12304.398756,W,2,26,0.57,6.201,M,-16.817,M,,*4B
$GNGLL,4910.427544,N,12304.398756,W,193529.000,A,D*5F
$GNGSA,A,3,09,07,04,16,30,20,27,08,,,,,0.97,0.57,0.78,1*03
$GNGSA,A,3,69,79,78,68,80,86,,,,,,,0.97,0.57,0.78,2*07
$GNGSA,A,3,09,31,06,05,24,04,,,,,,,0.97,0.57,0.78,3*0A
$GNGSA,A,3,37,20,23,32,19,38,,,,,,,0.97,0.57,0.78,4*02
$GPGSV,3,1,12,09,75,141,30,07,68,270,28,04,44,125,23,16,32,051,25,1*69
$GPGSV,3,2,12,30,31,260,22,20,27,306,20,27,22,091,21,08,16,125,21,1*67
$GPGSV,3,3,12,05,07,331,,11,04,283,,26,04,043,14,42,,,,1*5D
$GLGSV,2,1,08,69,76,310,40,79,67,222,39,78,55,042,29,68,48,148,35,1*77
$GLGSV,2,2,08,80,13,222,31,70,11,323,,86,09,353,28,87,07,037,,1*7B
$GAGSV,2,1,08,09,76,123,25,31,64,112,24,06,51,122,24,05,46,300,24,7*74
$GAGSV,2,2,08,24,34,188,21,04,25,121,19,15,10,328,18,34,08,279,,7*77
$GBGSV,4,1,15,37,75,214,36,20,65,274,35,58,59,245,,23,47,061,32,1*73
$GBGSV,4,2,15,32,41,167,31,19,23,315,30,46,20,232,,38,15,332,22,1*71
$GBGSV,4,3,15,08,10,342,18,31,09,337,,34,05,038,,11,03,060,,1*70
$GBGSV,4,4,15,12,03,012,18,43,02,080,,13,01,346,,1*47
$GNRMC,193529.000,A,4910.427544,N,12304.398756,W,0.01,37.44,051224,,,D,V*27
$GNVTG,37.44,T,,M,0.01,N,0.02,K,D*11
$PAIRLOG,Full*51
$GNGGA,193530.000,4910.427532,N,12304.398798,W,2,26,0.57,6.325,M,-16.816,M,,*46
$GNGLL,4910.427532,N,12304.398798,W,193530.000,A,D*54
$GNGSA,A,3,09,07,04,16,30,20,27,08,,,,,0.97,0.57,0.78,1*03
$GNGSA,A,3,69,79,78,68,80,86,,,,,,,0.97,0.57,0.78,2*07
$GNGSA,A,3,09,31,06,05,24,04,,,,,,,0.97,0.57,0.78,3*0A
$GNGSA,A,3,37,20,23,32,19,38,,,,,,,0.97,0.57,0.78,4*02
$GPGSV,3,1,12,09,75,141,30,07,68,270,28,04,44,125,25,16,32,051,28,1*62
$GPGSV,3,2,12,30,31,260,23,20,27,306,22,27,22,091,22,08,16,125,22,1*64
$GPGSV,3,3,12,05,07,331,,11,04,283,,26,04,043,15,42,,,,1*5C
$GLGSV,2,1,08,69,76,310,40,79,67,222,39,78,55,042,28,68,48,148,35,1*76
$GLGSV,2,2,08,80,13,222,31,70,11,323,,86,09,353,28,87,07,037,,1*7B
$GAGSV,2,1,08,09,76,123,25,31,64,112,24,06,51,122,24,05,46,300,24,7*74
$GAGSV,2,2,08,24,34,188,21,04,24,122,19,15,10,328,18,34,08,279,,7*75
$GBGSV,4,1,15,37,75,214,36,20,65,274,34,58,59,245,,23,47,061,32,1*72
$GBGSV,4,2,15,32,41,167,30,19,23,315,29,46,20,232,,38,15,332,22,1*78
$GBGSV,4,3,15,08,10,342,18,31,09,337,,34,05,038,,11,03,060,,1*70
$GBGSV,4,4,15,12,03,012,18,43,02,080,,13,01,346,,1*47
$GNRMC,193530.000,A,4910.427532,N,12304.398798,W,0.01,37.44,051224,,,D,V*2C
$GNVTG,37.44,T,,M,0.01,N,0.03,K,D*10
$PAIRLOG,Full*51
$GNGGA,193531.000,4910.427508,N,12304.398774,W,2,27,0.57,6.313,M,-16.817,M,,*49
$GNGLL,4910.427508,N,12304.398774,W,193531.000,A,D*5E
$GNGSA,A,3,09,07,04,16,30,20,27,08,05,,,,0.93,0.57,0.74,1*0E
$GNGSA,A,3,69,79,78,68,80,86,,,,,,,0.93,0.57,0.74,2*0F
$GNGSA,A,3,09,31,06,05,24,04,,,,,,,0.93,0.57,0.74,3*02
$GNGSA,A,3,37,20,23,32,19,38,,,,,,,0.93,0.57,0.74,4*0A
$GPGSV,3,1,11,09,75,141,30,07,68,270,28,04,44,125,24,16,32,051,26,1*6E
$GPGSV,3,2,11,30,31,260,23,20,27,306,21,27,22,091,20,08,16,125,20,1*64
$GPGSV,3,3,11,05,07,331,18,26,04,043,15,11,04,283,,1*50
$GLGSV,2,1,08,69,76,310,40,79,67,222,39,78,55,042,29,68,48,148,35,1*77
$GLGSV,2,2,08,80,13,222,31,70,11,323,,86,09,353,28,87,07,037,22,1*7B
$GAGSV,2,1,08,09,76,123,25,31,64,112,24,06,51,122,23,05,47,300,24,7*72
$GAGSV,2,2,08,24,34,188,21,04,24,122,19,15,10,328,17,34,08,279,,7*7A
$GBGSV,4,1,15,37,75,214,35,20,65,274,34,58,59,245,,23,47,061,31,1*72
$GBGSV,4,2,15,32,41,167,29,19,23,315,28,46,20,232,,38,15,332,21,1*72
$GBGSV,4,3,15,08,10,342,18,31,09,337,,34,05,038,,11,03,060,,1*70
$GBGSV,4,4,15,12,03,012,17,43,02,080,,13,01,346,,1*48
$GNRMC,193531.000,A,4910.427508,N,12304.398774,W,0.01,37.44,051224,,,D,V*26
$GNVTG,37.44,T,,M,0.01,N,0.02,K,D*11
$PAIRLOG,Full*51
$GNGGA,193532.000,4910.427496,N,12304.398846,W,2,26,0.57,6.428,M,-16.816,M,,*4D
$GNGLL,4910.427496,N,12304.398846,W,193532.000,A,D*55
$GNGSA,A,3,09,07,04,16,30,20,27,08,,,,,0.97,0.57,0.78,1*03
$GNGSA,A,3,69,79,78,68,80,86,,,,,,,0.97,0.57,0.78,2*07
$GNGSA,A,3,09,31,06,05,24,04,,,,,,,0.97,0.57,0.78,3*0A
$GNGSA,A,3,37,20,23,32,19,38,,,,,,,0.97,0.57,0.78,4*02
$GPGSV,3,1,12,09,75,141,30,07,68,270,28,04,44,125,23,16,32,051,25,1*69
$GPGSV,3,2,12,30,31,260,23,20,27,306,21,27,22,091,22,08,16,125,20,1*65
$GPGSV,3,3,12,05,07,331,,11,04,283,,26,04,043,13,43,,,,1*5B
$GLGSV,2,1,08,69,76,310,40,79,67,222,39,78,55,042,29,68,48,148,35,1*77
$GLGSV,2,2,08,80,13,222,31,70,11,323,,86,09,353,28,87,07,037,23,1*7A
$GAGSV,2,1,08,09,76,123,25,31,64,112,24,06,50,123,23,05,47,300,24,7*72
$GAGSV,2,2,08,24,34,188,21,04,24,122,19,15,10,328,17,34,08,279,,7*7A
$GBGSV,4,1,15,37,75,214,35,20,65,274,34,58,59,245,,23,47,061,31,1*72
$GBGSV,4,2,15,32,41,167,29,19,23,315,29,46,20,232,,38,15,332,21,1*73
$GBGSV,4,3,15,08,10,342,18,31,09,337,,34,05,038,,11,03,060,,1*70
$GBGSV,4,4,15,12,03,012,17,43,02,080,,13,01,346,,1*48
$GNRMC,193532.000,A,4910.427496,N,12304.398846,W,0.01,37.44,051224,,,D,V*2D
$GNVTG,37.44,T,,M,0.01,N,0.02,K,D*11
$PAIRLOG,Full*51
$GNGGA,193533.000,4910.427496,N,12304.398840,W,2,26,0.57,6.420,M,-16.816,M,,*42
$GNGLL,4910.427496,N,12304.398840,W,193533.000,A,D*52
$GNGSA,A,3,09,07,04,16,30,20,27,08,,,,,0.97,0.57,0.78,1*03
$GNGSA,A,3,69,79,78,68,80,86,,,,,,,0.97,0.57,0.78,2*07
$GNGSA,A,3,09,31,06,05,24,04,,,,,,,0.97,0.57,0.78,3*0A
$GNGSA,A,3,37,20,23,32,19,38,,,,,,,0.97,0.57,0.78,4*02
$GPGSV,3,1,12,09,75,141,30,07,68,270,29,04,44,125,25,16,32,051,27,1*6C
$GPGSV,3,2,12,30,31,260,23,20,27,306,22,27,22,091,22,08,16,125,22,1*64
$GPGSV,3,3,12,05,07,331,,11,04,283,,26,04,043,13,43,,,,1*5B
$GLGSV,2,1,08,69,76,310,40,79,67,222,39,78,55,042,29,68,48,148,35,1*77
$GLGSV,2,2,08,80,13,222,31,70,11,323,,86,09,353,28,87,07,037,23,1*7A
$GAGSV,2,1,08,09,76,123,26,31,64,112,25,06,50,123,24,05,47,300,24,7*77
$GAGSV,2,2,08,24,34,188,22,04,24,122,19,15,10,328,17,34,08,279,,7*79
$GBGSV,4,1,15,37,75,214,35,20,65,274,34,58,59,245,,23,47,061,32,1*71
$GBGSV,4,2,15,32,41,167,29,19,23,315,29,46,20,232,,38,15,332,21,1*73
$GBGSV,4,3,15,08,10,342,18,31,09,337,,34,05,038,,11,03,060,,1*70
$GBGSV,4,4,15,12,03,012,17,43,02,080,,13,01,346,,1*48
$GNRMC,193533.000,A,4910.427496,N,12304.398840,W,0.01,37.44,051224,,,D,V*2A
$GNVTG,37.44,T,,M,0.01,N,0.02,K,D*11
$PAIRLOG,Full*51
$GNGGA,193534.000,4910.427442,N,12304.398822,W,2,26,0.57,6.480,M,-16.816,M,,*42
$GNGLL,4910.427442,N,12304.398822,W,193534.000,A,D*58
$GNGSA,A,3,09,07,04,16,30,20,27,08,,,,,0.97,0.57,0.78,1*03
$GNGSA,A,3,69,79,78,68,80,86,,,,,,,0.97,0.57,0.78,2*07
$GNGSA,A,3,09,31,06,05,24,04,,,,,,,0.97,0.57,0.78,3*0A
$GNGSA,A,3,37,20,23,32,19,38,,,,,,,0.97,0.57,0.78,4*02
$GPGSV,3,1,10,09,75,141,31,07,68,270,29,04,44,125,28,16,32,051,29,1*6C
$GPGSV,3,2,10,30,31,260,25,20,27,306,23,27,22,091,24,08,16,125,23,1*66
$GPGSV,3,3,10,26,04,043,16,43,,,,1*52
$GLGSV,2,1,08,69,76,310,39,79,67,222,38,78,55,042,29,68,48,148,35,1*78
$GLGSV,2,2,08,80,13,222,31,70,11,323,,86,09,353,28,87,07,037,23,1*7A
$GAGSV,2,1,07,09,76,123,26,31,64,112,26,06,50,123,24,05,47,300,25,7*7A
$GAGSV,2,2,07,24,34,188,22,04,24,122,19,15,10,328,17,7*45
$GBGSV,2,1,08,37,75,214,36,20,65,274,35,23,47,061,32,32,41,167,30,1*7C
$GBGSV,2,2,08,19,23,315,29,38,15,332,21,08,10,342,18,12,03,012,17,1*75
$GNRMC,193534.000,A,4910.427442,N,12304.398822,W,0.01,37.44,051224,,,D,V*20
$GNVTG,37.44,T,,M,0.01,N,0.03,K,D*10
$PAIRLOG,Full*51
$GNGGA,193535.000,4910.427466,N,12304.398840,W,2,26,0.57,6.477,M,-16.816,M,,*49
$GNGLL,4910.427466,N,12304.398840,W,193535.000,A,D*5B
$GNGSA,A,3,09,07,04,16,30,20,27,08,,,,,0.97,0.57,0.78,1*03
$GNGSA,A,3,69,79,78,68,80,86,,,,,,,0.97,0.57,0.78,2*07
$GNGSA,A,3,09,31,06,05,24,04,,,,,,,0.97,0.57,0.78,3*0A
$GNGSA,A,3,37,20,23,32,19,38,,,,,,,0.97,0.57,0.78,4*02
$GPGSV,3,1,10,09,75,141,31,07,68,270,29,04,44,125,26,16,32,051,28,1*63
$GPGSV,3,2,10,30,31,260,25,20,27,306,23,27,22,091,24,08,16,125,22,1*67
$GPGSV,3,3,10,26,04,043,15,43,,,,1*51
$GLGSV,2,1,08,69,76,310,39,79,67,222,38,78,55,042,29,68,48,148,36,1*7B
$GLGSV,2,2,08,80,13,222,31,70,11,323,,86,09,353,28,87,07,037,23,1*7A
$GAGSV,2,1,07,09,75,125,26,31,64,112,26,06,50,123,24,05,47,300,25,7*7F
$GAGSV,2,2,07,24,34,188,22,04,24,122,19,15,10,328,17,7*45
$GBGSV,2,1,08,37,75,214,36,20,65,274,35,23,47,061,32,32,41,167,30,1*7C
$GBGSV,2,2,08,19,23,315,29,38,15,332,21,08,10,342,19,12,03,012,17,1*74
$GNRMC,193535.000,A,4910.427466,N,12304.398840,W,0.01,37.44,051224,,,D,V*23
$GNVTG,37.44,T,,M,0.01,N,0.02,K,D*11
$PAIRLOG,Full*51
$GNGGA,193536.000,4910.427484,N,12304.398816,W,2,26,0.57,6.304,M,-16.817,M,,*47
$GNGLL,4910.427484,N,12304.398816,W,193536.000,A,D*57
$GNGSA,A,3,09,07,04,16,30,20,27,08,,,,,0.97,0.57,0.78,1*03
$GNGSA,A,3,69,79,78,68,80,86,,,,,,,0.97,0.57,0.78,2*07
$GNGSA,A,3,09,31,06,05,24,04,,,,,,,0.97,0.57,0.78,3*0A
$GNGSA,A,3,37,20,23,32,19,38,,,,,,,0.97,0.57,0.78,4*02
$GPGSV,3,1,12,09,75,141,32,07,68,270,30,04,44,125,28,16,32,051,29,1*65
$GPGSV,3,2,12,30,31,260,26,20,27,306,24,27,22,091,24,08,16,125,22,1*61
$GPGSV,3,3,12,05,07,331,,11,04,283,,26,04,043,14,43,,,,1*5C
$GLGSV,2,1,08,69,76,310,39,79,67,222,38,78,55,042,29,68,48,148,36,1*7B
$GLGSV,2,2,08,80,13,222,31,70,11,323,,86,09,353,28,87,07,037,23,1*7A
$GAGSV,2,1,08,09,75,125,27,31,64,112,26,06,50,123,24,05,47,300,25,7*71
$GAGSV,2,2,08,24,34,188,22,04,24,122,19,15,10,328,17,34,08,279,,7*79
$GBGSV,4,1,15,37,75,214,36,20,65,274,35,58,59,245,,23,47,061,32,1*73
$GBGSV,4,2,15,32,41,167,30,19,23,315,29,46,20,232,,38,15,332,21,1*7B
$GBGSV,4,3,15,08,10,342,19,31,09,337,,34,05,038,,11,03,060,,1*71
$GBGSV,4,4,15,12,03,012,17,43,02,080,,13,01,346,,1*48
$GNRMC,193536.000,A,4910.427484,N,12304.398816,W,0.01,37.44,051224,,,D,V*2F
$GNVTG,37.44,T,,M,0.01,N,0.02,K,D*11
$PAIRLOG,Full*51
$GNGGA,193537.000,4910.427490,N,12304.398744,W,2,26,0.57,6.262,M,-16.817,M,,*4A
$GNGLL,4910.427490,N,12304.398744,W,193537.000,A,D*5B
$GNGSA,A,3,09,07,04,16,30,20,27,08,,,,,0.97,0.57,0.78,1*03
$GNGSA,A,3,69,79,78,68,80,86,,,,,,,0.97,0.57,0.78,2*07
$GNGSA,A,3,09,31,06,05,24,04,,,,,,,0.97,0.57,0.78,3*0A
$GNGSA,A,3,37,20,23,32,19,38,,,,,,,0.97,0.57,0.78,4*02
$GPGSV,3,1,12,09,75,141,31,07,68,270,29,04,44,125,27,16,32,051,25,1*6D
$GPGSV,3,2,12,30,31,260,23,20,27,306,23,27,22,091,21,08,16,125,22,1*66
$GPGSV,3,3,12,05,07,331,,11,04,283,,26,04,043,13,43,,,,1*5B
$GLGSV,2,1,08,69,76,310,39,79,67,222,38,78,55,042,28,68,48,148,36,1*7A
$GLGSV,2,2,08,80,13,222,31,70,11,323,,86,09,353,27,87,07,037,23,1*75
$GAGSV,2,1,08,09,75,125,26,31,64,112,25,06,50,123,23,05,47,300,24,7*75
$GAGSV,2,2,08,24,34,188,21,04,24,122,19,15,10,328,17,34,08,279,,7*7A
$GBGSV,4,1,15,37,75,214,36,20,65,274,35,58,59,245,,23,47,061,32,1*73
$GBGSV,4,2,15,32,41,167,30,19,23,315,29,46,20,232,,38,15,332,21,1*7B
$GBGSV,4,3,15,08,10,342,19,31,09,337,,34,05,038,,11,03,060,,1*71
$GBGSV,4,4,15,12,03,012,17,43,02,080,,13,01,346,,1*48
$GNRMC,193537.000,A,4910.427490,N,12304.398744,W,0.01,37.44,051224,,,D,V*23
$GNVTG,37.44,T,,M,0.01,N,0.03,K,D*10
$PAIRLOG,Full*51
$GNGGA,193538.000,4910.427484,N,12304.398822,W,2,28,0.54,6.269,M,-16.816,M,,*48
$GNGLL,4910.427484,N,12304.398822,W,193538.000,A,D*5E
$GNGSA,A,3,09,07,04,16,30,20,27,08,05,,,,0.89,0.54,0.71,1*03
$GNGSA,A,3,69,79,78,68,80,86,,,,,,,0.89,0.54,0.71,2*02
$GNGSA,A,3,09,31,06,05,24,04,,,,,,,0.89,0.54,0.71,3*0F
$GNGSA,A,3,37,20,23,32,19,38,34,,,,,,0.89,0.54,0.71,4*00
$GPGSV,3,1,11,09,75,141,31,07,68,270,30,04,44,125,27,16,32,051,29,1*6A
$GPGSV,3,2,11,30,31,260,24,20,27,306,23,27,22,091,24,08,16,125,22,1*67
$GPGSV,3,3,11,05,07,331,23,26,04,043,13,11,04,283,,1*5E
$GLGSV,2,1,08,69,76,310,39,79,67,222,38,78,55,042,28,68,48,148,36,1*7A
$GLGSV,2,2,08,80,13,222,31,70,11,323,,86,09,353,27,87,,,24,1*41
$GAGSV,2,1,08,09,75,125,26,31,64,112,26,06,50,123,23,05,47,300,24,7*76
$GAGSV,2,2,08,24,34,188,21,04,24,122,19,15,10,328,17,34,08,279,,7*7A
$GBGSV,4,1,15,37,75,214,36,20,65,274,35,58,59,245,,23,47,061,33,1*72
$GBGSV,4,2,15,32,41,167,30,19,23,315,29,46,20,232,,38,15,332,22,1*78
$GBGSV,4,3,15,08,10,342,19,31,09,337,,34,05,038,22,12,03,012,17,1*71
$GBGSV,4,4,15,11,03,060,,43,02,080,,13,01,346,,1*48
$GNRMC,193538.000,A,4910.427484,N,12304.398822,W,0.01,37.44,051224,,,D,V*26
$GNVTG,37.44,T,,M,0.01,N,0.03,K,D*10
$PAIRLOG,Full*51
$GNGGA,193539.000,4910.427406,N,12304.398912,W,2,26,0.57,6.315,M,-16.816,M,,*46
$GNGLL,4910.427406,N,12304.398912,W,193539.000,A,D*57
$GNGSA,A,3,09,07,04,16,30,20,27,08,,,,,0.97,0.57,0.78,1*03
$GNGSA,A,3,69,79,78,68,80,86,,,,,,,0.97,0.57,0.78,2*07
$GNGSA,A,3,09,31,06,05,24,04,,,,,,,0.97,0.57,0.78,3*0A
$GNGSA,A,3,37,20,23,32,19,38,,,,,,,0.97,0.57,0.78,4*02
$GPGSV,3,1,11,09,75,141,31,07,68,270,30,04,44,125,26,16,32,051,26,1*64
$GPGSV,3,2,11,30,31,260,24,20,27,306,23,27,22,091,24,08,16,125,22,1*67
$GPGSV,3,3,11,05,07,331,,11,04,283,,26,04,043,15,1*59
$GLGSV,2,1,07,69,76,310,39,79,67,222,38,78,55,042,28,68,48,148,36,1*75
$GLGSV,2,2,07,80,13,222,31,70,11,323,,86,09,353,27,1*47
$GAGSV,2,1,08,09,75,125,26,31,64,112,26,06,50,123,23,05,47,300,24,7*76
$GAGSV,2,2,08,24,34,188,21,04,24,122,19,15,10,328,17,34,08,279,,7*7A
$GBGSV,4,1,15,37,75,214,36,20,65,274,36,58,59,245,,23,47,061,34,1*76
$GBGSV,4,2,15,32,41,167,30,19,23,315,29,46,20,232,,38,15,332,23,1*79
$GBGSV,4,3,15,08,10,342,19,31,09,337,,34,05,038,,11,03,060,,1*71
$GBGSV,4,4,15,12,03,012,17,43,02,080,,13,01,346,,1*48
$GNRMC,193539.000,A,4910.427406,N,12304.398912,W,0.02,37.44,051224,,,D,V*2C
$GNVTG,37.44,T,,M,0.02,N,0.03,K,D*13
$PAIRLOG,Full*51
$GNGGA,193540.000,4910.427400,N,12304.398900,W,2,26,0.57,6.346,M,-16.816,M,,*4B
$GNGLL,4910.427400,N,12304.398900,W,193540.000,A,D*5C
$GNGSA,A,3,09,07,04,16,30,20,27,08,,,,,0.97,0.57,0.78,1*03
$GNGSA,A,3,69,79,78,68,80,86,,,,,,,0.97,0.57,0.78,2*07
$GNGSA,A,3,09,31,06,05,24,04,,,,,,,0.97,0.57,0.78,3*0A
$GNGSA,A,3,37,20,23,32,19,38,,,,,,,0.97,0.57,0.78,4*02
$GPGSV,3,1,10,09,75,141,31,07,68,270,30,04,44,125,25,16,32,051,27,1*67
$GPGSV,3,2,10,30,31,260,24,20,27,306,23,27,22,091,24,08,16,125,22,1*66
$GPGSV,3,3,10,26,04,043,14,47,,,,1*54
$GLGSV,2,1,08,69,76,310,39,79,67,222,38,78,55,042,28,68,48,148,36,1*7A
$GLGSV,2,2,08,80,13,222,31,70,11,323,,86,09,353,27,87,07,037,,1*74
$GAGSV,2,1,07,09,75,125,26,31,64,112,26,06,50,123,23,05,47,300,24,7*79
$GAGSV,2,2,07,24,34,188,21,04,24,122,19,15,10,328,17,7*46
$GBGSV,2,1,08,37,75,214,36,20,65,274,36,23,47,061,34,32,41,167,31,1*78
$GBGSV,2,2,08,19,23,315,30,38,15,332,23,08,10,342,19,12,03,012,17,1*7E
$GNRMC,193540.000,A,4910.427400,N,12304.398900,W,0.01,37.44,051224,,,D,V*24
$GNVTG,37.44,T,,M,0.01,N,0.03,K,D*10
$PAIRLOG,Full*51
$GNGGA,193541.000,4910.427412,N,12304.398894,W,2,26,0.57,6.357,M,-16.816,M,,*45
$GNGLL,4910.427412,N,12304.398894,W,193541.000,A,D*52
$GNGSA,A,3,09,07,04,16,30,20,27,08,,,,,0.97,0.57,0.78,1*03
$GNGSA,A,3,69,79,78,68,80,86,,,,,,,0.97,0.57,0.78,2*07
$GNGSA,A,3,09,31,06,05,24,04,,,,,,,0.97,0.57,0.78,3*0A
$GNGSA,A,3,37,20,23,32,19,38,,,,,,,0.97,0.57,0.78,4*02
$GPGSV,3,1,10,09,75,141,32,07,68,270,31,04,44,125,29,16,32,051,29,1*67
$GPGSV,3,2,10,30,31,260,26,20,27,306,24,27,22,091,24,08,16,125,23,1*62
$GPGSV,3,3,10,26,04,043,14,47,,,,1*54
$GLGSV,2,1,08,69,76,310,39,79,67,222,38,78,55,042,27,68,48,148,35,1*76
$GLGSV,2,2,08,80,13,222,31,70,11,323,,86,09,353,27,87,07,037,,1*74
$GAGSV,2,1,07,09,75,125,27,31,64,112,26,06,50,123,24,05,47,300,25,7*7E
$GAGSV,2,2,07,24,34,188,22,04,24,122,19,15,09,327,17,7*42
$GBGSV,2,1,08,37,75,214,37,20,65,274,36,23,47,061,34,32,41,167,31,1*79
$GBGSV,2,2,08,19,23,315,31,38,15,332,23,08,10,342,19,12,03,012,18,1*70
$GNRMC,193541.000,A,4910.427412,N,12304.398894,W,0.01,37.44,051224,,,D,V*2A
$GNVTG,37.44,T,,M,0.01,N,0.02,K,D*11
$PAIRLOG,Full*51
$GNGGA,193542.000,4910.427436,N,12304.398900,W,2,26,0.57,6.391,M,-16.816,M,,*46
$GNGLL,4910.427436,N,12304.398900,W,193542.000,A,D*5B
$GNGSA,A,3,09,07,04,16,30,20,27,08,,,,,0.97,0.57,0.78,1*03
$GNGSA,A,3,69,79,78,68,80,86,,,,,,,0.97,0.57,0.78,2*07
$GNGSA,A,3,09,31,06,05,24,04,,,,,,,0.97,0.57,0.78,3*0A
$GNGSA,A,3,37,20,23,32,19,38,,,,,,,0.97,0.57,0.78,4*02
$GPGSV,3,1,10,09,75,141,32,07,68,270,31,04,44,125,29,16,32,051,29,1*67
$GPGSV,3,2,10,30,31,260,26,20,27,306,24,27,22,091,25,08,16,125,23,1*63
$GPGSV,3,3,10,26,04,043,16,47,,,,1*56
$GLGSV,2,1,08,69,76,310,39,79,67,222,38,78,55,042,27,68,48,148,35,1*76
$GLGSV,2,2,08,80,13,222,31,70,11,323,,86,09,353,28,87,07,037,,1*7B
$GAGSV,2,1,07,09,75,125,27,31,64,112,26,06,50,123,24,05,47,300,24,7*7F
$GAGSV,2,2,07,24,34,188,22,04,24,122,19,15,09,327,18,7*4D
$GBGSV,2,1,08,37,75,214,37,20,65,274,36,23,47,061,34,32,41,167,31,1*79
$GBGSV,2,2,08,19,23,315,31,38,15,332,23,08,10,342,19,12,03,012,18,1*70
$GNRMC,193542.000,A,4910.427436,N,12304.398900,W,0.01,37.44,051224,,,D,V*23
$GNVTG,37.44,T,,M,0.01,N,0.01,K,D*12
$PAIRLOG,Full*51
$GNGGA,193543.000,4910.427466,N,12304.398546,W,2,26,0.57,6.152,M,-16.817,M,,*40
$GNGLL,4910.427466,N,12304.398546,W,193543.000,A,D*51
$GNGSA,A,3,09,07,04,16,30,20,27,08,,,,,0.97,0.57,0.78,1*03
$GNGSA,A,3,69,79,78,68,80,86,,,,,,,0.97,0.57,0.78,2*07
$GNGSA,A,3,09,31,06,05,24,04,,,,,,,0.97,0.57,0.78,3*0A
$GNGSA,A,3,37,20,23,32,19,38,,,,,,,0.97,0.57,0.78,4*02
$GPGSV,3,1,12,09,75,141,33,07,68,270,32,04,44,125,30,16,32,051,31,1*66
$GPGSV,3,2,12,30,31,260,28,20,27,306,27,27,22,091,26,08,16,125,24,1*68
$GPGSV,3,3,12,05,07,331,,11,04,283,,26,04,043,16,47,,,,1*5A
$GLGSV,2,1,08,69,76,310,40,79,67,222,38,78,55,042,27,68,48,148,35,1*78
$GLGSV,2,2,08,80,13,222,31,70,11,323,,86,09,353,28,87,07,037,25,1*7C
$GAGSV,2,1,08,09,75,125,27,31,64,112,26,06,50,123,24,05,47,300,24,7*70
$GAGSV,2,2,08,24,34,188,23,04,24,122,20,15,09,327,18,34,08,279,,7*7A
$GBGSV,4,1,15,37,75,214,37,20,65,274,36,58,59,245,,23,47,061,34,1*77
$GBGSV,4,2,15,32,41,167,31,19,23,315,31,46,20,232,,38,15,332,23,1*71
$GBGSV,4,3,15,08,10,342,19,31,09,337,,34,05,038,,11,03,060,,1*71
$GBGSV,4,4,15,12,03,012,18,43,02,080,,13,01,346,,1*47
$GNRMC,193543.000,A,4910.427466,N,12304.398546,W,0.02,37.44,051224,,,D,V*2A
$GNVTG,37.44,T,,M,0.02,N,0.03,K,D*13
$PAIRLOG,Full*51
$GNGGA,193544.000,4910.427460,N,12304.398534,W,2,28,0.54,6.147,M,-16.816,M,,*4C
$GNGLL,4910.427460,N,12304.398534,W,193544.000,A,D*55
$GNGSA,A,3,09,07,04,16,30,20,27,08,05,,,,0.90,0.54,0.72,1*08
$GNGSA,A,3,69,79,78,68,80,86,,,,,,,0.90,0.54,0.72,2*09
$GNGSA,A,3,09,31,06,05,24,04,,,,,,,0.90,0.54,0.72,3*04
$GNGSA,A,3,37,20,23,32,19,38,34,,,,,,0.90,0.54,0.72,4*0B
$GPGSV,3,1,11,09,75,141,32,07,68,270,31,04,44,125,28,16,32,051,27,1*69
$GPGSV,3,2,11,30,31,260,26,20,27,306,24,27,22,091,25,08,16,125,23,1*62
$GPGSV,3,3,11,05,07,331,23,26,04,043,15,11,04,283,,1*58
$GLGSV,2,1,08,69,76,310,40,79,67,222,39,78,55,042,27,68,48,148,35,1*79
$GLGSV,2,2,08,80,13,222,31,70,11,323,,86,09,353,28,87,,,25,1*4F
$GAGSV,2,1,08,09,75,125,27,31,64,112,26,06,50,123,24,05,47,300,24,7*70
$GAGSV,2,2,08,24,34,188,23,04,24,122,20,15,09,327,18,34,08,279,,7*7A
$GBGSV,4,1,15,37,75,214,37,20,65,274,36,58,59,245,,23,47,061,34,1*77
$GBGSV,4,2,15,32,41,167,31,19,23,315,31,46,20,232,,38,15,332,23,1*71
$GBGSV,4,3,15,08,10,342,19,31,09,337,,34,05,038,22,12,03,012,18,1*7E
$GBGSV,4,4,15,11,03,060,,43,02,080,,13,01,346,,1*48
$GNRMC,193544.000,A,4910.427460,N,12304.398534,W,0.01,37.44,051224,,,D,V*2D
$GNVTG,37.44,T,,M,0.01,N,0.03,K,D*10
$PAIRLOG,Full*51
$GNGGA,193545.000,4910.427448,N,12304.398552,W,2,26,0.57,6.165,M,-16.816,M,,*4A
$GNGLL,4910.427448,N,12304.398552,W,193545.000,A,D*5E
$GNGSA,A,3,09,07,04,16,30,20,27,08,,,,,0.97,0.57,0.78,1*03
$GNGSA,A,3,69,79,78,68,80,86,,,,,,,0.97,0.57,0.78,2*07
$GNGSA,A,3,09,31,06,05,24,04,,,,,,,0.97,0.57,0.78,3*0A
$GNGSA,A,3,37,20,23,32,19,38,,,,,,,0.97,0.57,0.78,4*02
$GPGSV,3,1,12,09,75,141,32,07,68,270,31,04,44,125,28,16,32,051,29,1*64
$GPGSV,3,2,12,30,31,260,26,20,27,306,24,27,22,091,25,08,16,125,20,1*62
$GPGSV,3,3,12,05,07,331,,11,04,283,,26,04,043,15,35,,,,1*5C
$GLGSV,2,1,07,69,76,310,40,79,67,222,39,78,55,042,27,68,48,148,35,1*76
$GLGSV,2,2,07,80,13,222,31,70,11,323,,86,09,353,28,1*48
$GAGSV,2,1,08,09,75,125,27,31,64,112,25,06,50,123,24,05,47,300,23,7*74
$GAGSV,2,2,08,24,34,188,22,04,24,122,20,15,09,327,18,34,08,279,,7*7B
$GBGSV,4,1,15,37,75,214,37,20,65,274,36,58,59,245,,23,47,061,34,1*77
$GBGSV,4,2,15,32,41,167,31,19,23,315,31,46,20,232,,38,15,332,23,1*71
$GBGSV,4,3,15,08,10,342,19,31,09,337,,34,05,038,,11,03,060,,1*71
$GBGSV,4,4,15,12,03,012,18,43,02,080,,13,01,346,,1*47
$GNRMC,193545.000,A,4910.427448,N,12304.398552,W,0.01,37.44,051224,,,D,V*26
$GNVTG,37.44,T,,M,0.01,N,0.03,K,D*10
$PAIRLOG,Full*51
$GNGGA,193546.000,4910.427448,N,12304.398486,W,2,26,0.57,6.172,M,-16.816,M,,*47
$GNGLL,4910.427448,N,12304.398486,W,193546.000,A,D*55
$GNGSA,A,3,09,07,04,16,30,20,27,08,,,,,0.97,0.57,0.78,1*03
$GNGSA,A,3,69,79,78,68,80,86,,,,,,,0.97,0.57,0.78,2*07
$GNGSA,A,3,09,31,06,05,24,04,,,,,,,0.97,0.57,0.78,3*0A
$GNGSA,A,3,37,20,23,32,19,38,,,,,,,0.97,0.57,0.78,4*02
$GPGSV,3,1,12,09,75,141,32,07,68,270,31,04,44,125,29,16,32,051,29,1*65
$GPGSV,3,2,12,30,31,260,26,20,27,306,24,27,22,091,25,08,16,125,21,1*63
$GPGSV,3,3,12,05,07,331,,11,04,283,,26,04,043,14,35,,,,1*5D
$GLGSV,2,1,08,69,76,310,40,79,67,222,38,78,55,042,28,68,48,148,35,1*77
$GLGSV,2,2,08,80,13,222,31,70,11,323,,86,09,353,28,87,07,037,23,1*7A
$GAGSV,2,1,08,09,75,125,27,31,64,112,25,06,50,123,24,05,47,300,23,7*74
$GAGSV,2,2,08,24,34,188,23,04,24,122,20,15,09,327,18,34,08,279,,7*7A
$GBGSV,4,1,15,37,75,214,37,20,65,274,37,58,59,245,,23,47,061,34,1*76
$GBGSV,4,2,15,32,41,167,31,19,23,315,31,46,20,232,,38,15,332,23,1*71
$GBGSV,4,3,15,08,10,342,19,31,09,337,,34,05,038,,11,03,060,,1*71
$GBGSV,4,4,15,12,03,012,18,43,02,080,,13,01,346,,1*47
$GNRMC,193546.000,A,4910.427448,N,12304.398486,W,0.01,37.44,051224,,,D,V*2D
$GNVTG,37.44,T,,M,0.01,N,0.03,K,D*10
$PAIRLOG,Full*51
$GNGGA,193547.000,4910.427460,N,12304.398432,W,2,26,0.57,6.155,M,-16.816,M,,*46
$GNGLL,4910.427460,N,12304.398432,W,193547.000,A,D*51
$GNGSA,A,3,09,07,04,16,30,20,27,08,,,,,0.97,0.57,0.78,1*03
$GNGSA,A,3,69,79,78,68,80,86,,,,,,,0.97,0.57,0.78,2*07
$GNGSA,A,3,09,31,06,05,24,04,,,,,,,0.97,0.57,0.78,3*0A
$GNGSA,A,3,37,20,23,32,19,38,,,,,,,0.97,0.57,0.78,4*02
$GPGSV,3,1,10,09,75,141,32,07,68,270,31,04,44,125,29,16,32,051,29,1*67
$GPGSV,3,2,10,30,31,260,26,20,27,306,24,27,22,091,26,08,16,125,23,1*60
$GPGSV,3,3,10,26,04,043,15,35,,,,1*50
$GLGSV,2,1,08,69,76,310,40,79,67,222,38,78,55,042,28,68,48,148,35,1*77
$GLGSV,2,2,08,80,13,222,30,70,11,323,,86,09,353,28,87,07,037,24,1*7C
$GAGSV,2,1,07,09,75,125,27,31,64,112,25,06,50,123,24,05,47,300,23,7*7B
$GAGSV,2,2,07,24,34,188,23,04,24,122,21,15,09,327,18,7*47
$GBGSV,2,1,08,37,75,214,37,20,65,274,37,23,47,061,34,32,41,167,32,1*7B
$GBGSV,2,2,08,19,23,315,31,38,15,332,23,08,10,342,19,12,03,012,18,1*70
$GNRMC,193547.000,A,4910.427460,N,12304.398432,W,0.01,37.44,051224,,,D,V*29
$GNVTG,37.44,T,,M,0.01,N,0.03,K,D*10
$PAIRLOG,Full*51
$GNGGA,193548.000,4910.427442,N,12304.398408,W,2,26,0.57,6.152,M,-16.817,M,,*46
$GNGLL,4910.427442,N,12304.398408,W,193548.000,A,D*57
$GNGSA,A,3,09,07,04,16,30,20,27,08,,,,,0.97,0.57,0.78,1*03
$GNGSA,A,3,69,79,78,68,80,86,,,,,,,0.97,0.57,0.78,2*07
$GNGSA,A,3,09,31,06,05,24,04,,,,,,,0.97,0.57,0.78,3*0A
$GNGSA,A,3,37,20,23,32,19,38,,,,,,,0.97,0.57,0.78,4*02
$GPGSV,3,1,10,09,75,141,32,07,68,270,31,04,44,125,28,16,32,051,29,1*66
$GPGSV,3,2,10,30,31,260,24,20,27,306,25,27,22,091,25,08,16,125,23,1*60
$GPGSV,3,3,10,26,04,043,15,35,,,,1*50
$GLGSV,2,1,08,69,76,310,40,79,67,222,38,78,55,042,28,68,48,148,35,1*77
$GLGSV,2,2,08,80,13,222,30,70,11,323,,86,09,353,27,87,07,037,26,1*71
$GAGSV,2,1,07,09,75,125,27,31,64,112,25,06,50,123,23,05,47,300,23,7*7C
$GAGSV,2,2,07,24,34,188,23,04,24,122,21,15,09,327,18,7*47
$GBGSV,2,1,08,37,75,214,37,20,65,274,37,23,47,061,34,32,41,167,32,1*7B
$GBGSV,2,2,08,19,23,315,31,38,15,332,23,08,10,342,19,12,03,012,18,1*70
$GNRMC,193548.000,A,4910.427442,N,12304.398408,W,0.01,37.44,051224,,,D,V*2F
$GNVTG,37.44,T,,M,0.01,N,0.02,K,D*11
$PAIRLOG,Full*51
$GNGGA,193549.000,4910.427388,N,12304.398420,W,2,26,0.57,6.143,M,-16.816,M,,*4D
$GNGLL,4910.427388,N,12304.398420,W,193549.000,A,D*5D
$GNGSA,A,3,09,07,04,16,30,20,27,08,,,,,0.97,0.57,0.78,1*03
$GNGSA,A,3,69,79,78,68,80,86,,,,,,,0.97,0.57,0.78,2*07
$GNGSA,A,3,09,31,06,05,24,04,,,,,,,0.97,0.57,0.78,3*0A
$GNGSA,A,3,37,20,23,32,19,38,,,,,,,0.97,0.57,0.78,4*02
$GPGSV,3,1,10,09,75,141,32,07,68,270,31,04,44,125,28,16,32,051,29,1*66
$GPGSV,3,2,10,30,31,260,25,20,27,306,25,27,22,091,25,08,16,125,22,1*60
$GPGSV,3,3,10,26,04,043,14,35,,,,1*51
$GLGSV,2,1,08,69,76,310,40,79,67,222,39,78,55,042,29,68,48,148,35,1*77
$GLGSV,2,2,08,80,13,222,31,70,11,323,,86,09,353,27,87,07,037,24,1*72
$GAGSV,2,1,07,09,75,125,27,31,64,112,25,06,50,123,23,05,47,300,22,7*7D
$GAGSV,2,2,07,24,34,188,22,04,24,122,20,15,09,327,18,7*47
$GBGSV,2,1,08,37,75,214,36,20,65,274,37,23,47,061,34,32,41,167,31,1*79
$GBGSV,2,2,08,19,23,315,31,38,15,332,23,08,10,342,19,12,03,012,18,1*70
$GNRMC,193549.000,A,4910.427388,N,12304.398420,W,0.01,37.44,051224,,,D,V*25
$GNVTG,37.44,T,,M,0.01,N,0.02,K,D*11
$PAIRLOG,Full*51
$GNGGA,193550.000,4910.427328,N,12304.398378,W,2,26,0.57,6.178,M,-16.816,M,,*4D
$GNGLL,4910.427328,N,12304.398378,W,193550.000,A,D*55
$GNGSA,A,3,09,07,04,16,30,20,27,08,,,,,0.97,0.57,0.78,1*03
$GNGSA,A,3,69,79,78,68,80,86,,,,,,,0.97,0.57,0.78,2*07
$GNGSA,A,3,09,31,06,05,24,04,,,,,,,0.97,0.57,0.78,3*0A
$GNGSA,A,3,37,20,23,32,19,38,,,,,,,0.97,0.57,0.78,4*02
$GPGSV,3,1,12,09,75,141,32,07,68,270,31,04,44,125,28,16,32,051,29,1*64
$GPGSV,3,2,12,30,31,260,24,20,27,306,25,27,22,091,25,08,16,125,24,1*65
$GPGSV,3,3,12,05,07,331,,11,04,283,,26,04,043,15,35,,,,1*5C
$GLGSV,2,1,08,69,76,310,40,79,67,222,39,78,55,042,29,68,48,148,35,1*77
$GLGSV,2,2,08,80,13,222,31,70,11,323,,86,09,353,27,87,07,037,26,1*70
$GAGSV,2,1,08,09,75,125,27,31,64,112,26,06,50,123,23,05,47,300,23,7*70
$GAGSV,2,2,08,24,35,188,22,04,24,122,20,15,09,327,18,34,08,279,,7*7A
$GBGSV,4,1,15,37,75,214,36,20,65,274,37,58,59,245,,23,47,061,34,1*77
$GBGSV,4,2,15,32,41,167,31,19,23,315,31,46,20,232,,38,15,332,23,1*71
$GBGSV,4,3,15,08,10,342,19,31,09,337,,34,05,038,,11,03,060,,1*71
$GBGSV,4,4,15,12,03,012,18,43,02,080,,13,01,346,,1*47
$GNRMC,193550.000,A,4910.427328,N,12304.398378,W,0.01,37.44,051224,,,D,V*2D
$GNVTG,37.44,T,,M,0.01,N,0.02,K,D*11
$PAIRLOG,Full*51
$GNGGA,193551.000,4910.427304,N,12304.398270,W,2,27,0.57,6.182,M,-16.816,M,,*4F
$GNGLL,4910.427304,N,12304.398270,W,193551.000,A,D*53
$GNGSA,A,3,09,07,04,16,30,20,27,08,05,,,,0.93,0.57,0.74,1*0E
$GNGSA,A,3,69,79,78,68,80,86,,,,,,,0.93,0.57,0.74,2*0F
$GNGSA,A,3,09,31,06,05,24,04,,,,,,,0.93,0.57,0.74,3*02
$GNGSA,A,3,37,20,23,32,19,38,,,,,,,0.93,0.57,0.74,4*0A
$GPGSV,3,1,11,09,75,141,32,07,68,270,31,04,44,125,28,16,32,051,29,1*67
$GPGSV,3,2,11,30,31,260,26,20,27,306,25,27,22,091,25,08,16,125,24,1*64
$GPGSV,3,3,11,05,07,331,24,26,04,043,15,11,04,283,,1*5F
$GLGSV,2,1,08,69,76,310,40,79,67,222,38,78,55,042,29,68,48,148,35,1*76
$GLGSV,2,2,08,80,13,222,30,70,11,323,,86,09,353,27,87,07,037,26,1*71
$GAGSV,2,1,08,09,75,125,27,31,64,112,26,06,50,123,23,05,47,300,23,7*70
$GAGSV,2,2,08,24,35,188,22,04,24,122,20,15,09,327,18,34,08,279,,7*7A
$GBGSV,4,1,15,37,75,214,36,20,65,274,37,58,59,245,,23,47,061,34,1*77
$GBGSV,4,2,15,32,41,167,31,19,23,315,31,46,20,232,,38,15,332,23,1*71
$GBGSV,4,3,15,08,10,342,19,31,09,337,,34,05,038,,11,03,060,,1*71
$GBGSV,4,4,15,12,03,012,18,43,02,080,,13,01,346,,1*47
$GNRMC,193551.000,A,4910.427304,N,12304.398270,W,0.01,37.44,051224,,,D,V*2B
$GNVTG,37.44,T,,M,0.01,N,0.02,K,D*11
$PAIRLOG,Full*51
$GNGGA,193552.000,4910.427262,N,12304.398288,W,2,26,0.57,6.150,M,-16.816,M,,*44
$GNGLL,4910.427262,N,12304.398288,W,193552.000,A,D*56
$GNGSA,A,3,09,07,04,16,30,20,27,08,,,,,0.97,0.57,0.78,1*03
$GNGSA,A,3,69,79,78,68,80,86,,,,,,,0.97,0.57,0.78,2*07
$GNGSA,A,3,09,31,06,05,24,04,,,,,,,0.97,0.57,0.78,3*0A
$GNGSA,A,3,37,20,23,32,19,38,,,,,,,0.97,0.57,0.78,4*02
$GPGSV,3,1,10,09,75,141,31,07,68,270,31,04,44,125,28,16,32,051,28,1*64
$GPGSV,3,2,10,30,31,260,24,20,27,306,25,27,22,091,24,08,16,125,25,1*67
$GPGSV,3,3,10,26,04,043,14,50,,,,1*52
$GLGSV,2,1,08,69,76,310,40,79,67,222,39,78,55,042,29,68,48,148,35,1*77
$GLGSV,2,2,08,80,13,222,30,70,11,323,,86,09,353,27,87,07,037,26,1*71
$GAGSV,2,1,07,09,75,125,27,31,64,112,26,06,50,123,23,05,47,300,23,7*7F
$GAGSV,2,2,07,24,35,188,22,04,24,122,20,15,09,327,18,7*46
$GBGSV,2,1,08,37,75,214,36,20,65,274,37,23,47,061,34,32,41,167,31,1*79
$GBGSV,2,2,08,19,23,315,31,38,15,332,23,08,10,342,19,12,03,012,18,1*70
$GNRMC,193552.000,A,4910.427262,N,12304.398288,W,0.01,37.44,051224,,,D,V*2E
$GNVTG,37.44,T,,M,0.01,N,0.02,K,D*11
$PAIRLOG,Full*51
$GNGGA,193553.000,4910.427250,N,12304.398318,W,2,26,0.57,6.111,M,-16.816,M,,*49
$GNGLL,4910.427250,N,12304.398318,W,193553.000,A,D*5E
$GNGSA,A,3,09,07,04,16,30,20,27,08,,,,,0.97,0.57,0.78,1*03
$GNGSA,A,3,69,79,78,68,80,86,,,,,,,0.97,0.57,0.78,2*07
$GNGSA,A,3,09,31,06,05,24,04,,,,,,,0.97,0.57,0.78,3*0A
$GNGSA,A,3,37,20,23,32,19,38,,,,,,,0.97,0.57,0.78,4*02
$GPGSV,3,1,10,09,75,141,31,07,68,270,31,04,44,125,28,16,32,051,28,1*64
$GPGSV,3,2,10,30,31,260,25,20,27,306,25,27,22,091,25,08,16,125,24,1*66
$GPGSV,3,3,10,26,04,043,15,50,,,,1*53
$GLGSV,2,1,08,69,76,310,40,79,67,222,39,78,55,042,29,68,48,148,34,1*76
$GLGSV,2,2,08,80,13,222,30,70,11,323,,86,09,353,27,87,07,037,26,1*71
$GAGSV,2,1,07,09,75,125,27,31,64,112,26,06,50,123,24,05,47,300,23,7*78
$GAGSV,2,2,07,24,35,188,23,04,24,122,21,15,09,327,18,7*46
$GBGSV,2,1,08,37,75,214,36,20,65,274,37,23,47,061,34,32,41,167,31,1*79
$GBGSV,2,2,08,19,23,315,31,38,15,332,23,08,10,342,19,12,03,012,18,1*70
$GNRMC,193553.000,A,4910.427250,N,12304.398318,W,0.01,37.44,051224,,,D,V*26
$GNVTG,37.44,T,,M,0.01,N,0.03,K,D*10
$PAIRLOG,Full*51
$GNGGA,193554.000,4910.427220,N,12304.398306,W,2,26,0.57,6.095,M,-16.817,M,,*4A
$GNGLL,4910.427220,N,12304.398306,W,193554.000,A,D*51
$GNGSA,A,3,09,07,04,16,30,20,27,08,,,,,0.97,0.57,0.78,1*03
$GNGSA,A,3,69,79,78,68,80,86,,,,,,,0.97,0.57,0.78,2*07
$GNGSA,A,3,09,31,06,05,24,04,,,,,,,0.97,0.57,0.78,3*0A
$GNGSA,A,3,37,20,23,32,19,38,,,,,,,0.97,0.57,0.78,4*02
$GPGSV,3,1,10,09,75,141,31,07,68,270,31,04,44,125,28,16,32,051,28,1*64
$GPGSV,3,2,10,30,31,260,24,20,27,306,24,27,22,091,23,08,16,125,22,1*66
$GPGSV,3,3,10,26,04,043,12,50,,,,1*54
$GLGSV,2,1,08,69,76,310,40,79,67,222,39,78,55,042,29,68,48,148,34,1*76
$GLGSV,2,2,08,80,13,222,30,70,11,323,,86,09,353,26,87,07,037,25,1*73
$GAGSV,2,1,07,09,75,125,26,31,64,112,26,06,50,123,24,05,47,300,23,7*79
$GAGSV,2,2,07,24,35,188,23,04,24,122,21,15,09,327,18,7*46
$GBGSV,2,1,08,37,75,214,36,20,65,274,37,23,47,061,34,32,41,167,31,1*79
$GBGSV,2,2,08,19,23,315,31,38,15,332,23,08,10,342,19,12,03,012,19,1*71
$GNRMC,193554.000,A,4910.427220,N,12304.398306,W,0.01,37.44,051224,,,D,V*29
$GNVTG,37.44,T,,M,0.01,N,0.03,K,D*10
$PAIRLOG,Full*51
$GNGGA,193555.000,4910.427178,N,12304.398282,W,2,26,0.57,6.060,M,-16.817,M,,*42
$GNGLL,4910.427178,N,12304.398282,W,193555.000,A,D*53
$GNGSA,A,3,09,07,04,16,30,20,27,08,,,,,0.97,0.57,0.78,1*03
$GNGSA,A,3,69,79,78,68,80,86,,,,,,,0.97,0.57,0.78,2*07
$GNGSA,A,3,09,31,06,05,24,04,,,,,,,0.97,0.57,0.78,3*0A
$GNGSA,A,3,37,20,23,32,19,38,,,,,,,0.97,0.57,0.78,4*02
$GPGSV,3,1,12,09,75,141,30,07,68,270,30,04,44,125,27,16,32,051,27,1*66
$GPGSV,3,2,12,30,31,260,23,20,27,306,23,27,22,091,22,08,16,125,21,1*66
$GPGSV,3,3,12,05,07,331,,11,04,283,,26,04,043,13,50,,,,1*59
$GLGSV,2,1,08,69,76,310,39,79,67,222,39,78,55,042,29,68,48,148,34,1*78
$GLGSV,2,2,08,80,13,222,30,70,11,323,,86,09,353,26,87,07,037,25,1*73
$GAGSV,2,1,08,09,75,125,25,31,64,112,25,06,50,123,23,05,47,300,22,7*70
$GAGSV,2,2,08,24,35,188,22,04,24,122,20,15,09,327,18,34,08,279,,7*7A
$GBGSV,4,1,15,37,75,214,36,20,65,274,37,58,59,245,,23,47,061,34,1*77
$GBGSV,4,2,15,32,41,167,31,19,23,315,31,46,20,232,,38,15,332,23,1*71
$GBGSV,4,3,15,08,10,342,19,31,09,337,,34,05,038,,11,03,060,,1*71
$GBGSV,4,4,15,12,03,012,19,43,02,080,,13,01,346,,1*46
$GNRMC,193555.000,A,4910.427178,N,12304.398282,W,0.01,37.44,051224,,,D,V*2B
$GNVTG,37.44,T,,M,0.01,N,0.02,K,D*11
$PAIRLOG,Full*51
$GNGGA,193556.000,4910.427208,N,12304.398396,W,2,27,0.57,6.024,M,-16.816,M,,*41
$GNGLL,4910.427208,N,12304.398396,W,193556.000,A,D*50
$GNGSA,A,3,09,07,04,16,30,20,27,08,05,,,,0.93,0.57,0.74,1*0E
$GNGSA,A,3,69,79,78,68,80,86,,,,,,,0.93,0.57,0.74,2*0F
$GNGSA,A,3,09,31,06,05,24,04,,,,,,,0.93,0.57,0.74,3*02
$GNGSA,A,3,37,20,23,32,19,38,,,,,,,0.93,0.57,0.74,4*0A
$GPGSV,3,1,12,09,75,141,30,07,68,270,30,04,44,125,27,16,32,051,27,1*66
$GPGSV,3,2,12,30,31,260,24,20,27,306,23,27,22,091,22,08,16,125,22,1*62
$GPGSV,3,3,12,05,07,331,22,11,04,283,,26,04,043,15,50,,,,1*5F
$GLGSV,2,1,08,69,76,310,39,79,67,222,39,78,55,042,29,68,48,148,34,1*78
$GLGSV,2,2,08,80,13,222,30,70,11,323,,86,09,353,26,87,07,037,25,1*73
$GAGSV,2,1,08,09,75,125,25,31,64,112,25,06,50,123,23,05,47,300,22,7*70
$GAGSV,2,2,08,24,35,188,21,04,24,122,20,15,09,327,18,34,08,279,,7*79
$GBGSV,4,1,15,37,75,214,36,20,65,274,37,58,59,245,,23,47,061,34,1*77
$GBGSV,4,2,15,32,41,167,31,19,23,315,31,46,20,232,,38,15,332,23,1*71
$GBGSV,4,3,15,08,10,342,19,31,09,337,,34,05,038,,11,03,060,,1*71
$GBGSV,4,4,15,12,03,012,19,43,02,080,,13,01,346,,1*46
$GNRMC,193556.000,A,4910.427208,N,12304.398396,W,0.02,37.44,051224,,,D,V*2B
$GNVTG,37.44,T,,M,0.02,N,0.03,K,D*13
$PAIRLOG,Full*51
$GNGGA,193557.000,4910.427172,N,12304.398474,W,2,28,0.54,5.976,M,-16.817,M,,*45
$GNGLL,4910.427172,N,12304.398474,W,193557.000,A,D*54
$GNGSA,A,3,09,07,04,16,30,20,27,08,05,,,,0.90,0.54,0.72,1*08
$GNGSA,A,3,69,79,78,68,80,86,,,,,,,0.90,0.54,0.72,2*09
$GNGSA,A,3,09,31,06,05,24,04,,,,,,,0.90,0.54,0.72,3*04
$GNGSA,A,3,37,20,23,32,19,38,34,,,,,,0.90,0.54,0.72,4*0B
$GPGSV,3,1,11,09,75,141,30,07,68,270,30,04,44,125,27,16,32,051,27,1*65
$GPGSV,3,2,11,30,31,260,25,20,27,306,23,27,22,091,24,08,16,125,22,1*66
$GPGSV,3,3,11,05,07,331,22,26,04,043,15,11,04,283,,1*59
$GLGSV,2,1,08,69,76,310,39,79,67,222,39,78,55,042,29,68,48,148,34,1*78
$GLGSV,2,2,08,80,13,222,30,70,11,323,,86,09,353,25,87,,,25,1*43
$GAGSV,2,1,08,09,75,125,25,31,64,110,25,06,50,123,22,05,47,300,21,7*70
$GAGSV,2,2,08,24,35,188,21,04,24,122,20,15,09,327,18,34,08,279,,7*79
$GBGSV,4,1,15,37,75,214,36,20,65,274,37,58,59,245,,23,47,061,34,1*77
$GBGSV,4,2,15,32,41,167,31,19,23,315,31,46,20,232,,38,15,332,23,1*71
$GBGSV,4,3,15,08,10,342,18,31,09,337,,34,05,038,22,12,03,012,19,1*7E
$GBGSV,4,4,15,11,03,060,,43,02,080,,13,01,346,,1*48
$GNRMC,193557.000,A,4910.427172,N,12304.398474,W,0.02,37.44,051224,,,D,V*2F
$GNVTG,37.44,T,,M,0.02,N,0.04,K,D*14
$PAIRLOG,Full*51
$GNGGA,193558.000,4910.427184,N,12304.398492,W,2,26,0.57,5.918,M,-16.816,M,,*4F
