$GNGGA,202608.000,4910.426800,N,12304.401978,W,2,24,0.54,2.937,M,-16.816,M,,*43
$GNGLL,4910.426800,N,12304.401978,W,202608.000,A,D*5D
$GNGSA,A,3,03,04,31,26,09,16,06,28,,,,,1.00,0.54,0.84,1*0E
$GNGSA,A,3,72,73,,,,,,,,,,,1.00,0.54,0.84,2*0F
$GNGSA,A,3,03,05,15,24,13,25,31,34,,,,,1.00,0.54,0.84,3*0B
$GNGSA,A,3,19,20,37,22,36,44,,,,,,,1.00,0.54,0.84,4*03
$GPGSV,3,1,11,03,71,185,38,04,64,289,35,31,50,061,34,26,39,096,32,1*60
$GPGSV,3,2,11,46,33,188,31,09,31,280,29,16,25,134,30,06,24,309,27,1*64
$GPGSV,3,3,11,28,18,052,28,07,04,225,27,02,03,203,19,1*51
$GLGSV,2,1,07,72,65,071,24,74,60,086,,65,42,310,,75,35,169,,1*7C
$GLGSV,2,2,07,73,28,036,19,88,20,274,,71,19,104,,1*44
$GAGSV,3,1,09,03,71,294,33,05,50,081,31,15,36,251,27,24,34,081,27,7*76
$GAGSV,3,2,09,13,26,312,25,25,24,140,24,08,20,274,21,31,13,032,24,7*77
$GAGSV,3,3,09,34,12,202,23,7*4F
$GBGSV,3,1,12,19,85,318,34,46,58,141,,20,42,117,33,37,36,056,28,1*7F
$GBGSV,3,2,12,22,29,300,30,36,21,192,27,12,11,318,22,44,08,294,26,1*7C
$GBGSV,3,3,12,31,06,328,,34,03,343,26,35,02,252,,04,01,261,,1*7D
$GNRMC,202608.000,A,4910.426800,N,12304.401978,W,0.02,348.30,151024,,,D,V*1D
$GNVTG,348.30,T,,M,0.02,N,0.03,K,D*2B
$GNGGA,202609.000,4910.426794,N,12304.402110,W,2,24,0.54,2.851,M,-16.816,M,,*44
$GNGLL,4910.426794,N,12304.402110,W,202609.000,A,D*5B
$GNGSA,A,3,03,04,31,26,09,16,06,28,,,,,1.00,0.54,0.84,1*0E
$GNGSA,A,3,72,73,,,,,,,,,,,1.00,0.54,0.84,2*0F
$GNGSA,A,3,03,05,15,24,13,25,31,34,,,,,1.00,0.54,0.84,3*0B
$GNGSA,A,3,19,20,37,22,36,44,,,,,,,1.00,0.54,0.84,4*03
$GPGSV,3,1,11,03,71,185,38,04,64,289,35,31,50,061,34,26,39,096,32,1*60
$GPGSV,3,2,11,46,33,188,31,09,31,280,29,16,25,134,30,06,24,309,27,1*64
$GPGSV,3,3,11,28,18,052,28,07,04,225,27,02,03,203,18,1*50
$GLGSV,1,1,04,72,65,071,24,74,60,086,,65,42,310,,73,28,036,19,1*75
$GAGSV,3,1,09,03,71,294,33,05,50,081,31,15,36,251,26,24,34,081,27,7*77
$GAGSV,3,2,09,13,26,312,25,25,24,140,24,08,20,274,21,31,13,032,23,7*70
$GAGSV,3,3,09,34,12,202,23,7*4F
$GBGSV,3,1,12,19,85,318,34,46,58,141,,20,42,117,33,37,36,056,28,1*7F
$GBGSV,3,2,12,22,29,300,30,36,21,192,27,12,11,318,23,44,08,294,26,1*7D
$GBGSV,3,3,12,31,06,328,,34,03,343,26,35,02,252,,04,01,261,,1*7D
$GNRMC,202609.000,A,4910.426794,N,12304.402110,W,0.02,348.30,151024,,,D,V*1B
$GNVTG,348.30,T,,M,0.02,N,0.03,K,D*2B
$GNGGA,202610.000,4910.426860,N,12304.402272,W,2,24,0.54,2.817,M,-16.817,M,,*4C
$GNGLL,4910.426860,N,12304.402272,W,202610.000,A,D*50
$GNGSA,A,3,03,04,31,26,09,16,06,28,,,,,1.00,0.54,0.84,1*0E
$GNGSA,A,3,72,73,,,,,,,,,,,1.00,0.54,0.84,2*0F
$GNGSA,A,3,03,05,15,24,13,25,31,34,,,,,1.00,0.54,0.84,3*0B
$GNGSA,A,3,19,20,37,22,36,44,,,,,,,1.00,0.54,0.84,4*03
$GPGSV,3,1,11,03,71,185,38,04,64,289,35,31,50,061,34,26,39,096,32,1*60
$GPGSV,3,2,11,46,33,188,31,09,31,280,29,16,25,134,30,06,24,309,27,1*64
$GPGSV,3,3,11,28,18,052,28,07,04,225,26,02,03,203,18,1*51
$GLGSV,2,1,06,72,65,071,25,74,60,086,,75,35,169,,73,28,036,19,1*78
$GLGSV,2,2,06,88,20,274,,71,19,104,,1*76
$GAGSV,3,1,09,03,71,294,33,05,50,081,31,15,36,251,26,24,34,081,27,7*77
$GAGSV,3,2,09,13,26,312,25,25,24,140,24,08,20,274,21,31,13,032,23,7*70
$GAGSV,3,3,09,34,12,202,23,7*4F
$GBGSV,3,1,12,19,85,318,34,46,58,141,,20,42,117,34,37,36,056,28,1*78
$GBGSV,3,2,12,22,29,300,30,36,21,192,27,12,11,318,23,44,08,294,26,1*7D
$GBGSV,3,3,12,31,06,328,,34,03,343,26,35,02,252,,04,01,261,,1*7D
$GNRMC,202610.000,A,4910.426860,N,12304.402272,W,0.02,348.30,151024,,,D,V*10
$GNVTG,348.30,T,,M,0.02,N,0.04,K,D*2C
$GNGGA,202611.000,4910.426794,N,12304.402332,W,2,24,0.54,2.867,M,-16.816,M,,*4A
$GNGLL,4910.426794,N,12304.402332,W,202611.000,A,D*50
$GNGSA,A,3,03,04,31,26,09,16,06,28,,,,,1.00,0.54,0.84,1*0E
$GNGSA,A,3,72,73,,,,,,,,,,,1.00,0.54,0.84,2*0F
$GNGSA,A,3,03,05,15,24,13,25,31,34,,,,,1.00,0.54,0.84,3*0B
$GNGSA,A,3,19,20,37,22,36,44,,,,,,,1.00,0.54,0.84,4*03
$GPGSV,3,1,11,03,71,185,38,04,64,289,35,31,50,061,34,26,39,096,32,1*60
$GPGSV,3,2,11,46,33,188,31,09,31,280,29,16,25,134,30,06,24,309,27,1*64
$GPGSV,3,3,11,28,18,052,28,07,04,225,26,02,03,203,18,1*51
$GLGSV,2,1,07,72,65,071,25,74,60,086,,65,42,310,,75,35,169,,1*7D
$GLGSV,2,2,07,73,28,036,18,88,20,274,,71,19,104,,1*45
$GAGSV,3,1,09,03,71,294,33,05,50,081,31,15,36,251,26,24,34,081,27,7*77
$GAGSV,3,2,09,13,26,312,25,25,24,140,24,08,20,274,21,31,13,032,23,7*70
$GAGSV,3,3,09,34,12,202,23,7*4F
$GBGSV,3,1,12,19,85,318,35,46,58,141,,20,42,117,34,37,36,056,28,1*79
$GBGSV,3,2,12,22,29,300,31,36,21,192,27,12,11,318,23,44,08,294,26,1*7C
$GBGSV,3,3,12,31,06,328,,34,03,343,26,35,02,252,,04,01,261,,1*7D
$GNRMC,202611.000,A,4910.426794,N,12304.402332,W,0.02,348.30,151024,,,D,V*10
$GNVTG,348.30,T,,M,0.02,N,0.04,K,D*2C
$GNGGA,202612.000,4910.426836,N,12304.402506,W,2,24,0.54,2.835,M,-16.816,M,,*48
$GNGLL,4910.426836,N,12304.402506,W,202612.000,A,D*55
$GNGSA,A,3,03,04,31,26,09,16,06,28,,,,,1.00,0.54,0.84,1*0E
$GNGSA,A,3,72,73,,,,,,,,,,,1.00,0.54,0.84,2*0F
$GNGSA,A,3,03,05,15,24,13,25,31,34,,,,,1.00,0.54,0.84,3*0B
$GNGSA,A,3,19,20,37,22,36,44,,,,,,,1.00,0.54,0.84,4*03
$GPGSV,3,1,11,03,71,185,38,04,64,289,35,31,50,061,34,26,39,096,32,1*60
$GPGSV,3,2,11,46,33,188,31,09,31,280,29,16,25,134,30,06,24,309,28,1*6B
$GPGSV,3,3,11,28,18,052,27,07,04,225,26,02,03,203,18,1*5E
$GLGSV,2,1,07,72,65,071,27,74,60,086,,65,42,310,,75,35,169,,1*7F
$GLGSV,2,2,07,73,28,036,17,88,20,274,,71,19,104,,1*4A
$GAGSV,3,1,09,03,71,294,33,05,50,081,31,15,36,251,26,24,34,081,27,7*77
$GAGSV,3,2,09,13,26,312,25,25,24,140,24,08,20,274,21,31,13,032,23,7*70
$GAGSV,3,3,09,34,12,202,23,7*4F
$GBGSV,3,1,12,19,85,318,34,46,58,141,,20,42,117,34,37,36,056,28,1*78
$GBGSV,3,2,12,22,29,300,30,36,21,192,27,12,11,318,23,44,08,294,26,1*7D
$GBGSV,3,3,12,31,06,328,,34,03,343,26,35,02,252,,04,01,261,,1*7D
$GNRMC,202612.000,A,4910.426836,N,12304.402506,W,0.02,348.30,151024,,,D,V*15
$GNVTG,348.30,T,,M,0.02,N,0.04,K,D*2C
$GNGGA,202613.000,4910.426890,N,12304.402638,W,2,24,0.54,2.816,M,-16.816,M,,*4A
$GNGLL,4910.426890,N,12304.402638,W,202613.000,A,D*56
$GNGSA,A,3,03,04,31,26,09,16,06,28,,,,,1.00,0.54,0.84,1*0E
$GNGSA,A,3,72,73,,,,,,,,,,,1.00,0.54,0.84,2*0F
$GNGSA,A,3,03,05,15,24,13,25,31,34,,,,,1.00,0.54,0.84,3*0B
$GNGSA,A,3,19,20,37,22,36,44,,,,,,,1.00,0.54,0.84,4*03
$GPGSV,3,1,11,03,71,185,38,04,64,289,35,31,50,061,34,26,39,096,32,1*60
$GPGSV,3,2,11,46,33,188,31,09,31,280,29,16,25,134,30,06,24,309,28,1*6B
$GPGSV,3,3,11,28,18,052,27,07,04,225,26,02,03,203,18,1*5E
$GLGSV,2,1,06,72,65,071,26,74,60,086,,65,42,310,,75,35,169,,1*7F
$GLGSV,2,2,06,73,28,036,17,88,20,274,,1*70
$GAGSV,3,1,09,03,71,294,33,05,50,081,31,15,36,251,26,24,34,081,28,7*78
$GAGSV,3,2,09,13,26,312,25,25,24,140,24,08,20,274,21,31,13,032,23,7*70
$GAGSV,3,3,09,34,12,202,23,7*4F
$GBGSV,3,1,12,19,85,318,34,46,58,141,,20,42,117,34,37,36,056,28,1*78
$GBGSV,3,2,12,22,29,300,30,36,21,192,27,12,11,318,22,44,08,294,26,1*7C
$GBGSV,3,3,12,31,06,328,,34,03,343,26,35,02,252,,04,01,261,,1*7D
$GNRMC,202613.000,A,4910.426890,N,12304.402638,W,0.02,348.30,151024,,,D,V*16
$GNVTG,348.30,T,,M,0.02,N,0.04,K,D*2C
$GNGGA,202614.000,4910.426914,N,12304.402776,W,2,24,0.54,2.864,M,-16.816,M,,*4E
$GNGLL,4910.426914,N,12304.402776,W,202614.000,A,D*57
$GNGSA,A,3,03,04,31,26,09,16,06,28,,,,,1.00,0.54,0.84,1*0E
$GNGSA,A,3,72,73,,,,,,,,,,,1.00,0.54,0.84,2*0F
$GNGSA,A,3,03,05,15,24,13,25,31,34,,,,,1.00,0.54,0.84,3*0B
$GNGSA,A,3,19,20,37,22,36,44,,,,,,,1.00,0.54,0.84,4*03
$GPGSV,3,1,11,03,71,185,38,04,64,289,35,31,50,061,34,26,39,096,32,1*60
$GPGSV,3,2,11,46,33,188,31,09,31,280,29,16,25,134,30,06,24,309,28,1*6B
$GPGSV,3,3,11,28,18,052,27,07,04,225,26,02,03,203,18,1*5E
$GLGSV,1,1,04,72,65,071,27,65,42,310,,73,28,036,17,71,19,104,,1*78
$GAGSV,3,1,09,03,71,294,33,05,50,081,31,15,36,251,26,24,34,081,28,7*78
$GAGSV,3,2,09,13,26,312,25,25,24,140,24,08,20,274,21,31,13,032,23,7*70
$GAGSV,3,3,09,34,12,202,23,7*4F
$GBGSV,3,1,12,19,85,318,34,46,58,141,,20,42,117,34,37,36,056,28,1*78
$GBGSV,3,2,12,22,29,300,30,36,21,192,27,12,11,318,22,44,08,294,26,1*7C
$GBGSV,3,3,12,31,06,328,,34,03,343,26,35,02,252,,04,01,261,,1*7D
$GNRMC,202614.000,A,4910.426914,N,12304.402776,W,0.02,348.30,151024,,,D,V*17
$GNVTG,348.30,T,,M,0.02,N,0.04,K,D*2C
$GNGGA,202615.000,4910.426956,N,12304.402920,W,2,24,0.54,2.887,M,-16.816,M,,*49
$GNGLL,4910.426956,N,12304.402920,W,202615.000,A,D*5D
$GNGSA,A,3,03,04,31,26,09,16,06,28,,,,,1.00,0.54,0.84,1*0E
$GNGSA,A,3,72,73,,,,,,,,,,,1.00,0.54,0.84,2*0F
$GNGSA,A,3,03,05,15,24,13,25,31,34,,,,,1.00,0.54,0.84,3*0B
$GNGSA,A,3,19,20,37,22,36,44,,,,,,,1.00,0.54,0.84,4*03
$GPGSV,3,1,11,03,71,185,38,04,64,289,35,31,50,061,34,26,39,096,32,1*60
$GPGSV,3,2,11,46,33,188,31,09,31,280,29,16,25,134,30,06,24,309,28,1*6B
$GPGSV,3,3,11,28,18,052,26,07,04,225,26,02,03,203,18,1*5F
$GLGSV,2,1,06,72,65,071,26,74,60,086,,75,35,169,,73,28,036,17,1*75
$GLGSV,2,2,06,88,20,274,,71,19,104,,1*76
$GAGSV,3,1,09,03,71,294,33,05,50,081,31,15,36,251,26,24,34,081,28,7*78
$GAGSV,3,2,09,13,26,312,25,25,24,140,24,08,20,274,21,31,13,032,24,7*77
$GAGSV,3,3,09,34,12,202,23,7*4F
$GBGSV,3,1,12,19,85,318,34,46,58,141,,20,42,117,34,37,36,056,28,1*78
$GBGSV,3,2,12,22,29,300,30,36,21,192,27,12,11,318,22,44,08,294,26,1*7C
$GBGSV,3,3,12,31,06,328,,34,03,343,26,35,02,252,,04,01,261,,1*7D
$GNRMC,202615.000,A,4910.426956,N,12304.402920,W,0.02,348.30,151024,,,D,V*1D
$GNVTG,348.30,T,,M,0.02,N,0.04,K,D*2C
$GNGGA,202616.000,4910.427010,N,12304.402986,W,2,24,0.54,2.925,M,-16.816,M,,*45
$GNGLL,4910.427010,N,12304.402986,W,202616.000,A,D*58
$GNGSA,A,3,03,04,31,26,09,16,06,28,,,,,1.00,0.54,0.84,1*0E
$GNGSA,A,3,72,73,,,,,,,,,,,1.00,0.54,0.84,2*0F
$GNGSA,A,3,03,05,15,24,13,25,31,34,,,,,1.00,0.54,0.84,3*0B
$GNGSA,A,3,19,20,37,22,36,44,,,,,,,1.00,0.54,0.84,4*03
$GPGSV,3,1,11,03,71,185,38,04,64,289,35,31,50,061,34,26,39,096,31,1*63
$GPGSV,3,2,11,46,33,188,31,09,31,280,29,16,25,134,30,06,24,309,28,1*6B
$GPGSV,3,3,11,28,18,052,26,07,04,225,26,02,03,203,19,1*5E
$GLGSV,2,1,06,72,65,071,28,74,60,086,,65,42,310,,75,35,169,,1*71
$GLGSV,2,2,06,73,28,036,17,88,20,274,,1*70
$GAGSV,3,1,09,03,71,294,33,05,50,081,31,15,36,251,26,24,34,081,28,7*78
$GAGSV,3,2,09,13,26,312,25,25,24,140,24,08,20,274,21,31,13,032,24,7*77
$GAGSV,3,3,09,34,12,202,23,7*4F
$GBGSV,3,1,12,19,85,318,34,46,58,141,,20,42,117,33,37,36,056,28,1*7F
$GBGSV,3,2,12,22,29,300,30,36,21,192,27,12,11,318,22,44,08,294,25,1*7F
$GBGSV,3,3,12,31,06,328,,34,03,343,26,35,02,252,,04,01,261,,1*7D
$GNRMC,202616.000,A,4910.427010,N,12304.402986,W,0.03,348.30,151024,,,D,V*19
$GNVTG,348.30,T,,M,0.03,N,0.05,K,D*2C
$GNGGA,202617.000,4910.427058,N,12304.403028,W,2,24,0.54,2.945,M,-16.816,M,,*42
$GNGLL,4910.427058,N,12304.403028,W,202617.000,A,D*59
$GNGSA,A,3,03,04,31,26,09,16,06,28,,,,,1.00,0.54,0.84,1*0E
$GNGSA,A,3,72,73,,,,,,,,,,,1.00,0.54,0.84,2*0F
$GNGSA,A,3,03,05,15,24,13,25,31,34,,,,,1.00,0.54,0.84,3*0B
$GNGSA,A,3,19,20,37,22,36,44,,,,,,,1.00,0.54,0.84,4*03
$GPGSV,3,1,11,03,71,185,38,04,64,289,35,31,50,061,34,26,39,096,31,1*63
$GPGSV,3,2,11,46,33,188,31,09,31,280,29,16,25,134,30,06,24,309,28,1*6B
$GPGSV,3,3,11,28,18,052,26,07,04,225,26,02,03,203,19,1*5E
$GLGSV,2,1,07,72,65,071,25,74,60,086,,65,42,310,,75,35,169,,1*7D
$GLGSV,2,2,07,73,28,036,18,88,20,274,,71,19,104,,1*45
$GAGSV,3,1,09,03,71,294,33,05,50,081,31,15,36,251,26,24,34,081,28,7*78
$GAGSV,3,2,09,13,26,312,25,25,24,140,24,08,20,274,21,31,13,032,23,7*70
$GAGSV,3,3,09,34,12,202,23,7*4F
$GBGSV,3,1,12,19,85,318,34,46,58,141,,20,42,117,33,37,36,056,28,1*7F
$GBGSV,3,2,12,22,29,300,30,36,21,192,27,12,11,318,23,44,08,294,25,1*7E
$GBGSV,3,3,12,31,06,328,,34,03,343,26,35,02,252,,04,01,261,,1*7D
$GNRMC,202617.000,A,4910.427058,N,12304.403028,W,0.02,348.30,151024,,,D,V*19
$GNVTG,348.30,T,,M,0.02,N,0.04,K,D*2C
$GNGGA,202618.000,4910.426992,N,12304.403010,W,2,24,0.54,3.017,M,-16.816,M,,*47
