$GNGGA,202608.000,4910.426835,N,12304.402454,W,1,24,0.68,8.658,M,-16.817,M,,*44
$GNRMC,202608.000,A,4910.426835,N,12304.402454,W,0.004,126.46,151024,,,A,V*23
$GNGLL,4910.426835,N,12304.402454,W,202608.000,A,A*5E
$GNVTG,126.46,T,,M,0.004,N,0.008,K,A*28
$GNGSA,A,3,03,04,06,09,16,26,28,31,,,,,1.18,0.68,0.97,1*0A
$GNGSA,A,3,72,,,,,,,,,,,,1.18,0.68,0.97,2*0F
$GNGSA,A,3,03,05,13,15,24,25,31,34,,,,,1.18,0.68,0.97,3*0F
$GNGSA,A,3,12,19,20,22,36,37,44,,,,,,1.18,0.68,0.97,4*04
$GNGSA,A,3,,,,,,,,,,,,,1.18,0.68,0.97,5*0D
$GPGSV,3,1,11,02,02,202,14,03,71,184,33,04,64,289,29,06,24,309,20,1*6D
$GPGSV,3,2,11,07,,,22,09,31,279,23,16,24,134,26,26,39,095,28,1*5F
$GPGSV,3,3,11,28,17,052,22,31,50,060,31,44,33,172,27,1*5D
$GPGSV,2,1,06,03,71,184,25,04,64,289,26,06,24,309,18,09,31,279,21,8*61
$GPGSV,2,2,06,26,39,095,20,28,17,052,17,8*66
$GLGSV,1,1,02,65,,,20,72,65,071,24,1*4D
$GAGSV,2,1,08,03,71,293,29,05,50,080,24,13,25,312,22,15,35,250,23,7*71
$GAGSV,2,2,08,24,34,081,25,25,24,140,22,31,12,031,20,34,11,201,19,7*7D
$GAGSV,2,1,06,03,71,293,22,05,50,080,22,13,25,312,17,15,35,250,20,1*71
$GAGSV,2,2,06,24,34,081,17,34,11,201,16,1*7E
$GBGSV,2,1,08,12,10,317,25,19,84,317,39,20,42,116,37,22,29,299,34,1*7E
$GBGSV,2,2,08,34,03,343,30,36,20,192,31,37,36,055,31,44,08,294,31,1*74
$GBGSV,1,1,04,19,84,317,23,20,42,116,22,22,29,299,20,37,36,055,20,5*7C
$GQGSV,1,1,00,1*65
$GQGSV,1,1,00,8*6C
$GNGGA,202609.000,4910.426835,N,12304.402455,W,1,24,0.53,8.660,M,-16.817,M,,*47
$GNRMC,202609.000,A,4910.426835,N,12304.402455,W,0.007,126.46,151024,,,A,V*20
$GNGLL,4910.426835,N,12304.402455,W,202609.000,A,A*5E
$GNVTG,126.46,T,,M,0.007,N,0.012,K,A*20
$GNGSA,A,3,03,04,06,09,16,26,28,31,,,,,0.98,0.53,0.82,1*0F
$GNGSA,A,3,72,,,,,,,,,,,,0.98,0.53,0.82,2*0A
$GNGSA,A,3,03,05,13,15,24,25,31,34,,,,,0.98,0.53,0.82,3*0A
$GNGSA,A,3,12,19,20,22,36,37,44,,,,,,0.98,0.53,0.82,4*01
$GNGSA,A,3,,,,,,,,,,,,,0.98,0.53,0.82,5*08
$GPGSV,3,1,11,02,02,202,15,03,71,184,33,04,64,289,29,06,24,309,20,1*6C
$GPGSV,3,2,11,07,,,21,09,31,279,25,16,24,134,26,26,39,095,29,1*5B
$GPGSV,3,3,11,28,17,052,23,31,50,060,32,44,33,172,27,1*5F
$GPGSV,2,1,06,03,71,184,26,04,64,289,24,06,24,309,18,09,31,279,21,8*60
$GPGSV,2,2,06,26,39,095,22,28,17,052,17,8*64
$GLGSV,1,1,02,65,,,20,72,65,071,25,1*4C
$GAGSV,2,1,08,03,71,293,29,05,50,080,25,13,25,312,22,15,35,250,23,7*70
$GAGSV,2,2,08,24,34,081,25,25,24,140,21,31,12,031,20,34,11,201,20,7*74
$GAGSV,2,1,06,03,71,293,22,05,50,080,21,13,25,312,18,15,35,250,20,1*7D
$GAGSV,2,2,06,24,34,081,18,34,11,201,15,1*72
$GBGSV,3,1,09,12,10,317,26,19,84,317,40,20,42,116,38,22,29,299,35,1*7D
$GBGSV,3,2,09,34,03,343,30,35,01,252,14,36,20,192,32,37,36,055,32,1*76
$GBGSV,3,3,09,44,08,294,31,1*4A
$GBGSV,1,1,04,19,84,317,22,20,42,116,23,22,29,299,20,37,36,055,21,5*7D
$GQGSV,1,1,00,1*65
$GQGSV,1,1,00,8*6C
$PAIR010,0,1,2336,246387*32
$GNGGA,202610.000,4910.426836,N,12304.402453,W,1,24,0.58,8.660,M,-16.817,M,,*41
$GNRMC,202610.000,A,4910.426836,N,12304.402453,W,0.019,126.46,151024,,,A,V*22
$GNGLL,4910.426836,N,12304.402453,W,202610.000,A,A*53
$GNVTG,126.46,T,,M,0.019,N,0.036,K,A*29
$GNGSA,A,3,03,04,06,09,16,26,28,31,,,,,1.01,0.58,0.83,1*04
$GNGSA,A,3,72,,,,,,,,,,,,1.01,0.58,0.83,2*01
$GNGSA,A,3,03,05,13,15,24,25,31,34,,,,,1.01,0.58,0.83,3*01
$GNGSA,A,3,12,19,20,22,36,37,44,,,,,,1.01,0.58,0.83,4*0A
$GNGSA,A,3,,,,,,,,,,,,,1.01,0.58,0.83,5*03
$GPGSV,3,1,11,02,02,202,16,03,71,184,34,04,64,289,29,06,24,309,21,1*69
$GPGSV,3,2,11,07,,,21,09,31,279,24,16,24,134,25,26,39,095,29,1*59
$GPGSV,3,3,11,28,17,052,22,31,50,060,30,44,33,172,27,1*5C
$GPGSV,2,1,06,03,71,184,26,04,64,289,27,06,24,309,19,09,31,279,23,8*60
$GPGSV,2,2,06,26,39,095,23,28,17,052,17,8*65
$GLGSV,1,1,02,65,,,18,72,65,071,25,1*47
$GAGSV,2,1,08,03,71,293,30,05,50,080,26,13,25,312,22,15,35,250,24,7*7C
$GAGSV,2,2,08,24,34,081,26,25,24,140,24,31,12,031,22,34,11,201,20,7*70
$GAGSV,2,1,06,03,71,293,24,05,50,080,22,13,25,312,18,15,35,250,22,1*7A
$GAGSV,2,2,06,24,34,081,20,34,11,201,16,1*7A
$GBGSV,3,1,09,12,10,317,26,19,84,317,39,20,42,116,37,22,29,299,34,1*7D
$GBGSV,3,2,09,34,03,343,30,35,01,252,16,36,20,192,31,37,36,055,32,1*77
$GBGSV,3,3,09,44,08,294,31,1*4A
$GBGSV,1,1,04,19,84,317,24,20,42,116,24,22,29,299,19,37,36,055,22,5*75
$GQGSV,1,1,00,1*65
$GQGSV,1,1,00,8*6C
$GNGGA,202611.000,4910.426837,N,12304.402454,W,1,24,0.53,8.663,M,-16.817,M,,*4E
$GNRMC,202611.000,A,4910.426837,N,12304.402454,W,0.008,126.46,151024,,,A,V*25
$GNGLL,4910.426837,N,12304.402454,W,202611.000,A,A*54
$GNVTG,126.46,T,,M,0.008,N,0.014,K,A*29
$GNGSA,A,3,03,04,06,09,16,26,28,31,,,,,0.96,0.53,0.80,1*03
$GNGSA,A,3,72,,,,,,,,,,,,0.96,0.53,0.80,2*06
$GNGSA,A,3,03,05,13,15,24,25,31,34,,,,,0.96,0.53,0.80,3*06
$GNGSA,A,3,12,19,20,22,36,37,44,,,,,,0.96,0.53,0.80,4*0D
$GNGSA,A,3,,,,,,,,,,,,,0.96,0.53,0.80,5*04
$GPGSV,3,1,11,02,02,202,15,03,71,184,33,04,64,289,30,06,24,309,20,1*64
$GPGSV,3,2,11,07,,,20,09,31,279,25,16,24,134,27,26,39,095,29,1*5B
$GPGSV,3,3,11,28,17,052,22,31,50,060,32,44,33,172,27,1*5E
$GPGSV,2,1,06,03,71,184,28,04,64,289,28,06,24,309,20,09,31,279,22,8*6A
$GPGSV,2,2,06,26,39,095,22,28,17,052,17,8*64
$GLGSV,1,1,02,65,,,18,72,65,071,23,1*41
$GAGSV,2,1,08,03,71,293,28,05,50,080,26,13,25,312,22,15,35,250,23,7*72
$GAGSV,2,2,08,24,34,081,25,25,24,140,21,31,12,031,21,34,11,201,20,7*75
$GAGSV,2,1,05,03,71,293,23,13,25,312,18,15,35,250,21,24,34,081,19,1*75
$GAGSV,2,2,05,34,11,201,16,1*43
$GBGSV,3,1,09,12,10,317,25,19,84,317,39,20,42,116,37,22,29,299,35,1*7F
$GBGSV,3,2,09,34,03,343,30,35,01,252,15,36,20,192,31,37,36,055,32,1*74
$GBGSV,3,3,09,44,08,294,31,1*4A
$GBGSV,1,1,04,19,84,317,24,20,42,116,24,22,29,299,20,37,36,055,22,5*7F
$GQGSV,1,1,00,1*65
$GQGSV,1,1,00,8*6C
$GNGGA,202612.000,4910.426835,N,12304.402452,W,1,24,0.62,8.666,M,-16.816,M,,*4F
$GNRMC,202612.000,A,4910.426835,N,12304.402452,W,0.016,126.46,151024,,,A,V*2D
$GNGLL,4910.426835,N,12304.402452,W,202612.000,A,A*53
$GNVTG,126.46,T,,M,0.016,N,0.030,K,A*20
$GNGSA,A,3,03,04,06,09,16,26,28,31,,,,,1.08,0.62,0.88,1*0F
$GNGSA,A,3,72,,,,,,,,,,,,1.08,0.62,0.88,2*0A
$GNGSA,A,3,03,05,13,15,24,25,31,34,,,,,1.08,0.62,0.88,3*0A
$GNGSA,A,3,12,19,20,22,36,37,44,,,,,,1.08,0.62,0.88,4*01
$GNGSA,A,3,,,,,,,,,,,,,1.08,0.62,0.88,5*08
$GPGSV,3,1,11,02,02,202,14,03,71,184,34,04,64,289,30,06,24,309,21,1*63
$GPGSV,3,2,11,07,,,23,09,31,279,24,16,24,134,25,26,39,095,28,1*5A
$GPGSV,3,3,11,28,17,052,22,31,50,060,32,44,33,172,27,1*5E
$GPGSV,2,1,06,03,71,184,26,04,64,289,26,06,24,309,18,09,31,279,21,8*62
$GPGSV,2,2,06,26,39,095,21,28,17,052,17,8*67
$GLGSV,1,1,02,65,,,19,72,65,071,23,1*40
$GAGSV,2,1,08,03,71,293,29,05,50,080,25,13,25,312,22,15,35,250,22,7*71
$GAGSV,2,2,08,24,34,081,26,25,24,140,21,31,12,031,19,34,11,201,19,7*77
$GAGSV,2,1,06,03,71,293,23,05,50,080,23,13,25,312,18,15,35,250,20,1*7E
$GAGSV,2,2,06,24,34,081,18,34,11,201,16,1*71
$GBGSV,3,1,09,12,10,317,25,19,84,317,40,20,42,116,38,22,29,299,36,1*7D
$GBGSV,3,2,09,34,03,343,31,35,01,252,14,36,20,192,32,37,36,055,33,1*76
$GBGSV,3,3,09,44,08,294,32,1*49
$GBGSV,1,1,04,19,84,317,23,20,42,116,23,22,29,299,18,37,36,055,22,5*74
$GQGSV,1,1,00,1*65
$GQGSV,1,1,00,8*6C
$GNGGA,202613.000,4910.426832,N,12304.402448,W,1,24,0.74,8.670,M,-16.817,M,,*43
$GNRMC,202613.000,A,4910.426832,N,12304.402448,W,0.011,126.46,151024,,,A,V*27
$GNGLL,4910.426832,N,12304.402448,W,202613.000,A,A*5E
$GNVTG,126.46,T,,M,0.011,N,0.020,K,A*26
$GNGSA,A,3,03,04,06,09,16,26,28,31,,,,,1.24,0.74,1.00,1*07
$GNGSA,A,3,72,,,,,,,,,,,,1.24,0.74,1.00,2*02
$GNGSA,A,3,03,05,13,15,24,25,31,34,,,,,1.24,0.74,1.00,3*02
$GNGSA,A,3,12,19,20,22,36,37,44,,,,,,1.24,0.74,1.00,4*09
$GNGSA,A,3,,,,,,,,,,,,,1.24,0.74,1.00,5*00
$GPGSV,3,1,11,02,02,202,15,03,71,184,34,04,64,289,30,06,24,309,22,1*61
$GPGSV,3,2,11,07,,,22,09,31,279,27,16,24,134,26,26,39,095,28,1*5B
$GPGSV,3,3,11,28,17,052,24,31,50,060,31,44,33,172,27,1*5B
$GPGSV,2,1,06,03,71,184,27,04,64,289,27,06,24,309,19,09,31,279,23,8*61
$GPGSV,2,2,06,26,39,095,24,28,17,052,17,8*62
$GLGSV,1,1,02,65,,,19,72,65,071,24,1*47
$GAGSV,2,1,08,03,71,293,29,05,50,080,26,13,25,312,22,15,35,250,21,7*71
$GAGSV,2,2,08,24,34,081,26,25,24,140,22,31,12,031,20,34,11,201,21,7*75
$GAGSV,2,1,06,03,71,293,24,05,50,080,25,13,25,312,20,15,35,250,20,1*74
$GAGSV,2,2,06,24,34,081,20,34,11,201,16,1*7A
$GBGSV,3,1,09,12,10,317,26,19,84,317,40,20,42,116,38,22,29,299,35,1*7D
$GBGSV,3,2,09,34,03,343,31,35,01,252,16,36,20,192,31,37,36,055,31,1*75
$GBGSV,3,3,09,44,08,294,32,1*49
$GBGSV,1,1,04,19,84,317,25,20,42,116,24,22,29,299,20,37,36,055,23,5*7F
$GQGSV,1,1,00,1*65
$GQGSV,1,1,00,8*6C
$GNGGA,202614.000,4910.426828,N,12304.402446,W,1,24,0.74,8.673,M,-16.817,M,,*42
$GNRMC,202614.000,A,4910.426828,N,12304.402446,W,0.008,126.46,151024,,,A,V*2D
$GNGLL,4910.426828,N,12304.402446,W,202614.000,A,A*5C
$GNVTG,126.46,T,,M,0.008,N,0.015,K,A*28
$GNGSA,A,3,03,04,06,09,16,26,28,31,,,,,1.24,0.74,1.00,1*07
$GNGSA,A,3,72,,,,,,,,,,,,1.24,0.74,1.00,2*02
$GNGSA,A,3,03,05,13,15,24,25,31,34,,,,,1.24,0.74,1.00,3*02
$GNGSA,A,3,12,19,20,22,36,37,44,,,,,,1.24,0.74,1.00,4*09
$GNGSA,A,3,,,,,,,,,,,,,1.24,0.74,1.00,5*00
$GPGSV,3,1,11,02,02,202,17,03,71,184,35,04,64,289,32,06,24,309,23,1*61
$GPGSV,3,2,11,07,,,24,09,31,279,26,16,24,134,27,26,39,095,30,1*54
$GPGSV,3,3,11,28,17,052,24,31,50,060,33,44,33,172,27,1*59
$GPGSV,2,1,06,03,71,184,27,04,64,289,27,06,24,309,21,09,31,279,20,8*69
$GPGSV,2,2,06,26,39,095,23,28,17,052,17,8*65
$GLGSV,1,1,02,65,,,20,72,65,071,23,1*4A
$GAGSV,2,1,08,03,71,293,31,05,50,080,27,13,25,312,24,15,35,250,25,7*7B
$GAGSV,2,2,08,24,34,081,28,25,24,140,24,31,12,031,22,34,11,201,21,7*7F
$GAGSV,2,1,06,03,71,293,24,05,50,080,25,13,25,312,19,15,35,250,20,1*7E
$GAGSV,2,2,06,24,34,081,20,34,11,201,16,1*7A
$GBGSV,3,1,09,12,10,317,28,19,84,317,40,20,42,116,39,22,29,299,36,1*71
$GBGSV,3,2,09,34,03,343,31,35,01,252,15,36,20,192,33,37,36,055,32,1*77
$GBGSV,3,3,09,44,08,294,32,1*49
$GBGSV,1,1,04,19,84,317,25,20,42,116,25,22,29,299,20,37,36,055,23,5*7E
$GQGSV,1,1,00,1*65
$GQGSV,1,1,00,8*6C
$GNGGA,202615.000,4910.426828,N,12304.402444,W,1,24,0.48,8.677,M,-16.816,M,,*4B
$GNRMC,202615.000,A,4910.426828,N,12304.402444,W,0.003,126.46,151024,,,A,V*25
$GNGLL,4910.426828,N,12304.402444,W,202615.000,A,A*5F
$GNVTG,126.46,T,,M,0.003,N,0.006,K,A*21
$GNGSA,A,3,03,04,06,09,16,26,28,31,,,,,0.89,0.48,0.75,1*0D
$GNGSA,A,3,72,,,,,,,,,,,,0.89,0.48,0.75,2*08
$GNGSA,A,3,03,05,13,15,24,25,31,34,,,,,0.89,0.48,0.75,3*08
$GNGSA,A,3,12,19,20,22,36,37,44,,,,,,0.89,0.48,0.75,4*03
$GNGSA,A,3,,,,,,,,,,,,,0.89,0.48,0.75,5*0A
$GPGSV,3,1,11,02,02,202,16,03,71,184,33,04,64,289,30,06,24,309,22,1*65
$GPGSV,3,2,11,07,,,22,09,31,279,25,16,24,134,27,26,39,095,28,1*58
$GPGSV,3,3,11,28,17,052,23,31,50,060,32,44,33,172,28,1*50
$GPGSV,2,1,06,03,71,184,26,04,64,289,27,06,24,309,22,09,31,279,22,8*69
$GPGSV,2,2,06,26,39,095,22,28,17,052,17,8*64
$GLGSV,1,1,02,65,,,20,72,65,071,22,1*4B
$GAGSV,2,1,08,03,71,293,28,05,50,080,25,13,25,312,21,15,35,250,23,7*72
$GAGSV,2,2,08,24,34,081,26,25,24,140,23,31,12,031,21,34,11,201,20,7*74
$GAGSV,2,1,06,03,71,293,24,05,50,080,24,13,25,312,21,15,35,250,21,1*75
$GAGSV,2,2,06,24,34,081,21,34,11,201,17,1*7A
$GBGSV,2,1,08,12,10,317,26,19,84,317,40,20,42,116,38,22,29,299,36,1*7E
$GBGSV,2,2,08,34,03,343,31,36,20,192,32,37,36,055,33,44,08,294,32,1*77
$GBGSV,1,1,04,19,84,317,25,20,42,116,25,22,29,299,22,37,36,055,23,5*7C
$GQGSV,1,1,00,1*65
$GQGSV,1,1,00,8*6C
$GNGGA,202616.000,4910.426827,N,12304.402443,W,1,24,0.48,8.679,M,-16.816,M,,*4E
$GNRMC,202616.000,A,4910.426827,N,12304.402443,W,0.003,126.46,151024,,,A,V*2E
$GNGLL,4910.426827,N,12304.402443,W,202616.000,A,A*54
$GNVTG,126.46,T,,M,0.003,N,0.006,K,A*21
$GNGSA,A,3,03,04,06,09,16,26,28,31,,,,,0.89,0.48,0.75,1*0D
$GNGSA,A,3,72,,,,,,,,,,,,0.89,0.48,0.75,2*08
$GNGSA,A,3,03,05,13,15,24,25,31,34,,,,,0.89,0.48,0.75,3*08
$GNGSA,A,3,12,19,20,22,36,37,44,,,,,,0.89,0.48,0.75,4*03
$GNGSA,A,3,,,,,,,,,,,,,0.89,0.48,0.75,5*0A
$GPGSV,3,1,11,02,02,202,16,03,71,184,33,04,64,289,31,06,24,308,21,1*66
$GPGSV,3,2,11,07,,,22,09,31,279,25,16,24,134,26,26,39,095,28,1*59
$GPGSV,3,3,11,28,17,052,23,31,50,060,32,44,33,172,28,1*50
$GPGSV,2,1,06,03,71,184,27,04,64,289,27,06,24,308,20,09,31,279,22,8*6B
$GPGSV,2,2,06,26,39,095,23,28,17,052,17,8*65
$GLGSV,1,1,02,65,,,19,72,65,071,24,1*47
$GAGSV,2,1,08,03,71,293,28,05,50,080,27,13,25,312,21,15,35,250,23,7*70
$GAGSV,2,2,08,24,34,081,27,25,24,140,22,31,12,031,20,34,11,201,22,7*77
$GAGSV,2,1,06,03,71,293,24,05,50,080,24,13,25,312,19,15,35,250,22,1*7D
$GAGSV,2,2,06,24,34,081,22,34,11,201,17,1*79
$GBGSV,3,1,09,12,10,317,27,19,84,318,40,20,41,116,37,22,29,299,36,1*7C
$GBGSV,3,2,09,34,03,343,30,35,01,252,15,36,20,192,31,37,36,055,32,1*74
$GBGSV,3,3,09,44,08,294,31,1*4A
$GBGSV,1,1,04,19,84,318,24,20,41,116,25,22,29,299,20,37,36,055,23,5*73
$GQGSV,1,1,00,1*65
$GQGSV,1,1,00,8*6C
$GNGGA,202617.000,4910.426827,N,12304.402442,W,1,24,0.69,8.680,M,-16.816,M,,*4B
$GNRMC,202617.000,A,4910.426827,N,12304.402442,W,0.006,126.46,151024,,,A,V*2B
$GNGLL,4910.426827,N,12304.402442,W,202617.000,A,A*54
$GNVTG,126.46,T,,M,0.006,N,0.011,K,A*22
$GNGSA,A,3,03,04,06,09,16,26,28,31,,,,,1.21,0.69,0.99,1*0F
$GNGSA,A,3,72,,,,,,,,,,,,1.21,0.69,0.99,2*0A
$GNGSA,A,3,03,05,13,15,24,25,31,34,,,,,1.21,0.69,0.99,3*0A
$GNGSA,A,3,12,19,20,22,36,37,44,,,,,,1.21,0.69,0.99,4*01
$GNGSA,A,3,,,,,,,,,,,,,1.21,0.69,0.99,5*08
$GPGSV,3,1,11,02,02,202,16,03,71,184,33,04,64,289,31,06,24,308,22,1*65
$GPGSV,3,2,11,07,,,22,09,31,279,26,16,24,134,27,26,39,095,29,1*5A
$GPGSV,3,3,11,28,17,052,23,31,50,060,32,44,33,172,28,1*50
$GPGSV,2,1,06,03,71,184,26,04,64,289,27,06,24,308,19,09,31,279,22,8*60
$GPGSV,2,2,06,26,39,095,22,28,17,052,17,8*64
$GLGSV,1,1,02,65,,,19,72,65,071,24,1*47
$GAGSV,2,1,08,03,71,293,30,05,50,080,27,13,25,312,23,15,35,250,24,7*7C
$GAGSV,2,2,08,24,34,081,27,25,24,140,22,31,12,031,19,34,11,201,20,7*7F
$GAGSV,2,1,06,03,71,293,23,05,50,080,24,13,25,312,18,15,35,250,19,1*73
$GAGSV,2,2,06,24,34,081,18,34,11,201,16,1*71
$GBGSV,2,1,08,12,10,317,27,19,84,318,40,20,41,116,38,22,29,299,35,1*70
$GBGSV,2,2,08,34,03,343,31,36,20,192,32,37,36,055,33,44,08,294,31,1*74
$GBGSV,1,1,04,19,84,318,24,20,41,116,23,22,29,299,19,37,36,055,22,5*7E
$GQGSV,1,1,00,1*65
$GQGSV,1,1,00,8*6C
$GNGGA,202618.000,4910.426827,N,12304.402441,W,1,24,0.69,8.681,M,-16.816,M,,*46
$GNRMC,202618.000,A,4910.426827,N,12304.402441,W,0.009,126.46,151024,,,A,V*28
$GNGLL,4910.426827,N,12304.402441,W,202618.000,A,A*58
$GNVTG,126.46,T,,M,0.009,N,0.016,K,A*2A
$GNGSA,A,3,03,04,06,09,16,26,28,31,,,,,1.20,0.69,0.98,1*0F
$GNGSA,A,3,72,,,,,,,,,,,,1.20,0.69,0.98,2*0A
$GNGSA,A,3,03,05,13,15,24,25,31,34,,,,,1.20,0.69,0.98,3*0A
$GNGSA,A,3,12,19,20,22,36,37,44,,,,,,1.20,0.69,0.98,4*01
$GNGSA,A,3,,,,,,,,,,,,,1.20,0.69,0.98,5*08
$GPGSV,3,1,11,02,02,202,17,03,71,184,35,04,64,289,32,06,24,308,23,1*60
$GPGSV,3,2,11,07,,,23,09,31,279,26,16,24,134,28,26,39,095,29,1*54
$GPGSV,3,3,11,28,17,052,24,31,50,060,33,44,33,172,28,1*56
$GPGSV,2,1,06,03,71,184,27,04,64,289,27,06,24,308,20,09,31,279,21,8*68
$GPGSV,2,2,06,26,39,095,24,28,17,052,17,8*62
$GLGSV,1,1,02,65,,,20,72,65,071,23,1*4A
$GAGSV,2,1,08,03,71,294,30,05,50,080,28,13,25,312,23,15,35,250,25,7*75
$GAGSV,2,2,08,24,34,081,28,25,24,140,24,31,12,031,23,34,11,201,21,7*7E
$GAGSV,2,1,06,03,71,294,24,05,50,080,24,13,25,312,19,15,35,250,20,1*78
$GAGSV,2,2,06,24,34,081,20,34,11,201,17,1*7B
$GBGSV,2,1,08,12,10,317,26,19,84,318,40,20,41,116,38,22,29,299,36,1*72
$GBGSV,2,2,08,34,03,342,31,36,20,192,32,37,36,055,32,44,08,294,31,1*74
$GBGSV,1,1,04,19,84,318,25,20,41,116,25,22,29,299,21,37,36,055,23,5*73
$GQGSV,1,1,00,1*65
$GQGSV,1,1,00,8*6C
$GNGGA,202619.000,4910.426827,N,12304.402435,W,1,24,0.49,8.683,M,-16.816,M,,*44
$GNRMC,202619.000,A,4910.426827,N,12304.402435,W,0.018,126.46,151024,,,A,V*2A
$GNGLL,4910.426827,N,12304.402435,W,202619.000,A,A*5A
$GNVTG,126.46,T,,M,0.018,N,0.033,K,A*2D
$GNGSA,A,3,03,04,06,09,16,26,28,31,,,,,0.91,0.49,0.77,1*07
$GNGSA,A,3,72,,,,,,,,,,,,0.91,0.49,0.77,2*02
$GNGSA,A,3,03,05,13,15,24,25,31,34,,,,,0.91,0.49,0.77,3*02
$GNGSA,A,3,12,19,20,22,36,37,44,,,,,,0.91,0.49,0.77,4*09
$GNGSA,A,3,,,,,,,,,,,,,0.91,0.49,0.77,5*00
$GPGSV,3,1,11,02,02,202,16,03,71,184,34,04,64,289,30,06,24,308,23,1*62
$GPGSV,3,2,11,07,,,24,09,31,279,25,16,24,134,26,26,39,095,28,1*5F
$GPGSV,3,3,11,28,17,052,23,31,50,060,32,44,33,172,28,1*50
$GPGSV,2,1,06,03,71,184,25,04,64,289,27,06,24,308,20,09,31,279,21,8*6A
$GPGSV,2,2,06,26,39,095,22,28,17,052,17,8*64
$GLGSV,1,1,02,65,,,20,72,65,071,23,1*4A
$GAGSV,2,1,08,03,71,294,28,05,50,080,27,13,25,312,24,15,35,250,25,7*74
$GAGSV,2,2,08,24,34,081,25,25,24,140,24,31,12,031,20,34,11,201,20,7*71
$GAGSV,2,1,06,03,71,294,22,05,50,080,24,13,25,312,20,15,35,250,20,1*74
$GAGSV,2,2,06,24,34,081,19,34,11,201,16,1*70
$GBGSV,2,1,08,12,10,317,27,19,84,318,39,20,41,116,38,22,29,299,36,1*7D
$GBGSV,2,2,08,34,03,342,30,36,20,192,32,37,36,055,32,44,08,294,32,1*76
$GBGSV,1,1,04,19,84,318,24,20,41,116,23,22,29,299,19,37,36,055,21,5*7D
$GQGSV,1,1,00,1*65
$GQGSV,1,1,00,8*6C
$GNGGA,202620.000,4910.426828,N,12304.402431,W,1,24,0.49,8.685,M,-16.816,M,,*43
$GNRMC,202620.000,A,4910.426828,N,12304.402431,W,0.008,126.46,151024,,,A,V*2A
$GNGLL,4910.426828,N,12304.402431,W,202620.000,A,A*5B
$GNVTG,126.46,T,,M,0.008,N,0.015,K,A*28
$GNGSA,A,3,03,04,06,09,16,26,28,31,,,,,0.92,0.49,0.77,1*04
$GNGSA,A,3,72,,,,,,,,,,,,0.92,0.49,0.77,2*01
$GNGSA,A,3,03,05,13,15,24,25,31,34,,,,,0.92,0.49,0.77,3*01
$GNGSA,A,3,12,19,20,22,36,37,44,,,,,,0.92,0.49,0.77,4*0A
$GNGSA,A,3,,,,,,,,,,,,,0.92,0.49,0.77,5*03
$GPGSV,3,1,11,02,02,202,16,03,71,184,33,04,64,289,30,06,24,308,23,1*65
$GPGSV,3,2,11,07,,,21,09,31,279,25,16,24,134,27,26,39,095,29,1*5A
$GPGSV,3,3,11,28,17,052,22,31,50,060,32,44,33,172,28,1*51
$GPGSV,2,1,06,03,71,184,27,04,64,289,27,06,24,308,19,09,31,279,20,8*63
$GPGSV,2,2,06,26,39,095,22,28,17,052,16,8*65
$GLGSV,1,1,02,65,,,20,72,65,071,23,1*4A
$GAGSV,2,1,08,03,71,294,29,05,50,080,26,13,25,312,22,15,35,250,25,7*72
$GAGSV,2,2,08,24,34,081,26,25,24,140,22,31,12,031,20,34,11,201,21,7*75
$GAGSV,2,1,06,03,71,294,23,05,50,080,25,13,25,312,18,15,35,250,22,1*7D
$GAGSV,2,2,06,24,34,081,19,34,11,201,16,1*70
$GBGSV,2,1,08,12,10,317,28,19,84,318,40,20,41,116,38,22,29,299,36,1*7C
$GBGSV,2,2,08,34,03,342,30,36,20,192,32,37,36,055,33,44,08,294,31,1*74
$GBGSV,1,1,04,19,84,318,24,20,41,116,23,22,29,299,20,37,36,055,21,5*77
$GQGSV,1,1,00,1*65
$GQGSV,1,1,00,8*6C
$GNGGA,202621.000,4910.426827,N,12304.402433,W,1,24,0.60,8.687,M,-16.816,M,,*46
$GNRMC,202621.000,A,4910.426827,N,12304.402433,W,0.006,126.46,151024,,,A,V*28
$GNGLL,4910.426827,N,12304.402433,W,202621.000,A,A*57
$GNVTG,126.46,T,,M,0.006,N,0.012,K,A*21
$GNGSA,A,3,03,04,06,09,16,26,28,31,,,,,1.08,0.60,0.90,1*04
$GNGSA,A,3,72,,,,,,,,,,,,1.08,0.60,0.90,2*01
$GNGSA,A,3,03,05,13,15,24,25,31,34,,,,,1.08,0.60,0.90,3*01
$GNGSA,A,3,12,19,20,22,36,37,44,,,,,,1.08,0.60,0.90,4*0A
$GNGSA,A,3,,,,,,,,,,,,,1.08,0.60,0.90,5*03
$GPGSV,3,1,11,02,02,202,17,03,71,184,34,04,64,289,31,06,24,308,24,1*65
$GPGSV,3,2,11,07,,,23,09,31,279,26,16,24,134,26,26,39,095,27,1*54
$GPGSV,3,3,11,28,17,052,22,31,50,060,32,44,33,172,28,1*51
$GPGSV,2,1,06,03,71,184,26,04,64,289,27,06,24,308,17,09,31,279,21,8*6D
$GPGSV,2,2,06,26,39,095,22,28,17,052,16,8*65
$GLGSV,1,1,02,65,,,20,72,65,071,21,1*48
$GAGSV,2,1,08,03,71,294,29,05,50,080,28,13,25,312,21,15,35,250,24,7*7E
$GAGSV,2,2,08,24,34,081,26,25,24,140,23,31,12,031,20,34,11,201,20,7*75
$GAGSV,2,1,06,03,71,294,23,05,50,080,22,13,25,312,17,15,35,250,20,1*77
$GAGSV,2,2,06,24,34,081,17,34,11,201,15,1*7D
$GBGSV,2,1,08,12,10,317,27,19,84,318,40,20,41,116,39,22,29,299,36,1*72
$GBGSV,2,2,08,34,03,342,31,36,20,192,32,37,36,055,32,44,08,294,32,1*77
$GBGSV,1,1,04,19,84,318,23,20,41,116,23,22,29,299,18,37,36,055,19,5*70
$GQGSV,1,1,00,1*65
$GQGSV,1,1,00,8*6C
$GNGGA,202622.000,4910.426829,N,12304.402435,W,1,24,0.49,8.689,M,-16.816,M,,*48
$GNRMC,202622.000,A,4910.426829,N,12304.402435,W,0.018,126.46,151024,,,A,V*2C
$GNGLL,4910.426829,N,12304.402435,W,202622.000,A,A*5C
$GNVTG,126.46,T,,M,0.018,N,0.034,K,A*2A
$GNGSA,A,3,03,04,06,09,16,26,28,31,,,,,0.90,0.49,0.75,1*04
$GNGSA,A,3,72,,,,,,,,,,,,0.90,0.49,0.75,2*01
$GNGSA,A,3,03,05,13,15,24,25,31,34,,,,,0.90,0.49,0.75,3*01
$GNGSA,A,3,12,19,20,22,36,37,44,,,,,,0.90,0.49,0.75,4*0A
$GNGSA,A,3,,,,,,,,,,,,,0.90,0.49,0.75,5*03
$GPGSV,3,1,11,02,02,202,17,03,71,184,33,04,64,289,30,06,24,308,22,1*65
$GPGSV,3,2,11,07,,,21,09,31,279,25,16,24,134,26,26,39,095,28,1*5A
$GPGSV,3,3,11,28,17,052,21,31,50,060,31,44,33,172,28,1*51
$GPGSV,2,1,06,03,71,184,27,04,64,289,28,06,24,308,19,09,31,279,22,8*6E
$GPGSV,2,2,06,26,39,095,22,28,17,052,17,8*64
$GLGSV,1,1,02,65,,,20,72,65,071,22,1*4B
$GAGSV,2,1,08,03,71,294,29,05,50,080,24,13,25,312,21,15,35,250,24,7*72
$GAGSV,2,2,08,24,34,081,26,25,24,140,23,31,12,031,20,34,11,201,20,7*75
$GAGSV,2,1,06,03,71,294,24,05,50,080,24,13,25,312,19,15,35,250,22,1*7A
$GAGSV,2,2,06,24,34,081,18,34,11,201,14,1*73
$GBGSV,2,1,08,12,10,317,27,19,84,318,39,20,41,116,38,22,29,299,35,1*7E
$GBGSV,2,2,08,34,03,342,30,36,20,192,34,37,36,055,32,44,08,294,32,1*70
$GBGSV,1,1,04,19,84,318,24,20,41,116,23,22,29,299,20,37,36,055,22,5*74
$GQGSV,1,1,00,1*65
$GQGSV,1,1,00,8*6C
$GNGGA,202623.000,4910.426830,N,12304.402434,W,1,24,0.60,8.691,M,-16.817,M,,*43
$GNRMC,202623.000,A,4910.426830,N,12304.402434,W,0.001,126.46,151024,,,A,V*2C
$GNGLL,4910.426830,N,12304.402434,W,202623.000,A,A*54
$GNVTG,126.46,T,,M,0.001,N,0.003,K,A*26
$GNGSA,A,3,03,04,06,09,16,26,28,31,,,,,1.09,0.60,0.91,1*04
$GNGSA,A,3,72,,,,,,,,,,,,1.09,0.60,0.91,2*01
$GNGSA,A,3,03,05,13,15,24,25,31,34,,,,,1.09,0.60,0.91,3*01
$GNGSA,A,3,12,19,20,22,36,37,44,,,,,,1.09,0.60,0.91,4*0A
$GNGSA,A,3,,,,,,,,,,,,,1.09,0.60,0.91,5*03
$GPGSV,3,1,11,02,02,202,16,03,71,184,34,04,64,289,30,06,24,308,21,1*60
$GPGSV,3,2,11,07,,,20,09,31,279,25,16,24,134,25,26,39,095,28,1*58
$GPGSV,3,3,11,28,17,052,23,31,50,060,32,44,33,172,28,1*50
$GPGSV,2,1,06,03,71,184,27,04,64,289,27,06,24,308,18,09,31,279,22,8*60
$GPGSV,2,2,06,26,39,095,21,28,17,052,17,8*67
$GLGSV,1,1,02,65,,,20,72,65,071,21,1*48
$GAGSV,2,1,08,03,71,294,29,05,50,080,27,13,25,312,21,15,35,250,23,7*76
$GAGSV,2,2,08,24,34,081,27,25,24,140,21,31,12,031,20,34,11,201,21,7*77
$GAGSV,2,1,05,03,71,294,23,05,50,080,23,13,25,312,17,15,35,250,21,1*74
$GAGSV,2,2,05,34,11,201,16,1*43
$GBGSV,2,1,08,12,10,317,28,19,84,318,40,20,41,116,38,22,29,299,35,1*7F
$GBGSV,2,2,08,34,03,342,30,36,20,192,32,37,36,055,32,44,08,294,30,1*74
$GBGSV,1,1,04,19,84,318,25,20,41,116,24,22,29,299,19,37,36,055,22,5*78
$GQGSV,1,1,00,1*65
$GQGSV,1,1,00,8*6C
$GNGGA,202624.000,4910.426831,N,12304.402432,W,1,24,0.60,8.694,M,-16.816,M,,*47
$GNRMC,202624.000,A,4910.426831,N,12304.402432,W,0.002,126.46,151024,,,A,V*2F
$GNGLL,4910.426831,N,12304.402432,W,202624.000,A,A*54
$GNVTG,126.46,T,,M,0.002,N,0.004,K,A*22
$GNGSA,A,3,03,04,06,09,16,26,28,31,,,,,1.08,0.60,0.90,1*04
$GNGSA,A,3,72,,,,,,,,,,,,1.08,0.60,0.90,2*01
$GNGSA,A,3,03,05,13,15,24,25,31,34,,,,,1.08,0.60,0.90,3*01
$GNGSA,A,3,12,19,20,22,36,37,44,,,,,,1.08,0.60,0.90,4*0A
$GNGSA,A,3,,,,,,,,,,,,,1.08,0.60,0.90,5*03
$GPGSV,3,1,11,02,02,202,16,03,71,184,33,04,64,289,30,06,24,308,22,1*64
$GPGSV,3,2,11,07,,,20,09,31,279,24,16,24,134,26,26,39,095,28,1*5A
$GPGSV,3,3,11,28,17,052,22,31,50,060,32,44,33,172,28,1*51
$GPGSV,2,1,06,03,71,184,27,04,64,289,28,06,24,308,20,09,31,279,22,8*64
$GPGSV,2,2,06,26,39,095,23,28,17,052,17,8*65
$GLGSV,1,1,02,65,,,20,72,65,071,22,1*4B
$GAGSV,2,1,08,03,71,294,29,05,50,080,28,13,25,312,21,15,35,250,23,7*79
$GAGSV,2,2,08,24,34,081,27,25,24,140,21,31,12,031,21,34,11,201,20,7*77
$GAGSV,2,1,06,03,71,294,23,05,50,080,23,13,25,312,20,15,35,250,22,1*70
$GAGSV,2,2,06,24,34,081,20,34,11,201,17,1*7B
$GBGSV,2,1,08,12,10,317,27,19,84,318,40,20,41,116,38,22,29,299,35,1*70
$GBGSV,2,2,08,34,03,342,30,36,20,192,32,37,36,055,32,44,08,294,30,1*74
$GBGSV,1,1,04,19,84,318,25,20,41,116,23,22,29,299,21,37,36,055,22,5*74
$GQGSV,1,1,00,1*65
$GQGSV,1,1,00,8*6C
$GNGGA,202625.000,4910.426831,N,12304.402430,W,1,24,0.59,8.699,M,-16.816,M,,*43
$GNRMC,202625.000,A,4910.426831,N,12304.402430,W,0.001,126.46,151024,,,A,V*2F
$GNGLL,4910.426831,N,12304.402430,W,202625.000,A,A*57
$GNVTG,126.46,T,,M,0.001,N,0.003,K,A*26
$GNGSA,A,3,03,04,06,09,16,26,28,31,,,,,1.04,0.59,0.85,1*06
$GNGSA,A,3,72,,,,,,,,,,,,1.04,0.59,0.85,2*03
$GNGSA,A,3,03,05,13,15,24,25,31,34,,,,,1.04,0.59,0.85,3*03
$GNGSA,A,3,12,19,20,22,36,37,44,,,,,,1.04,0.59,0.85,4*08
$GNGSA,A,3,,,,,,,,,,,,,1.04,0.59,0.85,5*01
$GPGSV,3,1,11,02,02,202,17,03,71,184,33,04,64,289,30,06,24,308,21,1*66
$GPGSV,3,2,11,07,,,22,09,31,279,25,16,24,134,27,26,39,095,27,1*57
$GPGSV,3,3,11,28,17,052,22,31,50,060,32,44,33,172,28,1*51
$GPGSV,2,1,06,03,71,184,27,04,64,289,27,06,24,308,19,09,31,279,21,8*62
$GPGSV,2,2,06,26,39,095,20,28,17,052,17,8*66
$GLGSV,1,1,02,65,,,20,72,65,071,22,1*4B
$GAGSV,2,1,08,03,71,294,28,05,50,080,27,13,25,312,22,15,35,250,23,7*74
$GAGSV,2,2,08,24,34,081,27,25,24,140,23,31,12,031,19,34,11,201,20,7*7E
$GAGSV,2,1,06,03,71,294,23,05,50,080,24,13,25,312,17,15,35,250,21,1*70
$GAGSV,2,2,06,24,34,081,19,34,11,201,15,1*73
$GBGSV,2,1,08,12,10,317,27,19,84,318,40,20,41,116,38,22,29,299,36,1*73
$GBGSV,2,2,08,34,03,342,30,36,20,192,33,37,36,055,33,44,08,294,31,1*75
$GBGSV,1,1,04,19,84,318,25,20,41,116,24,22,29,299,20,37,36,055,21,5*71
$GQGSV,1,1,00,1*65
$GQGSV,1,1,00,8*6C
$GNGGA,202626.000,4910.426831,N,12304.402429,W,1,24,0.55,8.701,M,-16.816,M,,*44
$GNRMC,202626.000,A,4910.426831,N,12304.402429,W,0.006,126.46,151024,,,A,V*23
$GNGLL,4910.426831,N,12304.402429,W,202626.000,A,A*5C
$GNVTG,126.46,T,,M,0.006,N,0.011,K,A*22
$GNGSA,A,3,03,04,06,09,16,26,28,31,,,,,0.98,0.55,0.80,1*0B
$GNGSA,A,3,72,,,,,,,,,,,,0.98,0.55,0.80,2*0E
$GNGSA,A,3,03,05,13,15,24,25,31,34,,,,,0.98,0.55,0.80,3*0E
$GNGSA,A,3,12,19,20,22,36,37,44,,,,,,0.98,0.55,0.80,4*05
$GNGSA,A,3,,,,,,,,,,,,,0.98,0.55,0.80,5*0C
$GPGSV,3,1,11,02,02,202,17,03,71,184,33,04,64,289,30,06,24,308,21,1*66
$GPGSV,3,2,11,07,,,20,09,31,279,25,16,24,134,26,26,39,095,27,1*54
$GPGSV,3,3,11,28,17,052,23,31,50,060,32,44,33,172,28,1*50
$GPGSV,2,1,06,03,71,184,27,04,64,289,28,06,24,308,20,09,31,279,22,8*64
$GPGSV,2,2,06,26,39,095,23,28,17,052,17,8*65
$GLGSV,1,1,02,65,,,18,72,65,071,22,1*40
$GAGSV,2,1,08,03,71,294,29,05,50,080,27,13,25,312,23,15,35,250,23,7*74
$GAGSV,2,2,08,24,34,081,27,25,24,140,24,31,12,031,21,34,11,201,21,7*73
$GAGSV,2,1,05,03,71,294,24,05,50,080,24,13,25,312,19,15,35,250,21,1*7A
$GAGSV,2,2,05,34,11,201,17,1*42
$GBGSV,2,1,08,12,10,317,28,19,84,318,40,20,41,116,39,22,29,299,36,1*7D
$GBGSV,2,2,08,34,03,342,30,36,20,192,33,37,36,055,33,44,08,294,32,1*76
$GBGSV,1,1,04,19,84,318,25,20,41,116,25,22,29,299,20,37,36,055,23,5*72
$GQGSV,1,1,00,1*65
$GQGSV,1,1,00,8*6C
$GNGGA,202627.000,4910.426833,N,12304.402429,W,1,24,0.55,8.704,M,-16.816,M,,*42
$GNRMC,202627.000,A,4910.426833,N,12304.402429,W,0.011,126.46,151024,,,A,V*26
$GNGLL,4910.426833,N,12304.402429,W,202627.000,A,A*5F
$GNVTG,126.46,T,,M,0.011,N,0.021,K,A*27
$GNGSA,A,3,03,04,06,09,16,26,28,31,,,,,1.00,0.55,0.83,1*08
$GNGSA,A,3,72,,,,,,,,,,,,1.00,0.55,0.83,2*0D
$GNGSA,A,3,03,05,13,15,24,25,31,34,,,,,1.00,0.55,0.83,3*0D
$GNGSA,A,3,12,19,20,22,36,37,44,,,,,,1.00,0.55,0.83,4*06
$GNGSA,A,3,,,,,,,,,,,,,1.00,0.55,0.83,5*0F
$GPGSV,3,1,11,02,02,202,17,03,71,184,34,04,64,289,31,06,24,308,24,1*65
$GPGSV,3,2,11,07,,,21,09,31,279,25,16,24,134,27,26,39,095,27,1*54
$GPGSV,3,3,11,28,17,052,24,31,50,060,33,44,33,172,28,1*56
$GPGSV,2,1,06,03,71,184,27,04,64,289,27,06,24,308,20,09,31,279,22,8*6B
$GPGSV,2,2,06,26,39,095,24,28,17,052,17,8*62
$GLGSV,1,1,02,65,,,19,72,65,071,20,1*43
$GAGSV,2,1,08,03,71,294,29,05,50,080,27,13,25,312,23,15,35,250,27,7*70
$GAGSV,2,2,08,24,34,081,28,25,24,140,23,31,12,031,21,34,11,201,21,7*7B
$GAGSV,2,1,05,03,71,294,23,05,50,080,24,13,25,312,21,15,35,250,21,1*76
$GAGSV,2,2,05,34,11,201,17,1*42
$GBGSV,2,1,08,12,10,317,27,19,84,318,41,20,41,116,39,22,29,299,36,1*73
$GBGSV,2,2,08,34,03,342,30,36,20,192,34,37,36,055,33,44,08,294,31,1*72
$GBGSV,1,1,04,19,84,318,25,20,41,116,24,22,29,299,20,37,36,055,23,5*73
$GQGSV,1,1,00,1*65
$GQGSV,1,1,00,8*6C
$GNGGA,202628.000,4910.426834,N,12304.402429,W,1,24,0.50,8.709,M,-16.817,M,,*43
