$GNGGA,183821.000,4910.423038,N,12304.401672,W,2,31,0.48,8.846,M,-16.817,M,,*4A
$GNGLL,4910.423038,N,12304.401672,W,183821.000,A,D*51
$GNGSA,A,3,09,04,16,07,26,03,11,20,06,30,31,27,0.77,0.48,0.61,1*00
$GNGSA,A,3,68,69,79,67,85,,,,,,,,0.77,0.48,0.61,2*0A
$GNGSA,A,3,09,06,31,04,05,34,36,,,,,,0.77,0.48,0.61,3*06
$GNGSA,A,3,32,23,37,20,25,41,38,,,,,,0.77,0.48,0.61,4*00
$GPGSV,4,1,13,09,77,304,40,04,70,102,36,16,47,079,36,07,45,247,37,1*60
$GPGSV,4,2,13,48,33,182,32,26,25,049,29,03,21,174,31,11,14,305,28,1*6A
$GPGSV,4,3,13,20,13,324,27,06,12,267,20,30,10,246,29,31,07,064,19,1*63
$GPGSV,4,4,13,27,06,112,25,1*50
$GLGSV,2,1,07,78,80,100,,68,77,108,31,69,46,320,26,79,36,203,25,1*7A
$GLGSV,2,2,07,67,26,131,23,85,12,328,19,86,04,018,,1*44
$GAGSV,3,1,10,09,83,327,34,06,69,100,33,31,49,143,31,04,42,106,29,7*7E
$GAGSV,3,2,10,05,28,293,28,34,19,296,26,24,13,186,22,36,12,246,22,7*75
$GAGSV,3,3,10,15,06,344,22,21,03,029,13,7*7A
$GBGSV,3,1,09,32,67,165,35,23,67,079,36,37,50,208,34,20,48,303,36,1*75
$GBGSV,3,2,09,25,18,051,27,41,14,141,28,38,08,334,26,19,03,314,20,1*73
$GBGSV,3,3,09,04,01,262,,1*4C
$GNRMC,183821.000,A,4910.423038,N,12304.401672,W,0.02,0.00,051224,,,D,V*1E
$GNVTG,0.00,T,,M,0.02,N,0.04,K,D*20
$GNGGA,183822.000,4910.423044,N,12304.401660,W,2,31,0.48,8.782,M,-16.816,M,,*47
$GNGLL,4910.423044,N,12304.401660,W,183822.000,A,D*5A
$GNGSA,A,3,09,04,16,07,26,03,11,20,06,30,31,27,0.77,0.48,0.61,1*00
$GNGSA,A,3,68,69,79,67,85,,,,,,,,0.77,0.48,0.61,2*0A
$GNGSA,A,3,09,06,31,04,05,34,36,,,,,,0.77,0.48,0.61,3*06
$GNGSA,A,3,32,23,37,20,25,41,38,,,,,,0.77,0.48,0.61,4*00
$GPGSV,4,1,13,09,77,304,40,04,70,102,36,16,47,079,36,07,45,247,37,1*60
$GPGSV,4,2,13,48,33,182,32,26,25,049,29,03,21,174,31,11,14,305,27,1*65
$GPGSV,4,3,13,20,13,324,27,06,12,267,20,30,10,246,29,31,07,064,19,1*63
$GPGSV,4,4,13,27,06,112,25,1*50
$GLGSV,2,1,07,78,80,100,,68,77,108,31,69,46,320,26,79,36,203,25,1*7A
$GLGSV,2,2,07,67,26,131,23,85,12,328,19,86,04,018,,1*44
$GAGSV,3,1,10,09,83,327,34,06,69,100,33,31,49,143,31,04,42,106,29,7*7E
$GAGSV,3,2,10,05,28,293,28,34,19,296,26,24,13,186,21,36,12,246,22,7*76
$GAGSV,3,3,10,15,06,344,22,21,03,029,13,7*7A
$GBGSV,3,1,09,32,67,165,35,23,67,079,36,37,50,208,34,20,48,303,36,1*75
$GBGSV,3,2,09,25,18,051,27,41,14,141,28,38,08,334,26,19,03,314,19,1*79
$GBGSV,3,3,09,04,01,262,,1*4C
$GNRMC,183822.000,A,4910.423044,N,12304.401660,W,0.02,0.00,051224,,,D,V*15
$GNVTG,0.00,T,,M,0.02,N,0.04,K,D*20
$GNGGA,183823.000,4910.423104,N,12304.401582,W,2,31,0.48,8.610,M,-16.817,M,,*47
$GNGLL,4910.423104,N,12304.401582,W,183823.000,A,D*51
$GNGSA,A,3,09,04,16,07,26,03,11,20,06,30,31,27,0.77,0.48,0.61,1*00
$GNGSA,A,3,68,69,79,67,85,,,,,,,,0.77,0.48,0.61,2*0A
$GNGSA,A,3,09,06,31,04,05,34,36,,,,,,0.77,0.48,0.61,3*06
$GNGSA,A,3,32,23,37,20,25,41,38,,,,,,0.77,0.48,0.61,4*00
$GPGSV,4,1,13,09,77,304,40,04,70,102,36,16,47,079,36,07,45,247,37,1*60
$GPGSV,4,2,13,48,33,182,32,26,25,049,29,03,21,174,31,11,14,305,27,1*65
$GPGSV,4,3,13,20,13,324,27,06,12,267,20,30,10,246,29,31,07,064,20,1*69
$GPGSV,4,4,13,27,06,112,24,1*51
$GLGSV,2,1,07,78,80,100,,68,77,108,31,69,46,320,26,79,36,203,26,1*79
$GLGSV,2,2,07,67,26,131,23,85,12,328,20,86,04,018,,1*4E
$GAGSV,3,1,10,09,83,327,34,06,69,100,33,31,49,143,31,04,42,106,29,7*7E
$GAGSV,3,2,10,05,28,293,28,34,19,296,26,24,13,186,21,36,12,246,23,7*77
$GAGSV,3,3,10,15,06,344,22,21,03,029,12,7*7B
$GBGSV,3,1,09,32,67,165,35,23,67,079,36,37,50,208,34,20,48,303,36,1*75
$GBGSV,3,2,09,25,18,051,27,41,14,141,28,38,08,334,26,19,03,314,19,1*79
$GBGSV,3,3,09,04,01,262,,1*4C
$GNRMC,183823.000,A,4910.423104,N,12304.401582,W,0.02,0.00,051224,,,D,V*1E
$GNVTG,0.00,T,,M,0.02,N,0.03,K,D*27
$GNGGA,183824.000,4910.423134,N,12304.401534,W,2,31,0.48,8.499,M,-16.816,M,,*4C
$GNGLL,4910.423134,N,12304.401534,W,183824.000,A,D*58
$GNGSA,A,3,09,04,16,07,26,03,11,20,06,30,31,27,0.77,0.48,0.61,1*00
$GNGSA,A,3,68,69,79,67,85,,,,,,,,0.77,0.48,0.61,2*0A
$GNGSA,A,3,09,06,31,04,05,34,36,,,,,,0.77,0.48,0.61,3*06
$GNGSA,A,3,23,32,37,20,25,41,38,,,,,,0.77,0.48,0.61,4*00
$GPGSV,4,1,13,09,77,304,40,04,69,102,36,16,47,078,36,07,46,247,37,1*6A
$GPGSV,4,2,13,48,33,182,32,26,25,049,29,03,21,174,31,11,14,305,26,1*64
$GPGSV,4,3,13,20,13,324,27,06,12,267,20,30,10,246,29,31,07,064,20,1*69
$GPGSV,4,4,13,27,06,112,25,1*50
$GLGSV,2,1,07,78,80,098,,68,77,109,31,69,46,320,26,79,37,203,26,1*79
$GLGSV,2,2,07,67,25,131,23,85,12,328,20,86,05,018,,1*4C
$GAGSV,3,1,10,09,83,328,34,06,69,101,33,31,49,143,31,04,42,106,29,7*70
$GAGSV,3,2,10,05,29,293,28,34,19,296,26,24,13,186,22,36,11,246,23,7*76
$GAGSV,3,3,10,15,07,344,21,21,02,029,12,7*78
$GBGSV,3,1,09,23,67,079,36,32,67,165,35,37,50,208,34,20,48,303,36,1*75
$GBGSV,3,2,09,25,18,051,27,41,14,141,28,38,08,334,26,19,03,314,19,1*79
$GBGSV,3,3,09,04,01,262,,1*4C
$GNRMC,183824.000,A,4910.423134,N,12304.401534,W,0.02,0.00,051224,,,D,V*17
$GNVTG,0.00,T,,M,0.02,N,0.03,K,D*27
$GNGGA,183825.000,4910.423242,N,12304.401486,W,2,31,0.48,8.332,M,-16.816,M,,*41
$GNGLL,4910.423242,N,12304.401486,W,183825.000,A,D*53
$GNGSA,A,3,09,04,16,07,26,03,11,20,06,30,31,27,0.77,0.48,0.61,1*00
$GNGSA,A,3,68,69,79,67,85,,,,,,,,0.77,0.48,0.61,2*0A
$GNGSA,A,3,09,06,31,04,05,34,36,,,,,,0.77,0.48,0.61,3*06
$GNGSA,A,3,23,32,37,20,25,41,38,,,,,,0.77,0.48,0.61,4*00
$GPGSV,4,1,13,09,77,304,40,04,69,102,36,16,47,078,36,07,46,247,37,1*6A
$GPGSV,4,2,13,48,33,182,32,26,25,049,29,03,21,174,31,11,14,305,25,1*67
$GPGSV,4,3,13,20,13,324,27,06,12,267,20,30,10,246,29,31,07,064,20,1*69
$GPGSV,4,4,13,27,06,112,24,1*51
$GLGSV,2,1,07,78,80,098,,68,77,109,31,69,46,320,26,79,37,203,26,1*79
$GLGSV,2,2,07,67,25,131,23,85,12,328,20,86,05,018,,1*4C
$GAGSV,3,1,10,09,83,328,34,06,69,101,33,31,49,143,31,04,42,106,29,7*70
$GAGSV,3,2,10,05,29,293,28,34,19,296,26,24,13,186,22,36,11,246,23,7*76
$GAGSV,3,3,10,15,07,344,21,21,02,029,13,7*79
$GBGSV,3,1,10,23,67,079,36,32,67,165,35,37,50,208,34,20,48,303,36,1*7D
$GBGSV,3,2,10,25,18,051,27,41,14,141,28,38,08,334,26,19,03,314,18,1*70
$GBGSV,3,3,10,04,01,262,,08,01,340,,1*7A
$GNRMC,183825.000,A,4910.423242,N,12304.401486,W,0.02,0.00,051224,,,D,V*1C
$GNVTG,0.00,T,,M,0.02,N,0.04,K,D*20
$GNGGA,183826.000,4910.423308,N,12304.401438,W,2,31,0.48,8.227,M,-16.816,M,,*4D
