$GNGGA,222559.00,4910.423380,N,12304.383246,W,1,12,0.5,11.2,M,-19.2,M,,*76
$GNGGA,222600.00,4910.423376,N,12304.383258,W,1,12,0.5,11.2,M,-19.2,M,,*7F
$GNGGA,222601.00,4910.423376,N,12304.383269,W,1,12,0.5,11.1,M,-19.2,M,,*7F
$GNGGA,222602.00,4910.423375,N,12304.383272,W,1,12,0.5,11.1,M,-19.2,M,,*75
$GNGGA,222603.00,4910.423374,N,12304.383292,W,1,12,0.5,11.0,M,-19.2,M,,*7A
$GNGGA,222604.00,4910.423378,N,12304.383299,W,1,12,0.5,11.0,M,-19.2,M,,*7A
$GNGGA,222605.00,4910.423376,N,12304.383302,W,1,12,0.5,10.9,M,-19.2,M,,*7E
$GNGGA,222606.00,4910.423376,N,12304.383317,W,1,12,0.5,10.9,M,-19.2,M,,*79
$GNGGA,222607.00,4910.423374,N,12304.383337,W,1,12,0.5,10.8,M,-19.2,M,,*79
$GNGGA,222608.00,4910.423373,N,12304.383345,W,1,12,0.5,10.8,M,-19.2,M,,*74
$GNGGA,222609.00,4910.423369,N,12304.383354,W,1,12,0.5,10.7,M,-19.2,M,,*71
$GNGGA,222610.00,4910.423364,N,12304.383355,W,1,12,0.5,10.7,M,-19.2,M,,*75
$GNGGA,222611.00,4910.423361,N,12304.383356,W,1,12,0.5,10.6,M,-19.2,M,,*73
$GNGGA,222612.00,4910.423357,N,12304.383358,W,1,12,0.5,10.6,M,-19.2,M,,*7B
$GNGGA,222613.00,4910.423355,N,12304.383351,W,1,12,0.5,10.6,M,-19.2,M,,*71
$GNGGA,222614.00,4910.423352,N,12304.383335,W,1,12,0.5,10.6,M,-19.2,M,,*73
$GNGGA,222615.00,4910.423346,N,12304.383327,W,1,12,0.5,10.5,M,-19.2,M,,*77
$GNGGA,222616.00,4910.423343,N,12304.383296,W,1,12,0.5,10.5,M,-19.2,M,,*7A
$GNGGA,222617.00,4910.423341,N,12304.383295,W,1,12,0.5,10.5,M,-19.2,M,,*7A
$GNGGA,222618.00,4910.423337,N,12304.383293,W,1,12,0.5,10.5,M,-19.2,M,,*72
$GNGGA,222619.00,4910.423331,N,12304.383288,W,1,12,0.5,10.5,M,-19.2,M,,*7F
$GNGGA,222620.00,4910.423326,N,12304.383276,W,1,12,0.5,10.5,M,-19.2,M,,*72
$GNGGA,222621.00,4910.423324,N,12304.383278,W,1,12,0.5,10.5,M,-19.2,M,,*7F
$GNGGA,222622.00,4910.423319,N,12304.383289,W,1,12,0.5,10.4,M,-19.2,M,,*7D
$GNGGA,222623.00,4910.423315,N,12304.383295,W,1,12,0.5,10.4,M,-19.2,M,,*7D
$GNGGA,222624.00,4910.423310,N,12304.383309,W,1,12,0.5,10.4,M,-19.2,M,,*7B
$GNGGA,222625.00,4910.423301,N,12304.383335,W,1,12,0.5,10.3,M,-19.2,M,,*72
$GNGGA,222626.00,4910.423291,N,12304.383354,W,1,12,0.5,10.3,M,-19.2,M,,*7E
$GNGGA,222627.00,4910.423284,N,12304.383371,W,1,12,0.5,10.2,M,-19.2,M,,*7D
$GNGGA,222628.00,4910.423279,N,12304.383388,W,1,12,0.5,10.2,M,-19.2,M,,*76
$GNGGA,222629.00,4910.423273,N,12304.383414,W,1,12,0.5,10.2,M,-19.2,M,,*7F
$GNGGA,222630.00,4910.423267,N,12304.383433,W,1,12,0.5,10.1,M,-19.2,M,,*74
$GNGGA,222631.00,4910.423259,N,12304.383448,W,1,12,0.5,10.1,M,-19.2,M,,*74
$GNGGA,222632.00,4910.423253,N,12304.383468,W,1,12,0.5,10.1,M,-19.2,M,,*7F
$GNGGA,222633.00,4910.423246,N,12304.383488,W,1,12,0.5,10.0,M,-19.2,M,,*75
$GNGGA,222634.00,4910.423246,N,12304.383503,W,1,12,0.5,10.0,M,-19.2,M,,*70
$GNGGA,222635.00,4910.423241,N,12304.383515,W,1,12,0.5,10.0,M,-19.2,M,,*71
$GNGGA,222636.00,4910.423234,N,12304.383514,W,1,12,0.5,10.0,M,-19.2,M,,*71
$GNGGA,222637.00,4910.423228,N,12304.383524,W,1,12,0.5,10.0,M,-19.2,M,,*7E
$GNGGA,222638.00,4910.423220,N,12304.383533,W,1,12,0.5,10.0,M,-19.2,M,,*7F
$GNGGA,222639.00,4910.423210,N,12304.383527,W,1,12,0.5,10.0,M,-19.2,M,,*78
$GNGGA,222640.00,4910.423202,N,12304.383515,W,1,12,0.5,10.0,M,-19.2,M,,*74
$GNGGA,222641.00,4910.423195,N,12304.383497,W,1,12,0.5,10.0,M,-19.2,M,,*73
$GNGGA,222642.00,4910.423186,N,12304.383476,W,1,12,0.5,10.1,M,-19.2,M,,*7C
$GNGGA,222643.00,4910.423177,N,12304.383461,W,1,12,0.5,10.1,M,-19.2,M,,*75
$GNGGA,222644.00,4910.423168,N,12304.383449,W,1,12,0.5,10.1,M,-19.2,M,,*76
$GNGGA,222645.00,4910.423156,N,12304.383427,W,1,12,0.5,10.2,M,-19.2,M,,*71
$GNGGA,222646.00,4910.423148,N,12304.383398,W,1,12,0.5,10.2,M,-19.2,M,,*7E
$GNGGA,222647.00,4910.423147,N,12304.383401,W,1,12,0.5,10.2,M,-19.2,M,,*77
$GNGGA,222648.00,4910.423138,N,12304.383397,W,1,12,0.5,10.2,M,-19.2,M,,*78
$GNGGA,222649.00,4910.423126,N,12304.383376,W,1,12,0.5,10.2,M,-19.2,M,,*79
$GNGGA,222650.00,4910.423115,N,12304.383372,W,1,12,0.5,10.2,M,-19.2,M,,*75
$GNGGA,222651.00,4910.423109,N,12304.383370,W,1,12,0.5,10.2,M,-19.2,M,,*7B
$GNGGA,222652.00,4910.423105,N,12304.383365,W,1,12,0.5,10.2,M,-19.2,M,,*70
$GNGGA,222653.00,4910.423097,N,12304.383362,W,1,12,0.5,10.2,M,-19.2,M,,*7C
$GNGGA,222654.00,4910.423091,N,12304.383353,W,1,12,0.5,10.2,M,-19.2,M,,*7F
$GNGGA,222655.00,4910.423090,N,12304.383351,W,1,12,0.5,10.2,M,-19.2,M,,*7D
$GNGGA,222656.00,4910.423087,N,12304.383343,W,1,12,0.5,10.2,M,-19.2,M,,*7B
$GNGGA,222657.00,4910.423085,N,12304.383338,W,1,12,0.5,10.2,M,-19.2,M,,*74
$GNGGA,222658.00,4910.423084,N,12304.383335,W,1,12,0.5,10.1,M,-19.2,M,,*74
$GNGGA,222659.00,4910.423084,N,12304.383330,W,1,12,0.5,10.1,M,-19.2,M,,*70
$GNGGA,222700.00,4910.423084,N,12304.383313,W,1,12,0.5,10.1,M,-19.2,M,,*7C
$GNGGA,222701.00,4910.423085,N,12304.383311,W,1,12,0.5,10.1,M,-19.2,M,,*7E
$GNGGA,222702.00,4910.423085,N,12304.383310,W,1,12,0.5,10.1,M,-19.2,M,,*7C
$GNGGA,222703.00,4910.423089,N,12304.383310,W,1,12,0.5,10.1,M,-19.2,M,,*71
$GNGGA,222704.00,4910.423090,N,12304.383290,W,1,12,0.5,10.1,M,-19.2,M,,*77
$GNGGA,222705.00,4910.423089,N,12304.383277,W,1,12,0.5,10.1,M,-19.2,M,,*77
$GNGGA,222706.00,4910.423091,N,12304.383272,W,1,12,0.5,10.1,M,-19.2,M,,*78
$GNGGA,222707.00,4910.423094,N,12304.383254,W,1,12,0.5,10.1,M,-19.2,M,,*78
$GNGGA,222708.00,4910.423096,N,12304.383238,W,1,12,0.5,10.1,M,-19.2,M,,*7F
$GNGGA,222709.00,4910.423097,N,12304.383212,W,1,12,0.5,10.1,M,-19.2,M,,*77
$GNGGA,222710.00,4910.423102,N,12304.383188,W,1,12,0.5,10.2,M,-19.2,M,,*71
$GNGGA,222711.00,4910.423105,N,12304.383182,W,1,12,0.5,10.1,M,-19.2,M,,*7E
$GNGGA,222712.00,4910.423106,N,12304.383158,W,1,12,0.5,10.2,M,-19.2,M,,*7A
$GNGGA,222713.00,4910.423109,N,12304.383136,W,1,12,0.5,10.2,M,-19.2,M,,*7C
$GNGGA,222714.00,4910.423103,N,12304.383097,W,1,12,0.5,10.2,M,-19.2,M,,*7B
$GNGGA,222715.00,4910.423103,N,12304.383081,W,1,12,0.5,10.2,M,-19.2,M,,*7D
$GNGGA,222716.00,4910.423098,N,12304.383050,W,1,12,0.5,10.3,M,-19.2,M,,*70
$GNGGA,222717.00,4910.423089,N,12304.383024,W,1,12,0.5,10.3,M,-19.2,M,,*72
$GNGGA,222718.00,4910.423088,N,12304.383016,W,1,12,0.5,10.3,M,-19.2,M,,*7D
$GNGGA,222719.00,4910.423078,N,12304.382986,W,1,12,0.5,10.3,M,-19.2,M,,*72
$GNGGA,222720.00,4910.423067,N,12304.382963,W,1,12,0.5,10.4,M,-19.2,M,,*7A
$GNGGA,222721.00,4910.423057,N,12304.382932,W,1,12,0.5,10.4,M,-19.2,M,,*7C
$GNGGA,222722.00,4910.423044,N,12304.382897,W,1,12,0.5,10.4,M,-19.2,M,,*73
$GNGGA,222723.00,4910.423034,N,12304.382880,W,1,12,0.5,10.5,M,-19.2,M,,*72
$GNGGA,222724.00,4910.423027,N,12304.382855,W,1,12,0.5,10.5,M,-19.2,M,,*7F
$GNGGA,222725.00,4910.423019,N,12304.382837,W,1,12,0.5,10.6,M,-19.2,M,,*74
$GNGGA,222726.00,4910.423013,N,12304.382809,W,1,12,0.4,10.6,M,-19.2,M,,*71
$GNGGA,222727.00,4910.423010,N,12304.382786,W,1,12,0.4,10.7,M,-19.2,M,,*7A
$GNGGA,222728.00,4910.423006,N,12304.382773,W,1,12,0.4,10.7,M,-19.2,M,,*78
$GNGGA,222729.00,4910.423007,N,12304.382765,W,1,12,0.4,10.7,M,-19.2,M,,*7F
$GNGGA,222730.00,4910.423007,N,12304.382767,W,1,12,0.4,10.7,M,-19.2,M,,*75
$GNGGA,222731.00,4910.423009,N,12304.382759,W,1,12,0.4,10.7,M,-19.2,M,,*77
$GNGGA,222732.00,4910.423016,N,12304.382744,W,1,12,0.4,10.8,M,-19.2,M,,*79
$GNGGA,222733.00,4910.423021,N,12304.382728,W,1,12,0.4,10.8,M,-19.2,M,,*76
$GNGGA,222734.00,4910.423031,N,12304.382719,W,1,12,0.4,10.8,M,-19.2,M,,*72
$GNGGA,222735.00,4910.423039,N,12304.382708,W,1,12,0.4,10.8,M,-19.2,M,,*7B
$GNGGA,222736.00,4910.423048,N,12304.382699,W,1,12,0.4,10.8,M,-19.2,M,,*77
$GNGGA,222737.00,4910.423060,N,12304.382695,W,1,12,0.4,10.8,M,-19.2,M,,*70
$GNGGA,222738.00,4910.423072,N,12304.382687,W,1,12,0.4,10.8,M,-19.2,M,,*7F
$GNGGA,222739.00,4910.423075,N,12304.382677,W,1,12,0.4,10.8,M,-19.2,M,,*76
$GNGGA,222740.00,4910.423089,N,12304.382677,W,1,12,0.4,10.8,M,-19.2,M,,*7B
$GNGGA,222741.00,4910.423092,N,12304.382668,W,1,12,0.4,10.8,M,-19.2,M,,*7E
$GNGGA,222742.00,4910.423094,N,12304.382653,W,1,12,0.4,10.9,M,-19.2,M,,*72
$GNGGA,222743.00,4910.423096,N,12304.382634,W,1,12,0.4,10.9,M,-19.2,M,,*70
$GNGGA,222744.00,4910.423099,N,12304.382632,W,1,12,0.4,10.9,M,-19.2,M,,*7E
$GNGGA,222745.00,4910.423102,N,12304.382628,W,1,12,0.4,10.9,M,-19.2,M,,*77
$GNGGA,222746.00,4910.423104,N,12304.382620,W,1,12,0.5,11.0,M,-19.2,M,,*73
$GNGGA,222750.00,4910.423118,N,12304.382573,W,1,12,0.4,11.1,M,-19.2,M,,*7C
$GNGGA,222751.00,4910.423126,N,12304.382572,W,1,12,0.4,11.1,M,-19.2,M,,*71
$GNGGA,222752.00,4910.423136,N,12304.382556,W,1,12,0.4,11.1,M,-19.2,M,,*75
$GNGGA,222753.00,4910.423146,N,12304.382556,W,1,12,0.4,11.1,M,-19.2,M,,*73
$GNGGA,222754.00,4910.423151,N,12304.382555,W,1,12,0.4,11.1,M,-19.2,M,,*71
$GNGGA,222755.00,4910.423154,N,12304.382541,W,1,12,0.4,11.1,M,-19.2,M,,*70
$GNGGA,222756.00,4910.423159,N,12304.382525,W,1,12,0.4,11.2,M,-19.2,M,,*7F
$GNGGA,222757.00,4910.423160,N,12304.382515,W,1,12,0.4,11.2,M,-19.2,M,,*77
$GNGGA,222758.00,4910.423165,N,12304.382501,W,1,12,0.4,11.2,M,-19.2,M,,*78
$GNGGA,222759.00,4910.423165,N,12304.382488,W,1,12,0.4,11.2,M,-19.2,M,,*79
$GNGGA,222800.00,4910.423166,N,12304.382478,W,1,12,0.4,11.2,M,-19.2,M,,*76
$GNGGA,222801.00,4910.423165,N,12304.382467,W,1,12,0.4,11.2,M,-19.2,M,,*7A
$GNGGA,222802.00,4910.423164,N,12304.382439,W,1,12,0.4,11.3,M,-19.2,M,,*72
$GNGGA,222803.00,4910.423164,N,12304.382429,W,1,12,0.4,11.3,M,-19.2,M,,*72
$GNGGA,222932.00,4910.422664,N,12304.379891,W,1,12,0.5,23.5,M,-19.2,M,,*7A
$GNGGA,222933.00,4910.422937,N,12304.380113,W,1,12,0.5,24.7,M,-19.2,M,,*72
$GNGGA,222934.00,4910.422826,N,12304.379847,W,1,12,0.5,26.2,M,-19.2,M,,*7D
$GNGGA,222935.00,4910.422718,N,12304.380260,W,1,12,0.5,27.1,M,-19.2,M,,*75
$GNGGA,222936.00,4910.422448,N,12304.379769,W,1,12,0.5,27.4,M,-19.2,M,,*7F
$GNGGA,222937.00,4910.422289,N,12304.379633,W,1,12,0.5,27.6,M,-19.2,M,,*79
$GNGGA,222938.00,4910.422505,N,12304.379818,W,1,12,0.5,26.7,M,-19.2,M,,*72
$GNGGA,222939.00,4910.422638,N,12304.379950,W,1,12,0.5,26.5,M,-19.2,M,,*71
$GNGGA,222940.00,4910.422673,N,12304.380053,W,1,12,0.5,26.1,M,-19.2,M,,*78
$GNGGA,222941.00,4910.422833,N,12304.380152,W,1,12,0.5,25.7,M,-19.2,M,,*76
$GNGGA,222942.00,4910.422872,N,12304.380235,W,1,12,0.5,25.7,M,-19.2,M,,*72
$GNGGA,222943.00,4910.422820,N,12304.380135,W,1,12,0.5,25.8,M,-19.2,M,,*78
$GNGGA,222944.00,4910.422796,N,12304.380076,W,1,12,0.5,25.9,M,-19.2,M,,*7A
$GNGGA,222945.00,4910.422791,N,12304.380064,W,1,12,0.5,25.9,M,-19.2,M,,*7F
$GNGGA,222946.00,4910.422785,N,12304.380046,W,1,12,0.5,25.9,M,-19.2,M,,*79
$GNGGA,222947.00,4910.422782,N,12304.380036,W,1,12,0.5,25.9,M,-19.2,M,,*78
$GNGGA,222948.00,4910.422765,N,12304.379988,W,1,12,0.5,26.0,M,-19.2,M,,*7E
$GNGGA,222949.00,4910.422748,N,12304.379940,W,1,12,0.5,26.0,M,-19.2,M,,*74
$GNGGA,222950.00,4910.422741,N,12304.379924,W,1,12,0.5,26.0,M,-19.2,M,,*77
$GNGGA,222951.00,4910.422721,N,12304.379866,W,1,12,0.5,26.0,M,-19.2,M,,*77
$GNGGA,222952.00,4910.422703,N,12304.379820,W,1,12,0.5,26.0,M,-19.2,M,,*76
$GNGGA,222953.00,4910.422686,N,12304.379774,W,1,12,0.5,26.0,M,-19.2,M,,*75
$GNGGA,222954.00,4910.422676,N,12304.379751,W,1,12,0.5,26.0,M,-19.2,M,,*7A
$GNGGA,222955.00,4910.422658,N,12304.379697,W,1,12,0.5,26.1,M,-19.2,M,,*7D
$GNGGA,222956.00,4910.422648,N,12304.379671,W,1,12,0.5,26.1,M,-19.2,M,,*77
$GNGGA,222957.00,4910.422637,N,12304.379639,W,1,12,0.5,26.1,M,-19.2,M,,*72
$GNGGA,222958.00,4910.422628,N,12304.379621,W,1,12,0.5,26.1,M,-19.2,M,,*7A
$GNGGA,222959.00,4910.422620,N,12304.379606,W,1,12,0.5,26.1,M,-19.2,M,,*76
$GNGGA,223000.00,4910.422611,N,12304.379594,W,1,12,0.5,26.1,M,-19.2,M,,*78
$GNGGA,223001.00,4910.422604,N,12304.379586,W,1,12,0.5,26.1,M,-19.2,M,,*7E
$GNGGA,223002.00,4910.422596,N,12304.379577,W,1,12,0.5,26.1,M,-19.2,M,,*7B
$GNGGA,223003.00,4910.422591,N,12304.379573,W,1,12,0.5,26.1,M,-19.2,M,,*79
$GNGGA,223004.00,4910.422587,N,12304.379572,W,1,12,0.5,26.1,M,-19.2,M,,*78
$GNGGA,223005.00,4910.422584,N,12304.379573,W,1,12,0.5,26.1,M,-19.2,M,,*7B
$GNGGA,223006.00,4910.422580,N,12304.379566,W,1,12,0.5,26.1,M,-19.2,M,,*78
$GNGGA,223007.00,4910.422580,N,12304.379566,W,1,12,0.5,26.1,M,-19.2,M,,*79
$GNGGA,223008.00,4910.422580,N,12304.379567,W,1,12,0.5,26.1,M,-19.2,M,,*77
$GNGGA,223009.00,4910.422577,N,12304.379538,W,1,12,0.5,26.2,M,-19.2,M,,*77
$GNGGA,223010.00,4910.422578,N,12304.379539,W,1,12,0.5,26.2,M,-19.2,M,,*71
$GNGGA,223011.00,4910.422581,N,12304.379542,W,1,12,0.5,26.2,M,-19.2,M,,*7A
$GNGGA,223012.00,4910.422583,N,12304.379546,W,1,12,0.5,26.2,M,-19.2,M,,*7F
$GNGGA,223013.00,4910.422586,N,12304.379549,W,1,12,0.5,26.2,M,-19.2,M,,*74
$GNGGA,223014.00,4910.422590,N,12304.379558,W,1,12,0.5,26.2,M,-19.2,M,,*74
$GNGGA,223015.00,4910.422595,N,12304.379566,W,1,12,0.5,26.2,M,-19.2,M,,*7D
$GNGGA,223016.00,4910.422599,N,12304.379572,W,1,12,0.5,26.2,M,-19.2,M,,*77
$GNGGA,223017.00,4910.422601,N,12304.379581,W,1,12,0.5,26.2,M,-19.2,M,,*78
$GNGGA,223018.00,4910.422604,N,12304.379584,W,1,12,0.5,26.2,M,-19.2,M,,*77
$GNGGA,223019.00,4910.422606,N,12304.379585,W,1,12,0.5,26.2,M,-19.2,M,,*75
$GNGGA,223020.00,4910.422608,N,12304.379588,W,1,12,0.5,26.2,M,-19.2,M,,*7C
$GNGGA,223021.00,4910.422608,N,12304.379591,W,1,12,0.5,26.2,M,-19.2,M,,*75
$GNGGA,223022.00,4910.422608,N,12304.379593,W,1,12,0.5,26.2,M,-19.2,M,,*74
$GNGGA,223023.00,4910.422607,N,12304.379596,W,1,12,0.5,26.2,M,-19.2,M,,*7F
$GNGGA,223024.00,4910.422602,N,12304.379591,W,1,12,0.5,26.2,M,-19.2,M,,*7A
$GNGGA,223025.00,4910.422598,N,12304.379585,W,1,12,0.5,26.3,M,-19.2,M,,*7F
$GNGGA,223026.00,4910.422593,N,12304.379579,W,1,12,0.5,26.3,M,-19.2,M,,*74
$GNGGA,223027.00,4910.422590,N,12304.379572,W,1,12,0.5,26.3,M,-19.2,M,,*7D
$GNGGA,223028.00,4910.422586,N,12304.379566,W,1,12,0.5,26.3,M,-19.2,M,,*70
$GNGGA,223029.00,4910.422584,N,12304.379565,W,1,12,0.5,26.3,M,-19.2,M,,*70
$GNGGA,223030.00,4910.422580,N,12304.379558,W,1,12,0.5,26.4,M,-19.2,M,,*75
$GNGGA,223031.00,4910.422526,N,12304.379558,W,1,12,0.5,26.3,M,-19.2,M,,*7F
$GNGGA,223032.00,4910.422492,N,12304.379555,W,1,12,0.5,26.2,M,-19.2,M,,*7E
$GNGGA,223033.00,4910.422477,N,12304.379546,W,1,12,0.5,26.2,M,-19.2,M,,*76
$GNGGA,223034.00,4910.422460,N,12304.379547,W,1,12,0.5,26.2,M,-19.2,M,,*76
$GNGGA,223035.00,4910.422438,N,12304.379545,W,1,12,0.5,26.2,M,-19.2,M,,*78
$GNGGA,223036.00,4910.422424,N,12304.379540,W,1,12,0.5,26.1,M,-19.2,M,,*70
$GNGGA,223037.00,4910.422416,N,12304.379533,W,1,12,0.5,26.1,M,-19.2,M,,*74
$GNGGA,223038.00,4910.422400,N,12304.379526,W,1,12,0.5,26.1,M,-19.2,M,,*78
$GNGGA,223039.00,4910.422385,N,12304.379519,W,1,12,0.5,26.1,M,-19.2,M,,*7F
$GNGGA,223040.00,4910.422362,N,12304.379506,W,1,12,0.5,26.1,M,-19.2,M,,*76
$GNGGA,223041.00,4910.422352,N,12304.379500,W,1,12,0.5,26.1,M,-19.2,M,,*72
$GNGGA,223042.00,4910.422342,N,12304.379489,W,1,12,0.5,26.1,M,-19.2,M,,*70
$GNGGA,223043.00,4910.422333,N,12304.379485,W,1,12,0.5,26.1,M,-19.2,M,,*7B
$GNGGA,223044.00,4910.422325,N,12304.379480,W,1,12,0.5,26.1,M,-19.2,M,,*7E
$GNGGA,223045.00,4910.422317,N,12304.379474,W,1,12,0.5,26.1,M,-19.2,M,,*75
$GNGGA,223046.00,4910.422310,N,12304.379471,W,1,12,0.5,26.1,M,-19.2,M,,*74
$GNGGA,223047.00,4910.422306,N,12304.379468,W,1,12,0.5,26.1,M,-19.2,M,,*7A
$GNGGA,223048.00,4910.422304,N,12304.379467,W,1,12,0.5,26.1,M,-19.2,M,,*78
$GNGGA,223049.00,4910.422300,N,12304.379464,W,1,12,0.5,26.1,M,-19.2,M,,*7E
$GNGGA,223050.00,4910.422310,N,12304.379518,W,1,12,0.4,26.0,M,-19.2,M,,*7D
$GNGGA,223051.00,4910.422326,N,12304.379565,W,1,12,0.4,25.9,M,-19.2,M,,*79
$GNGGA,223052.00,4910.422334,N,12304.379608,W,1,12,0.4,25.9,M,-19.2,M,,*71
$GNGGA,223053.00,4910.422342,N,12304.379632,W,1,12,0.4,25.8,M,-19.2,M,,*79
$GNGGA,223054.00,4910.422349,N,12304.379681,W,1,12,0.4,25.7,M,-19.2,M,,*72
$GNGGA,223055.00,4910.422347,N,12304.379699,W,1,12,0.4,25.7,M,-19.2,M,,*74
$GNGGA,223056.00,4910.422345,N,12304.379707,W,1,12,0.4,25.7,M,-19.2,M,,*73
$GNGGA,223057.00,4910.422332,N,12304.379675,W,1,12,0.4,25.7,M,-19.2,M,,*76
$GNGGA,223058.00,4910.422328,N,12304.379621,W,1,12,0.4,25.7,M,-19.2,M,,*73
$GNGGA,223059.00,4910.422319,N,12304.379605,W,1,12,0.4,25.7,M,-19.2,M,,*76
$GNGGA,223100.00,4910.422315,N,12304.379586,W,1,12,0.4,25.7,M,-19.2,M,,*7F
$GNGGA,223101.00,4910.422313,N,12304.379568,W,1,12,0.4,25.6,M,-19.2,M,,*79
$GNGGA,223102.00,4910.422311,N,12304.379550,W,1,12,0.4,25.6,M,-19.2,M,,*73
$GNGGA,223103.00,4910.422313,N,12304.379548,W,1,12,0.4,25.6,M,-19.2,M,,*79
$GNGGA,223104.00,4910.422313,N,12304.379543,W,1,12,0.4,25.6,M,-19.2,M,,*75
$GNGGA,223105.00,4910.422311,N,12304.379513,W,1,12,0.4,25.6,M,-19.2,M,,*73
$GNGGA,223106.00,4910.422320,N,12304.379512,W,1,12,0.4,25.6,M,-19.2,M,,*73
$GNGGA,223107.00,4910.422313,N,12304.379491,W,1,12,0.4,25.6,M,-19.2,M,,*78
$GNGGA,223108.00,4910.422315,N,12304.379466,W,1,12,0.5,25.6,M,-19.2,M,,*78
$GNGGA,223109.00,4910.422316,N,12304.379446,W,1,12,0.4,25.6,M,-19.2,M,,*79
$GNGGA,223110.00,4910.422326,N,12304.379400,W,1,12,0.4,25.6,M,-19.2,M,,*70
$GNGGA,223111.00,4910.422332,N,12304.379369,W,1,12,0.4,25.6,M,-19.2,M,,*7C
$GNGGA,223112.00,4910.422333,N,12304.379338,W,1,12,0.4,25.6,M,-19.2,M,,*7A
$GNGGA,223113.00,4910.422338,N,12304.379277,W,1,12,0.4,25.6,M,-19.2,M,,*7A
$GNGGA,223114.00,4910.422352,N,12304.379271,W,1,12,0.4,25.5,M,-19.2,M,,*74
$GNGGA,223115.00,4910.422357,N,12304.379234,W,1,12,0.4,25.5,M,-19.2,M,,*71
$GNGGA,223116.00,4910.422375,N,12304.379206,W,1,12,0.4,25.5,M,-19.2,M,,*73
$GNGGA,223117.00,4910.422387,N,12304.379200,W,1,12,0.4,25.4,M,-19.2,M,,*78
$GNGGA,223118.00,4910.422400,N,12304.379193,W,1,12,0.4,25.4,M,-19.2,M,,*76
$GNGGA,223119.00,4910.422409,N,12304.379188,W,1,12,0.4,25.4,M,-19.2,M,,*74
$GNGGA,223120.00,4910.422420,N,12304.379164,W,1,12,0.4,25.4,M,-19.2,M,,*77
$GNGGA,223121.00,4910.422433,N,12304.379143,W,1,12,0.4,25.4,M,-19.2,M,,*71
$GNGGA,223122.00,4910.422434,N,12304.379144,W,1,12,0.4,25.4,M,-19.2,M,,*72
$GNGGA,223123.00,4910.422448,N,12304.379126,W,1,12,0.5,25.4,M,-19.2,M,,*7D
$GNGGA,223124.00,4910.422453,N,12304.379121,W,1,12,0.4,25.4,M,-19.2,M,,*76
$GNGGA,223125.00,4910.422467,N,12304.379104,W,1,12,0.4,25.3,M,-19.2,M,,*70
$GNGGA,223126.00,4910.422484,N,12304.379092,W,1,12,0.5,25.3,M,-19.2,M,,*71
$GNGGA,223127.00,4910.422495,N,12304.379087,W,1,12,0.5,25.3,M,-19.2,M,,*74
$GNGGA,223128.00,4910.422508,N,12304.379078,W,1,12,0.5,25.3,M,-19.2,M,,*7E
$GNGGA,223129.00,4910.422520,N,12304.379068,W,1,12,0.5,25.2,M,-19.2,M,,*75
$GNGGA,223130.00,4910.422529,N,12304.379056,W,1,12,0.5,25.2,M,-19.2,M,,*79
$GNGGA,223131.00,4910.422536,N,12304.379048,W,1,12,0.5,25.2,M,-19.2,M,,*79
$GNGGA,223132.00,4910.422543,N,12304.379033,W,1,12,0.5,25.2,M,-19.2,M,,*74
$GNGGA,223133.00,4910.422543,N,12304.379032,W,1,12,0.5,25.2,M,-19.2,M,,*74
$GNGGA,223134.00,4910.422545,N,12304.379026,W,1,12,0.5,25.2,M,-19.2,M,,*70
$GNGGA,223135.00,4910.422544,N,12304.379020,W,1,12,0.5,25.1,M,-19.2,M,,*75
$GNGGA,223136.00,4910.422538,N,12304.379021,W,1,12,0.5,25.1,M,-19.2,M,,*7C
$GNGGA,223137.00,4910.422540,N,12304.379006,W,1,12,0.5,25.1,M,-19.2,M,,*77
$GNGGA,223138.00,4910.422541,N,12304.379000,W,1,12,0.5,25.1,M,-19.2,M,,*7F
$GNGGA,223139.00,4910.422541,N,12304.378988,W,1,12,0.5,25.1,M,-19.2,M,,*76
$GNGGA,223140.00,4910.422529,N,12304.378963,W,1,12,0.4,25.1,M,-19.2,M,,*72
$GNGGA,223141.00,4910.422528,N,12304.378946,W,1,12,0.5,25.1,M,-19.2,M,,*74
$GNGGA,223142.00,4910.422526,N,12304.378945,W,1,12,0.5,25.1,M,-19.2,M,,*7A
$GNGGA,223143.00,4910.422518,N,12304.378907,W,1,12,0.5,25.1,M,-19.2,M,,*70
$GNGGA,223144.00,4910.422517,N,12304.378894,W,1,12,0.5,25.1,M,-19.2,M,,*73
$GNGGA,223145.00,4910.422517,N,12304.378880,W,1,12,0.5,25.1,M,-19.2,M,,*77
$GNGGA,223146.00,4910.422512,N,12304.378862,W,1,12,0.5,25.2,M,-19.2,M,,*7E
$GNGGA,223147.00,4910.422512,N,12304.378874,W,1,12,0.5,25.1,M,-19.2,M,,*7B
$GNGGA,223148.00,4910.422517,N,12304.378885,W,1,12,0.5,25.1,M,-19.2,M,,*7F
$GNGGA,223149.00,4910.422524,N,12304.378904,W,1,12,0.5,25.1,M,-19.2,M,,*76
$GNGGA,223150.00,4910.422525,N,12304.378926,W,1,12,0.5,25.1,M,-19.2,M,,*7F
$GNGGA,223151.00,4910.422529,N,12304.378943,W,1,12,0.5,25.1,M,-19.2,M,,*71
$GNGGA,223152.00,4910.422525,N,12304.378943,W,1,12,0.5,25.1,M,-19.2,M,,*7E
$GNGGA,223153.00,4910.422526,N,12304.378945,W,1,12,0.5,25.1,M,-19.2,M,,*7A
$GNGGA,223154.00,4910.422533,N,12304.378983,W,1,12,0.5,25.0,M,-19.2,M,,*72
$GNGGA,223155.00,4910.422533,N,12304.378990,W,1,12,0.5,25.0,M,-19.2,M,,*71
$GNGGA,223156.00,4910.422532,N,12304.379000,W,1,12,0.5,25.0,M,-19.2,M,,*72
$GNGGA,223157.00,4910.422530,N,12304.379008,W,1,12,0.4,24.9,M,-19.2,M,,*70
$GNGGA,223158.00,4910.422540,N,12304.379046,W,1,12,0.4,24.9,M,-19.2,M,,*72
$GNGGA,223159.00,4910.422536,N,12304.379059,W,1,12,0.4,24.9,M,-19.2,M,,*7C
$GNGGA,223200.00,4910.422536,N,12304.379068,W,1,12,0.4,24.9,M,-19.2,M,,*71
$GNGGA,223201.00,4910.422533,N,12304.379083,W,1,12,0.4,24.9,M,-19.2,M,,*70
$GNGGA,223202.00,4910.422530,N,12304.379102,W,1,12,0.4,24.9,M,-19.2,M,,*78
$GNGGA,223203.00,4910.422526,N,12304.379119,W,1,12,0.4,24.9,M,-19.2,M,,*74
$GNGGA,223204.00,4910.422526,N,12304.379128,W,1,12,0.4,24.9,M,-19.2,M,,*71
$GNGGA,223205.00,4910.422529,N,12304.379159,W,1,12,0.4,24.9,M,-19.2,M,,*79
$GNGGA,223206.00,4910.422536,N,12304.379180,W,1,12,0.4,24.8,M,-19.2,M,,*71
$GNGGA,223207.00,4910.422542,N,12304.379191,W,1,12,0.4,24.8,M,-19.2,M,,*73
$GNGGA,223208.00,4910.422545,N,12304.379221,W,1,12,0.4,24.8,M,-19.2,M,,*73
$GNGGA,223209.00,4910.422542,N,12304.379237,W,1,12,0.4,24.8,M,-19.2,M,,*72
$GNGGA,223210.00,4910.422532,N,12304.379246,W,1,12,0.4,24.8,M,-19.2,M,,*7B
$GNGGA,223211.00,4910.422526,N,12304.379249,W,1,12,0.4,24.9,M,-19.2,M,,*71
$GNGGA,223212.00,4910.422521,N,12304.379257,W,1,12,0.4,24.9,M,-19.2,M,,*7A
$GNGGA,223213.00,4910.422517,N,12304.379265,W,1,12,0.4,24.9,M,-19.2,M,,*7F
$GNGGA,223214.00,4910.422510,N,12304.379272,W,1,12,0.4,24.9,M,-19.2,M,,*79
$GNGGA,223215.00,4910.422508,N,12304.379276,W,1,12,0.4,24.9,M,-19.2,M,,*75
$GNGGA,223216.00,4910.422505,N,12304.379279,W,1,12,0.4,24.9,M,-19.2,M,,*74
$GNGGA,223217.00,4910.422491,N,12304.379266,W,1,12,0.4,24.9,M,-19.2,M,,*77
$GNGGA,223218.00,4910.422490,N,12304.379270,W,1,12,0.4,24.9,M,-19.2,M,,*7E
$GNGGA,223219.00,4910.422473,N,12304.379257,W,1,12,0.4,25.0,M,-19.2,M,,*7F
$GNGGA,223220.00,4910.422472,N,12304.379256,W,1,12,0.4,25.0,M,-19.2,M,,*75
$GNGGA,223221.00,4910.422470,N,12304.379254,W,1,12,0.4,25.0,M,-19.2,M,,*74
$GNGGA,223222.00,4910.422470,N,12304.379246,W,1,12,0.4,25.0,M,-19.2,M,,*74
$GNGGA,223223.00,4910.422469,N,12304.379237,W,1,12,0.4,25.1,M,-19.2,M,,*7A
$GNGGA,223224.00,4910.422464,N,12304.379253,W,1,12,0.4,25.1,M,-19.2,M,,*72
$GNGGA,223225.00,4910.422461,N,12304.379255,W,1,12,0.4,25.1,M,-19.2,M,,*70
$GNGGA,223226.00,4910.422449,N,12304.379269,W,1,12,0.4,25.1,M,-19.2,M,,*76
$GNGGA,223227.00,4910.422439,N,12304.379279,W,1,12,0.4,25.1,M,-19.2,M,,*71
$GNGGA,223228.00,4910.422430,N,12304.379286,W,1,12,0.4,25.1,M,-19.2,M,,*77
$GNGGA,223229.00,4910.422416,N,12304.379311,W,1,12,0.4,25.0,M,-19.2,M,,*7C
$GNGGA,223230.00,4910.422409,N,12304.379314,W,1,12,0.4,25.0,M,-19.2,M,,*7F
$GNGGA,223231.00,4910.422401,N,12304.379330,W,1,12,0.4,25.0,M,-19.2,M,,*70
$GNGGA,223232.00,4910.422389,N,12304.379349,W,1,12,0.4,25.0,M,-19.2,M,,*7A
$GNGGA,223233.00,4910.422382,N,12304.379356,W,1,12,0.4,25.0,M,-19.2,M,,*7E
$GNGGA,223234.00,4910.422374,N,12304.379365,W,1,12,0.4,25.0,M,-19.2,M,,*70
$GNGGA,223235.00,4910.422377,N,12304.379382,W,1,12,0.4,24.9,M,-19.2,M,,*73
$GNGGA,223236.00,4910.422377,N,12304.379389,W,1,12,0.4,24.9,M,-19.2,M,,*7B
$GNGGA,223237.00,4910.422377,N,12304.379376,W,1,12,0.4,24.9,M,-19.2,M,,*7A
$GNGGA,223238.00,4910.422377,N,12304.379364,W,1,12,0.4,24.9,M,-19.2,M,,*76
$GNGGA,223239.00,4910.422376,N,12304.379356,W,1,12,0.4,24.9,M,-19.2,M,,*77
$GNGGA,223240.00,4910.422378,N,12304.379336,W,1,12,0.4,24.9,M,-19.2,M,,*71
$GNGGA,223241.00,4910.422384,N,12304.379333,W,1,12,0.4,24.9,M,-19.2,M,,*76
$GNGGA,223242.00,4910.422383,N,12304.379330,W,1,12,0.4,24.9,M,-19.2,M,,*71
$GNGGA,223243.00,4910.422383,N,12304.379305,W,1,12,0.4,24.9,M,-19.2,M,,*76
$GNGGA,223244.00,4910.422381,N,12304.379294,W,1,12,0.4,24.9,M,-19.2,M,,*7A
$GNGGA,223245.00,4910.422377,N,12304.379284,W,1,12,0.4,24.9,M,-19.2,M,,*73
$GNGGA,223246.00,4910.422376,N,12304.379270,W,1,12,0.4,24.9,M,-19.2,M,,*7A
$GNGGA,223247.00,4910.422376,N,12304.379255,W,1,12,0.4,25.0,M,-19.2,M,,*74
$GNGGA,223248.00,4910.422374,N,12304.379240,W,1,12,0.4,25.0,M,-19.2,M,,*7D
$GNGGA,223249.00,4910.422374,N,12304.379224,W,1,12,0.5,25.0,M,-19.2,M,,*7F
$GNGGA,223250.00,4910.422373,N,12304.379218,W,1,12,0.5,25.0,M,-19.2,M,,*7F
$GNGGA,223251.00,4910.422374,N,12304.379210,W,1,12,0.5,25.0,M,-19.2,M,,*71
$GNGGA,223252.00,4910.422376,N,12304.379212,W,1,12,0.5,25.0,M,-19.2,M,,*72
$GNGGA,223253.00,4910.422375,N,12304.379217,W,1,12,0.5,25.0,M,-19.2,M,,*75
$GNGGA,223254.00,4910.422377,N,12304.379216,W,1,12,0.5,25.0,M,-19.2,M,,*71
$GNGGA,223255.00,4910.422380,N,12304.379221,W,1,12,0.4,25.0,M,-19.2,M,,*7D
$GNGGA,223256.00,4910.422383,N,12304.379228,W,1,12,0.4,25.0,M,-19.2,M,,*74
$GNGGA,223257.00,4910.422386,N,12304.379231,W,1,12,0.4,25.0,M,-19.2,M,,*78
$GNGGA,223258.00,4910.422389,N,12304.379248,W,1,12,0.4,25.0,M,-19.2,M,,*76
$GNGGA,223259.00,4910.422390,N,12304.379271,W,1,12,0.4,24.9,M,-19.2,M,,*7D
$GNGGA,223300.00,4910.422394,N,12304.379297,W,1,12,0.4,24.9,M,-19.2,M,,*7C
$GNGGA,223301.00,4910.422397,N,12304.379314,W,1,12,0.5,24.9,M,-19.2,M,,*75
$GNGGA,223302.00,4910.422407,N,12304.379357,W,1,12,0.5,24.8,M,-19.2,M,,*7E
$GNGGA,223303.00,4910.422411,N,12304.379366,W,1,12,0.5,24.8,M,-19.2,M,,*7A
$GNGGA,223304.00,4910.422423,N,12304.379402,W,1,12,0.5,24.8,M,-19.2,M,,*79
$GNGGA,223305.00,4910.422429,N,12304.379437,W,1,12,0.5,24.7,M,-19.2,M,,*7B
$GNGGA,223306.00,4910.422433,N,12304.379463,W,1,12,0.5,24.7,M,-19.2,M,,*72
$GNGGA,223307.00,4910.422439,N,12304.379479,W,1,12,0.5,24.6,M,-19.2,M,,*73
$GNGGA,223308.00,4910.422445,N,12304.379494,W,1,12,0.5,24.6,M,-19.2,M,,*74
$GNGGA,223309.00,4910.422442,N,12304.379509,W,1,12,0.5,24.6,M,-19.2,M,,*77
$GNGGA,223310.00,4910.422444,N,12304.379527,W,1,12,0.5,24.6,M,-19.2,M,,*75
$GNGGA,223311.00,4910.422448,N,12304.379549,W,1,12,0.5,24.6,M,-19.2,M,,*70
$GNGGA,223312.00,4910.422448,N,12304.379566,W,1,12,0.4,24.5,M,-19.2,M,,*7C
$GNGGA,223313.00,4910.422375,N,12304.379171,W,1,12,0.4,24.3,M,-19.2,M,,*70
$GNGGA,223314.00,4910.422524,N,12304.379380,W,1,12,0.4,23.8,M,-19.2,M,,*75
$GNGGA,223315.00,4910.422575,N,12304.379585,W,1,12,0.4,23.0,M,-19.2,M,,*7B
$GNGGA,223316.00,4910.422501,N,12304.379222,W,1,12,0.4,22.8,M,-19.2,M,,*78
$GNGGA,223317.00,4910.422076,N,12304.378829,W,1,12,0.4,22.3,M,-19.2,M,,*77
$GNGGA,223318.00,4910.421761,N,12304.378690,W,1,12,0.4,21.5,M,-19.2,M,,*73
$GNGGA,223319.00,4910.421482,N,12304.378707,W,1,12,0.4,20.9,M,-19.2,M,,*7E
$GNGGA,223320.00,4910.420888,N,12304.378822,W,1,12,0.4,20.3,M,-19.2,M,,*71
$GNGGA,223321.00,4910.420333,N,12304.378896,W,1,12,0.4,19.8,M,-19.2,M,,*75
$GNGGA,223322.00,4910.419819,N,12304.379096,W,1,12,0.4,19.7,M,-19.2,M,,*79
$GNGGA,223323.00,4910.419988,N,12304.379477,W,1,12,0.4,18.7,M,-19.2,M,,*7B
$GNGGA,223324.00,4910.419978,N,12304.379783,W,1,12,0.4,18.7,M,-19.2,M,,*7B
$GNGGA,223325.00,4910.420383,N,12304.379799,W,1,12,0.4,18.5,M,-19.2,M,,*77
$GNGGA,223326.00,4910.421057,N,12304.379543,W,1,12,0.4,18.1,M,-19.2,M,,*7E
$GNGGA,223327.00,4910.422167,N,12304.379779,W,1,12,0.4,17.7,M,-19.2,M,,*7C
$GNGGA,223328.00,4910.423496,N,12304.379734,W,1,12,0.4,17.1,M,-19.2,M,,*76
$GNGGA,223329.00,4910.424791,N,12304.379285,W,1,12,0.4,17.2,M,-19.2,M,,*78
$GNGGA,223330.00,4910.426314,N,12304.379027,W,1,12,0.4,16.9,M,-19.2,M,,*7B
$GNGGA,223331.00,4910.427896,N,12304.378931,W,1,12,0.4,17.1,M,-19.2,M,,*7C
$GNGGA,223332.00,4910.429342,N,12304.379047,W,1,12,0.4,16.7,M,-19.2,M,,*7D
$GNGGA,223333.00,4910.430505,N,12304.379039,W,1,12,0.4,16.0,M,-19.2,M,,*7F
$GNGGA,223334.00,4910.431353,N,12304.379431,W,1,12,0.4,15.3,M,-19.2,M,,*70
$GNGGA,223335.00,4910.432069,N,12304.379554,W,1,12,0.4,15.2,M,-19.2,M,,*7B
$GNGGA,223336.00,4910.432643,N,12304.379899,W,1,12,0.4,14.7,M,-19.2,M,,*7E
$GNGGA,223337.00,4910.433131,N,12304.379905,W,1,12,0.4,14.5,M,-19.2,M,,*7A
$GNGGA,223338.00,4910.433911,N,12304.379990,W,1,12,0.4,14.3,M,-19.2,M,,*75
$GNGGA,223339.00,4910.434670,N,12304.379842,W,1,12,0.4,14.1,M,-19.2,M,,*77
$GNGGA,223340.00,4910.435902,N,12304.380275,W,1,12,0.4,13.7,M,-19.2,M,,*7B
$GNGGA,223341.00,4910.436849,N,12304.380850,W,1,12,0.4,13.7,M,-19.2,M,,*7A
$GNGGA,223342.00,4910.437607,N,12304.381881,W,1,12,0.4,13.2,M,-19.2,M,,*74
$GNGGA,223343.00,4910.438154,N,12304.383103,W,1,12,0.4,13.4,M,-19.2,M,,*7C
$GNGGA,223344.00,4910.438617,N,12304.384588,W,1,12,0.4,13.2,M,-19.2,M,,*7D
$GNGGA,223345.00,4910.438991,N,12304.386304,W,1,12,0.4,13.3,M,-19.2,M,,*7C
$GNGGA,223346.00,4910.439346,N,12304.388053,W,1,12,0.4,13.2,M,-19.2,M,,*70
$GNGGA,223347.00,4910.439581,N,12304.389673,W,1,12,0.4,13.3,M,-19.2,M,,*78
$GNGGA,223348.00,4910.439916,N,12304.391530,W,1,12,0.4,13.2,M,-19.2,M,,*79
$GNGGA,223349.00,4910.440008,N,12304.393600,W,1,12,0.4,12.7,M,-19.2,M,,*76
$GNGGA,223350.00,4910.440071,N,12304.395410,W,1,12,0.4,12.4,M,-19.2,M,,*76
$GNGGA,223351.00,4910.440064,N,12304.397216,W,1,12,0.4,12.8,M,-19.2,M,,*7D
$GNGGA,223352.00,4910.440268,N,12304.399363,W,1,12,0.4,12.7,M,-19.2,M,,*72
$GNGGA,223353.00,4910.440226,N,12304.401012,W,1,12,0.4,12.8,M,-19.2,M,,*75
$GNGGA,223354.00,4910.440416,N,12304.402455,W,1,12,0.4,13.0,M,-19.2,M,,*7A
$GNGGA,223355.00,4910.440707,N,12304.404024,W,1,12,0.4,13.1,M,-19.2,M,,*7D
$GNGGA,223356.00,4910.440954,N,12304.405584,W,1,12,0.4,12.9,M,-19.2,M,,*71
$GNGGA,223357.00,4910.441417,N,12304.407019,W,1,12,0.4,11.8,M,-19.2,M,,*7A
$GNGGA,223358.00,4910.441996,N,12304.408394,W,1,12,0.4,11.4,M,-19.2,M,,*74
$GNGGA,223359.00,4910.442322,N,12304.410066,W,1,12,0.4,11.8,M,-19.2,M,,*78
$GNGGA,223400.00,4910.443164,N,12304.411298,W,1,12,0.4,11.7,M,-19.2,M,,*7F
$GNGGA,223401.00,4910.443890,N,12304.412599,W,1,12,0.4,12.1,M,-19.2,M,,*7C
$GNGGA,223402.00,4910.444613,N,12304.413454,W,1,12,0.4,12.1,M,-19.2,M,,*7C
$GNGGA,223403.00,4910.445067,N,12304.414557,W,1,12,0.4,12.0,M,-19.2,M,,*7D
$GNGGA,223404.00,4910.445549,N,12304.415561,W,1,12,0.4,11.8,M,-19.2,M,,*7C
$GNGGA,223405.00,4910.445759,N,12304.416828,W,1,12,0.4,11.4,M,-19.2,M,,*71
$GNGGA,223406.00,4910.445885,N,12304.418029,W,1,12,0.4,11.4,M,-19.2,M,,*7B
$GNGGA,223407.00,4910.445860,N,12304.419278,W,1,12,0.4,11.4,M,-19.2,M,,*76
$GNGGA,223408.00,4910.445782,N,12304.420003,W,1,12,0.4,11.7,M,-19.2,M,,*7D
$GNGGA,223409.00,4910.445611,N,12304.420718,W,1,12,0.4,11.6,M,-19.2,M,,*7B
$GNGGA,223410.00,4910.445434,N,12304.421144,W,1,12,0.4,11.8,M,-19.2,M,,*76
$GNGGA,223411.00,4910.445288,N,12304.421393,W,1,12,0.4,11.9,M,-19.2,M,,*7F
$GNGGA,223412.00,4910.445105,N,12304.421593,W,1,12,0.4,11.9,M,-19.2,M,,*7C
$GNGGA,223413.00,4910.445078,N,12304.421745,W,1,12,0.4,11.7,M,-19.2,M,,*71
$GNGGA,223414.00,4910.445138,N,12304.421761,W,1,12,0.4,11.5,M,-19.2,M,,*77
$GNGGA,223415.00,4910.445173,N,12304.421789,W,1,12,0.4,11.5,M,-19.2,M,,*7F
$GNGGA,223416.00,4910.445207,N,12304.421844,W,1,12,0.4,11.3,M,-19.2,M,,*74
$GNGGA,223417.00,4910.445239,N,12304.421896,W,1,12,0.4,11.2,M,-19.2,M,,*76
$GNGGA,223418.00,4910.445301,N,12304.421932,W,1,12,0.4,11.1,M,-19.2,M,,*7F
$GNGGA,223419.00,4910.445387,N,12304.421956,W,1,12,0.4,11.1,M,-19.2,M,,*72
$GNGGA,223420.00,4910.445489,N,12304.421972,W,1,12,0.4,11.0,M,-19.2,M,,*76
$GNGGA,223421.00,4910.445578,N,12304.422001,W,1,12,0.4,11.0,M,-19.2,M,,*76
$GNGGA,223422.00,4910.445662,N,12304.421986,W,1,12,0.4,11.0,M,-19.2,M,,*78
$GNGGA,223423.00,4910.445697,N,12304.421975,W,1,12,0.4,11.0,M,-19.2,M,,*7F
$GNGGA,223424.00,4910.445713,N,12304.421971,W,1,12,0.4,10.9,M,-19.2,M,,*79
$GNGGA,223425.00,4910.445721,N,12304.421957,W,1,12,0.4,10.9,M,-19.2,M,,*7D
$GNGGA,223426.00,4910.445734,N,12304.421939,W,1,12,0.4,10.9,M,-19.2,M,,*72
$GNGGA,223427.00,4910.445745,N,12304.421926,W,1,12,0.4,10.8,M,-19.2,M,,*7A
$GNGGA,223428.00,4910.445752,N,12304.421909,W,1,12,0.4,10.8,M,-19.2,M,,*7E
$GNGGA,223429.00,4910.445760,N,12304.421894,W,1,12,0.4,10.7,M,-19.2,M,,*74
$GNGGA,223430.00,4910.445769,N,12304.421880,W,1,12,0.4,10.7,M,-19.2,M,,*70
$GNGGA,223431.00,4910.445770,N,12304.421889,W,1,12,0.4,10.6,M,-19.2,M,,*71
$GNGGA,223432.00,4910.445774,N,12304.421879,W,1,12,0.4,10.6,M,-19.2,M,,*79
$GNGGA,223433.00,4910.445782,N,12304.421867,W,1,12,0.4,10.5,M,-19.2,M,,*7D
$GNGGA,223434.00,4910.445788,N,12304.421859,W,1,12,0.4,10.4,M,-19.2,M,,*7C
$GNGGA,223435.00,4910.445794,N,12304.421854,W,1,12,0.4,10.4,M,-19.2,M,,*7D
$GNGGA,223436.00,4910.445797,N,12304.421854,W,1,12,0.4,10.3,M,-19.2,M,,*7A
$GNGGA,223437.00,4910.445804,N,12304.421853,W,1,12,0.4,10.3,M,-19.2,M,,*79
$GNGGA,223438.00,4910.445815,N,12304.421845,W,1,12,0.4,10.3,M,-19.2,M,,*71
$GNGGA,223439.00,4910.445821,N,12304.421840,W,1,12,0.4,10.3,M,-19.2,M,,*72
$GNGGA,223440.00,4910.445831,N,12304.421828,W,1,12,0.4,10.2,M,-19.2,M,,*72
$GNGGA,223441.00,4910.445840,N,12304.421818,W,1,12,0.4,10.2,M,-19.2,M,,*76
$GNGGA,223442.00,4910.445852,N,12304.421802,W,1,12,0.4,10.2,M,-19.2,M,,*7D
$GNGGA,223443.00,4910.445861,N,12304.421785,W,1,12,0.4,10.2,M,-19.2,M,,*7C
$GNGGA,223444.00,4910.445869,N,12304.421778,W,1,12,0.4,10.2,M,-19.2,M,,*71
$GNGGA,223445.00,4910.445877,N,12304.421774,W,1,12,0.4,10.2,M,-19.2,M,,*73
$GNGGA,223446.00,4910.445878,N,12304.421779,W,1,12,0.4,10.1,M,-19.2,M,,*71
$GNGGA,223447.00,4910.445875,N,12304.421790,W,1,12,0.4,10.1,M,-19.2,M,,*7A
$GNGGA,223448.00,4910.445870,N,12304.421804,W,1,12,0.4,10.1,M,-19.2,M,,*72
$GNGGA,223449.00,4910.445866,N,12304.421810,W,1,12,0.4,10.1,M,-19.2,M,,*71
$GNGGA,223450.00,4910.445861,N,12304.421826,W,1,12,0.4,10.2,M,-19.2,M,,*78
$GNGGA,223451.00,4910.445856,N,12304.421833,W,1,12,0.4,10.2,M,-19.2,M,,*79
$GNGGA,223452.00,4910.445857,N,12304.421834,W,1,12,0.4,10.2,M,-19.2,M,,*7C
$GNGGA,223453.00,4910.445854,N,12304.421836,W,1,12,0.4,10.2,M,-19.2,M,,*7C
$GNGGA,223454.00,4910.445849,N,12304.421833,W,1,12,0.4,10.2,M,-19.2,M,,*72
$GNGGA,223455.00,4910.445849,N,12304.421833,W,1,12,0.4,10.2,M,-19.2,M,,*73
$GNGGA,223456.00,4910.445855,N,12304.421826,W,1,12,0.4,10.1,M,-19.2,M,,*7A
$GNGGA,223457.00,4910.445850,N,12304.421832,W,1,12,0.4,10.1,M,-19.2,M,,*7B
$GNGGA,223458.00,4910.445851,N,12304.421819,W,1,12,0.4,10.1,M,-19.2,M,,*7C
$GNGGA,223459.00,4910.445857,N,12304.421810,W,1,12,0.4,10.0,M,-19.2,M,,*73
$GNGGA,223500.00,4910.445857,N,12304.421805,W,1,12,0.4,10.0,M,-19.2,M,,*7A
$GNGGA,223501.00,4910.445863,N,12304.421787,W,1,12,0.4,10.0,M,-19.2,M,,*79
$GNGGA,223502.00,4910.445871,N,12304.421769,W,1,12,0.4,9.9,M,-19.2,M,,*48
$GNGGA,223503.00,4910.445873,N,12304.421750,W,1,12,0.4,9.9,M,-19.2,M,,*41
$GNGGA,223504.00,4910.445879,N,12304.421733,W,1,12,0.4,9.8,M,-19.2,M,,*48
$GNGGA,223505.00,4910.445883,N,12304.421726,W,1,12,0.4,9.8,M,-19.2,M,,*48
$GNGGA,223506.00,4910.445885,N,12304.421721,W,1,12,0.4,9.8,M,-19.2,M,,*4A
$GNGGA,223507.00,4910.445884,N,12304.421726,W,1,12,0.4,9.8,M,-19.2,M,,*4D
$GNGGA,223508.00,4910.445881,N,12304.421717,W,1,12,0.4,9.7,M,-19.2,M,,*4A
$GNGGA,223509.00,4910.445880,N,12304.421713,W,1,12,0.4,9.7,M,-19.2,M,,*4E
$GNGGA,223510.00,4910.445884,N,12304.421704,W,1,12,0.4,9.7,M,-19.2,M,,*44
$GNGGA,223511.00,4910.445889,N,12304.421696,W,1,12,0.4,9.6,M,-19.2,M,,*43
$GNGGA,223512.00,4910.445890,N,12304.421686,W,1,12,0.4,9.6,M,-19.2,M,,*49
$GNGGA,223513.00,4910.445890,N,12304.421674,W,1,12,0.4,9.5,M,-19.2,M,,*46
$GNGGA,223514.00,4910.445884,N,12304.421673,W,1,12,0.4,9.6,M,-19.2,M,,*40
$GNGGA,223515.00,4910.445880,N,12304.421662,W,1,12,0.4,9.5,M,-19.2,M,,*46
$GNGGA,223516.00,4910.445872,N,12304.421657,W,1,12,0.4,9.6,M,-19.2,M,,*4D
$GNGGA,223517.00,4910.445870,N,12304.421648,W,1,12,0.4,9.6,M,-19.2,M,,*40
$GNGGA,223518.00,4910.445861,N,12304.421642,W,1,12,0.4,9.6,M,-19.2,M,,*45
$GNGGA,223519.00,4910.445861,N,12304.421626,W,1,12,0.4,9.6,M,-19.2,M,,*46
$GNGGA,223520.00,4910.445857,N,12304.421622,W,1,12,0.4,9.6,M,-19.2,M,,*4D
$GNGGA,223521.00,4910.445854,N,12304.421605,W,1,12,0.4,9.6,M,-19.2,M,,*4A
$GNGGA,223522.00,4910.445851,N,12304.421585,W,1,12,0.4,9.6,M,-19.2,M,,*47
$GNGGA,223523.00,4910.445853,N,12304.421557,W,1,12,0.4,9.6,M,-19.2,M,,*4B
$GNGGA,223524.00,4910.445854,N,12304.421535,W,1,12,0.4,9.6,M,-19.2,M,,*4F
$GNGGA,223525.00,4910.445854,N,12304.421513,W,1,12,0.4,9.6,M,-19.2,M,,*4A
$GNGGA,223526.00,4910.445854,N,12304.421489,W,1,12,0.4,9.6,M,-19.2,M,,*4B
$GNGGA,223527.00,4910.445849,N,12304.421474,W,1,12,0.4,9.6,M,-19.2,M,,*44
$GNGGA,223528.00,4910.445840,N,12304.421459,W,1,12,0.4,9.6,M,-19.2,M,,*4D
$GNGGA,223529.00,4910.445839,N,12304.421438,W,1,12,0.4,9.6,M,-19.2,M,,*45
$GNGGA,223530.00,4910.445840,N,12304.421411,W,1,12,0.4,9.6,M,-19.2,M,,*48
$GNGGA,223531.00,4910.445839,N,12304.421389,W,1,12,0.4,9.6,M,-19.2,M,,*41
$GNGGA,223532.00,4910.445845,N,12304.421368,W,1,12,0.4,9.6,M,-19.2,M,,*46
$GNGGA,223533.00,4910.445845,N,12304.421354,W,1,12,0.4,9.6,M,-19.2,M,,*48
$GNGGA,223534.00,4910.445851,N,12304.421334,W,1,12,0.4,9.6,M,-19.2,M,,*4C
$GNGGA,223535.00,4910.445852,N,12304.421307,W,1,12,0.4,9.6,M,-19.2,M,,*4E
$GNGGA,223536.00,4910.445855,N,12304.421291,W,1,12,0.4,9.6,M,-19.2,M,,*44
$GNGGA,223537.00,4910.445860,N,12304.421274,W,1,12,0.4,9.6,M,-19.2,M,,*48
$GNGGA,223538.00,4910.445866,N,12304.421260,W,1,12,0.4,9.5,M,-19.2,M,,*47
$GNGGA,223539.00,4910.445871,N,12304.421248,W,1,12,0.4,9.5,M,-19.2,M,,*4A
$GNGGA,223540.00,4910.445876,N,12304.421229,W,1,12,0.4,9.5,M,-19.2,M,,*44
$GNGGA,223541.00,4910.445879,N,12304.421209,W,1,12,0.4,9.5,M,-19.2,M,,*48
$GNGGA,223542.00,4910.445883,N,12304.421201,W,1,12,0.4,9.5,M,-19.2,M,,*46
$GNGGA,223543.00,4910.445890,N,12304.421190,W,1,12,0.4,9.5,M,-19.2,M,,*4E
$GNGGA,223544.00,4910.445884,N,12304.421185,W,1,12,0.4,9.5,M,-19.2,M,,*48
$GNGGA,223545.00,4910.445881,N,12304.421181,W,1,12,0.4,9.5,M,-19.2,M,,*48
$GNGGA,223546.00,4910.445875,N,12304.421186,W,1,12,0.4,9.5,M,-19.2,M,,*47
$GNGGA,223547.00,4910.445869,N,12304.421188,W,1,12,0.4,9.5,M,-19.2,M,,*45
$GNGGA,223548.00,4910.445864,N,12304.421198,W,1,12,0.4,9.5,M,-19.2,M,,*46
$GNGGA,223549.00,4910.445862,N,12304.421197,W,1,12,0.4,9.5,M,-19.2,M,,*4E
$GNGGA,223550.00,4910.445866,N,12304.421186,W,1,12,0.4,9.4,M,-19.2,M,,*43
$GNGGA,223551.00,4910.445866,N,12304.421183,W,1,12,0.4,9.4,M,-19.2,M,,*47
$GNGGA,223552.00,4910.445872,N,12304.421175,W,1,12,0.4,9.4,M,-19.2,M,,*48
$GNGGA,223553.00,4910.445875,N,12304.421165,W,1,12,0.4,9.4,M,-19.2,M,,*4F
$GNGGA,223554.00,4910.445875,N,12304.421157,W,1,12,0.4,9.4,M,-19.2,M,,*49
$GNGGA,223555.00,4910.445875,N,12304.421147,W,1,12,0.4,9.4,M,-19.2,M,,*49
$GNGGA,223556.00,4910.445876,N,12304.421134,W,1,12,0.4,9.4,M,-19.2,M,,*4D
$GNGGA,223557.00,4910.445872,N,12304.421129,W,1,12,0.4,9.4,M,-19.2,M,,*44
$GNGGA,223558.00,4910.445875,N,12304.421115,W,1,12,0.4,9.4,M,-19.2,M,,*43
$GNGGA,223559.00,4910.445866,N,12304.421110,W,1,12,0.4,9.4,M,-19.2,M,,*45
$GNGGA,223600.00,4910.445864,N,12304.421104,W,1,12,0.4,9.4,M,-19.2,M,,*4D
$GNGGA,223601.00,4910.445859,N,12304.421098,W,1,12,0.4,9.3,M,-19.2,M,,*41
$GNGGA,223602.00,4910.445861,N,12304.421089,W,1,12,0.4,9.3,M,-19.2,M,,*49
$GNGGA,223603.00,4910.445858,N,12304.421082,W,1,12,0.4,9.3,M,-19.2,M,,*49
$GNGGA,223604.00,4910.445856,N,12304.421078,W,1,12,0.4,9.3,M,-19.2,M,,*45
$GNGGA,223605.00,4910.445855,N,12304.421074,W,1,12,0.4,9.3,M,-19.2,M,,*4B
$GNGGA,223606.00,4910.445852,N,12304.421070,W,1,12,0.4,9.3,M,-19.2,M,,*4B
$GNGGA,223607.00,4910.445852,N,12304.421065,W,1,12,0.4,9.3,M,-19.2,M,,*4E
$GNGGA,223608.00,4910.445852,N,12304.421059,W,1,12,0.4,9.3,M,-19.2,M,,*4E
$GNGGA,223609.00,4910.445855,N,12304.421053,W,1,12,0.4,9.3,M,-19.2,M,,*42
$GNGGA,223610.00,4910.445858,N,12304.421051,W,1,12,0.4,9.2,M,-19.2,M,,*44
$GNGGA,223611.00,4910.445865,N,12304.421053,W,1,12,0.4,9.2,M,-19.2,M,,*49
$GNGGA,223612.00,4910.445868,N,12304.421055,W,1,12,0.4,9.1,M,-19.2,M,,*42
$GNGGA,223613.00,4910.445871,N,12304.421066,W,1,12,0.4,9.1,M,-19.2,M,,*4B
$GNGGA,223614.00,4910.445869,N,12304.421086,W,1,12,0.4,9.1,M,-19.2,M,,*4B
$GNGGA,223615.00,4910.445872,N,12304.421107,W,1,12,0.4,9.1,M,-19.2,M,,*48
$GNGGA,223616.00,4910.445875,N,12304.421120,W,1,12,0.4,9.1,M,-19.2,M,,*49
$GNGGA,223617.00,4910.445881,N,12304.421138,W,1,12,0.4,9.0,M,-19.2,M,,*4B
$GNGGA,223618.00,4910.445886,N,12304.421158,W,1,12,0.4,9.0,M,-19.2,M,,*45
$GNGGA,223619.00,4910.445893,N,12304.421177,W,1,12,0.4,9.0,M,-19.2,M,,*4D
$GNGGA,223620.00,4910.445901,N,12304.421197,W,1,12,0.4,9.0,M,-19.2,M,,*43
$GNGGA,223621.00,4910.445911,N,12304.421216,W,1,12,0.4,9.0,M,-19.2,M,,*49
$GNGGA,223622.00,4910.445917,N,12304.421233,W,1,12,0.4,9.0,M,-19.2,M,,*4B
$GNGGA,223623.00,4910.445926,N,12304.421248,W,1,12,0.4,9.0,M,-19.2,M,,*44
$GNGGA,223624.00,4910.445936,N,12304.421270,W,1,12,0.4,9.0,M,-19.2,M,,*49
$GNGGA,223625.00,4910.445939,N,12304.421293,W,1,12,0.4,9.0,M,-19.2,M,,*4A
$GNGGA,223626.00,4910.445948,N,12304.421303,W,1,12,0.4,9.0,M,-19.2,M,,*47
$GNGGA,223627.00,4910.445961,N,12304.421312,W,1,12,0.4,9.0,M,-19.2,M,,*4D
$GNGGA,223628.00,4910.445966,N,12304.421326,W,1,12,0.4,9.0,M,-19.2,M,,*42
$GNGGA,223629.00,4910.445974,N,12304.421338,W,1,12,0.4,9.0,M,-19.2,M,,*4F
$GNGGA,223630.00,4910.445982,N,12304.421347,W,1,12,0.4,9.1,M,-19.2,M,,*47
$GNGGA,223631.00,4910.445994,N,12304.421356,W,1,12,0.4,9.1,M,-19.2,M,,*41
$GNGGA,223632.00,4910.446004,N,12304.421362,W,1,12,0.4,9.1,M,-19.2,M,,*46
$GNGGA,223633.00,4910.446013,N,12304.421373,W,1,12,0.4,9.1,M,-19.2,M,,*41
$GNGGA,223634.00,4910.446025,N,12304.421380,W,1,12,0.4,9.1,M,-19.2,M,,*4F
$GNGGA,223635.00,4910.446034,N,12304.421393,W,1,12,0.4,9.1,M,-19.2,M,,*4C
$GNGGA,223636.00,4910.446046,N,12304.421403,W,1,12,0.4,9.1,M,-19.2,M,,*44
$GNGGA,223637.00,4910.446057,N,12304.421412,W,1,12,0.4,9.2,M,-19.2,M,,*46
$GNGGA,223638.00,4910.446072,N,12304.421421,W,1,12,0.4,9.2,M,-19.2,M,,*4E
$GNGGA,223639.00,4910.446083,N,12304.421428,W,1,12,0.4,9.2,M,-19.2,M,,*48
$GNGGA,223640.00,4910.446091,N,12304.421434,W,1,12,0.4,9.3,M,-19.2,M,,*49
$GNGGA,223641.00,4910.446100,N,12304.421440,W,1,12,0.4,9.3,M,-19.2,M,,*42
$GNGGA,223642.00,4910.446107,N,12304.421454,W,1,12,0.4,9.3,M,-19.2,M,,*43
$GNGGA,223643.00,4910.446112,N,12304.421467,W,1,12,0.4,9.3,M,-19.2,M,,*46
$GNGGA,223644.00,4910.446119,N,12304.421477,W,1,12,0.4,9.3,M,-19.2,M,,*4B
$GNGGA,223645.00,4910.446123,N,12304.421497,W,1,12,0.4,9.4,M,-19.2,M,,*4A
$GNGGA,223646.00,4910.446125,N,12304.421521,W,1,12,0.4,9.4,M,-19.2,M,,*43
$GNGGA,223647.00,4910.446125,N,12304.421539,W,1,12,0.4,9.4,M,-19.2,M,,*4B
$GNGGA,223648.00,4910.446128,N,12304.421546,W,1,12,0.4,9.3,M,-19.2,M,,*46
$GNGGA,223649.00,4910.446133,N,12304.421558,W,1,12,0.4,9.3,M,-19.2,M,,*42
$GNGGA,223650.00,4910.446134,N,12304.421566,W,1,12,0.4,9.3,M,-19.2,M,,*40
$GNGGA,223651.00,4910.446137,N,12304.421578,W,1,12,0.4,9.3,M,-19.2,M,,*4D
$GNGGA,223652.00,4910.446140,N,12304.421584,W,1,12,0.4,9.3,M,-19.2,M,,*4D
$GNGGA,223653.00,4910.446142,N,12304.421594,W,1,12,0.4,9.3,M,-19.2,M,,*4F
$GNGGA,223654.00,4910.446147,N,12304.421598,W,1,12,0.4,9.3,M,-19.2,M,,*41
$GNGGA,223655.00,4910.446153,N,12304.421597,W,1,12,0.4,9.2,M,-19.2,M,,*4B
$GNGGA,223656.00,4910.446154,N,12304.421599,W,1,12,0.4,9.2,M,-19.2,M,,*41
$GNGGA,223657.00,4910.446154,N,12304.421600,W,1,12,0.4,9.2,M,-19.2,M,,*43
$GNGGA,223658.00,4910.446154,N,12304.421605,W,1,12,0.4,9.2,M,-19.2,M,,*49
$GNGGA,223659.00,4910.446152,N,12304.421606,W,1,12,0.4,9.1,M,-19.2,M,,*4E
$GNGGA,223700.00,4910.446148,N,12304.421606,W,1,12,0.4,9.1,M,-19.2,M,,*48
$GNGGA,223701.00,4910.446143,N,12304.421610,W,1,12,0.4,9.1,M,-19.2,M,,*45
$GNGGA,223702.00,4910.446136,N,12304.421620,W,1,12,0.4,9.2,M,-19.2,M,,*44
$GNGGA,223703.00,4910.446131,N,12304.421623,W,1,12,0.4,9.2,M,-19.2,M,,*41
$GNGGA,223704.00,4910.446127,N,12304.421631,W,1,12,0.4,9.2,M,-19.2,M,,*42
$GNGGA,223705.00,4910.446121,N,12304.421635,W,1,12,0.4,9.2,M,-19.2,M,,*41
$GNGGA,223706.00,4910.446116,N,12304.421644,W,1,12,0.4,9.2,M,-19.2,M,,*40
$GNGGA,223707.00,4910.446108,N,12304.421654,W,1,12,0.4,9.2,M,-19.2,M,,*4F
$GNGGA,223708.00,4910.446103,N,12304.421659,W,1,12,0.4,9.2,M,-19.2,M,,*46
$GNGGA,223709.00,4910.446097,N,12304.421663,W,1,12,0.4,9.2,M,-19.2,M,,*42
$GNGGA,223710.00,4910.446092,N,12304.421672,W,1,12,0.4,9.2,M,-19.2,M,,*4F
$GNGGA,223711.00,4910.446087,N,12304.421675,W,1,12,0.4,9.2,M,-19.2,M,,*4D
$GNGGA,223712.00,4910.446083,N,12304.421681,W,1,12,0.4,9.2,M,-19.2,M,,*41
$GNGGA,223713.00,4910.446079,N,12304.421686,W,1,12,0.4,9.2,M,-19.2,M,,*42
$GNGGA,223714.00,4910.446071,N,12304.421693,W,1,12,0.4,9.3,M,-19.2,M,,*48
$GNGGA,223715.00,4910.446068,N,12304.421696,W,1,12,0.4,9.3,M,-19.2,M,,*44
$GNGGA,223716.00,4910.446062,N,12304.421698,W,1,12,0.4,9.3,M,-19.2,M,,*43
$GNGGA,223717.00,4910.446059,N,12304.421698,W,1,12,0.4,9.3,M,-19.2,M,,*4A
$GNGGA,223718.00,4910.446052,N,12304.421699,W,1,12,0.4,9.4,M,-19.2,M,,*48
$GNGGA,223719.00,4910.446051,N,12304.421692,W,1,12,0.4,9.4,M,-19.2,M,,*41
$GNGGA,223720.00,4910.446044,N,12304.421690,W,1,12,0.4,9.4,M,-19.2,M,,*4D
$GNGGA,223721.00,4910.446040,N,12304.421688,W,1,12,0.4,9.4,M,-19.2,M,,*41
$GNGGA,223722.00,4910.446034,N,12304.421685,W,1,12,0.4,9.4,M,-19.2,M,,*4C
$GNGGA,223723.00,4910.446031,N,12304.421680,W,1,12,0.4,9.4,M,-19.2,M,,*4D
$GNGGA,223724.00,4910.446023,N,12304.421674,W,1,12,0.4,9.4,M,-19.2,M,,*42
$GNGGA,223725.00,4910.446013,N,12304.421673,W,1,12,0.4,9.4,M,-19.2,M,,*47
$GNGGA,223726.00,4910.446008,N,12304.421669,W,1,12,0.4,9.4,M,-19.2,M,,*45
$GNGGA,223727.00,4910.445998,N,12304.421670,W,1,12,0.4,9.4,M,-19.2,M,,*4F
$GNGGA,223728.00,4910.445987,N,12304.421671,W,1,12,0.4,9.4,M,-19.2,M,,*4F
$GNGGA,223729.00,4910.445978,N,12304.421675,W,1,12,0.4,9.3,M,-19.2,M,,*4D
$GNGGA,223730.00,4910.445967,N,12304.421678,W,1,12,0.4,9.3,M,-19.2,M,,*46
$GNGGA,223731.00,4910.445957,N,12304.421688,W,1,12,0.4,9.3,M,-19.2,M,,*4B
$GNGGA,223732.00,4910.445955,N,12304.421695,W,1,12,0.4,9.3,M,-19.2,M,,*46
$GNGGA,223733.00,4910.445944,N,12304.421701,W,1,12,0.4,9.3,M,-19.2,M,,*4B
$GNGGA,223734.00,4910.445933,N,12304.421712,W,1,12,0.4,9.3,M,-19.2,M,,*4E
$GNGGA,223735.00,4910.445930,N,12304.421724,W,1,12,0.4,9.3,M,-19.2,M,,*49
$GNGGA,223736.00,4910.445916,N,12304.421737,W,1,12,0.4,9.3,M,-19.2,M,,*4C
$GNGGA,223737.00,4910.445912,N,12304.421750,W,1,12,0.4,9.3,M,-19.2,M,,*48
$GNGGA,223738.00,4910.445913,N,12304.421764,W,1,12,0.4,9.3,M,-19.2,M,,*41
$GNGGA,223739.00,4910.445903,N,12304.421776,W,1,12,0.4,9.3,M,-19.2,M,,*42
$GNGGA,223740.00,4910.445894,N,12304.421786,W,1,12,0.4,9.3,M,-19.2,M,,*4C
$GNGGA,223741.00,4910.445893,N,12304.421803,W,1,12,0.4,9.3,M,-19.2,M,,*48
$GNGGA,223742.00,4910.445893,N,12304.421815,W,1,12,0.4,9.3,M,-19.2,M,,*4C
$GNGGA,223743.00,4910.445885,N,12304.421823,W,1,12,0.4,9.3,M,-19.2,M,,*4F
$GNGGA,223744.00,4910.445887,N,12304.421833,W,1,12,0.4,9.4,M,-19.2,M,,*4C
$GNGGA,223745.00,4910.445888,N,12304.421839,W,1,12,0.4,9.3,M,-19.2,M,,*4F
$GNGGA,223746.00,4910.445882,N,12304.421845,W,1,12,0.4,9.4,M,-19.2,M,,*4A
$GNGGA,223747.00,4910.445876,N,12304.421851,W,1,12,0.4,9.3,M,-19.2,M,,*42
$GNGGA,223748.00,4910.445870,N,12304.421849,W,1,12,0.4,9.3,M,-19.2,M,,*42
$GNGGA,223749.00,4910.445870,N,12304.421849,W,1,12,0.4,9.3,M,-19.2,M,,*43
$GNGGA,223750.00,4910.445863,N,12304.421849,W,1,12,0.4,9.3,M,-19.2,M,,*49
$GNGGA,223751.00,4910.445857,N,12304.421851,W,1,12,0.4,9.3,M,-19.2,M,,*46
$GNGGA,223752.00,4910.445846,N,12304.421855,W,1,12,0.4,9.4,M,-19.2,M,,*46
$GNGGA,223753.00,4910.445839,N,12304.421858,W,1,12,0.4,9.4,M,-19.2,M,,*42
$GNGGA,223754.00,4910.445835,N,12304.421860,W,1,12,0.4,9.4,M,-19.2,M,,*42
$GNGGA,223755.00,4910.445836,N,12304.421859,W,1,12,0.4,9.4,M,-19.2,M,,*4A
$GNGGA,223756.00,4910.445834,N,12304.421857,W,1,12,0.4,9.4,M,-19.2,M,,*45
$GNGGA,223757.00,4910.445834,N,12304.421855,W,1,12,0.4,9.5,M,-19.2,M,,*47
$GNGGA,223758.00,4910.445831,N,12304.421853,W,1,12,0.4,9.5,M,-19.2,M,,*4B
$GNGGA,223759.00,4910.445828,N,12304.421849,W,1,12,0.4,9.5,M,-19.2,M,,*49
$GNGGA,223800.00,4910.445831,N,12304.421840,W,1,12,0.4,9.5,M,-19.2,M,,*4B
$GNGGA,223801.00,4910.445830,N,12304.421832,W,1,12,0.4,9.5,M,-19.2,M,,*4E
$GNGGA,223802.00,4910.445827,N,12304.421822,W,1,12,0.4,9.6,M,-19.2,M,,*49
$GNGGA,223803.00,4910.445824,N,12304.421813,W,1,12,0.4,9.6,M,-19.2,M,,*49
$GNGGA,223804.00,4910.445821,N,12304.421807,W,1,12,0.4,9.6,M,-19.2,M,,*4E
$GNGGA,223805.00,4910.445810,N,12304.421807,W,1,12,0.4,9.7,M,-19.2,M,,*4C
$GNGGA,223806.00,4910.445803,N,12304.421801,W,1,12,0.4,9.7,M,-19.2,M,,*4B
$GNGGA,223807.00,4910.445793,N,12304.421797,W,1,12,0.4,9.7,M,-19.2,M,,*4C
$GNGGA,223808.00,4910.445788,N,12304.421788,W,1,12,0.4,9.8,M,-19.2,M,,*48
$GNGGA,223809.00,4910.445777,N,12304.421782,W,1,12,0.4,9.8,M,-19.2,M,,*43
$GNGGA,223810.00,4910.445766,N,12304.421778,W,1,12,0.4,9.8,M,-19.2,M,,*4E
$GNGGA,223811.00,4910.445756,N,12304.421773,W,1,12,0.4,9.8,M,-19.2,M,,*47
$GNGGA,223812.00,4910.445744,N,12304.421772,W,1,12,0.4,9.8,M,-19.2,M,,*46
$GNGGA,223813.00,4910.445738,N,12304.421768,W,1,12,0.4,9.8,M,-19.2,M,,*47
$GNGGA,223814.00,4910.445731,N,12304.421764,W,1,12,0.4,9.8,M,-19.2,M,,*45
$GNGGA,223815.00,4910.445719,N,12304.421762,W,1,12,0.4,9.8,M,-19.2,M,,*48
$GNGGA,223816.00,4910.445713,N,12304.421756,W,1,12,0.4,9.8,M,-19.2,M,,*46
$GNGGA,223817.00,4910.445710,N,12304.421750,W,1,12,0.4,9.8,M,-19.2,M,,*42
$GNGGA,223818.00,4910.445708,N,12304.421744,W,1,12,0.4,9.8,M,-19.2,M,,*41
$GNGGA,223819.00,4910.445710,N,12304.421734,W,1,12,0.4,9.8,M,-19.2,M,,*4E
$GNGGA,223820.00,4910.445712,N,12304.421720,W,1,12,0.4,9.8,M,-19.2,M,,*43
$GNGGA,223821.00,4910.445708,N,12304.421711,W,1,12,0.4,9.8,M,-19.2,M,,*4B
$GNGGA,223822.00,4910.445714,N,12304.421696,W,1,12,0.4,9.8,M,-19.2,M,,*4B
$GNGGA,223823.00,4910.445713,N,12304.421686,W,1,12,0.4,9.8,M,-19.2,M,,*4C
$GNGGA,223824.00,4910.445717,N,12304.421671,W,1,12,0.4,9.8,M,-19.2,M,,*47
$GNGGA,223825.00,4910.445719,N,12304.421659,W,1,12,0.4,9.8,M,-19.2,M,,*42
$GNGGA,223826.00,4910.445726,N,12304.421647,W,1,12,0.4,9.8,M,-19.2,M,,*42
$GNGGA,223827.00,4910.445731,N,12304.421636,W,1,12,0.4,9.8,M,-19.2,M,,*43
$GNGGA,223828.00,4910.445738,N,12304.421625,W,1,12,0.4,9.9,M,-19.2,M,,*46
$GNGGA,223829.00,4910.445742,N,12304.421618,W,1,12,0.4,9.9,M,-19.2,M,,*44
$GNGGA,223830.00,4910.445744,N,12304.421617,W,1,12,0.4,10.0,M,-19.2,M,,*74
$GNGGA,223831.00,4910.445745,N,12304.421610,W,1,12,0.4,10.0,M,-19.2,M,,*73
$GNGGA,223832.00,4910.445744,N,12304.421612,W,1,12,0.4,10.0,M,-19.2,M,,*73
$GNGGA,223833.00,4910.445738,N,12304.421624,W,1,12,0.4,10.0,M,-19.2,M,,*7C
$GNGGA,223834.00,4910.445734,N,12304.421633,W,1,12,0.4,10.1,M,-19.2,M,,*70
$GNGGA,223835.00,4910.445729,N,12304.421645,W,1,12,0.4,10.1,M,-19.2,M,,*7C
$GNGGA,223836.00,4910.445724,N,12304.421657,W,1,12,0.4,10.2,M,-19.2,M,,*72
$GNGGA,223837.00,4910.445716,N,12304.421669,W,1,12,0.4,10.2,M,-19.2,M,,*7F
$GNGGA,223838.00,4910.445713,N,12304.421678,W,1,12,0.4,10.2,M,-19.2,M,,*75
$GNGGA,223839.00,4910.445708,N,12304.421692,W,1,12,0.4,10.2,M,-19.2,M,,*7A
$GNGGA,223840.00,4910.445702,N,12304.421705,W,1,12,0.4,10.2,M,-19.2,M,,*71
$GNGGA,223841.00,4910.445695,N,12304.421719,W,1,12,0.4,10.2,M,-19.2,M,,*72
$GNGGA,223842.00,4910.445689,N,12304.421728,W,1,12,0.4,10.2,M,-19.2,M,,*7E
$GNGGA,223843.00,4910.445683,N,12304.421737,W,1,12,0.4,10.2,M,-19.2,M,,*7B
$GNGGA,223844.00,4910.445677,N,12304.421741,W,1,12,0.4,10.2,M,-19.2,M,,*76
$GNGGA,223845.00,4910.445672,N,12304.421746,W,1,12,0.4,10.2,M,-19.2,M,,*75
$GNGGA,223846.00,4910.445665,N,12304.421754,W,1,12,0.4,10.2,M,-19.2,M,,*73
$GNGGA,223847.00,4910.445656,N,12304.421764,W,1,12,0.4,10.2,M,-19.2,M,,*71
$GNGGA,223848.00,4910.445648,N,12304.421771,W,1,12,0.4,10.2,M,-19.2,M,,*75
$GNGGA,223849.00,4910.445644,N,12304.421774,W,1,12,0.4,10.1,M,-19.2,M,,*7E
$GNGGA,223850.00,4910.445636,N,12304.421780,W,1,12,0.4,10.1,M,-19.2,M,,*78
$GNGGA,223851.00,4910.445630,N,12304.421793,W,1,12,0.4,10.1,M,-19.2,M,,*7D
$GNGGA,223852.00,4910.445623,N,12304.421796,W,1,12,0.4,10.1,M,-19.2,M,,*79
$GNGGA,223853.00,4910.445612,N,12304.421800,W,1,12,0.4,10.1,M,-19.2,M,,*7A
$GNGGA,223854.00,4910.445599,N,12304.421807,W,1,12,0.4,10.1,M,-19.2,M,,*7A
$GNGGA,223855.00,4910.445585,N,12304.421816,W,1,12,0.4,10.1,M,-19.2,M,,*76
$GNGGA,223856.00,4910.445578,N,12304.421823,W,1,12,0.4,10.2,M,-19.2,M,,*72
$GNGGA,223857.00,4910.445573,N,12304.421824,W,1,12,0.4,10.2,M,-19.2,M,,*7F
$GNGGA,223858.00,4910.445571,N,12304.421819,W,1,12,0.4,10.2,M,-19.2,M,,*7C
$GNGGA,223859.00,4910.445569,N,12304.421813,W,1,12,0.4,10.2,M,-19.2,M,,*7E
$GNGGA,223900.00,4910.445567,N,12304.421811,W,1,12,0.4,10.2,M,-19.2,M,,*7F
$GNGGA,223901.00,4910.445565,N,12304.421807,W,1,12,0.4,10.2,M,-19.2,M,,*7B
$GNGGA,223902.00,4910.445561,N,12304.421806,W,1,12,0.4,10.2,M,-19.2,M,,*7D
$GNGGA,223903.00,4910.445561,N,12304.421806,W,1,12,0.4,10.3,M,-19.2,M,,*7D
$GNGGA,223904.00,4910.445558,N,12304.421809,W,1,12,0.4,10.3,M,-19.2,M,,*7F
$GNGGA,223905.00,4910.445557,N,12304.421809,W,1,12,0.4,10.3,M,-19.2,M,,*71
$GNGGA,223906.00,4910.445555,N,12304.421813,W,1,12,0.4,10.3,M,-19.2,M,,*7B
$GNGGA,223907.00,4910.445555,N,12304.421812,W,1,12,0.4,10.3,M,-19.2,M,,*7B
$GNGGA,223908.00,4910.445553,N,12304.421815,W,1,12,0.4,10.3,M,-19.2,M,,*75
$GNGGA,223909.00,4910.445550,N,12304.421818,W,1,12,0.4,10.3,M,-19.2,M,,*7A
$GNGGA,223910.00,4910.445548,N,12304.421816,W,1,12,0.4,10.3,M,-19.2,M,,*75
$GNGGA,223911.00,4910.445543,N,12304.421822,W,1,12,0.4,10.3,M,-19.2,M,,*78
$GNGGA,223912.00,4910.445539,N,12304.421831,W,1,12,0.4,10.3,M,-19.2,M,,*74
$GNGGA,223913.00,4910.445533,N,12304.421840,W,1,12,0.4,10.3,M,-19.2,M,,*79
$GNGGA,223914.00,4910.445530,N,12304.421848,W,1,12,0.4,10.3,M,-19.2,M,,*75
$GNGGA,223915.00,4910.445525,N,12304.421854,W,1,12,0.4,10.3,M,-19.2,M,,*7D
$GNGGA,223916.00,4910.445521,N,12304.421863,W,1,12,0.4,10.3,M,-19.2,M,,*7E
$GNGGA,223917.00,4910.445515,N,12304.421872,W,1,12,0.4,10.3,M,-19.2,M,,*78
$GNGGA,223918.00,4910.445512,N,12304.421879,W,1,12,0.4,10.3,M,-19.2,M,,*7B
$GNGGA,223919.00,4910.445508,N,12304.421892,W,1,12,0.4,10.2,M,-19.2,M,,*75
$GNGGA,223920.00,4910.445504,N,12304.421903,W,1,12,0.4,10.2,M,-19.2,M,,*7A
$GNGGA,223921.00,4910.445501,N,12304.421915,W,1,12,0.4,10.2,M,-19.2,M,,*79
$GNGGA,223922.00,4910.445500,N,12304.421928,W,1,12,0.4,10.2,M,-19.2,M,,*75
$GNGGA,223923.00,4910.445500,N,12304.421938,W,1,12,0.4,10.2,M,-19.2,M,,*75
$GNGGA,223924.00,4910.445499,N,12304.421945,W,1,12,0.4,10.2,M,-19.2,M,,*79
$GNGGA,223925.00,4910.445501,N,12304.421947,W,1,12,0.4,10.2,M,-19.2,M,,*7A
$GNGGA,223926.00,4910.445501,N,12304.421952,W,1,12,0.4,10.1,M,-19.2,M,,*7E
$GNGGA,223927.00,4910.445502,N,12304.421953,W,1,12,0.4,10.1,M,-19.2,M,,*7D
$GNGGA,223928.00,4910.445503,N,12304.421952,W,1,12,0.4,10.1,M,-19.2,M,,*72
$GNGGA,223929.00,4910.445503,N,12304.421958,W,1,12,0.4,10.0,M,-19.2,M,,*78
$GNGGA,223930.00,4910.445506,N,12304.421960,W,1,12,0.4,10.0,M,-19.2,M,,*7E
$GNGGA,223931.00,4910.445512,N,12304.421965,W,1,12,0.4,10.0,M,-19.2,M,,*7F
$GNGGA,223932.00,4910.445514,N,12304.421969,W,1,12,0.4,9.9,M,-19.2,M,,*47
$GNGGA,223933.00,4910.445514,N,12304.421976,W,1,12,0.4,9.9,M,-19.2,M,,*48
$GNGGA,223934.00,4910.445513,N,12304.421987,W,1,12,0.4,9.9,M,-19.2,M,,*46
$GNGGA,223935.00,4910.445512,N,12304.421993,W,1,12,0.4,9.8,M,-19.2,M,,*42
$GNGGA,223936.00,4910.445510,N,12304.421998,W,1,12,0.4,9.8,M,-19.2,M,,*48
$GNGGA,223937.00,4910.445508,N,12304.422001,W,1,12,0.4,9.8,M,-19.2,M,,*4A
$GNGGA,223938.00,4910.445506,N,12304.422002,W,1,12,0.4,9.8,M,-19.2,M,,*48
$GNGGA,223939.00,4910.445500,N,12304.422002,W,1,12,0.4,9.8,M,-19.2,M,,*4F
$GNGGA,223940.00,4910.445494,N,12304.422001,W,1,12,0.4,9.8,M,-19.2,M,,*4E
$GNGGA,223941.00,4910.445489,N,12304.422001,W,1,12,0.4,9.7,M,-19.2,M,,*4C
$GNGGA,223942.00,4910.445484,N,12304.422002,W,1,12,0.4,9.7,M,-19.2,M,,*41
$GNGGA,223943.00,4910.445479,N,12304.421996,W,1,12,0.4,9.7,M,-19.2,M,,*45
$GNGGA,223944.00,4910.445473,N,12304.421990,W,1,12,0.4,9.7,M,-19.2,M,,*4E
$GNGGA,223945.00,4910.445468,N,12304.421987,W,1,12,0.4,9.7,M,-19.2,M,,*43
$GNGGA,223946.00,4910.445461,N,12304.421981,W,1,12,0.4,9.7,M,-19.2,M,,*4F
$GNGGA,223947.00,4910.445450,N,12304.421974,W,1,12,0.4,9.7,M,-19.2,M,,*46
$GNGGA,223948.00,4910.445442,N,12304.421974,W,1,12,0.4,9.7,M,-19.2,M,,*4A
$GNGGA,223949.00,4910.445434,N,12304.421965,W,1,12,0.4,9.6,M,-19.2,M,,*4B
$GNGGA,223950.00,4910.445425,N,12304.421956,W,1,12,0.4,9.6,M,-19.2,M,,*43
$GNGGA,223951.00,4910.445417,N,12304.421944,W,1,12,0.4,9.6,M,-19.2,M,,*40
$GNGGA,223952.00,4910.445408,N,12304.421935,W,1,12,0.4,9.6,M,-19.2,M,,*4B
$GNGGA,223953.00,4910.445395,N,12304.421927,W,1,12,0.4,9.5,M,-19.2,M,,*49
$GNGGA,223954.00,4910.445384,N,12304.421926,W,1,12,0.4,9.5,M,-19.2,M,,*4F
$GNGGA,223955.00,4910.445371,N,12304.421925,W,1,12,0.4,9.5,M,-19.2,M,,*47
$GNGGA,223956.00,4910.445362,N,12304.421921,W,1,12,0.4,9.5,M,-19.2,M,,*42
$GNGGA,223957.00,4910.445356,N,12304.421915,W,1,12,0.4,9.5,M,-19.2,M,,*43
$GNGGA,223958.00,4910.445348,N,12304.421910,W,1,12,0.4,9.5,M,-19.2,M,,*46
$GNGGA,223959.00,4910.445345,N,12304.421897,W,1,12,0.4,9.5,M,-19.2,M,,*44
$GNGGA,224000.00,4910.445340,N,12304.421889,W,1,12,0.4,9.5,M,-19.2,M,,*4C
$GNGGA,224001.00,4910.445333,N,12304.421878,W,1,12,0.4,9.5,M,-19.2,M,,*47
$GNGGA,224002.00,4910.445327,N,12304.421872,W,1,12,0.4,9.5,M,-19.2,M,,*4B
$GNGGA,224003.00,4910.445326,N,12304.421865,W,1,12,0.4,9.5,M,-19.2,M,,*4D
$GNGGA,224004.00,4910.445323,N,12304.421858,W,1,12,0.4,9.5,M,-19.2,M,,*41
$GNGGA,224005.00,4910.445324,N,12304.421849,W,1,12,0.4,9.4,M,-19.2,M,,*46
$GNGGA,224006.00,4910.445326,N,12304.421840,W,1,12,0.4,9.4,M,-19.2,M,,*4E
$GNGGA,224007.00,4910.445327,N,12304.421834,W,1,12,0.4,9.4,M,-19.2,M,,*4D
$GNGGA,224008.00,4910.445329,N,12304.421830,W,1,12,0.4,9.4,M,-19.2,M,,*48
$GNGGA,224009.00,4910.445333,N,12304.421821,W,1,12,0.4,9.4,M,-19.2,M,,*42
$GNGGA,224010.00,4910.445335,N,12304.421816,W,1,12,0.4,9.3,M,-19.2,M,,*4F
$GNGGA,224011.00,4910.445338,N,12304.421818,W,1,12,0.4,9.3,M,-19.2,M,,*4D
$GNGGA,224012.00,4910.445337,N,12304.421823,W,1,12,0.4,9.3,M,-19.2,M,,*49
$GNGGA,224013.00,4910.445338,N,12304.421830,W,1,12,0.4,9.3,M,-19.2,M,,*45
$GNGGA,224014.00,4910.445338,N,12304.421843,W,1,12,0.4,9.3,M,-19.2,M,,*46
$GNGGA,224015.00,4910.445341,N,12304.421848,W,1,12,0.4,9.3,M,-19.2,M,,*42
$GNGGA,224016.00,4910.445343,N,12304.421854,W,1,12,0.4,9.3,M,-19.2,M,,*4E
$GNGGA,224017.00,4910.445347,N,12304.421863,W,1,12,0.4,9.3,M,-19.2,M,,*4F
$GNGGA,224018.00,4910.445348,N,12304.421868,W,1,12,0.4,9.3,M,-19.2,M,,*44
$GNGGA,224019.00,4910.445355,N,12304.421869,W,1,12,0.4,9.3,M,-19.2,M,,*48
$GNGGA,224020.00,4910.445362,N,12304.421874,W,1,12,0.4,9.3,M,-19.2,M,,*4A
$GNGGA,224021.00,4910.445366,N,12304.421879,W,1,12,0.4,9.3,M,-19.2,M,,*42
$GNGGA,224022.00,4910.445370,N,12304.421880,W,1,12,0.4,9.3,M,-19.2,M,,*40
$GNGGA,224023.00,4910.445376,N,12304.421881,W,1,12,0.4,9.3,M,-19.2,M,,*46
$GNGGA,224024.00,4910.445382,N,12304.421880,W,1,12,0.4,9.3,M,-19.2,M,,*4B
$GNGGA,224025.00,4910.445387,N,12304.421881,W,1,12,0.4,9.3,M,-19.2,M,,*4E
$GNGGA,224026.00,4910.445393,N,12304.421883,W,1,12,0.4,9.3,M,-19.2,M,,*4A
$GNGGA,224027.00,4910.445400,N,12304.421881,W,1,12,0.4,9.3,M,-19.2,M,,*44
$GNGGA,224028.00,4910.445404,N,12304.421884,W,1,12,0.4,9.3,M,-19.2,M,,*4A
$GNGGA,224029.00,4910.445408,N,12304.421879,W,1,12,0.4,9.3,M,-19.2,M,,*45
$GNGGA,224030.00,4910.445410,N,12304.421880,W,1,12,0.4,9.3,M,-19.2,M,,*42
$GNGGA,224031.00,4910.445413,N,12304.421881,W,1,12,0.4,9.2,M,-19.2,M,,*40
$GNGGA,224032.00,4910.445413,N,12304.421879,W,1,12,0.4,9.2,M,-19.2,M,,*44
$GNGGA,224033.00,4910.445411,N,12304.421876,W,1,12,0.4,9.2,M,-19.2,M,,*48
$GNGGA,224034.00,4910.445410,N,12304.421874,W,1,12,0.4,9.2,M,-19.2,M,,*4C
$GNGGA,224035.00,4910.445410,N,12304.421871,W,1,12,0.4,9.2,M,-19.2,M,,*48
$GNGGA,224036.00,4910.445412,N,12304.421864,W,1,12,0.4,9.1,M,-19.2,M,,*4E
$GNGGA,224037.00,4910.445414,N,12304.421860,W,1,12,0.4,9.1,M,-19.2,M,,*4D
$GNGGA,224038.00,4910.445413,N,12304.421860,W,1,12,0.4,9.1,M,-19.2,M,,*45
$GNGGA,224039.00,4910.445411,N,12304.421860,W,1,12,0.4,9.1,M,-19.2,M,,*46
$GNGGA,224040.00,4910.445411,N,12304.421862,W,1,12,0.4,9.1,M,-19.2,M,,*4A
$GNGGA,224041.00,4910.445409,N,12304.421864,W,1,12,0.4,9.1,M,-19.2,M,,*44
$GNGGA,224042.00,4910.445407,N,12304.421866,W,1,12,0.4,9.0,M,-19.2,M,,*4A
$GNGGA,224043.00,4910.445408,N,12304.421866,W,1,12,0.4,9.0,M,-19.2,M,,*44
$GNGGA,224044.00,4910.445408,N,12304.421869,W,1,12,0.4,9.0,M,-19.2,M,,*4C
$GNGGA,224045.00,4910.445404,N,12304.421868,W,1,12,0.4,9.0,M,-19.2,M,,*40
$GNGGA,224046.00,4910.445404,N,12304.421870,W,1,12,0.4,9.0,M,-19.2,M,,*4A
$GNGGA,224047.00,4910.445402,N,12304.421864,W,1,12,0.4,9.0,M,-19.2,M,,*48
$GNGGA,224048.00,4910.445402,N,12304.421861,W,1,12,0.4,9.0,M,-19.2,M,,*42
$GNGGA,224049.00,4910.445402,N,12304.421855,W,1,12,0.4,9.0,M,-19.2,M,,*44
$GNGGA,224050.00,4910.445404,N,12304.421847,W,1,12,0.4,8.9,M,-19.2,M,,*41
$GNGGA,224051.00,4910.445403,N,12304.421845,W,1,12,0.4,8.9,M,-19.2,M,,*45
$GNGGA,224052.00,4910.445402,N,12304.421842,W,1,12,0.4,8.9,M,-19.2,M,,*40
