$GNGGA,222608.00,4910.416941,N,12304.378534,W,1,12,0.5,24.0,M,-19.2,M,,*72
$GNGGA,222609.00,4910.416941,N,12304.378537,W,1,12,0.5,24.0,M,-19.2,M,,*70
$GNGGA,222610.00,4910.416942,N,12304.378540,W,1,12,0.5,24.0,M,-19.2,M,,*7B
$GNGGA,222611.00,4910.416942,N,12304.378543,W,1,12,0.5,24.0,M,-19.2,M,,*79
$GNGGA,222612.00,4910.416943,N,12304.378545,W,1,12,0.5,24.0,M,-19.2,M,,*7D
$GNGGA,222613.00,4910.416942,N,12304.378543,W,1,12,0.5,24.0,M,-19.2,M,,*7B
$GNGGA,222614.00,4910.416941,N,12304.378541,W,1,12,0.5,24.0,M,-19.2,M,,*7D
$GNGGA,222615.00,4910.416939,N,12304.378540,W,1,12,0.5,23.9,M,-19.2,M,,*7C
$GNGGA,222616.00,4910.416937,N,12304.378535,W,1,12,0.5,24.0,M,-19.2,M,,*7D
$GNGGA,222617.00,4910.416937,N,12304.378538,W,1,12,0.5,23.9,M,-19.2,M,,*7F
$GNGGA,222618.00,4910.416937,N,12304.378538,W,1,12,0.5,23.9,M,-19.2,M,,*70
$GNGGA,222619.00,4910.416936,N,12304.378540,W,1,12,0.5,23.9,M,-19.2,M,,*7F
$GNGGA,222620.00,4910.416936,N,12304.378540,W,1,12,0.5,23.9,M,-19.2,M,,*75
$GNGGA,222621.00,4910.416937,N,12304.378541,W,1,12,0.5,23.9,M,-19.2,M,,*74
$GNGGA,222622.00,4910.416936,N,12304.378541,W,1,12,0.5,23.9,M,-19.2,M,,*76
$GNGGA,222623.00,4910.416935,N,12304.378543,W,1,12,0.6,23.9,M,-19.2,M,,*75
$GNGGA,222624.00,4910.416934,N,12304.378544,W,1,12,0.6,23.9,M,-19.2,M,,*74
$GNGGA,222625.00,4910.416934,N,12304.378546,W,1,12,0.6,23.9,M,-19.2,M,,*77
$GNGGA,222626.00,4910.416932,N,12304.378547,W,1,12,0.6,23.9,M,-19.2,M,,*73
$GNGGA,222627.00,4910.416933,N,12304.378549,W,1,12,0.6,23.9,M,-19.2,M,,*7D
$GNGGA,222628.00,4910.416933,N,12304.378552,W,1,12,0.6,23.9,M,-19.2,M,,*78
$GNGGA,222629.00,4910.416932,N,12304.378552,W,1,12,0.6,23.9,M,-19.2,M,,*78
$GNGGA,222630.00,4910.416932,N,12304.378552,W,1,12,0.5,23.9,M,-19.2,M,,*73
$GNGGA,222631.00,4910.416932,N,12304.378552,W,1,12,0.5,23.9,M,-19.2,M,,*72
$GNGGA,222632.00,4910.416932,N,12304.378552,W,1,12,0.5,23.9,M,-19.2,M,,*71
$GNGGA,222633.00,4910.416930,N,12304.378550,W,1,12,0.5,23.9,M,-19.2,M,,*70
$GNGGA,222634.00,4910.416930,N,12304.378550,W,1,12,0.5,23.9,M,-19.2,M,,*77
$GNGGA,222635.00,4910.416931,N,12304.378552,W,1,12,0.5,23.9,M,-19.2,M,,*75
$GNGGA,222636.00,4910.416931,N,12304.378550,W,1,12,0.5,23.9,M,-19.2,M,,*74
$GNGGA,222637.00,4910.416929,N,12304.378551,W,1,12,0.5,23.9,M,-19.2,M,,*7D
$GNGGA,222638.00,4910.416929,N,12304.378552,W,1,12,0.5,23.9,M,-19.2,M,,*71
$GNGGA,222639.00,4910.416929,N,12304.378554,W,1,12,0.5,23.9,M,-19.2,M,,*76
$GNGGA,222640.00,4910.416929,N,12304.378556,W,1,12,0.5,23.9,M,-19.2,M,,*7A
$GNGGA,222641.00,4910.416930,N,12304.378561,W,1,12,0.5,23.9,M,-19.2,M,,*77
$GNGGA,222642.00,4910.416932,N,12304.378567,W,1,12,0.5,23.9,M,-19.2,M,,*70
$GNGGA,222643.00,4910.416933,N,12304.378571,W,1,12,0.5,23.9,M,-19.2,M,,*77
$GNGGA,222644.00,4910.416932,N,12304.378574,W,1,12,0.5,23.9,M,-19.2,M,,*74
$GNGGA,222645.00,4910.416932,N,12304.378578,W,1,12,0.5,23.9,M,-19.2,M,,*79
$GNGGA,222646.00,4910.416932,N,12304.378582,W,1,12,0.5,23.9,M,-19.2,M,,*7F
$GNGGA,222647.00,4910.416934,N,12304.378588,W,1,12,0.6,23.9,M,-19.2,M,,*71
$GNGGA,222648.00,4910.416934,N,12304.378591,W,1,12,0.6,23.9,M,-19.2,M,,*76
$GNGGA,222649.00,4910.416935,N,12304.378593,W,1,12,0.6,23.9,M,-19.2,M,,*74
$GNGGA,222650.00,4910.416934,N,12304.378593,W,1,12,0.6,23.9,M,-19.2,M,,*7D
$GNGGA,222651.00,4910.416934,N,12304.378594,W,1,12,0.6,23.9,M,-19.2,M,,*7B
$GNGGA,222652.00,4910.416932,N,12304.378590,W,1,12,0.6,23.9,M,-19.2,M,,*7A
$GNGGA,222653.00,4910.416931,N,12304.378589,W,1,12,0.6,23.9,M,-19.2,M,,*70
$GNGGA,222654.00,4910.416930,N,12304.378586,W,1,12,0.6,23.9,M,-19.2,M,,*79
$GNGGA,222655.00,4910.416928,N,12304.378582,W,1,12,0.6,23.9,M,-19.2,M,,*75
$GNGGA,222656.00,4910.416927,N,12304.378579,W,1,12,0.6,23.9,M,-19.2,M,,*7D
$GNGGA,222657.00,4910.416926,N,12304.378576,W,1,12,0.6,23.9,M,-19.2,M,,*72
$GNGGA,222658.00,4910.416926,N,12304.378574,W,1,12,0.6,23.9,M,-19.2,M,,*7F
$GNGGA,222659.00,4910.416926,N,12304.378573,W,1,12,0.6,23.9,M,-19.2,M,,*79
$GNGGA,222700.00,4910.416925,N,12304.378571,W,1,12,0.5,23.9,M,-19.2,M,,*76
$GNGGA,222701.00,4910.416925,N,12304.378572,W,1,12,0.5,23.9,M,-19.2,M,,*74
$GNGGA,222702.00,4910.416926,N,12304.378574,W,1,12,0.5,23.9,M,-19.2,M,,*72
$GNGGA,222703.00,4910.416928,N,12304.378576,W,1,12,0.5,23.9,M,-19.2,M,,*7F
$GNGGA,222704.00,4910.416928,N,12304.378579,W,1,12,0.5,23.9,M,-19.2,M,,*77
$GNGGA,222705.00,4910.416928,N,12304.378582,W,1,12,0.5,23.9,M,-19.2,M,,*72
$GNGGA,222706.00,4910.416929,N,12304.378582,W,1,12,0.5,23.9,M,-19.2,M,,*70
$GNGGA,222707.00,4910.416929,N,12304.378583,W,1,12,0.5,23.9,M,-19.2,M,,*70
$GNGGA,222708.00,4910.416930,N,12304.378584,W,1,12,0.5,23.9,M,-19.2,M,,*70
$GNGGA,222709.00,4910.416931,N,12304.378585,W,1,12,0.5,23.8,M,-19.2,M,,*70
$GNGGA,222710.00,4910.416930,N,12304.378584,W,1,12,0.5,23.8,M,-19.2,M,,*78
$GNGGA,222711.00,4910.416929,N,12304.378582,W,1,12,0.5,23.8,M,-19.2,M,,*77
$GNGGA,222712.00,4910.416928,N,12304.378579,W,1,12,0.5,23.8,M,-19.2,M,,*71
$GNGGA,222713.00,4910.416926,N,12304.378576,W,1,12,0.5,23.9,M,-19.2,M,,*70
$GNGGA,222714.00,4910.416925,N,12304.378573,W,1,12,0.5,23.9,M,-19.2,M,,*71
$GNGGA,222715.00,4910.416923,N,12304.378569,W,1,12,0.6,23.9,M,-19.2,M,,*7E
$GNGGA,222716.00,4910.416920,N,12304.378565,W,1,12,0.5,23.9,M,-19.2,M,,*71
$GNGGA,222717.00,4910.416910,N,12304.378541,W,1,12,0.5,23.9,M,-19.2,M,,*75
$GNGGA,222718.00,4910.416908,N,12304.378540,W,1,12,0.5,23.9,M,-19.2,M,,*72
$GNGGA,222719.00,4910.416898,N,12304.378519,W,1,12,0.5,23.9,M,-19.2,M,,*77
$GNGGA,222720.00,4910.416890,N,12304.378503,W,1,12,0.5,23.9,M,-19.2,M,,*7E
$GNGGA,222721.00,4910.416881,N,12304.378485,W,1,12,0.5,24.0,M,-19.2,M,,*7E
$GNGGA,222722.00,4910.416874,N,12304.378469,W,1,12,0.5,24.0,M,-19.2,M,,*75
$GNGGA,222723.00,4910.416863,N,12304.378447,W,1,12,0.5,24.0,M,-19.2,M,,*7E
$GNGGA,222724.00,4910.416854,N,12304.378429,W,1,12,0.5,24.0,M,-19.2,M,,*75
$GNGGA,222725.00,4910.416846,N,12304.378411,W,1,12,0.5,24.1,M,-19.2,M,,*7D
$GNGGA,222726.00,4910.416836,N,12304.378389,W,1,12,0.5,24.1,M,-19.2,M,,*7F
$GNGGA,222727.00,4910.416827,N,12304.378370,W,1,12,0.5,24.1,M,-19.2,M,,*78
$GNGGA,222728.00,4910.416819,N,12304.378356,W,1,12,0.5,24.1,M,-19.2,M,,*7E
$GNGGA,222729.00,4910.416812,N,12304.378342,W,1,12,0.5,24.2,M,-19.2,M,,*72
$GNGGA,222730.00,4910.416804,N,12304.378325,W,1,12,0.5,24.2,M,-19.2,M,,*7C
$GNGGA,222731.00,4910.416796,N,12304.378307,W,1,12,0.5,24.2,M,-19.2,M,,*79
$GNGGA,222732.00,4910.416792,N,12304.378297,W,1,12,0.5,24.2,M,-19.2,M,,*76
$GNGGA,222733.00,4910.416788,N,12304.378291,W,1,12,0.5,24.2,M,-19.2,M,,*7A
$GNGGA,222734.00,4910.416785,N,12304.378285,W,1,12,0.5,24.2,M,-19.2,M,,*75
$GNGGA,222735.00,4910.416784,N,12304.378280,W,1,12,0.5,24.2,M,-19.2,M,,*70
$GNGGA,222736.00,4910.416782,N,12304.378276,W,1,12,0.5,24.2,M,-19.2,M,,*7C
$GNGGA,222737.00,4910.416779,N,12304.378268,W,1,12,0.5,24.3,M,-19.2,M,,*77
$GNGGA,222738.00,4910.416778,N,12304.378262,W,1,12,0.5,24.3,M,-19.2,M,,*73
$GNGGA,222739.00,4910.416776,N,12304.378259,W,1,12,0.5,24.3,M,-19.2,M,,*74
$GNGGA,222740.00,4910.416776,N,12304.378256,W,1,12,0.5,24.3,M,-19.2,M,,*75
$GNGGA,222741.00,4910.416776,N,12304.378255,W,1,12,0.5,24.2,M,-19.2,M,,*76
$GNGGA,222742.00,4910.416776,N,12304.378254,W,1,12,0.5,24.2,M,-19.2,M,,*74
$GNGGA,222743.00,4910.416777,N,12304.378253,W,1,12,0.5,24.2,M,-19.2,M,,*73
$GNGGA,222744.00,4910.416778,N,12304.378254,W,1,12,0.5,24.2,M,-19.2,M,,*7C
$GNGGA,222745.00,4910.416778,N,12304.378256,W,1,12,0.5,24.2,M,-19.2,M,,*7F
$GNGGA,222746.00,4910.416778,N,12304.378255,W,1,12,0.5,24.2,M,-19.2,M,,*7F
$GNGGA,222747.00,4910.416779,N,12304.378257,W,1,12,0.5,24.2,M,-19.2,M,,*7D
$GNGGA,222748.00,4910.416779,N,12304.378258,W,1,12,0.5,24.2,M,-19.2,M,,*7D
$GNGGA,222749.00,4910.416779,N,12304.378258,W,1,12,0.5,24.2,M,-19.2,M,,*7C
$GNGGA,222750.00,4910.416779,N,12304.378257,W,1,12,0.5,24.2,M,-19.2,M,,*7B
$GNGGA,222751.00,4910.416778,N,12304.378257,W,1,12,0.5,24.2,M,-19.2,M,,*7B
$GNGGA,222752.00,4910.416777,N,12304.378255,W,1,12,0.5,24.2,M,-19.2,M,,*75
$GNGGA,222753.00,4910.416775,N,12304.378253,W,1,12,0.5,24.2,M,-19.2,M,,*70
$GNGGA,222754.00,4910.416775,N,12304.378252,W,1,12,0.5,24.2,M,-19.2,M,,*76
$GNGGA,222755.00,4910.416773,N,12304.378251,W,1,12,0.5,24.2,M,-19.2,M,,*72
$GNGGA,222756.00,4910.416771,N,12304.378249,W,1,12,0.5,24.2,M,-19.2,M,,*7A
$GNGGA,222757.00,4910.416768,N,12304.378243,W,1,12,0.5,24.2,M,-19.2,M,,*79
$GNGGA,222758.00,4910.416766,N,12304.378239,W,1,12,0.5,24.2,M,-19.2,M,,*75
$GNGGA,222759.00,4910.416764,N,12304.378234,W,1,12,0.5,24.2,M,-19.2,M,,*7B
$GNGGA,222800.00,4910.416763,N,12304.378227,W,1,12,0.5,24.2,M,-19.2,M,,*7D
$GNGGA,222801.00,4910.416761,N,12304.378223,W,1,12,0.5,24.2,M,-19.2,M,,*7A
$GNGGA,222802.00,4910.416759,N,12304.378217,W,1,12,0.5,24.2,M,-19.2,M,,*75
$GNGGA,222803.00,4910.416760,N,12304.378216,W,1,12,0.5,24.2,M,-19.2,M,,*7F
$GNGGA,222804.00,4910.416760,N,12304.378216,W,1,12,0.5,24.2,M,-19.2,M,,*78
$GNGGA,222805.00,4910.416760,N,12304.378216,W,1,12,0.5,24.2,M,-19.2,M,,*79
$GNGGA,222806.00,4910.416760,N,12304.378215,W,1,12,0.5,24.2,M,-19.2,M,,*79
$GNGGA,222807.00,4910.416759,N,12304.378214,W,1,12,0.5,24.2,M,-19.2,M,,*73
$GNGGA,222808.00,4910.416758,N,12304.378214,W,1,12,0.5,24.3,M,-19.2,M,,*7C
$GNGGA,222809.00,4910.416757,N,12304.378208,W,1,12,0.5,24.3,M,-19.2,M,,*7F
$GNGGA,222810.00,4910.416756,N,12304.378204,W,1,12,0.5,24.3,M,-19.2,M,,*7A
$GNGGA,222811.00,4910.416755,N,12304.378198,W,1,12,0.5,24.3,M,-19.2,M,,*7E
$GNGGA,222812.00,4910.416752,N,12304.378191,W,1,12,0.5,24.3,M,-19.2,M,,*73
$GNGGA,222813.00,4910.416751,N,12304.378183,W,1,12,0.5,24.3,M,-19.2,M,,*72
$GNGGA,222814.00,4910.416750,N,12304.378182,W,1,12,0.5,24.3,M,-19.2,M,,*75
$GNGGA,222815.00,4910.416751,N,12304.378181,W,1,12,0.5,24.3,M,-19.2,M,,*76
$GNGGA,222816.00,4910.416751,N,12304.378177,W,1,12,0.5,24.3,M,-19.2,M,,*7C
$GNGGA,222817.00,4910.416752,N,12304.378177,W,1,12,0.5,24.3,M,-19.2,M,,*7E
$GNGGA,222818.00,4910.416752,N,12304.378172,W,1,12,0.5,24.3,M,-19.2,M,,*74
$GNGGA,222819.00,4910.416754,N,12304.378173,W,1,12,0.5,24.3,M,-19.2,M,,*72
$GNGGA,222820.00,4910.416755,N,12304.378175,W,1,12,0.5,24.3,M,-19.2,M,,*7F
$GNGGA,222821.00,4910.416757,N,12304.378176,W,1,12,0.5,24.3,M,-19.2,M,,*7F
$GNGGA,222822.00,4910.416759,N,12304.378177,W,1,12,0.5,24.3,M,-19.2,M,,*73
$GNGGA,222823.00,4910.416760,N,12304.378177,W,1,12,0.5,24.3,M,-19.2,M,,*78
$GNGGA,222824.00,4910.416760,N,12304.378175,W,1,12,0.5,24.3,M,-19.2,M,,*7D
$GNGGA,222825.00,4910.416761,N,12304.378174,W,1,12,0.5,24.3,M,-19.2,M,,*7C
$GNGGA,222826.00,4910.416761,N,12304.378173,W,1,12,0.5,24.3,M,-19.2,M,,*78
$GNGGA,222827.00,4910.416761,N,12304.378171,W,1,12,0.5,24.3,M,-19.2,M,,*7B
$GNGGA,222828.00,4910.416761,N,12304.378169,W,1,12,0.5,24.3,M,-19.2,M,,*7D
$GNGGA,222829.00,4910.416760,N,12304.378168,W,1,12,0.5,24.3,M,-19.2,M,,*7C
$GNGGA,222830.00,4910.416758,N,12304.378166,W,1,12,0.5,24.3,M,-19.2,M,,*71
$GNGGA,222831.00,4910.416758,N,12304.378166,W,1,12,0.5,24.3,M,-19.2,M,,*70
$GNGGA,222832.00,4910.416758,N,12304.378166,W,1,12,0.5,24.3,M,-19.2,M,,*73
$GNGGA,222833.00,4910.416758,N,12304.378168,W,1,12,0.5,24.3,M,-19.2,M,,*7C
$GNGGA,222834.00,4910.416758,N,12304.378169,W,1,12,0.5,24.3,M,-19.2,M,,*7A
$GNGGA,222835.00,4910.416757,N,12304.378169,W,1,12,0.5,24.3,M,-19.2,M,,*74
$GNGGA,222836.00,4910.416757,N,12304.378170,W,1,12,0.5,24.3,M,-19.2,M,,*7F
$GNGGA,222837.00,4910.416755,N,12304.378169,W,1,12,0.5,24.3,M,-19.2,M,,*74
$GNGGA,222838.00,4910.416755,N,12304.378171,W,1,12,0.5,24.3,M,-19.2,M,,*72
$GNGGA,222839.00,4910.416751,N,12304.378167,W,1,12,0.5,24.3,M,-19.2,M,,*70
$GNGGA,222840.00,4910.416752,N,12304.378166,W,1,12,0.5,24.3,M,-19.2,M,,*7C
$GNGGA,222841.00,4910.416751,N,12304.378166,W,1,12,0.5,24.3,M,-19.2,M,,*7E
$GNGGA,222842.00,4910.416750,N,12304.378164,W,1,12,0.5,24.3,M,-19.2,M,,*7E
$GNGGA,222843.00,4910.416748,N,12304.378157,W,1,12,0.5,24.3,M,-19.2,M,,*76
$GNGGA,222844.00,4910.416746,N,12304.378155,W,1,12,0.5,24.3,M,-19.2,M,,*7D
$GNGGA,222845.00,4910.416745,N,12304.378150,W,1,12,0.5,24.3,M,-19.2,M,,*7A
$GNGGA,222846.00,4910.416743,N,12304.378147,W,1,12,0.5,24.3,M,-19.2,M,,*79
$GNGGA,222847.00,4910.416743,N,12304.378142,W,1,12,0.5,24.3,M,-19.2,M,,*7D
$GNGGA,222848.00,4910.416739,N,12304.378132,W,1,12,0.5,24.3,M,-19.2,M,,*78
$GNGGA,222849.00,4910.416737,N,12304.378124,W,1,12,0.5,24.3,M,-19.2,M,,*70
$GNGGA,222850.00,4910.416734,N,12304.378115,W,1,12,0.5,24.3,M,-19.2,M,,*79
$GNGGA,222851.00,4910.416734,N,12304.378115,W,1,12,0.5,24.3,M,-19.2,M,,*78
$GNGGA,222852.00,4910.416732,N,12304.378114,W,1,12,0.5,24.3,M,-19.2,M,,*7C
$GNGGA,222853.00,4910.416732,N,12304.378114,W,1,12,0.5,24.3,M,-19.2,M,,*7D
$GNGGA,222854.00,4910.416731,N,12304.378111,W,1,12,0.5,24.3,M,-19.2,M,,*7C
$GNGGA,222855.00,4910.416728,N,12304.378111,W,1,12,0.5,24.3,M,-19.2,M,,*75
$GNGGA,222856.00,4910.416728,N,12304.378111,W,1,12,0.5,24.3,M,-19.2,M,,*76
$GNGGA,222857.00,4910.416727,N,12304.378115,W,1,12,0.5,24.3,M,-19.2,M,,*7C
$GNGGA,222858.00,4910.416727,N,12304.378116,W,1,12,0.5,24.3,M,-19.2,M,,*70
$GNGGA,222859.00,4910.416727,N,12304.378118,W,1,12,0.5,24.3,M,-19.2,M,,*7F
$GNGGA,222900.00,4910.416727,N,12304.378120,W,1,12,0.5,24.2,M,-19.2,M,,*78
$GNGGA,222901.00,4910.416729,N,12304.378119,W,1,12,0.5,24.2,M,-19.2,M,,*7D
$GNGGA,222902.00,4910.416728,N,12304.378120,W,1,12,0.5,24.2,M,-19.2,M,,*75
$GNGGA,222903.00,4910.416729,N,12304.378123,W,1,12,0.5,24.2,M,-19.2,M,,*76
$GNGGA,222904.00,4910.416731,N,12304.378126,W,1,12,0.5,24.2,M,-19.2,M,,*7D
$GNGGA,222905.00,4910.416732,N,12304.378127,W,1,12,0.5,24.2,M,-19.2,M,,*7E
$GNGGA,222906.00,4910.416734,N,12304.378130,W,1,12,0.5,24.2,M,-19.2,M,,*7D
$GNGGA,222907.00,4910.416736,N,12304.378131,W,1,12,0.5,24.2,M,-19.2,M,,*7F
$GNGGA,222908.00,4910.416737,N,12304.378132,W,1,12,0.5,24.2,M,-19.2,M,,*72
$GNGGA,222909.00,4910.416739,N,12304.378132,W,1,12,0.5,24.2,M,-19.2,M,,*7D
$GNGGA,222910.00,4910.416740,N,12304.378130,W,1,12,0.5,24.2,M,-19.2,M,,*79
$GNGGA,222911.00,4910.416743,N,12304.378129,W,1,12,0.5,24.2,M,-19.2,M,,*73
$GNGGA,222912.00,4910.416744,N,12304.378123,W,1,12,0.5,24.2,M,-19.2,M,,*7D
$GNGGA,222913.00,4910.416746,N,12304.378120,W,1,12,0.5,24.2,M,-19.2,M,,*7D
$GNGGA,222914.00,4910.416748,N,12304.378114,W,1,12,0.5,24.2,M,-19.2,M,,*73
$GNGGA,222915.00,4910.416749,N,12304.378110,W,1,12,0.5,24.3,M,-19.2,M,,*76
$GNGGA,222916.00,4910.416749,N,12304.378104,W,1,12,0.5,24.3,M,-19.2,M,,*70
$GNGGA,222917.00,4910.416748,N,12304.378098,W,1,12,0.5,24.3,M,-19.2,M,,*74
$GNGGA,222918.00,4910.416748,N,12304.378094,W,1,12,0.5,24.3,M,-19.2,M,,*77
$GNGGA,222919.00,4910.416749,N,12304.378092,W,1,12,0.5,24.3,M,-19.2,M,,*71
$GNGGA,222920.00,4910.416749,N,12304.378090,W,1,12,0.5,24.3,M,-19.2,M,,*79
$GNGGA,222921.00,4910.416750,N,12304.378088,W,1,12,0.5,24.3,M,-19.2,M,,*79
$GNGGA,222922.00,4910.416750,N,12304.378085,W,1,12,0.5,24.3,M,-19.2,M,,*77
$GNGGA,222923.00,4910.416751,N,12304.378082,W,1,12,0.5,24.3,M,-19.2,M,,*70
$GNGGA,222924.00,4910.416750,N,12304.378079,W,1,12,0.5,24.3,M,-19.2,M,,*72
$GNGGA,222925.00,4910.416750,N,12304.378073,W,1,12,0.5,24.3,M,-19.2,M,,*79
$GNGGA,222926.00,4910.416748,N,12304.378066,W,1,12,0.5,24.4,M,-19.2,M,,*70
$GNGGA,222927.00,4910.416747,N,12304.378060,W,1,12,0.5,24.4,M,-19.2,M,,*78
$GNGGA,222928.00,4910.416745,N,12304.378053,W,1,12,0.5,24.4,M,-19.2,M,,*75
$GNGGA,222929.00,4910.416744,N,12304.378047,W,1,12,0.5,24.4,M,-19.2,M,,*70
$GNGGA,222930.00,4910.416743,N,12304.378044,W,1,12,0.5,24.4,M,-19.2,M,,*7C
$GNGGA,222931.00,4910.416742,N,12304.378038,W,1,12,0.5,24.4,M,-19.2,M,,*77
$GNGGA,222932.00,4910.416741,N,12304.378034,W,1,12,0.5,24.4,M,-19.2,M,,*7B
$GNGGA,222933.00,4910.416738,N,12304.378024,W,1,12,0.5,24.4,M,-19.2,M,,*75
$GNGGA,222934.00,4910.416737,N,12304.378018,W,1,12,0.5,24.4,M,-19.2,M,,*72
$GNGGA,222935.00,4910.416734,N,12304.378009,W,1,12,0.5,24.5,M,-19.2,M,,*71
$GNGGA,222936.00,4910.416733,N,12304.378003,W,1,12,0.5,24.5,M,-19.2,M,,*7F
$GNGGA,222937.00,4910.416731,N,12304.377994,W,1,12,0.5,24.5,M,-19.2,M,,*74
$GNGGA,222938.00,4910.416730,N,12304.377988,W,1,12,0.5,24.5,M,-19.2,M,,*77
$GNGGA,223008.22,4910.416880,N,12304.378174,W,1,12,0.8,24.2,M,-19.2,M,,*76
$GNGGA,223009.00,4910.417006,N,12304.378320,W,1,12,0.8,24.0,M,-19.2,M,,*71
$GNGGA,223010.00,4910.417075,N,12304.378474,W,1,12,0.5,23.6,M,-19.2,M,,*77
$GNGGA,223011.00,4910.417171,N,12304.378696,W,1,12,0.5,23.2,M,-19.2,M,,*79
$GNGGA,223012.00,4910.417198,N,12304.378790,W,1,12,0.5,23.0,M,-19.2,M,,*78
$GNGGA,223013.00,4910.417230,N,12304.378871,W,1,12,0.5,22.8,M,-19.2,M,,*71
$GNGGA,223014.00,4910.417322,N,12304.379114,W,1,12,0.5,22.4,M,-19.2,M,,*73
$GNGGA,223015.00,4910.417394,N,12304.379282,W,1,12,0.5,22.1,M,-19.2,M,,*76
$GNGGA,223016.00,4910.417491,N,12304.379477,W,1,12,0.5,21.7,M,-19.2,M,,*7E
$GNGGA,223017.00,4910.417553,N,12304.379672,W,1,12,0.5,21.3,M,-19.2,M,,*73
$GNGGA,223018.00,4910.417587,N,12304.379795,W,1,12,0.5,21.0,M,-19.2,M,,*7E
$GNGGA,223019.00,4910.417594,N,12304.379842,W,1,12,0.5,20.9,M,-19.2,M,,*70
$GNGGA,223020.00,4910.417589,N,12304.379859,W,1,12,0.5,20.8,M,-19.2,M,,*7D
$GNGGA,223021.00,4910.417589,N,12304.379852,W,1,12,0.5,20.8,M,-19.2,M,,*77
$GNGGA,223022.00,4910.417589,N,12304.379850,W,1,12,0.5,20.9,M,-19.2,M,,*77
$GNGGA,223023.00,4910.417589,N,12304.379852,W,1,12,0.5,20.9,M,-19.2,M,,*74
$GNGGA,223024.00,4910.417589,N,12304.379848,W,1,12,0.5,20.9,M,-19.2,M,,*78
$GNGGA,223025.00,4910.417588,N,12304.379846,W,1,12,0.5,20.9,M,-19.2,M,,*76
$GNGGA,223026.00,4910.417588,N,12304.379843,W,1,12,0.5,20.9,M,-19.2,M,,*70
$GNGGA,223027.00,4910.417585,N,12304.379836,W,1,12,0.5,20.9,M,-19.2,M,,*7E
$GNGGA,223028.00,4910.417584,N,12304.379831,W,1,12,0.5,20.9,M,-19.2,M,,*77
$GNGGA,223029.00,4910.417583,N,12304.379826,W,1,12,0.5,20.9,M,-19.2,M,,*77
$GNGGA,223030.00,4910.417582,N,12304.379822,W,1,12,0.5,21.0,M,-19.2,M,,*72
$GNGGA,223031.00,4910.417582,N,12304.379816,W,1,12,0.5,21.0,M,-19.2,M,,*74
$GNGGA,223032.00,4910.417580,N,12304.379810,W,1,12,0.5,21.0,M,-19.2,M,,*73
$GNGGA,223033.00,4910.417580,N,12304.379806,W,1,12,0.5,21.0,M,-19.2,M,,*75
$GNGGA,223034.00,4910.417580,N,12304.379801,W,1,12,0.5,21.0,M,-19.2,M,,*75
$GNGGA,223035.00,4910.417580,N,12304.379797,W,1,12,0.5,21.0,M,-19.2,M,,*74
$GNGGA,223036.00,4910.417579,N,12304.379790,W,1,12,0.5,21.0,M,-19.2,M,,*76
$GNGGA,223037.00,4910.417579,N,12304.379788,W,1,12,0.5,21.0,M,-19.2,M,,*7E
$GNGGA,223038.00,4910.417582,N,12304.379785,W,1,12,0.5,21.1,M,-19.2,M,,*79
$GNGGA,223039.00,4910.417583,N,12304.379783,W,1,12,0.5,21.1,M,-19.2,M,,*7F
$GNGGA,223040.00,4910.417590,N,12304.379794,W,1,12,0.5,21.1,M,-19.2,M,,*75
$GNGGA,223041.00,4910.417627,N,12304.379819,W,1,12,0.5,21.1,M,-19.2,M,,*71
$GNGGA,223042.00,4910.417645,N,12304.379827,W,1,12,0.5,21.2,M,-19.2,M,,*78
$GNGGA,223043.00,4910.417669,N,12304.379848,W,1,12,0.5,21.2,M,-19.2,M,,*7E
$GNGGA,223044.00,4910.417703,N,12304.379870,W,1,12,0.5,21.2,M,-19.2,M,,*7F
$GNGGA,223045.00,4910.417729,N,12304.379890,W,1,12,0.5,21.3,M,-19.2,M,,*79
$GNGGA,223046.00,4910.417752,N,12304.379906,W,1,12,0.5,21.3,M,-19.2,M,,*78
$GNGGA,223047.00,4910.417774,N,12304.379924,W,1,12,0.5,21.4,M,-19.2,M,,*7A
$GNGGA,223048.00,4910.417811,N,12304.379952,W,1,12,0.5,21.4,M,-19.2,M,,*78
$GNGGA,223049.00,4910.417834,N,12304.379972,W,1,12,0.5,21.4,M,-19.2,M,,*7C
$GNGGA,223050.00,4910.417859,N,12304.379988,W,1,12,0.5,21.5,M,-19.2,M,,*7B
$GNGGA,223051.00,4910.417874,N,12304.379999,W,1,12,0.5,21.5,M,-19.2,M,,*75
$GNGGA,223052.00,4910.417880,N,12304.380004,W,1,12,0.5,21.5,M,-19.2,M,,*76
$GNGGA,223053.00,4910.417881,N,12304.380004,W,1,12,0.5,21.5,M,-19.2,M,,*76
$GNGGA,223054.00,4910.417882,N,12304.379999,W,1,12,0.5,21.5,M,-19.2,M,,*79
$GNGGA,223055.00,4910.417882,N,12304.379990,W,1,12,0.5,21.5,M,-19.2,M,,*71
$GNGGA,223056.00,4910.417882,N,12304.379977,W,1,12,0.5,21.6,M,-19.2,M,,*78
$GNGGA,223057.00,4910.417882,N,12304.379966,W,1,12,0.5,21.6,M,-19.2,M,,*79
$GNGGA,223058.00,4910.417882,N,12304.379954,W,1,12,0.5,21.6,M,-19.2,M,,*77
$GNGGA,223059.00,4910.417883,N,12304.379938,W,1,12,0.5,21.6,M,-19.2,M,,*7D
$GNGGA,223100.00,4910.417883,N,12304.379921,W,1,12,0.5,21.7,M,-19.2,M,,*79
$GNGGA,223101.00,4910.417883,N,12304.379907,W,1,12,0.5,21.7,M,-19.2,M,,*7C
$GNGGA,223102.00,4910.417885,N,12304.379905,W,1,12,0.5,21.7,M,-19.2,M,,*7B
$GNGGA,223103.00,4910.417885,N,12304.379903,W,1,12,0.5,21.7,M,-19.2,M,,*7C
$GNGGA,223104.00,4910.417886,N,12304.379900,W,1,12,0.5,21.7,M,-19.2,M,,*7B
$GNGGA,223105.00,4910.417885,N,12304.379900,W,1,12,0.5,21.7,M,-19.2,M,,*79
$GNGGA,223106.00,4910.417885,N,12304.379902,W,1,12,0.5,21.7,M,-19.2,M,,*78
$GNGGA,223107.00,4910.417885,N,12304.379905,W,1,12,0.5,21.7,M,-19.2,M,,*7E
$GNGGA,223108.00,4910.417884,N,12304.379910,W,1,12,0.5,21.7,M,-19.2,M,,*74
$GNGGA,223109.00,4910.417884,N,12304.379914,W,1,12,0.5,21.7,M,-19.2,M,,*71
$GNGGA,223110.00,4910.417884,N,12304.379918,W,1,12,0.5,21.7,M,-19.2,M,,*75
$GNGGA,223111.00,4910.417882,N,12304.379922,W,1,12,0.5,21.7,M,-19.2,M,,*7B
$GNGGA,223112.00,4910.417881,N,12304.379925,W,1,12,0.5,21.7,M,-19.2,M,,*7C
$GNGGA,223113.00,4910.417879,N,12304.379927,W,1,12,0.5,21.7,M,-19.2,M,,*78
$GNGGA,223114.00,4910.417879,N,12304.379932,W,1,12,0.5,21.7,M,-19.2,M,,*7B
$GNGGA,223115.00,4910.417876,N,12304.379933,W,1,12,0.5,21.7,M,-19.2,M,,*74
$GNGGA,223116.00,4910.417875,N,12304.379938,W,1,12,0.5,21.7,M,-19.2,M,,*7F
$GNGGA,223117.00,4910.417873,N,12304.379941,W,1,12,0.5,21.7,M,-19.2,M,,*76
$GNGGA,223118.00,4910.417872,N,12304.379944,W,1,12,0.5,21.7,M,-19.2,M,,*7D
$GNGGA,223119.00,4910.417871,N,12304.379946,W,1,12,0.5,21.7,M,-19.2,M,,*7D
$GNGGA,223120.00,4910.417869,N,12304.379947,W,1,12,0.5,21.7,M,-19.2,M,,*7F
$GNGGA,223121.00,4910.417869,N,12304.379945,W,1,12,0.5,21.7,M,-19.2,M,,*7C
$GNGGA,223122.00,4910.417868,N,12304.379942,W,1,12,0.5,21.8,M,-19.2,M,,*76
$GNGGA,223123.00,4910.417865,N,12304.379939,W,1,12,0.5,21.8,M,-19.2,M,,*76
$GNGGA,223124.00,4910.417864,N,12304.379936,W,1,12,0.5,21.8,M,-19.2,M,,*7F
$GNGGA,223125.00,4910.417862,N,12304.379934,W,1,12,0.5,21.8,M,-19.2,M,,*7A
$GNGGA,223126.00,4910.417861,N,12304.379928,W,1,12,0.5,21.8,M,-19.2,M,,*77
$GNGGA,223127.00,4910.417858,N,12304.379929,W,1,12,0.5,21.8,M,-19.2,M,,*7D
$GNGGA,223128.00,4910.417857,N,12304.379931,W,1,12,0.5,21.8,M,-19.2,M,,*74
$GNGGA,223129.00,4910.417855,N,12304.379932,W,1,12,0.5,21.8,M,-19.2,M,,*74
$GNGGA,223130.00,4910.417853,N,12304.379932,W,1,12,0.5,21.8,M,-19.2,M,,*7A
$GNGGA,223131.00,4910.417851,N,12304.379932,W,1,12,0.5,21.8,M,-19.2,M,,*79
$GNGGA,223132.00,4910.417849,N,12304.379933,W,1,12,0.5,21.8,M,-19.2,M,,*72
$GNGGA,223133.00,4910.417846,N,12304.379932,W,1,12,0.5,21.8,M,-19.2,M,,*7D
$GNGGA,223134.00,4910.417843,N,12304.379932,W,1,12,0.5,21.8,M,-19.2,M,,*7F
$GNGGA,223135.00,4910.417840,N,12304.379927,W,1,12,0.5,21.9,M,-19.2,M,,*78
$GNGGA,223136.00,4910.417837,N,12304.379926,W,1,12,0.5,21.9,M,-19.2,M,,*7A
$GNGGA,223137.00,4910.417833,N,12304.379926,W,1,12,0.5,21.9,M,-19.2,M,,*7F
$GNGGA,223138.00,4910.417830,N,12304.379924,W,1,12,0.5,21.9,M,-19.2,M,,*71
$GNGGA,223139.00,4910.417826,N,12304.379922,W,1,12,0.5,21.9,M,-19.2,M,,*71
$GNGGA,223140.00,4910.417823,N,12304.379921,W,1,12,0.5,21.9,M,-19.2,M,,*79
$GNGGA,223141.00,4910.417820,N,12304.379921,W,1,12,0.5,21.9,M,-19.2,M,,*7B
$GNGGA,223142.00,4910.417818,N,12304.379920,W,1,12,0.5,21.9,M,-19.2,M,,*72
$GNGGA,223143.00,4910.417816,N,12304.379918,W,1,12,0.5,21.9,M,-19.2,M,,*76
$GNGGA,223144.00,4910.417816,N,12304.379921,W,1,12,0.5,21.9,M,-19.2,M,,*7B
$GNGGA,223145.00,4910.417814,N,12304.379922,W,1,12,0.5,21.9,M,-19.2,M,,*7B
$GNGGA,223146.00,4910.417812,N,12304.379921,W,1,12,0.5,21.9,M,-19.2,M,,*7D
$GNGGA,223147.00,4910.417810,N,12304.379920,W,1,12,0.5,21.9,M,-19.2,M,,*7F
$GNGGA,223148.00,4910.417808,N,12304.379917,W,1,12,0.5,21.9,M,-19.2,M,,*7D
$GNGGA,223149.00,4910.417806,N,12304.379917,W,1,12,0.5,22.0,M,-19.2,M,,*78
$GNGGA,223150.00,4910.417804,N,12304.379916,W,1,12,0.5,22.0,M,-19.2,M,,*73
$GNGGA,223151.00,4910.417802,N,12304.379915,W,1,12,0.5,22.0,M,-19.2,M,,*77
$GNGGA,223152.00,4910.417800,N,12304.379915,W,1,12,0.5,22.0,M,-19.2,M,,*76
$GNGGA,223153.00,4910.417798,N,12304.379914,W,1,12,0.5,22.0,M,-19.2,M,,*78
$GNGGA,223154.00,4910.417796,N,12304.379913,W,1,12,0.5,22.0,M,-19.2,M,,*76
$GNGGA,223155.00,4910.417795,N,12304.379915,W,1,12,0.5,22.0,M,-19.2,M,,*72
$GNGGA,223156.00,4910.417793,N,12304.379917,W,1,12,0.5,22.0,M,-19.2,M,,*75
$GNGGA,223157.00,4910.417793,N,12304.379919,W,1,12,0.5,22.0,M,-19.2,M,,*7A
$GNGGA,223158.00,4910.417793,N,12304.379923,W,1,12,0.5,22.0,M,-19.2,M,,*7C
$GNGGA,223159.00,4910.417792,N,12304.379924,W,1,12,0.5,22.0,M,-19.2,M,,*7B
$GNGGA,223200.00,4910.417790,N,12304.379922,W,1,12,0.5,22.0,M,-19.2,M,,*70
$GNGGA,223201.00,4910.417788,N,12304.379923,W,1,12,0.5,22.1,M,-19.2,M,,*78
$GNGGA,223202.00,4910.417785,N,12304.379921,W,1,12,0.5,22.1,M,-19.2,M,,*74
$GNGGA,223203.00,4910.417784,N,12304.379920,W,1,12,0.5,22.1,M,-19.2,M,,*75
$GNGGA,223204.00,4910.417782,N,12304.379918,W,1,12,0.5,22.1,M,-19.2,M,,*7F
$GNGGA,223205.00,4910.417780,N,12304.379916,W,1,12,0.5,22.1,M,-19.2,M,,*72
$GNGGA,223206.00,4910.417779,N,12304.379917,W,1,12,0.5,22.1,M,-19.2,M,,*76
$GNGGA,223207.00,4910.417778,N,12304.379917,W,1,12,0.5,22.1,M,-19.2,M,,*76
$GNGGA,223208.00,4910.417775,N,12304.379916,W,1,12,0.5,22.1,M,-19.2,M,,*75
$GNGGA,223209.00,4910.417773,N,12304.379914,W,1,12,0.5,22.2,M,-19.2,M,,*73
$GNGGA,223210.00,4910.417772,N,12304.379913,W,1,12,0.5,22.2,M,-19.2,M,,*7D
$GNGGA,223211.00,4910.417770,N,12304.379908,W,1,12,0.5,22.2,M,-19.2,M,,*74
$GNGGA,223212.00,4910.417769,N,12304.379907,W,1,12,0.5,22.2,M,-19.2,M,,*70
$GNGGA,223213.00,4910.417766,N,12304.379904,W,1,12,0.5,22.2,M,-19.2,M,,*7D
$GNGGA,223214.00,4910.417765,N,12304.379902,W,1,12,0.5,22.2,M,-19.2,M,,*7F
$GNGGA,223215.00,4910.417763,N,12304.379899,W,1,12,0.5,22.2,M,-19.2,M,,*7B
$GNGGA,223216.00,4910.417762,N,12304.379896,W,1,12,0.5,22.2,M,-19.2,M,,*76
$GNGGA,223217.00,4910.417760,N,12304.379895,W,1,12,0.5,22.2,M,-19.2,M,,*76
$GNGGA,223218.00,4910.417759,N,12304.379894,W,1,12,0.5,22.2,M,-19.2,M,,*72
$GNGGA,223219.00,4910.417756,N,12304.379894,W,1,12,0.5,22.2,M,-19.2,M,,*7C
$GNGGA,223220.00,4910.417753,N,12304.379891,W,1,12,0.5,22.2,M,-19.2,M,,*76
$GNGGA,223221.00,4910.417753,N,12304.379893,W,1,12,0.5,22.2,M,-19.2,M,,*75
$GNGGA,223222.00,4910.417751,N,12304.379894,W,1,12,0.5,22.2,M,-19.2,M,,*73
$GNGGA,223223.00,4910.417751,N,12304.379894,W,1,12,0.5,22.2,M,-19.2,M,,*72
$GNGGA,223224.00,4910.417750,N,12304.379894,W,1,12,0.5,22.2,M,-19.2,M,,*74
$GNGGA,223225.00,4910.417748,N,12304.379894,W,1,12,0.5,22.2,M,-19.2,M,,*7C
$GNGGA,223226.00,4910.417747,N,12304.379893,W,1,12,0.5,22.2,M,-19.2,M,,*77
$GNGGA,223227.00,4910.417745,N,12304.379894,W,1,12,0.5,22.2,M,-19.2,M,,*73
$GNGGA,223228.00,4910.417745,N,12304.379894,W,1,12,0.5,22.2,M,-19.2,M,,*7C
$GNGGA,223229.00,4910.417742,N,12304.379893,W,1,12,0.5,22.2,M,-19.2,M,,*7D
$GNGGA,223230.00,4910.417740,N,12304.379893,W,1,12,0.5,22.2,M,-19.2,M,,*77
$GNGGA,223231.00,4910.417736,N,12304.379891,W,1,12,0.5,22.2,M,-19.2,M,,*75
$GNGGA,223232.00,4910.417733,N,12304.379890,W,1,12,0.5,22.2,M,-19.2,M,,*72
$GNGGA,223233.00,4910.417730,N,12304.379889,W,1,12,0.5,22.3,M,-19.2,M,,*79
$GNGGA,223234.00,4910.417727,N,12304.379890,W,1,12,0.5,22.3,M,-19.2,M,,*70
$GNGGA,223235.00,4910.417723,N,12304.379889,W,1,12,0.5,22.3,M,-19.2,M,,*7D
$GNGGA,223236.00,4910.417720,N,12304.379887,W,1,12,0.5,22.3,M,-19.2,M,,*73
$GNGGA,223237.00,4910.417716,N,12304.379885,W,1,12,0.5,22.3,M,-19.2,M,,*75
$GNGGA,223238.00,4910.417712,N,12304.379883,W,1,12,0.5,22.3,M,-19.2,M,,*78
$GNGGA,223239.00,4910.417708,N,12304.379879,W,1,12,0.5,22.3,M,-19.2,M,,*77
$GNGGA,223240.00,4910.417704,N,12304.379876,W,1,12,0.5,22.3,M,-19.2,M,,*7A
$GNGGA,223241.00,4910.417700,N,12304.379873,W,1,12,0.5,22.3,M,-19.2,M,,*7A
$GNGGA,223242.00,4910.417697,N,12304.379871,W,1,12,0.5,22.3,M,-19.2,M,,*74
$GNGGA,223243.00,4910.417694,N,12304.379870,W,1,12,0.5,22.3,M,-19.2,M,,*77
$GNGGA,223244.00,4910.417690,N,12304.379869,W,1,12,0.5,22.3,M,-19.2,M,,*7C
$GNGGA,223245.00,4910.417687,N,12304.379864,W,1,12,0.5,22.3,M,-19.2,M,,*76
$GNGGA,223246.00,4910.417684,N,12304.379863,W,1,12,0.5,22.3,M,-19.2,M,,*71
$GNGGA,223247.00,4910.417682,N,12304.379862,W,1,12,0.5,22.3,M,-19.2,M,,*77
$GNGGA,223248.00,4910.417681,N,12304.379862,W,1,12,0.5,22.3,M,-19.2,M,,*7B
$GNGGA,223249.00,4910.417680,N,12304.379861,W,1,12,0.5,22.3,M,-19.2,M,,*78
$GNGGA,223250.00,4910.417679,N,12304.379863,W,1,12,0.5,22.3,M,-19.2,M,,*74
$GNGGA,223251.00,4910.417678,N,12304.379863,W,1,12,0.5,22.3,M,-19.2,M,,*74
$GNGGA,223252.00,4910.417677,N,12304.379864,W,1,12,0.5,22.3,M,-19.2,M,,*7F
$GNGGA,223253.00,4910.417676,N,12304.379867,W,1,12,0.5,22.3,M,-19.2,M,,*7C
$GNGGA,223254.00,4910.417674,N,12304.379869,W,1,12,0.5,22.3,M,-19.2,M,,*77
$GNGGA,223255.00,4910.417672,N,12304.379870,W,1,12,0.5,22.3,M,-19.2,M,,*78
$GNGGA,223256.00,4910.417670,N,12304.379871,W,1,12,0.5,22.3,M,-19.2,M,,*78
$GNGGA,223257.00,4910.417668,N,12304.379870,W,1,12,0.5,22.3,M,-19.2,M,,*71
$GNGGA,223258.00,4910.417668,N,12304.379873,W,1,12,0.5,22.3,M,-19.2,M,,*7D
$GNGGA,223259.00,4910.417667,N,12304.379874,W,1,12,0.5,22.3,M,-19.2,M,,*74
$GNGGA,223300.00,4910.417666,N,12304.379876,W,1,12,0.5,22.3,M,-19.2,M,,*7A
$GNGGA,223301.00,4910.417663,N,12304.379876,W,1,12,0.5,22.3,M,-19.2,M,,*7E
$GNGGA,223302.00,4910.417662,N,12304.379876,W,1,12,0.5,22.3,M,-19.2,M,,*7C
$GNGGA,223303.00,4910.417660,N,12304.379877,W,1,12,0.5,22.3,M,-19.2,M,,*7E
$GNGGA,223304.00,4910.417657,N,12304.379876,W,1,12,0.5,22.3,M,-19.2,M,,*7C
$GNGGA,223305.00,4910.417654,N,12304.379876,W,1,12,0.5,22.3,M,-19.2,M,,*7E
$GNGGA,223306.00,4910.417652,N,12304.379873,W,1,12,0.5,22.3,M,-19.2,M,,*7E
$GNGGA,223307.00,4910.417648,N,12304.379873,W,1,12,0.5,22.3,M,-19.2,M,,*74
$GNGGA,223308.00,4910.417645,N,12304.379870,W,1,12,0.5,22.3,M,-19.2,M,,*75
$GNGGA,223309.00,4910.417641,N,12304.379867,W,1,12,0.5,22.3,M,-19.2,M,,*76
$GNGGA,223310.00,4910.417638,N,12304.379866,W,1,12,0.5,22.3,M,-19.2,M,,*71
$GNGGA,223311.00,4910.417636,N,12304.379863,W,1,12,0.5,22.3,M,-19.2,M,,*7B
$GNGGA,223312.00,4910.417634,N,12304.379862,W,1,12,0.5,22.3,M,-19.2,M,,*7B
$GNGGA,223313.00,4910.417632,N,12304.379857,W,1,12,0.5,22.3,M,-19.2,M,,*7A
$GNGGA,223314.00,4910.417922,N,12304.380473,W,1,12,0.5,21.3,M,-19.2,M,,*7C
$GNGGA,223315.00,4910.418327,N,12304.381088,W,1,12,0.5,20.1,M,-19.2,M,,*7F
$GNGGA,223316.00,4910.418734,N,12304.381291,W,1,12,0.5,19.1,M,-19.2,M,,*7A
$GNGGA,223317.00,4910.418696,N,12304.381262,W,1,12,0.5,17.9,M,-19.2,M,,*78
$GNGGA,223318.00,4910.418563,N,12304.381105,W,1,12,0.5,17.0,M,-19.2,M,,*75
$GNGGA,223319.00,4910.418436,N,12304.380992,W,1,12,0.5,16.7,M,-19.2,M,,*74
$GNGGA,223320.00,4910.418147,N,12304.380875,W,1,12,0.5,16.1,M,-19.2,M,,*73
$GNGGA,223321.00,4910.417874,N,12304.380941,W,1,12,0.5,15.7,M,-19.2,M,,*77
$GNGGA,223322.00,4910.417811,N,12304.380935,W,1,12,0.5,15.4,M,-19.2,M,,*77
$GNGGA,223323.00,4910.418060,N,12304.381329,W,1,12,0.5,14.8,M,-19.2,M,,*7C
$GNGGA,223324.00,4910.418080,N,12304.381487,W,1,12,0.5,14.6,M,-19.2,M,,*78
$GNGGA,223325.00,4910.418778,N,12304.381517,W,1,12,0.5,14.4,M,-19.2,M,,*73
$GNGGA,223326.00,4910.419442,N,12304.381378,W,1,12,0.5,14.0,M,-19.2,M,,*70
$GNGGA,223327.00,4910.420439,N,12304.381283,W,1,12,0.5,13.3,M,-19.2,M,,*76
$GNGGA,223328.00,4910.421787,N,12304.381270,W,1,12,0.5,12.8,M,-19.2,M,,*78
$GNGGA,223329.00,4910.423360,N,12304.381112,W,1,12,0.5,13.1,M,-19.2,M,,*79
$GNGGA,223330.00,4910.425070,N,12304.380903,W,1,12,0.5,13.7,M,-19.2,M,,*7A
$GNGGA,223331.00,4910.426607,N,12304.380700,W,1,12,0.5,14.2,M,-19.2,M,,*71
$GNGGA,223332.00,4910.427861,N,12304.380550,W,1,12,0.5,14.3,M,-19.2,M,,*7B
$GNGGA,223333.00,4910.428969,N,12304.380492,W,1,12,0.5,13.8,M,-19.2,M,,*7F
$GNGGA,223334.00,4910.429735,N,12304.380506,W,1,12,0.5,13.6,M,-19.2,M,,*7C
$GNGGA,223335.00,4910.430350,N,12304.380545,W,1,12,0.5,14.1,M,-19.2,M,,*75
$GNGGA,223336.00,4910.430844,N,12304.380625,W,1,12,0.5,13.1,M,-19.2,M,,*7A
$GNGGA,223337.00,4910.431355,N,12304.380659,W,1,12,0.5,13.3,M,-19.2,M,,*78
$GNGGA,223338.00,4910.432103,N,12304.380743,W,1,12,0.5,13.3,M,-19.2,M,,*7F
$GNGGA,223339.00,4910.433089,N,12304.380929,W,1,12,0.5,13.5,M,-19.2,M,,*78
$GNGGA,223340.00,4910.434201,N,12304.381234,W,1,12,0.5,13.6,M,-19.2,M,,*76
$GNGGA,223341.00,4910.435253,N,12304.381787,W,1,12,0.5,13.9,M,-19.2,M,,*73
$GNGGA,223342.00,4910.436131,N,12304.382648,W,1,12,0.5,14.1,M,-19.2,M,,*7A
$GNGGA,223343.00,4910.436794,N,12304.383722,W,1,12,0.5,14.6,M,-19.2,M,,*79
$GNGGA,223344.00,4910.437257,N,12304.385133,W,1,12,0.5,14.2,M,-19.2,M,,*71
$GNGGA,223345.00,4910.437592,N,12304.386916,W,1,12,0.5,13.8,M,-19.2,M,,*7F
$GNGGA,223346.00,4910.437823,N,12304.388825,W,1,12,0.5,13.3,M,-19.2,M,,*7F
$GNGGA,223347.00,4910.438020,N,12304.390651,W,1,12,0.5,13.1,M,-19.2,M,,*7C
$GNGGA,223348.00,4910.438221,N,12304.392442,W,1,12,0.5,13.2,M,-19.2,M,,*71
$GNGGA,223349.00,4910.438376,N,12304.394293,W,1,12,0.5,13.2,M,-19.2,M,,*7F
$GNGGA,223350.00,4910.438474,N,12304.396119,W,1,12,0.5,13.0,M,-19.2,M,,*73
$GNGGA,223351.00,4910.438580,N,12304.397887,W,1,12,0.5,13.1,M,-19.2,M,,*76
$GNGGA,223352.00,4910.438721,N,12304.399687,W,1,12,0.5,13.1,M,-19.2,M,,*7C
$GNGGA,223353.00,4910.438909,N,12304.401530,W,1,12,0.5,13.4,M,-19.2,M,,*75
$GNGGA,223354.00,4910.439182,N,12304.403230,W,1,12,0.5,13.5,M,-19.2,M,,*7C
$GNGGA,223355.00,4910.439549,N,12304.404782,W,1,12,0.5,13.5,M,-19.2,M,,*75
$GNGGA,223356.00,4910.440013,N,12304.406218,W,1,12,0.5,13.7,M,-19.2,M,,*74
$GNGGA,223357.00,4910.440567,N,12304.407532,W,1,12,0.5,13.4,M,-19.2,M,,*7E
$GNGGA,223358.00,4910.441183,N,12304.408725,W,1,12,0.5,13.3,M,-19.2,M,,*72
$GNGGA,223359.00,4910.441826,N,12304.409879,W,1,12,0.5,13.7,M,-19.2,M,,*76
$GNGGA,223400.00,4910.442551,N,12304.411068,W,1,12,0.5,13.6,M,-19.2,M,,*73
$GNGGA,223401.00,4910.443289,N,12304.412259,W,1,12,0.5,13.6,M,-19.2,M,,*72
$GNGGA,223402.00,4910.443971,N,12304.413359,W,1,12,0.5,13.5,M,-19.2,M,,*7E
$GNGGA,223403.00,4910.444566,N,12304.414551,W,1,12,0.5,13.5,M,-19.2,M,,*7B
$GNGGA,223404.00,4910.445027,N,12304.415860,W,1,12,0.5,13.4,M,-19.2,M,,*72
$GNGGA,223405.00,4910.445335,N,12304.417124,W,1,12,0.5,13.2,M,-19.2,M,,*7E
$GNGGA,223406.00,4910.445472,N,12304.418403,W,1,12,0.5,13.2,M,-19.2,M,,*76
$GNGGA,223407.00,4910.445440,N,12304.419628,W,1,12,0.5,13.2,M,-19.2,M,,*7C
$GNGGA,223408.00,4910.445315,N,12304.420580,W,1,12,0.5,13.5,M,-19.2,M,,*78
$GNGGA,223409.00,4910.445177,N,12304.421258,W,1,12,0.5,13.8,M,-19.2,M,,*71
$GNGGA,223410.00,4910.445041,N,12304.421800,W,1,12,0.5,13.9,M,-19.2,M,,*7B
$GNGGA,223411.00,4910.444940,N,12304.422155,W,1,12,0.5,14.0,M,-19.2,M,,*77
$GNGGA,223412.00,4910.444943,N,12304.422232,W,1,12,0.5,13.5,M,-19.2,M,,*77
$GNGGA,223413.00,4910.444955,N,12304.422237,W,1,12,0.5,13.3,M,-19.2,M,,*72
$GNGGA,223414.00,4910.444978,N,12304.422269,W,1,12,0.5,13.0,M,-19.2,M,,*72
$GNGGA,223415.00,4910.444990,N,12304.422322,W,1,12,0.5,12.8,M,-19.2,M,,*72
$GNGGA,223416.00,4910.444999,N,12304.422380,W,1,12,0.5,12.6,M,-19.2,M,,*7E
$GNGGA,223417.00,4910.445008,N,12304.422461,W,1,12,0.5,12.4,M,-19.2,M,,*75
$GNGGA,223418.00,4910.445008,N,12304.422544,W,1,12,0.5,12.2,M,-19.2,M,,*7A
$GNGGA,223419.00,4910.444992,N,12304.422610,W,1,12,0.5,12.1,M,-19.2,M,,*71
$GNGGA,223420.00,4910.444983,N,12304.422670,W,1,12,0.5,12.0,M,-19.2,M,,*7C
$GNGGA,223421.00,4910.444985,N,12304.422745,W,1,12,0.5,11.9,M,-19.2,M,,*76
$GNGGA,223422.00,4910.444988,N,12304.422795,W,1,12,0.5,11.9,M,-19.2,M,,*75
$GNGGA,223423.00,4910.444994,N,12304.422821,W,1,12,0.5,11.9,M,-19.2,M,,*79
$GNGGA,223424.00,4910.444997,N,12304.422838,W,1,12,0.5,12.0,M,-19.2,M,,*7F
$GNGGA,223425.00,4910.445002,N,12304.422845,W,1,12,0.5,12.0,M,-19.2,M,,*70
$GNGGA,223426.00,4910.445005,N,12304.422850,W,1,12,0.5,12.0,M,-19.2,M,,*70
$GNGGA,223427.00,4910.445006,N,12304.422853,W,1,12,0.5,12.0,M,-19.2,M,,*71
$GNGGA,223428.00,4910.445006,N,12304.422856,W,1,12,0.5,12.0,M,-19.2,M,,*7B
$GNGGA,223429.00,4910.445006,N,12304.422858,W,1,12,0.5,12.0,M,-19.2,M,,*74
$GNGGA,223430.00,4910.445005,N,12304.422860,W,1,12,0.5,12.0,M,-19.2,M,,*74
$GNGGA,223431.00,4910.445006,N,12304.422862,W,1,12,0.5,12.0,M,-19.2,M,,*74
$GNGGA,223432.00,4910.445006,N,12304.422864,W,1,12,0.5,12.1,M,-19.2,M,,*70
$GNGGA,223433.00,4910.445008,N,12304.422866,W,1,12,0.5,12.1,M,-19.2,M,,*7D
$GNGGA,223434.00,4910.445009,N,12304.422868,W,1,12,0.5,12.1,M,-19.2,M,,*75
$GNGGA,223435.00,4910.445009,N,12304.422870,W,1,12,0.5,12.1,M,-19.2,M,,*7D
$GNGGA,223436.00,4910.445011,N,12304.422872,W,1,12,0.5,12.1,M,-19.2,M,,*75
$GNGGA,223437.00,4910.445012,N,12304.422875,W,1,12,0.5,12.1,M,-19.2,M,,*70
$GNGGA,223438.00,4910.445012,N,12304.422877,W,1,12,0.5,12.1,M,-19.2,M,,*7D
$GNGGA,223439.00,4910.445013,N,12304.422879,W,1,12,0.5,12.1,M,-19.2,M,,*73
$GNGGA,223440.00,4910.445014,N,12304.422881,W,1,12,0.5,12.1,M,-19.2,M,,*7D
$GNGGA,223441.00,4910.445015,N,12304.422883,W,1,12,0.5,12.1,M,-19.2,M,,*7F
$GNGGA,223442.00,4910.445015,N,12304.422886,W,1,12,0.5,12.1,M,-19.2,M,,*79
$GNGGA,223443.00,4910.445017,N,12304.422888,W,1,12,0.5,12.1,M,-19.2,M,,*74
$GNGGA,223444.00,4910.445017,N,12304.422890,W,1,12,0.5,12.2,M,-19.2,M,,*79
$GNGGA,223445.00,4910.445018,N,12304.422894,W,1,12,0.5,12.2,M,-19.2,M,,*73
$GNGGA,223446.00,4910.445020,N,12304.422898,W,1,12,0.5,12.2,M,-19.2,M,,*77
$GNGGA,223447.00,4910.445020,N,12304.422901,W,1,12,0.5,12.2,M,-19.2,M,,*77
$GNGGA,223448.00,4910.445022,N,12304.422905,W,1,12,0.5,12.2,M,-19.2,M,,*7E
$GNGGA,223449.00,4910.445024,N,12304.422909,W,1,12,0.5,12.2,M,-19.2,M,,*75
$GNGGA,223450.00,4910.445025,N,12304.422912,W,1,12,0.5,12.2,M,-19.2,M,,*76
$GNGGA,223451.00,4910.445027,N,12304.422915,W,1,12,0.5,12.2,M,-19.2,M,,*72
$GNGGA,223452.00,4910.445030,N,12304.422919,W,1,12,0.5,12.2,M,-19.2,M,,*7B
$GNGGA,223453.00,4910.445033,N,12304.422922,W,1,12,0.5,12.3,M,-19.2,M,,*70
$GNGGA,223454.00,4910.445035,N,12304.422925,W,1,12,0.5,12.3,M,-19.2,M,,*76
$GNGGA,223455.00,4910.445035,N,12304.422929,W,1,12,0.5,12.3,M,-19.2,M,,*7B
$GNGGA,223456.00,4910.445036,N,12304.422932,W,1,12,0.5,12.3,M,-19.2,M,,*71
$GNGGA,223457.00,4910.445036,N,12304.422934,W,1,12,0.5,12.3,M,-19.2,M,,*76
$GNGGA,223458.00,4910.445038,N,12304.422937,W,1,12,0.5,12.3,M,-19.2,M,,*74
$GNGGA,223459.00,4910.445038,N,12304.422940,W,1,12,0.5,12.3,M,-19.2,M,,*75
$GNGGA,223500.00,4910.445038,N,12304.422943,W,1,12,0.5,12.3,M,-19.2,M,,*7B
$GNGGA,223501.00,4910.445039,N,12304.422945,W,1,12,0.5,12.3,M,-19.2,M,,*7D
$GNGGA,223502.00,4910.445039,N,12304.422947,W,1,12,0.5,12.3,M,-19.2,M,,*7C
$GNGGA,223503.00,4910.445039,N,12304.422949,W,1,12,0.5,12.3,M,-19.2,M,,*73
$GNGGA,223504.00,4910.445039,N,12304.422950,W,1,12,0.5,12.3,M,-19.2,M,,*7C
$GNGGA,223505.00,4910.445038,N,12304.422952,W,1,12,0.5,12.3,M,-19.2,M,,*7E
$GNGGA,223506.00,4910.445036,N,12304.422955,W,1,12,0.5,12.3,M,-19.2,M,,*74
$GNGGA,223507.00,4910.445035,N,12304.422956,W,1,12,0.5,12.3,M,-19.2,M,,*75
$GNGGA,223508.00,4910.445033,N,12304.422958,W,1,12,0.5,12.3,M,-19.2,M,,*72
$GNGGA,223509.00,4910.445031,N,12304.422960,W,1,12,0.5,12.3,M,-19.2,M,,*7A
$GNGGA,223510.00,4910.445029,N,12304.422962,W,1,12,0.5,12.3,M,-19.2,M,,*79
$GNGGA,223511.00,4910.445026,N,12304.422963,W,1,12,0.5,12.3,M,-19.2,M,,*76
$GNGGA,223512.00,4910.445024,N,12304.422965,W,1,12,0.5,12.3,M,-19.2,M,,*71
$GNGGA,223513.00,4910.445021,N,12304.422967,W,1,12,0.5,12.3,M,-19.2,M,,*77
$GNGGA,223514.00,4910.445018,N,12304.422968,W,1,12,0.5,12.3,M,-19.2,M,,*75
$GNGGA,223515.00,4910.445016,N,12304.422970,W,1,12,0.5,12.3,M,-19.2,M,,*73
$GNGGA,223516.00,4910.445013,N,12304.422971,W,1,12,0.5,12.3,M,-19.2,M,,*74
$GNGGA,223517.00,4910.445011,N,12304.422973,W,1,12,0.5,12.3,M,-19.2,M,,*75
$GNGGA,223518.00,4910.445009,N,12304.422974,W,1,12,0.5,12.3,M,-19.2,M,,*74
$GNGGA,223519.00,4910.445007,N,12304.422975,W,1,12,0.5,12.4,M,-19.2,M,,*7D
$GNGGA,223520.00,4910.445005,N,12304.422976,W,1,12,0.5,12.4,M,-19.2,M,,*76
$GNGGA,223521.00,4910.445002,N,12304.422976,W,1,12,0.5,12.4,M,-19.2,M,,*70
$GNGGA,223522.00,4910.445000,N,12304.422976,W,1,12,0.5,12.4,M,-19.2,M,,*71
$GNGGA,223523.00,4910.444997,N,12304.422976,W,1,12,0.5,12.4,M,-19.2,M,,*76
$GNGGA,223524.00,4910.444995,N,12304.422976,W,1,12,0.5,12.4,M,-19.2,M,,*73
$GNGGA,223525.00,4910.444993,N,12304.422976,W,1,12,0.5,12.4,M,-19.2,M,,*74
$GNGGA,223526.00,4910.444991,N,12304.422977,W,1,12,0.5,12.4,M,-19.2,M,,*74
$GNGGA,223527.00,4910.444988,N,12304.422977,W,1,12,0.5,12.4,M,-19.2,M,,*7D
$GNGGA,223528.00,4910.444985,N,12304.422977,W,1,12,0.5,12.4,M,-19.2,M,,*7F
$GNGGA,223529.00,4910.444982,N,12304.422977,W,1,12,0.5,12.4,M,-19.2,M,,*79
$GNGGA,223530.00,4910.444980,N,12304.422977,W,1,12,0.5,12.4,M,-19.2,M,,*73
$GNGGA,223531.00,4910.444977,N,12304.422977,W,1,12,0.5,12.4,M,-19.2,M,,*7A
$GNGGA,223532.00,4910.444973,N,12304.422977,W,1,12,0.5,12.4,M,-19.2,M,,*7D
$GNGGA,223533.00,4910.444970,N,12304.422977,W,1,12,0.5,12.4,M,-19.2,M,,*7F
$GNGGA,223534.00,4910.444968,N,12304.422977,W,1,12,0.5,12.4,M,-19.2,M,,*71
$GNGGA,223535.00,4910.444965,N,12304.422977,W,1,12,0.5,12.4,M,-19.2,M,,*7D
$GNGGA,223536.00,4910.444962,N,12304.422977,W,1,12,0.5,12.4,M,-19.2,M,,*79
$GNGGA,223537.00,4910.444959,N,12304.422977,W,1,12,0.5,12.4,M,-19.2,M,,*70
$GNGGA,223538.00,4910.444957,N,12304.422977,W,1,12,0.5,12.4,M,-19.2,M,,*71
$GNGGA,223539.00,4910.444954,N,12304.422977,W,1,12,0.5,12.4,M,-19.2,M,,*73
$GNGGA,223540.00,4910.444951,N,12304.422977,W,1,12,0.5,12.4,M,-19.2,M,,*78
$GNGGA,223541.00,4910.444948,N,12304.422977,W,1,12,0.5,12.5,M,-19.2,M,,*70
$GNGGA,223542.00,4910.444945,N,12304.422978,W,1,12,0.5,12.5,M,-19.2,M,,*71
$GNGGA,223543.00,4910.444943,N,12304.422979,W,1,12,0.5,12.5,M,-19.2,M,,*77
$GNGGA,223544.00,4910.444940,N,12304.422980,W,1,12,0.5,12.5,M,-19.2,M,,*75
$GNGGA,223545.00,4910.444939,N,12304.422980,W,1,12,0.5,12.5,M,-19.2,M,,*7A
$GNGGA,223546.00,4910.444937,N,12304.422981,W,1,12,0.5,12.5,M,-19.2,M,,*76
$GNGGA,223547.00,4910.444935,N,12304.422982,W,1,12,0.5,12.5,M,-19.2,M,,*76
$GNGGA,223548.00,4910.444933,N,12304.422983,W,1,12,0.5,12.5,M,-19.2,M,,*7E
$GNGGA,223549.00,4910.444932,N,12304.422985,W,1,12,0.5,12.5,M,-19.2,M,,*78
$GNGGA,223550.00,4910.444931,N,12304.422986,W,1,12,0.5,12.5,M,-19.2,M,,*70
$GNGGA,223551.00,4910.444928,N,12304.422988,W,1,12,0.5,12.5,M,-19.2,M,,*77
$GNGGA,223552.00,4910.444927,N,12304.422989,W,1,12,0.5,12.5,M,-19.2,M,,*7A
$GNGGA,223553.00,4910.444925,N,12304.422992,W,1,12,0.5,12.5,M,-19.2,M,,*73
$GNGGA,223554.00,4910.444923,N,12304.422994,W,1,12,0.5,12.5,M,-19.2,M,,*74
$GNGGA,223555.00,4910.444922,N,12304.422997,W,1,12,0.5,12.6,M,-19.2,M,,*74
$GNGGA,223556.00,4910.444920,N,12304.422998,W,1,12,0.5,12.6,M,-19.2,M,,*7A
$GNGGA,223557.00,4910.444918,N,12304.423000,W,1,12,0.5,12.6,M,-19.2,M,,*79
$GNGGA,223558.00,4910.444916,N,12304.423002,W,1,12,0.5,12.6,M,-19.2,M,,*7A
$GNGGA,223559.00,4910.444915,N,12304.423003,W,1,12,0.5,12.6,M,-19.2,M,,*79
$GNGGA,223600.00,4910.444913,N,12304.423004,W,1,12,0.5,12.6,M,-19.2,M,,*77
$GNGGA,223601.00,4910.444912,N,12304.423006,W,1,12,0.5,12.6,M,-19.2,M,,*75
$GNGGA,223602.00,4910.444910,N,12304.423006,W,1,12,0.5,12.6,M,-19.2,M,,*74
$GNGGA,223603.00,4910.444908,N,12304.423007,W,1,12,0.5,12.6,M,-19.2,M,,*7D
$GNGGA,223604.00,4910.444906,N,12304.423007,W,1,12,0.5,12.6,M,-19.2,M,,*74
$GNGGA,223605.00,4910.444904,N,12304.423007,W,1,12,0.5,12.6,M,-19.2,M,,*77
$GNGGA,223606.00,4910.444902,N,12304.423008,W,1,12,0.5,12.6,M,-19.2,M,,*7D
$GNGGA,223607.00,4910.444900,N,12304.423008,W,1,12,0.5,12.6,M,-19.2,M,,*7E
$GNGGA,223608.00,4910.444898,N,12304.423009,W,1,12,0.5,12.6,M,-19.2,M,,*70
$GNGGA,223609.00,4910.444897,N,12304.423009,W,1,12,0.5,12.6,M,-19.2,M,,*7E
$GNGGA,223610.00,4910.444895,N,12304.423010,W,1,12,0.5,12.6,M,-19.2,M,,*7C
$GNGGA,223611.00,4910.444894,N,12304.423012,W,1,12,0.5,12.6,M,-19.2,M,,*7E
$GNGGA,223612.00,4910.444893,N,12304.423013,W,1,12,0.5,12.6,M,-19.2,M,,*7B
$GNGGA,223613.00,4910.444892,N,12304.423015,W,1,12,0.5,12.6,M,-19.2,M,,*7D
$GNGGA,223614.00,4910.444892,N,12304.423017,W,1,12,0.5,12.6,M,-19.2,M,,*78
$GNGGA,223615.00,4910.444891,N,12304.423019,W,1,12,0.5,12.6,M,-19.2,M,,*74
$GNGGA,223616.00,4910.444891,N,12304.423022,W,1,12,0.5,12.6,M,-19.2,M,,*7F
$GNGGA,223617.00,4910.444891,N,12304.423024,W,1,12,0.5,12.6,M,-19.2,M,,*78
$GNGGA,223618.00,4910.444891,N,12304.423025,W,1,12,0.5,12.6,M,-19.2,M,,*76
$GNGGA,223619.00,4910.444890,N,12304.423026,W,1,12,0.5,12.6,M,-19.2,M,,*75
$GNGGA,223620.00,4910.444891,N,12304.423027,W,1,12,0.5,12.7,M,-19.2,M,,*7E
$GNGGA,223621.00,4910.444890,N,12304.423028,W,1,12,0.5,12.7,M,-19.2,M,,*71
$GNGGA,223622.00,4910.444890,N,12304.423028,W,1,12,0.5,12.7,M,-19.2,M,,*72
$GNGGA,223623.00,4910.444890,N,12304.423029,W,1,12,0.5,12.7,M,-19.2,M,,*72
$GNGGA,223624.00,4910.444889,N,12304.423030,W,1,12,0.5,12.7,M,-19.2,M,,*75
$GNGGA,223625.00,4910.444889,N,12304.423031,W,1,12,0.5,12.7,M,-19.2,M,,*75
$GNGGA,223626.00,4910.444888,N,12304.423031,W,1,12,0.5,12.7,M,-19.2,M,,*77
$GNGGA,223627.00,4910.444887,N,12304.423032,W,1,12,0.5,12.7,M,-19.2,M,,*7A
$GNGGA,223628.00,4910.444886,N,12304.423032,W,1,12,0.5,12.7,M,-19.2,M,,*74
$GNGGA,223629.00,4910.444885,N,12304.423031,W,1,12,0.5,12.7,M,-19.2,M,,*75
$GNGGA,223630.00,4910.444885,N,12304.423031,W,1,12,0.5,12.7,M,-19.2,M,,*7D
$GNGGA,223631.00,4910.444884,N,12304.423030,W,1,12,0.5,12.7,M,-19.2,M,,*7C
$GNGGA,223632.00,4910.444883,N,12304.423029,W,1,12,0.5,12.7,M,-19.2,M,,*70
$GNGGA,223633.00,4910.444881,N,12304.423028,W,1,12,0.5,12.7,M,-19.2,M,,*72
$GNGGA,223634.00,4910.444880,N,12304.423027,W,1,12,0.5,12.7,M,-19.2,M,,*7B
$GNGGA,223635.00,4910.444879,N,12304.423027,W,1,12,0.5,12.7,M,-19.2,M,,*7C
$GNGGA,223636.00,4910.444878,N,12304.423026,W,1,12,0.5,12.7,M,-19.2,M,,*7F
$GNGGA,223637.00,4910.444877,N,12304.423026,W,1,12,0.5,12.7,M,-19.2,M,,*71
$GNGGA,223638.00,4910.444877,N,12304.423025,W,1,12,0.5,12.7,M,-19.2,M,,*7D
$GNGGA,223639.00,4910.444877,N,12304.423025,W,1,12,0.5,12.7,M,-19.2,M,,*7C
$GNGGA,223640.00,4910.444877,N,12304.423025,W,1,12,0.5,12.7,M,-19.2,M,,*72
$GNGGA,223641.00,4910.444877,N,12304.423026,W,1,12,0.5,12.7,M,-19.2,M,,*70
$GNGGA,223642.00,4910.444877,N,12304.423026,W,1,12,0.5,12.7,M,-19.2,M,,*73
$GNGGA,223643.00,4910.444877,N,12304.423027,W,1,12,0.5,12.7,M,-19.2,M,,*73
$GNGGA,223644.00,4910.444877,N,12304.423027,W,1,12,0.5,12.7,M,-19.2,M,,*74
$GNGGA,223645.00,4910.444877,N,12304.423027,W,1,12,0.5,12.7,M,-19.2,M,,*75
$GNGGA,223646.00,4910.444877,N,12304.423028,W,1,12,0.5,12.8,M,-19.2,M,,*76
$GNGGA,223647.00,4910.444877,N,12304.423028,W,1,12,0.5,12.8,M,-19.2,M,,*77
$GNGGA,223648.00,4910.444877,N,12304.423028,W,1,12,0.5,12.8,M,-19.2,M,,*78
$GNGGA,223649.00,4910.444877,N,12304.423029,W,1,12,0.5,12.8,M,-19.2,M,,*78
$GNGGA,223650.00,4910.444876,N,12304.423030,W,1,12,0.5,12.8,M,-19.2,M,,*79
$GNGGA,223651.00,4910.444876,N,12304.423030,W,1,12,0.5,12.8,M,-19.2,M,,*78
$GNGGA,223652.00,4910.444875,N,12304.423030,W,1,12,0.5,12.8,M,-19.2,M,,*78
$GNGGA,223653.00,4910.444874,N,12304.423030,W,1,12,0.5,12.8,M,-19.2,M,,*78
$GNGGA,223654.00,4910.444873,N,12304.423030,W,1,12,0.5,12.8,M,-19.2,M,,*78
$GNGGA,223655.00,4910.444872,N,12304.423030,W,1,12,0.5,12.8,M,-19.2,M,,*78
$GNGGA,223656.00,4910.444871,N,12304.423031,W,1,12,0.5,12.8,M,-19.2,M,,*79
$GNGGA,223657.00,4910.444870,N,12304.423030,W,1,12,0.5,12.8,M,-19.2,M,,*78
$GNGGA,223658.00,4910.444868,N,12304.423030,W,1,12,0.5,12.8,M,-19.2,M,,*7E
$GNGGA,223659.00,4910.444867,N,12304.423030,W,1,12,0.5,12.8,M,-19.2,M,,*70
$GNGGA,223700.00,4910.444866,N,12304.423030,W,1,12,0.5,12.8,M,-19.2,M,,*7C
$GNGGA,223701.00,4910.444865,N,12304.423030,W,1,12,0.5,12.8,M,-19.2,M,,*7E
$GNGGA,223702.00,4910.444864,N,12304.423031,W,1,12,0.5,12.8,M,-19.2,M,,*7D
$GNGGA,223703.00,4910.444862,N,12304.423031,W,1,12,0.5,12.9,M,-19.2,M,,*7B
$GNGGA,223704.00,4910.444861,N,12304.423033,W,1,12,0.5,12.9,M,-19.2,M,,*7D
$GNGGA,223705.00,4910.444859,N,12304.423033,W,1,12,0.5,12.9,M,-19.2,M,,*77
$GNGGA,223706.00,4910.444858,N,12304.423034,W,1,12,0.5,12.9,M,-19.2,M,,*72
$GNGGA,223707.00,4910.444857,N,12304.423035,W,1,12,0.5,12.9,M,-19.2,M,,*7D
$GNGGA,223708.00,4910.444856,N,12304.423037,W,1,12,0.5,12.9,M,-19.2,M,,*71
$GNGGA,223709.00,4910.444855,N,12304.423038,W,1,12,0.5,12.9,M,-19.2,M,,*7C
$GNGGA,223710.00,4910.444853,N,12304.423040,W,1,12,0.5,12.9,M,-19.2,M,,*7D
$GNGGA,223711.00,4910.444852,N,12304.423042,W,1,12,0.5,12.9,M,-19.2,M,,*7F
$GNGGA,223712.00,4910.444851,N,12304.423045,W,1,12,0.5,12.9,M,-19.2,M,,*78
$GNGGA,223713.00,4910.444849,N,12304.423046,W,1,12,0.5,12.9,M,-19.2,M,,*73
$GNGGA,223714.00,4910.444849,N,12304.423048,W,1,12,0.5,12.9,M,-19.2,M,,*7A
$GNGGA,223715.00,4910.444847,N,12304.423050,W,1,12,0.5,12.9,M,-19.2,M,,*7C
$GNGGA,223716.00,4910.444846,N,12304.423052,W,1,12,0.5,13.0,M,-19.2,M,,*74
$GNGGA,223717.00,4910.444845,N,12304.423054,W,1,12,0.5,13.0,M,-19.2,M,,*70
$GNGGA,223718.00,4910.444843,N,12304.423055,W,1,12,0.5,13.0,M,-19.2,M,,*78
$GNGGA,223719.00,4910.444841,N,12304.423056,W,1,12,0.5,13.0,M,-19.2,M,,*78
$GNGGA,223720.00,4910.444840,N,12304.423057,W,1,12,0.5,13.0,M,-19.2,M,,*72
$GNGGA,223721.00,4910.444838,N,12304.423058,W,1,12,0.5,13.0,M,-19.2,M,,*73
$GNGGA,223722.00,4910.444837,N,12304.423060,W,1,12,0.5,13.0,M,-19.2,M,,*74
$GNGGA,223723.00,4910.444834,N,12304.423061,W,1,12,0.5,13.0,M,-19.2,M,,*77
$GNGGA,223724.00,4910.444832,N,12304.423063,W,1,12,0.5,13.0,M,-19.2,M,,*74
$GNGGA,223725.00,4910.444831,N,12304.423064,W,1,12,0.5,13.0,M,-19.2,M,,*71
$GNGGA,223726.00,4910.444828,N,12304.423065,W,1,12,0.5,13.0,M,-19.2,M,,*7B
$GNGGA,223727.00,4910.444825,N,12304.423066,W,1,12,0.5,13.0,M,-19.2,M,,*74
$GNGGA,223728.00,4910.444823,N,12304.423067,W,1,12,0.5,13.0,M,-19.2,M,,*7C
$GNGGA,223729.00,4910.444820,N,12304.423068,W,1,12,0.5,13.0,M,-19.2,M,,*71
$GNGGA,223730.00,4910.444818,N,12304.423069,W,1,12,0.5,13.1,M,-19.2,M,,*72
$GNGGA,223731.00,4910.444816,N,12304.423070,W,1,12,0.5,13.1,M,-19.2,M,,*75
$GNGGA,223732.00,4910.444814,N,12304.423070,W,1,12,0.5,13.1,M,-19.2,M,,*74
$GNGGA,223733.00,4910.444811,N,12304.423072,W,1,12,0.5,13.1,M,-19.2,M,,*72
$GNGGA,223734.00,4910.444810,N,12304.423073,W,1,12,0.5,13.1,M,-19.2,M,,*75
$GNGGA,223735.00,4910.444807,N,12304.423074,W,1,12,0.5,13.1,M,-19.2,M,,*75
$GNGGA,223736.00,4910.444805,N,12304.423076,W,1,12,0.5,13.1,M,-19.2,M,,*76
$GNGGA,223737.00,4910.444804,N,12304.423078,W,1,12,0.5,13.1,M,-19.2,M,,*78
$GNGGA,223738.00,4910.444802,N,12304.423079,W,1,12,0.5,13.1,M,-19.2,M,,*70
$GNGGA,223739.00,4910.444800,N,12304.423081,W,1,12,0.5,13.1,M,-19.2,M,,*74
$GNGGA,223740.00,4910.444798,N,12304.423082,W,1,12,0.5,13.1,M,-19.2,M,,*77
$GNGGA,223741.00,4910.444796,N,12304.423084,W,1,12,0.5,13.1,M,-19.2,M,,*7E
$GNGGA,223742.00,4910.444794,N,12304.423085,W,1,12,0.5,13.1,M,-19.2,M,,*7E
$GNGGA,223743.00,4910.444793,N,12304.423087,W,1,12,0.5,13.1,M,-19.2,M,,*7A
$GNGGA,223744.00,4910.444791,N,12304.423088,W,1,12,0.5,13.1,M,-19.2,M,,*70
$GNGGA,223745.00,4910.444790,N,12304.423089,W,1,12,0.5,13.1,M,-19.2,M,,*71
$GNGGA,223746.00,4910.444788,N,12304.423090,W,1,12,0.5,13.2,M,-19.2,M,,*70
$GNGGA,223747.00,4910.444786,N,12304.423092,W,1,12,0.5,13.2,M,-19.2,M,,*7D
$GNGGA,223748.00,4910.444785,N,12304.423094,W,1,12,0.5,13.2,M,-19.2,M,,*77
$GNGGA,223749.00,4910.444783,N,12304.423096,W,1,12,0.5,13.2,M,-19.2,M,,*72
$GNGGA,223750.00,4910.444781,N,12304.423097,W,1,12,0.5,13.2,M,-19.2,M,,*79
$GNGGA,223751.00,4910.444780,N,12304.423099,W,1,12,0.5,13.2,M,-19.2,M,,*77
$GNGGA,223752.00,4910.444778,N,12304.423101,W,1,12,0.5,13.2,M,-19.2,M,,*73
$GNGGA,223753.00,4910.444777,N,12304.423103,W,1,12,0.5,13.2,M,-19.2,M,,*7F
$GNGGA,223754.00,4910.444776,N,12304.423104,W,1,12,0.5,13.2,M,-19.2,M,,*7E
$GNGGA,223755.00,4910.444774,N,12304.423106,W,1,12,0.5,13.2,M,-19.2,M,,*7F
$GNGGA,223756.00,4910.444773,N,12304.423107,W,1,12,0.5,13.2,M,-19.2,M,,*7A
$GNGGA,223757.00,4910.444771,N,12304.423108,W,1,12,0.5,13.2,M,-19.2,M,,*76
$GNGGA,223758.00,4910.444769,N,12304.423109,W,1,12,0.5,13.3,M,-19.2,M,,*70
$GNGGA,223759.00,4910.444768,N,12304.423110,W,1,12,0.5,13.3,M,-19.2,M,,*78
$GNGGA,223800.00,4910.444766,N,12304.423111,W,1,12,0.5,13.3,M,-19.2,M,,*74
$GNGGA,223801.00,4910.444763,N,12304.423112,W,1,12,0.5,13.3,M,-19.2,M,,*73
$GNGGA,223802.00,4910.444762,N,12304.423112,W,1,12,0.5,13.3,M,-19.2,M,,*71
$GNGGA,223803.00,4910.444759,N,12304.423113,W,1,12,0.5,13.3,M,-19.2,M,,*79
$GNGGA,223804.00,4910.444757,N,12304.423113,W,1,12,0.5,13.3,M,-19.2,M,,*70
$GNGGA,223805.00,4910.444755,N,12304.423114,W,1,12,0.5,13.3,M,-19.2,M,,*74
$GNGGA,223806.00,4910.444753,N,12304.423114,W,1,12,0.5,13.3,M,-19.2,M,,*71
$GNGGA,223807.00,4910.444751,N,12304.423114,W,1,12,0.5,13.3,M,-19.2,M,,*72
$GNGGA,223808.00,4910.444749,N,12304.423114,W,1,12,0.5,13.3,M,-19.2,M,,*74
$GNGGA,223809.00,4910.444747,N,12304.423114,W,1,12,0.5,13.4,M,-19.2,M,,*7C
$GNGGA,223810.00,4910.444745,N,12304.423114,W,1,12,0.5,13.4,M,-19.2,M,,*76
$GNGGA,223811.00,4910.444744,N,12304.423114,W,1,12,0.5,13.4,M,-19.2,M,,*76
$GNGGA,223812.00,4910.444742,N,12304.423113,W,1,12,0.5,13.4,M,-19.2,M,,*74
$GNGGA,223813.00,4910.444740,N,12304.423112,W,1,12,0.5,13.4,M,-19.2,M,,*76
$GNGGA,223814.00,4910.444738,N,12304.423112,W,1,12,0.5,13.4,M,-19.2,M,,*7E
$GNGGA,223815.00,4910.444736,N,12304.423112,W,1,12,0.5,13.4,M,-19.2,M,,*71
$GNGGA,223816.00,4910.444735,N,12304.423112,W,1,12,0.5,13.4,M,-19.2,M,,*71
$GNGGA,223817.00,4910.444734,N,12304.423112,W,1,12,0.5,13.4,M,-19.2,M,,*71
$GNGGA,223818.00,4910.444733,N,12304.423111,W,1,12,0.5,13.4,M,-19.2,M,,*7A
$GNGGA,223819.00,4910.444732,N,12304.423111,W,1,12,0.5,13.4,M,-19.2,M,,*7A
$GNGGA,223820.00,4910.444730,N,12304.423111,W,1,12,0.5,13.5,M,-19.2,M,,*73
$GNGGA,223821.00,4910.444729,N,12304.423111,W,1,12,0.5,13.5,M,-19.2,M,,*7A
$GNGGA,223822.00,4910.444729,N,12304.423111,W,1,12,0.5,13.5,M,-19.2,M,,*79
$GNGGA,223823.00,4910.444727,N,12304.423111,W,1,12,0.5,13.5,M,-19.2,M,,*76
$GNGGA,223824.00,4910.444727,N,12304.423111,W,1,12,0.5,13.5,M,-19.2,M,,*71
$GNGGA,223825.00,4910.444726,N,12304.423111,W,1,12,0.5,13.5,M,-19.2,M,,*71
$GNGGA,223826.00,4910.444725,N,12304.423111,W,1,12,0.5,13.5,M,-19.2,M,,*71
$GNGGA,223827.00,4910.444724,N,12304.423111,W,1,12,0.5,13.5,M,-19.2,M,,*71
$GNGGA,223828.00,4910.444723,N,12304.423111,W,1,12,0.5,13.5,M,-19.2,M,,*79
$GNGGA,223829.00,4910.444721,N,12304.423111,W,1,12,0.5,13.5,M,-19.2,M,,*7A
$GNGGA,223830.00,4910.444720,N,12304.423111,W,1,12,0.5,13.5,M,-19.2,M,,*73
$GNGGA,223831.00,4910.444719,N,12304.423111,W,1,12,0.5,13.6,M,-19.2,M,,*7B
$GNGGA,223832.00,4910.444718,N,12304.423112,W,1,12,0.5,13.6,M,-19.2,M,,*7A
$GNGGA,223833.00,4910.444717,N,12304.423112,W,1,12,0.5,13.6,M,-19.2,M,,*74
$GNGGA,223834.00,4910.444716,N,12304.423113,W,1,12,0.5,13.6,M,-19.2,M,,*73
$GNGGA,223835.00,4910.444715,N,12304.423114,W,1,12,0.5,13.6,M,-19.2,M,,*76
$GNGGA,223836.00,4910.444713,N,12304.423115,W,1,12,0.5,13.6,M,-19.2,M,,*72
$GNGGA,223837.00,4910.444711,N,12304.423115,W,1,12,0.5,13.6,M,-19.2,M,,*71
$GNGGA,223838.00,4910.444710,N,12304.423115,W,1,12,0.5,13.6,M,-19.2,M,,*7F
$GNGGA,223839.00,4910.444708,N,12304.423115,W,1,12,0.5,13.6,M,-19.2,M,,*77
$GNGGA,223840.00,4910.444706,N,12304.423115,W,1,12,0.5,13.6,M,-19.2,M,,*77
$GNGGA,223841.00,4910.444705,N,12304.423116,W,1,12,0.5,13.6,M,-19.2,M,,*76
$GNGGA,223842.00,4910.444703,N,12304.423117,W,1,12,0.5,13.6,M,-19.2,M,,*72
$GNGGA,223843.00,4910.444702,N,12304.423117,W,1,12,0.5,13.6,M,-19.2,M,,*72
$GNGGA,223844.00,4910.444700,N,12304.423118,W,1,12,0.5,13.6,M,-19.2,M,,*78
$GNGGA,223845.00,4910.444698,N,12304.423120,W,1,12,0.5,13.7,M,-19.2,M,,*73
$GNGGA,223846.00,4910.444696,N,12304.423120,W,1,12,0.5,13.7,M,-19.2,M,,*7E
$GNGGA,223847.00,4910.444694,N,12304.423121,W,1,12,0.5,13.7,M,-19.2,M,,*7C
$GNGGA,223848.00,4910.444692,N,12304.423123,W,1,12,0.5,13.7,M,-19.2,M,,*77
$GNGGA,223849.00,4910.444690,N,12304.423125,W,1,12,0.5,13.7,M,-19.2,M,,*72
$GNGGA,223850.00,4910.444688,N,12304.423127,W,1,12,0.5,13.7,M,-19.2,M,,*71
$GNGGA,223851.00,4910.444687,N,12304.423129,W,1,12,0.5,13.7,M,-19.2,M,,*71
$GNGGA,223852.00,4910.444685,N,12304.423132,W,1,12,0.5,13.7,M,-19.2,M,,*7A
$GNGGA,223853.00,4910.444682,N,12304.423134,W,1,12,0.5,13.7,M,-19.2,M,,*7A
$GNGGA,223854.00,4910.444681,N,12304.423136,W,1,12,0.5,13.7,M,-19.2,M,,*7C
$GNGGA,223855.00,4910.444678,N,12304.423138,W,1,12,0.5,13.7,M,-19.2,M,,*75
$GNGGA,223856.00,4910.444676,N,12304.423139,W,1,12,0.5,13.7,M,-19.2,M,,*79
$GNGGA,223857.00,4910.444674,N,12304.423141,W,1,12,0.5,13.7,M,-19.2,M,,*75
$GNGGA,223858.00,4910.444672,N,12304.423142,W,1,12,0.5,13.7,M,-19.2,M,,*7F
$GNGGA,223859.00,4910.444670,N,12304.423142,W,1,12,0.5,13.7,M,-19.2,M,,*7C
$GNGGA,223900.00,4910.444667,N,12304.423142,W,1,12,0.5,13.7,M,-19.2,M,,*77
$GNGGA,223901.00,4910.444665,N,12304.423141,W,1,12,0.5,13.7,M,-19.2,M,,*77
$GNGGA,223902.00,4910.444663,N,12304.423141,W,1,12,0.5,13.7,M,-19.2,M,,*72
$GNGGA,223903.00,4910.444660,N,12304.423139,W,1,12,0.5,13.7,M,-19.2,M,,*7F
$GNGGA,223904.00,4910.444658,N,12304.423139,W,1,12,0.5,13.7,M,-19.2,M,,*73
$GNGGA,223905.00,4910.444656,N,12304.423138,W,1,12,0.5,13.7,M,-19.2,M,,*7D
$GNGGA,223906.00,4910.444654,N,12304.423138,W,1,12,0.5,13.7,M,-19.2,M,,*7C
$GNGGA,223907.00,4910.444652,N,12304.423138,W,1,12,0.5,13.8,M,-19.2,M,,*74
$GNGGA,223908.00,4910.444651,N,12304.423138,W,1,12,0.5,13.8,M,-19.2,M,,*78
$GNGGA,223909.00,4910.444650,N,12304.423139,W,1,12,0.5,13.8,M,-19.2,M,,*79
$GNGGA,223910.00,4910.444649,N,12304.423140,W,1,12,0.5,13.8,M,-19.2,M,,*77
$GNGGA,223911.00,4910.444648,N,12304.423141,W,1,12,0.5,13.8,M,-19.2,M,,*76
$GNGGA,223912.00,4910.444646,N,12304.423142,W,1,12,0.5,13.8,M,-19.2,M,,*78
$GNGGA,223913.00,4910.444646,N,12304.423144,W,1,12,0.5,13.8,M,-19.2,M,,*7F
$GNGGA,223914.00,4910.444645,N,12304.423145,W,1,12,0.5,13.8,M,-19.2,M,,*7A
$GNGGA,223915.00,4910.444644,N,12304.423146,W,1,12,0.5,13.8,M,-19.2,M,,*79
$GNGGA,223916.00,4910.444643,N,12304.423147,W,1,12,0.5,13.8,M,-19.2,M,,*7C
$GNGGA,223917.00,4910.444642,N,12304.423148,W,1,12,0.5,13.8,M,-19.2,M,,*73
$GNGGA,223918.00,4910.444640,N,12304.423148,W,1,12,0.5,13.8,M,-19.2,M,,*7E
$GNGGA,223919.00,4910.444639,N,12304.423149,W,1,12,0.5,13.8,M,-19.2,M,,*70
$GNGGA,223920.00,4910.444637,N,12304.423149,W,1,12,0.5,13.8,M,-19.2,M,,*74
$GNGGA,223921.00,4910.444635,N,12304.423149,W,1,12,0.5,13.8,M,-19.2,M,,*77
$GNGGA,223922.00,4910.444633,N,12304.423150,W,1,12,0.5,13.8,M,-19.2,M,,*7A
$GNGGA,223923.00,4910.444632,N,12304.423150,W,1,12,0.5,13.8,M,-19.2,M,,*7A
$GNGGA,223924.00,4910.444630,N,12304.423150,W,1,12,0.5,13.8,M,-19.2,M,,*7F
$GNGGA,223925.00,4910.444628,N,12304.423150,W,1,12,0.5,13.8,M,-19.2,M,,*77
$GNGGA,223926.00,4910.444627,N,12304.423150,W,1,12,0.5,13.9,M,-19.2,M,,*7A
$GNGGA,223927.00,4910.444625,N,12304.423150,W,1,12,0.5,13.9,M,-19.2,M,,*79
$GNGGA,223928.00,4910.444623,N,12304.423149,W,1,12,0.5,13.9,M,-19.2,M,,*78
$GNGGA,223929.00,4910.444621,N,12304.423149,W,1,12,0.5,13.9,M,-19.2,M,,*7B
$GNGGA,223930.00,4910.444619,N,12304.423149,W,1,12,0.5,13.9,M,-19.2,M,,*78
$GNGGA,223931.00,4910.444618,N,12304.423149,W,1,12,0.5,13.9,M,-19.2,M,,*78
$GNGGA,223932.00,4910.444616,N,12304.423150,W,1,12,0.5,13.9,M,-19.2,M,,*7D
$GNGGA,223933.00,4910.444615,N,12304.423150,W,1,12,0.5,13.9,M,-19.2,M,,*7F
$GNGGA,223934.00,4910.444613,N,12304.423150,W,1,12,0.5,13.9,M,-19.2,M,,*7E
$GNGGA,223935.00,4910.444613,N,12304.423151,W,1,12,0.5,13.9,M,-19.2,M,,*7E
$GNGGA,223936.00,4910.444612,N,12304.423151,W,1,12,0.5,13.9,M,-19.2,M,,*7C
$GNGGA,223937.00,4910.444610,N,12304.423152,W,1,12,0.5,13.9,M,-19.2,M,,*7C
$GNGGA,223938.00,4910.444610,N,12304.423153,W,1,12,0.5,13.9,M,-19.2,M,,*72
$GNGGA,223939.00,4910.444609,N,12304.423154,W,1,12,0.5,13.9,M,-19.2,M,,*7C
$GNGGA,223940.00,4910.444607,N,12304.423155,W,1,12,0.5,14.0,M,-19.2,M,,*73
$GNGGA,223941.00,4910.444607,N,12304.423156,W,1,12,0.5,14.0,M,-19.2,M,,*71
$GNGGA,223942.00,4910.444607,N,12304.423157,W,1,12,0.5,14.0,M,-19.2,M,,*73
$GNGGA,223943.00,4910.444607,N,12304.423158,W,1,12,0.5,14.0,M,-19.2,M,,*7D
$GNGGA,223944.00,4910.444606,N,12304.423159,W,1,12,0.5,14.0,M,-19.2,M,,*7A
$GNGGA,223945.00,4910.444606,N,12304.423159,W,1,12,0.5,14.0,M,-19.2,M,,*7B
$GNGGA,223946.00,4910.444606,N,12304.423160,W,1,12,0.5,14.0,M,-19.2,M,,*72
$GNGGA,223947.00,4910.444606,N,12304.423160,W,1,12,0.5,14.0,M,-19.2,M,,*73
$GNGGA,223948.00,4910.444606,N,12304.423161,W,1,12,0.5,14.0,M,-19.2,M,,*7D
$GNGGA,223949.00,4910.444606,N,12304.423162,W,1,12,0.5,14.0,M,-19.2,M,,*7F
$GNGGA,223950.00,4910.444604,N,12304.423162,W,1,12,0.5,14.0,M,-19.2,M,,*75
$GNGGA,223951.00,4910.444604,N,12304.423162,W,1,12,0.5,14.0,M,-19.2,M,,*74
$GNGGA,223952.00,4910.444603,N,12304.423162,W,1,12,0.5,14.0,M,-19.2,M,,*70
$GNGGA,223953.00,4910.444601,N,12304.423162,W,1,12,0.5,14.1,M,-19.2,M,,*72
$GNGGA,223954.00,4910.444600,N,12304.423162,W,1,12,0.5,14.1,M,-19.2,M,,*74
$GNGGA,223955.00,4910.444598,N,12304.423162,W,1,12,0.5,14.1,M,-19.2,M,,*77
$GNGGA,223956.00,4910.444597,N,12304.423162,W,1,12,0.5,14.1,M,-19.2,M,,*7B
