$GNGGA,000013.012,,,,,0,0,,,M,,M,,*57
$GNGGA,000014.012,,,,,0,0,,,M,,M,,*50
$GNGGA,000015.012,,,,,0,0,,,M,,M,,*51
$GNGGA,000016.012,,,,,0,0,,,M,,M,,*52
$GNGGA,000017.012,,,,,0,0,,,M,,M,,*53
$GNGGA,000018.012,,,,,0,0,,,M,,M,,*5C
$GNGGA,000019.012,,,,,0,0,,,M,,M,,*5D
$GNGGA,000020.012,,,,,0,0,,,M,,M,,*57
$GNGGA,000021.012,,,,,0,0,,,M,,M,,*56
$GNGGA,000022.012,,,,,0,0,,,M,,M,,*55
$GNGGA,000023.012,,,,,0,0,,,M,,M,,*54
$GNGGA,000024.012,,,,,0,0,,,M,,M,,*53
$GNGGA,000025.012,,,,,0,0,,,M,,M,,*52
$GNGGA,000026.012,,,,,0,0,,,M,,M,,*51
$GNGGA,000027.012,,,,,0,0,,,M,,M,,*50
$GNGGA,000028.012,,,,,0,0,,,M,,M,,*5F
$GNGGA,000029.012,,,,,0,0,,,M,,M,,*5E
$GNGGA,000030.012,,,,,0,0,,,M,,M,,*56
$GNGGA,000031.012,,,,,0,0,,,M,,M,,*57
$GNGGA,000032.012,,,,,0,0,,,M,,M,,*54
$GNGGA,000033.012,,,,,0,0,,,M,,M,,*55
$GNGGA,000034.012,,,,,0,0,,,M,,M,,*52
$GNGGA,000035.012,,,,,0,0,,,M,,M,,*53
$GNGGA,000036.012,,,,,0,0,,,M,,M,,*50
$GNGGA,000037.012,,,,,0,0,,,M,,M,,*51
$GNGGA,000038.012,,,,,0,0,,,M,,M,,*5E
$GNGGA,000039.012,,,,,0,0,,,M,,M,,*5F
$GNGGA,000040.012,,,,,0,0,,,M,,M,,*51
$GNGGA,000041.012,,,,,0,0,,,M,,M,,*50
$GNGGA,000042.012,,,,,0,0,,,M,,M,,*53
$GNGGA,000043.012,,,,,0,0,,,M,,M,,*52
$GNGGA,000044.012,,,,,0,0,,,M,,M,,*55
$GNGGA,000045.012,,,,,0,0,,,M,,M,,*54
$GNGGA,000046.012,,,,,0,0,,,M,,M,,*57
$GNGGA,000047.012,,,,,0,0,,,M,,M,,*56
$GNGGA,000048.012,,,,,0,0,,,M,,M,,*59
$GNGGA,000049.012,,,,,0,0,,,M,,M,,*58
$GNGGA,000050.012,,,,,0,0,,,M,,M,,*50
$GNGGA,000051.012,,,,,0,0,,,M,,M,,*51
$GNGGA,000052.012,,,,,0,0,,,M,,M,,*52
$GNGGA,000053.012,,,,,0,0,,,M,,M,,*53
$GNGGA,000054.012,,,,,0,0,,,M,,M,,*54
$GNGGA,000055.012,,,,,0,0,,,M,,M,,*55
$GNGGA,000056.012,,,,,0,0,,,M,,M,,*56
$GNGGA,000057.012,,,,,0,0,,,M,,M,,*57
$GNGGA,000058.012,,,,,0,0,,,M,,M,,*58
$GNGGA,000059.012,,,,,0,0,,,M,,M,,*59
$GNGGA,000100.012,,,,,0,0,,,M,,M,,*54
$GNGGA,000101.012,,,,,0,0,,,M,,M,,*55
$GNGGA,000102.012,,,,,0,0,,,M,,M,,*56
$GNGGA,000103.012,,,,,0,0,,,M,,M,,*57
$GNGGA,000104.012,,,,,0,0,,,M,,M,,*50
$GNGGA,000105.012,,,,,0,0,,,M,,M,,*51
$GNGGA,000106.012,,,,,0,0,,,M,,M,,*52
$GNGGA,000107.012,,,,,0,0,,,M,,M,,*53
$GNGGA,000108.012,,,,,0,0,,,M,,M,,*5C
$GNGGA,000109.012,,,,,0,0,,,M,,M,,*5D
$GNGGA,000110.012,,,,,0,0,,,M,,M,,*55
$GNGGA,000111.012,,,,,0,0,,,M,,M,,*54
$GNGGA,000112.012,,,,,0,0,,,M,,M,,*57
$GNGGA,000113.012,,,,,0,0,,,M,,M,,*56
$GNGGA,000114.012,,,,,0,0,,,M,,M,,*51
$GNGGA,000115.012,,,,,0,0,,,M,,M,,*50
$GNGGA,000116.012,,,,,0,0,,,M,,M,,*53
$GNGGA,000117.012,,,,,0,0,,,M,,M,,*52
$GNGGA,000118.012,,,,,0,0,,,M,,M,,*5D
$GNGGA,000119.012,,,,,0,0,,,M,,M,,*5C
$GNGGA,000120.012,,,,,0,0,,,M,,M,,*56
$GNGGA,000121.012,,,,,0,0,,,M,,M,,*57
$GNGGA,000122.012,,,,,0,0,,,M,,M,,*54
$GNGGA,000123.012,,,,,0,0,,,M,,M,,*55
$GNGGA,000124.012,,,,,0,0,,,M,,M,,*52
$GNGGA,000125.012,,,,,0,0,,,M,,M,,*53
$GNGGA,000126.012,,,,,0,0,,,M,,M,,*50
$GNGGA,000127.012,,,,,0,0,,,M,,M,,*51
$GNGGA,000128.012,,,,,0,0,,,M,,M,,*5E
$GNGGA,000129.012,,,,,0,0,,,M,,M,,*5F
$GNGGA,000130.012,,,,,0,0,,,M,,M,,*57
$GNGGA,000131.012,,,,,0,0,,,M,,M,,*56
$GNGGA,000132.012,,,,,0,0,,,M,,M,,*55
$GNGGA,000133.012,,,,,0,0,,,M,,M,,*54
$GNGGA,000134.012,,,,,0,0,,,M,,M,,*53
$GNGGA,000135.012,,,,,0,0,,,M,,M,,*52
$GNGGA,000136.012,,,,,0,0,,,M,,M,,*51
$GNGGA,000137.012,,,,,0,0,,,M,,M,,*50
$GNGGA,000138.012,,,,,0,0,,,M,,M,,*5F
$GNGGA,000139.012,,,,,0,0,,,M,,M,,*5E
$GNGGA,000140.012,,,,,0,0,,,M,,M,,*50
$GNGGA,000141.012,,,,,0,0,,,M,,M,,*51
$GNGGA,000142.012,,,,,0,0,,,M,,M,,*52
$GNGGA,000143.012,,,,,0,0,,,M,,M,,*53
$GNGGA,000144.012,,,,,0,0,,,M,,M,,*54
$GNGGA,000145.012,,,,,0,0,,,M,,M,,*55
$GNGGA,000146.012,,,,,0,0,,,M,,M,,*56
$GNGGA,000147.012,,,,,0,0,,,M,,M,,*57
$GNGGA,000148.012,,,,,0,0,,,M,,M,,*58
$GNGGA,000149.012,,,,,0,0,,,M,,M,,*59
$GNGGA,000150.012,,,,,0,0,,,M,,M,,*51
$GNGGA,000151.012,,,,,0,0,,,M,,M,,*50
$GNGGA,000152.012,,,,,0,0,,,M,,M,,*53
$GNGGA,000153.012,,,,,0,0,,,M,,M,,*52
$GNGGA,000154.012,,,,,0,0,,,M,,M,,*55
$GNGGA,000155.012,,,,,0,0,,,M,,M,,*54
$GNGGA,000156.012,,,,,0,0,,,M,,M,,*57
$GNGGA,000157.012,,,,,0,0,,,M,,M,,*56
$GNGGA,000158.012,,,,,0,0,,,M,,M,,*59
$GNGGA,000159.012,,,,,0,0,,,M,,M,,*58
$GNGGA,000200.012,,,,,0,0,,,M,,M,,*57
$GNGGA,000201.012,,,,,0,0,,,M,,M,,*56
$GNGGA,000202.012,,,,,0,0,,,M,,M,,*55
$GNGGA,000203.012,,,,,0,0,,,M,,M,,*54
$GNGGA,000204.012,,,,,0,0,,,M,,M,,*53
$GNGGA,000205.012,,,,,0,0,,,M,,M,,*52
$GNGGA,000206.012,,,,,0,0,,,M,,M,,*51
$GNGGA,000207.012,,,,,0,0,,,M,,M,,*50
$GNGGA,000208.012,,,,,0,0,,,M,,M,,*5F
$GNGGA,000209.012,,,,,0,0,,,M,,M,,*5E
$GNGGA,000210.012,,,,,0,0,,,M,,M,,*56
$GNGGA,000211.012,,,,,0,0,,,M,,M,,*57
$GNGGA,000212.012,,,,,0,0,,,M,,M,,*54
$GNGGA,000213.012,,,,,0,0,,,M,,M,,*55
$GNGGA,000214.012,,,,,0,0,,,M,,M,,*52
$GNGGA,000215.012,,,,,0,0,,,M,,M,,*53
$GNGGA,000216.012,,,,,0,0,,,M,,M,,*50
$GNGGA,000217.012,,,,,0,0,,,M,,M,,*51
$GNGGA,000218.012,,,,,0,0,,,M,,M,,*5E
$GNGGA,000219.012,,,,,0,0,,,M,,M,,*5F
$GNGGA,000220.012,,,,,0,0,,,M,,M,,*55
$GNGGA,000221.012,,,,,0,0,,,M,,M,,*54
$GNGGA,000222.012,,,,,0,0,,,M,,M,,*57
$GNGGA,000223.012,,,,,0,0,,,M,,M,,*56
$GNGGA,000224.012,,,,,0,0,,,M,,M,,*51
$GNGGA,000225.012,,,,,0,0,,,M,,M,,*50
$GNGGA,000226.012,,,,,0,0,,,M,,M,,*53
$GNGGA,000227.012,,,,,0,0,,,M,,M,,*52
$GNGGA,000228.012,,,,,0,0,,,M,,M,,*5D
$GNGGA,000229.012,,,,,0,0,,,M,,M,,*5C
$GNGGA,000230.012,,,,,0,0,,,M,,M,,*54
$GNGGA,000231.012,,,,,0,0,,,M,,M,,*55
$GNGGA,000232.012,,,,,0,0,,,M,,M,,*56
$GNGGA,000233.012,,,,,0,0,,,M,,M,,*57
$GNGGA,000234.012,,,,,0,0,,,M,,M,,*50
$GNGGA,000235.012,,,,,0,0,,,M,,M,,*51
$GNGGA,000236.012,,,,,0,0,,,M,,M,,*52
$GNGGA,000237.012,,,,,0,0,,,M,,M,,*53
$GNGGA,000238.012,,,,,0,0,,,M,,M,,*5C
$GNGGA,000239.012,,,,,0,0,,,M,,M,,*5D
$GNGGA,000240.012,,,,,0,0,,,M,,M,,*53
$GNGGA,000241.012,,,,,0,0,,,M,,M,,*52
$GNGGA,000242.012,,,,,0,0,,,M,,M,,*51
$GNGGA,000243.012,,,,,0,0,,,M,,M,,*50
$GNGGA,000244.012,,,,,0,0,,,M,,M,,*57
$GNGGA,000245.012,,,,,0,0,,,M,,M,,*56
$GNGGA,000246.012,,,,,0,0,,,M,,M,,*55
$GNGGA,000247.012,,,,,0,0,,,M,,M,,*54
$GNGGA,000248.012,,,,,0,0,,,M,,M,,*5B
$GNGGA,000249.012,,,,,0,0,,,M,,M,,*5A
$GNGGA,000250.012,,,,,0,0,,,M,,M,,*52
$GNGGA,000251.012,,,,,0,0,,,M,,M,,*53
$GNGGA,000252.012,,,,,0,0,,,M,,M,,*50
$GNGGA,000253.012,,,,,0,0,,,M,,M,,*51
$GNGGA,000254.012,,,,,0,0,,,M,,M,,*56
$GNGGA,000255.012,,,,,0,0,,,M,,M,,*57
$GNGGA,000256.012,,,,,0,0,,,M,,M,,*54
$GNGGA,000257.012,,,,,0,0,,,M,,M,,*55
$GNGGA,000258.012,,,,,0,0,,,M,,M,,*5A
$GNGGA,000259.012,,,,,0,0,,,M,,M,,*5B
$GNGGA,000300.012,,,,,0,0,,,M,,M,,*56
$GNGGA,000301.012,,,,,0,0,,,M,,M,,*57
$GNGGA,000302.012,,,,,0,0,,,M,,M,,*54
$GNGGA,000303.012,,,,,0,0,,,M,,M,,*55
$GNGGA,000304.012,,,,,0,0,,,M,,M,,*52
$GNGGA,000305.012,,,,,0,0,,,M,,M,,*53
$GNGGA,000306.012,,,,,0,0,,,M,,M,,*50
$GNGGA,000307.012,,,,,0,0,,,M,,M,,*51
$GNGGA,000308.012,,,,,0,0,,,M,,M,,*5E
$GNGGA,000309.012,,,,,0,0,,,M,,M,,*5F
$GNGGA,000310.012,,,,,0,0,,,M,,M,,*57
$GNGGA,000311.012,,,,,0,0,,,M,,M,,*56
$GNGGA,000312.012,,,,,0,0,,,M,,M,,*55
$GNGGA,000313.012,,,,,0,0,,,M,,M,,*54
$GNGGA,000314.012,,,,,0,0,,,M,,M,,*53
$GNGGA,000315.012,,,,,0,0,,,M,,M,,*52
$GNGGA,000316.012,,,,,0,0,,,M,,M,,*51
$GNGGA,000317.012,,,,,0,0,,,M,,M,,*50
$GNGGA,000318.012,,,,,0,0,,,M,,M,,*5F
$GNGGA,000319.012,,,,,0,0,,,M,,M,,*5E
$GNGGA,000320.012,,,,,0,0,,,M,,M,,*54
$GNGGA,000321.012,,,,,0,0,,,M,,M,,*55
$GNGGA,000322.012,,,,,0,0,,,M,,M,,*56
$GNGGA,000323.012,,,,,0,0,,,M,,M,,*57
$GNGGA,000324.012,,,,,0,0,,,M,,M,,*50
$GNGGA,000325.012,,,,,0,0,,,M,,M,,*51
$GNGGA,000326.012,,,,,0,0,,,M,,M,,*52
$GNGGA,000327.012,,,,,0,0,,,M,,M,,*53
$GNGGA,000328.012,,,,,0,0,,,M,,M,,*5C
$GNGGA,000329.012,,,,,0,0,,,M,,M,,*5D
$GNGGA,000330.012,,,,,0,0,,,M,,M,,*55
$GNGGA,000331.012,,,,,0,0,,,M,,M,,*54
$GNGGA,000332.012,,,,,0,0,,,M,,M,,*57
$GNGGA,000333.012,,,,,0,0,,,M,,M,,*56
$GNGGA,000334.012,,,,,0,0,,,M,,M,,*51
$GNGGA,000335.012,,,,,0,0,,,M,,M,,*50
$GNGGA,000336.012,,,,,0,0,,,M,,M,,*53
$GNGGA,000337.012,,,,,0,0,,,M,,M,,*52
$GNGGA,000338.012,,,,,0,0,,,M,,M,,*5D
$GNGGA,000339.012,,,,,0,0,,,M,,M,,*5C
$GNGGA,000340.012,,,,,0,0,,,M,,M,,*52
$GNGGA,000341.012,,,,,0,0,,,M,,M,,*53
$GNGGA,000342.012,,,,,0,0,,,M,,M,,*50
$GNGGA,000343.012,,,,,0,0,,,M,,M,,*51
$GNGGA,000344.012,,,,,0,0,,,M,,M,,*56
$GNGGA,000345.012,,,,,0,0,,,M,,M,,*57
$GNGGA,000346.012,,,,,0,0,,,M,,M,,*54
$GNGGA,000347.012,,,,,0,0,,,M,,M,,*55
$GNGGA,000348.012,,,,,0,0,,,M,,M,,*5A
$GNGGA,000349.012,,,,,0,0,,,M,,M,,*5B
$GNGGA,000350.012,,,,,0,0,,,M,,M,,*53
$GNGGA,000351.012,,,,,0,0,,,M,,M,,*52
$GNGGA,000352.012,,,,,0,0,,,M,,M,,*51
$GNGGA,000353.012,,,,,0,0,,,M,,M,,*50
$GNGGA,000354.012,,,,,0,0,,,M,,M,,*57
$GNGGA,000355.012,,,,,0,0,,,M,,M,,*56
$GNGGA,000356.012,,,,,0,0,,,M,,M,,*55
$GNGGA,000357.012,,,,,0,0,,,M,,M,,*54
$GNGGA,000358.012,,,,,0,0,,,M,,M,,*5B
$GNGGA,000359.012,,,,,0,0,,,M,,M,,*5A
$GNGGA,000400.012,,,,,0,0,,,M,,M,,*51
$GNGGA,000401.012,,,,,0,0,,,M,,M,,*50
$GNGGA,000402.012,,,,,0,0,,,M,,M,,*53
$GNGGA,000403.012,,,,,0,0,,,M,,M,,*52
$GNGGA,000404.012,,,,,0,0,,,M,,M,,*55
$GNGGA,000405.012,,,,,0,0,,,M,,M,,*54
$GNGGA,000406.012,,,,,0,0,,,M,,M,,*57
$GNGGA,000407.012,,,,,0,0,,,M,,M,,*56
$GNGGA,000408.012,,,,,0,0,,,M,,M,,*59
$GNGGA,000409.012,,,,,0,0,,,M,,M,,*58
$GNGGA,000410.012,,,,,0,0,,,M,,M,,*50
$GNGGA,000411.012,,,,,0,0,,,M,,M,,*51
$GNGGA,000412.012,,,,,0,0,,,M,,M,,*52
$GNGGA,000413.012,,,,,0,0,,,M,,M,,*53
$GNGGA,000414.012,,,,,0,0,,,M,,M,,*54
$GNGGA,000415.012,,,,,0,0,,,M,,M,,*55
$GNGGA,000416.012,,,,,0,0,,,M,,M,,*56
$GNGGA,000417.012,,,,,0,0,,,M,,M,,*57
$GNGGA,000418.012,,,,,0,0,,,M,,M,,*58
$GNGGA,000419.012,,,,,0,0,,,M,,M,,*59
$GNGGA,000420.012,,,,,0,0,,,M,,M,,*53
$GNGGA,000421.012,,,,,0,0,,,M,,M,,*52
$GNGGA,000422.012,,,,,0,0,,,M,,M,,*51
$GNGGA,000423.012,,,,,0,0,,,M,,M,,*50
$GNGGA,000424.012,,,,,0,0,,,M,,M,,*57
$GNGGA,000425.012,,,,,0,0,,,M,,M,,*56
$GNGGA,000426.012,,,,,0,0,,,M,,M,,*55
$GNGGA,000427.012,,,,,0,0,,,M,,M,,*54
$GNGGA,000428.012,,,,,0,0,,,M,,M,,*5B
$GNGGA,000429.012,,,,,0,0,,,M,,M,,*5A
$GNGGA,000430.012,,,,,0,0,,,M,,M,,*52
$GNGGA,000431.012,,,,,0,0,,,M,,M,,*53
$GNGGA,000432.012,,,,,0,0,,,M,,M,,*50
$GNGGA,000433.012,,,,,0,0,,,M,,M,,*51
$GNGGA,000434.012,,,,,0,0,,,M,,M,,*56
$GNGGA,000435.012,,,,,0,0,,,M,,M,,*57
$GNGGA,000436.012,,,,,0,0,,,M,,M,,*54
$GNGGA,000437.012,,,,,0,0,,,M,,M,,*55
$GNGGA,000438.012,,,,,0,0,,,M,,M,,*5A
$GNGGA,000439.012,,,,,0,0,,,M,,M,,*5B
$GNGGA,000440.012,,,,,0,0,,,M,,M,,*55
$GNGGA,000441.012,,,,,0,0,,,M,,M,,*54
$GNGGA,000442.012,,,,,0,0,,,M,,M,,*57
$GNGGA,000443.012,,,,,0,0,,,M,,M,,*56
$GNGGA,000444.012,,,,,0,0,,,M,,M,,*51
$GNGGA,000445.012,,,,,0,0,,,M,,M,,*50
$GNGGA,000446.012,,,,,0,0,,,M,,M,,*53
$GNGGA,000447.012,,,,,0,0,,,M,,M,,*52
$GNGGA,000448.012,,,,,0,0,,,M,,M,,*5D
$GNGGA,000449.012,,,,,0,0,,,M,,M,,*5C
$GNGGA,000450.012,,,,,0,0,,,M,,M,,*54
$GNGGA,000451.012,,,,,0,0,,,M,,M,,*55
$GNGGA,000452.012,,,,,0,0,,,M,,M,,*56
$GNGGA,000453.012,,,,,0,0,,,M,,M,,*57
$GNGGA,000454.012,,,,,0,0,,,M,,M,,*50
$GNGGA,000455.012,,,,,0,0,,,M,,M,,*51
$GNGGA,000456.012,,,,,0,0,,,M,,M,,*52
$GNGGA,000457.012,,,,,0,0,,,M,,M,,*53
$GNGGA,000458.012,,,,,0,0,,,M,,M,,*5C
$GNGGA,000459.012,,,,,0,0,,,M,,M,,*5D
$GNGGA,000500.012,,,,,0,0,,,M,,M,,*50
$GNGGA,000501.012,,,,,0,0,,,M,,M,,*51
$GNGGA,000502.012,,,,,0,0,,,M,,M,,*52
$GNGGA,000503.012,,,,,0,0,,,M,,M,,*53
$GNGGA,000504.012,,,,,0,0,,,M,,M,,*54
$GNGGA,000505.012,,,,,0,0,,,M,,M,,*55
$GNGGA,000506.012,,,,,0,0,,,M,,M,,*56
$GNGGA,000507.012,,,,,0,0,,,M,,M,,*57
$GNGGA,000508.012,,,,,0,0,,,M,,M,,*58
$GNGGA,000509.012,,,,,0,0,,,M,,M,,*59
$GNGGA,000510.012,,,,,0,0,,,M,,M,,*51
$GNGGA,000511.012,,,,,0,0,,,M,,M,,*50
$GNGGA,000512.012,,,,,0,0,,,M,,M,,*53
$GNGGA,000513.012,,,,,0,0,,,M,,M,,*52
$GNGGA,000514.012,,,,,0,0,,,M,,M,,*55
$GNGGA,000515.012,,,,,0,0,,,M,,M,,*54
$GNGGA,000516.012,,,,,0,0,,,M,,M,,*57
$GNGGA,000517.012,,,,,0,0,,,M,,M,,*56
$GNGGA,000518.012,,,,,0,0,,,M,,M,,*59
$GNGGA,000519.012,,,,,0,0,,,M,,M,,*58
$GNGGA,000520.012,,,,,0,0,,,M,,M,,*52
$GNGGA,000521.012,,,,,0,0,,,M,,M,,*53
$GNGGA,000522.012,,,,,0,0,,,M,,M,,*50
$GNGGA,000523.012,,,,,0,0,,,M,,M,,*51
$GNGGA,000524.012,,,,,0,0,,,M,,M,,*56
$GNGGA,000525.012,,,,,0,0,,,M,,M,,*57
$GNGGA,000526.012,,,,,0,0,,,M,,M,,*54
$GNGGA,000527.012,,,,,0,0,,,M,,M,,*55
$GNGGA,000528.012,,,,,0,0,,,M,,M,,*5A
$GNGGA,000529.012,,,,,0,0,,,M,,M,,*5B
$GNGGA,000530.012,,,,,0,0,,,M,,M,,*53
$GNGGA,000531.012,,,,,0,0,,,M,,M,,*52
$GNGGA,000532.012,,,,,0,0,,,M,,M,,*51
$GNGGA,000533.012,,,,,0,0,,,M,,M,,*50
$GNGGA,000534.012,,,,,0,0,,,M,,M,,*57
$GNGGA,000535.012,,,,,0,0,,,M,,M,,*56
$GNGGA,000536.012,,,,,0,0,,,M,,M,,*55
$GNGGA,000537.012,,,,,0,0,,,M,,M,,*54
$GNGGA,000538.012,,,,,0,0,,,M,,M,,*5B
$GNGGA,000539.012,,,,,0,0,,,M,,M,,*5A
$GNGGA,000540.012,,,,,0,0,,,M,,M,,*54
$GNGGA,000541.012,,,,,0,0,,,M,,M,,*55
$GNGGA,000542.012,,,,,0,0,,,M,,M,,*56
$GNGGA,000543.012,,,,,0,0,,,M,,M,,*57
$GNGGA,000544.012,,,,,0,0,,,M,,M,,*50
$GNGGA,000545.012,,,,,0,0,,,M,,M,,*51
$GNGGA,000546.012,,,,,0,0,,,M,,M,,*52
$GNGGA,000547.012,,,,,0,0,,,M,,M,,*53
$GNGGA,000548.012,,,,,0,0,,,M,,M,,*5C
$GNGGA,000549.012,,,,,0,0,,,M,,M,,*5D
$GNGGA,000550.012,,,,,0,0,,,M,,M,,*55
$GNGGA,000551.012,,,,,0,0,,,M,,M,,*54
$GNGGA,000552.012,,,,,0,0,,,M,,M,,*57
$GNGGA,000553.012,,,,,0,0,,,M,,M,,*56
$GNGGA,000554.012,,,,,0,0,,,M,,M,,*51
$GNGGA,000555.012,,,,,0,0,,,M,,M,,*50
$GNGGA,000556.012,,,,,0,0,,,M,,M,,*53
$GNGGA,000557.012,,,,,0,0,,,M,,M,,*52
$GNGGA,000558.012,,,,,0,0,,,M,,M,,*5D
$GNGGA,000559.012,,,,,0,0,,,M,,M,,*5C
$GNGGA,000600.012,,,,,0,0,,,M,,M,,*53
$GNGGA,000601.012,,,,,0,0,,,M,,M,,*52
$GNGGA,000602.012,,,,,0,0,,,M,,M,,*51
$GNGGA,000603.012,,,,,0,0,,,M,,M,,*50
$GNGGA,000604.012,,,,,0,0,,,M,,M,,*57
$GNGGA,000605.012,,,,,0,0,,,M,,M,,*56
$GNGGA,000606.012,,,,,0,0,,,M,,M,,*55
$GNGGA,000607.012,,,,,0,0,,,M,,M,,*54
$GNGGA,000608.012,,,,,0,0,,,M,,M,,*5B
$GNGGA,000609.012,,,,,0,0,,,M,,M,,*5A
$GNGGA,000610.012,,,,,0,0,,,M,,M,,*52
$GNGGA,000611.012,,,,,0,0,,,M,,M,,*53
$GNGGA,000612.012,,,,,0,0,,,M,,M,,*50
$GNGGA,000613.012,,,,,0,0,,,M,,M,,*51
$GNGGA,000614.012,,,,,0,0,,,M,,M,,*56
$GNGGA,000615.012,,,,,0,0,,,M,,M,,*57
$GNGGA,000616.012,,,,,0,0,,,M,,M,,*54
$GNGGA,000617.012,,,,,0,0,,,M,,M,,*55
$GNGGA,000618.012,,,,,0,0,,,M,,M,,*5A
$GNGGA,000619.012,,,,,0,0,,,M,,M,,*5B
$GNGGA,000620.012,,,,,0,0,,,M,,M,,*51
$GNGGA,000621.012,,,,,0,0,,,M,,M,,*50
$GNGGA,000622.012,,,,,0,0,,,M,,M,,*53
$GNGGA,000623.012,,,,,0,0,,,M,,M,,*52
$GNGGA,000624.012,,,,,0,0,,,M,,M,,*55
$GNGGA,000625.012,,,,,0,0,,,M,,M,,*54
$GNGGA,000626.012,,,,,0,0,,,M,,M,,*57
$GNGGA,000627.012,,,,,0,0,,,M,,M,,*56
$GNGGA,000628.012,,,,,0,0,,,M,,M,,*59
$GNGGA,000629.012,,,,,0,0,,,M,,M,,*58
$GNGGA,000630.012,,,,,0,0,,,M,,M,,*50
$GNGGA,000631.012,,,,,0,0,,,M,,M,,*51
$GNGGA,000632.012,,,,,0,0,,,M,,M,,*52
$GNGGA,000633.012,,,,,0,0,,,M,,M,,*53
$GNGGA,000634.012,,,,,0,0,,,M,,M,,*54
$GNGGA,000635.012,,,,,0,0,,,M,,M,,*55
$GNGGA,000636.012,,,,,0,0,,,M,,M,,*56
$GNGGA,000637.012,,,,,0,0,,,M,,M,,*57
$GNGGA,000638.012,,,,,0,0,,,M,,M,,*58
$GNGGA,000639.012,,,,,0,0,,,M,,M,,*59
$GNGGA,000640.012,,,,,0,0,,,M,,M,,*57
$GNGGA,000641.012,,,,,0,0,,,M,,M,,*56
$GNGGA,000642.012,,,,,0,0,,,M,,M,,*55
$GNGGA,000643.012,,,,,0,0,,,M,,M,,*54
$GNGGA,000644.012,,,,,0,0,,,M,,M,,*53
$GNGGA,000645.012,,,,,0,0,,,M,,M,,*52
$GNGGA,000646.012,,,,,0,0,,,M,,M,,*51
$GNGGA,000647.012,,,,,0,0,,,M,,M,,*50
$GNGGA,000648.012,,,,,0,0,,,M,,M,,*5F
$GNGGA,000649.012,,,,,0,0,,,M,,M,,*5E
$GNGGA,000650.012,,,,,0,0,,,M,,M,,*56
$GNGGA,000651.012,,,,,0,0,,,M,,M,,*57
$GNGGA,000652.012,,,,,0,0,,,M,,M,,*54
$GNGGA,000653.012,,,,,0,0,,,M,,M,,*55
$GNGGA,000654.012,,,,,0,0,,,M,,M,,*52
$GNGGA,000655.012,,,,,0,0,,,M,,M,,*53
$GNGGA,000656.012,,,,,0,0,,,M,,M,,*50
$GNGGA,000657.012,,,,,0,0,,,M,,M,,*51
$GNGGA,000658.012,,,,,0,0,,,M,,M,,*5E
$GNGGA,000659.012,,,,,0,0,,,M,,M,,*5F
$GNGGA,000700.012,,,,,0,0,,,M,,M,,*52
$GNGGA,000701.012,,,,,0,0,,,M,,M,,*53
$GNGGA,000702.012,,,,,0,0,,,M,,M,,*50
$GNGGA,000703.012,,,,,0,0,,,M,,M,,*51
$GNGGA,000704.012,,,,,0,0,,,M,,M,,*56
$GNGGA,000705.012,,,,,0,0,,,M,,M,,*57
$GNGGA,000706.012,,,,,0,0,,,M,,M,,*54
$GNGGA,000707.012,,,,,0,0,,,M,,M,,*55
$GNGGA,000708.012,,,,,0,0,,,M,,M,,*5A
$GNGGA,000709.012,,,,,0,0,,,M,,M,,*5B
$GNGGA,000710.012,,,,,0,0,,,M,,M,,*53
$GNGGA,000711.012,,,,,0,0,,,M,,M,,*52
$GNGGA,000712.012,,,,,0,0,,,M,,M,,*51
$GNGGA,000713.012,,,,,0,0,,,M,,M,,*50
$GNGGA,000714.012,,,,,0,0,,,M,,M,,*57
$GNGGA,000715.012,,,,,0,0,,,M,,M,,*56
$GNGGA,000716.012,,,,,0,0,,,M,,M,,*55
$GNGGA,000717.012,,,,,0,0,,,M,,M,,*54
$GNGGA,000718.012,,,,,0,0,,,M,,M,,*5B
$GNGGA,000719.012,,,,,0,0,,,M,,M,,*5A
$GNGGA,000720.012,,,,,0,0,,,M,,M,,*50
$GNGGA,000721.012,,,,,0,0,,,M,,M,,*51
$GNGGA,000722.012,,,,,0,0,,,M,,M,,*52
$GNGGA,000723.012,,,,,0,0,,,M,,M,,*53
$GNGGA,000724.012,,,,,0,0,,,M,,M,,*54
$GNGGA,000725.012,,,,,0,0,,,M,,M,,*55
$GNGGA,000726.012,,,,,0,0,,,M,,M,,*56
$GNGGA,000727.012,,,,,0,0,,,M,,M,,*57
$GNGGA,000728.012,,,,,0,0,,,M,,M,,*58
$GNGGA,000729.012,,,,,0,0,,,M,,M,,*59
$GNGGA,000730.012,,,,,0,0,,,M,,M,,*51
$GNGGA,000731.012,,,,,0,0,,,M,,M,,*50
$GNGGA,000732.012,,,,,0,0,,,M,,M,,*53
$GNGGA,000733.012,,,,,0,0,,,M,,M,,*52
$GNGGA,000734.012,,,,,0,0,,,M,,M,,*55
$GNGGA,000735.012,,,,,0,0,,,M,,M,,*54
$GNGGA,000736.012,,,,,0,0,,,M,,M,,*57
$GNGGA,000737.012,,,,,0,0,,,M,,M,,*56
$GNGGA,000738.012,,,,,0,0,,,M,,M,,*59
$GNGGA,000739.012,,,,,0,0,,,M,,M,,*58
$GNGGA,000740.012,,,,,0,0,,,M,,M,,*56
$GNGGA,000741.012,,,,,0,0,,,M,,M,,*57
$GNGGA,000742.012,,,,,0,0,,,M,,M,,*54
$GNGGA,000743.012,,,,,0,0,,,M,,M,,*55
$GNGGA,000744.012,,,,,0,0,,,M,,M,,*52
$GNGGA,000745.012,,,,,0,0,,,M,,M,,*53
$GNGGA,000746.012,,,,,0,0,,,M,,M,,*50
$GNGGA,000747.012,,,,,0,0,,,M,,M,,*51
$GNGGA,000748.012,,,,,0,0,,,M,,M,,*5E
$GNGGA,000749.012,,,,,0,0,,,M,,M,,*5F
$GNGGA,000750.012,,,,,0,0,,,M,,M,,*57
$GNGGA,000751.012,,,,,0,0,,,M,,M,,*56
$GNGGA,000752.012,,,,,0,0,,,M,,M,,*55
$GNGGA,000753.012,,,,,0,0,,,M,,M,,*54
$GNGGA,000754.012,,,,,0,0,,,M,,M,,*53
$GNGGA,000755.012,,,,,0,0,,,M,,M,,*52
$GNGGA,000756.012,,,,,0,0,,,M,,M,,*51
$GNGGA,000757.012,,,,,0,0,,,M,,M,,*50
$GNGGA,000758.012,,,,,0,0,,,M,,M,,*5F
$GNGGA,000759.012,,,,,0,0,,,M,,M,,*5E
$GNGGA,000800.012,,,,,0,0,,,M,,M,,*5D
$GNGGA,000801.012,,,,,0,0,,,M,,M,,*5C
$GNGGA,000802.012,,,,,0,0,,,M,,M,,*5F
$GNGGA,000803.012,,,,,0,0,,,M,,M,,*5E
$GNGGA,000804.012,,,,,0,0,,,M,,M,,*59
$GNGGA,000805.012,,,,,0,0,,,M,,M,,*58
$GNGGA,000806.012,,,,,0,0,,,M,,M,,*5B
$GNGGA,000807.012,,,,,0,0,,,M,,M,,*5A
$GNGGA,000808.012,,,,,0,0,,,M,,M,,*55
$GNGGA,000809.012,,,,,0,0,,,M,,M,,*54
$GNGGA,000810.012,,,,,0,0,,,M,,M,,*5C
$GNGGA,000811.012,,,,,0,0,,,M,,M,,*5D
$GNGGA,000812.012,,,,,0,0,,,M,,M,,*5E
$GNGGA,000813.012,,,,,0,0,,,M,,M,,*5F
$GNGGA,000814.011,,,,,0,0,,,M,,M,,*5B
$GNGGA,000815.011,,,,,0,0,,,M,,M,,*5A
$GNGGA,000816.011,,,,,0,0,,,M,,M,,*59
$GNGGA,000817.011,,,,,0,0,,,M,,M,,*58
$GNGGA,000818.011,,,,,0,0,,,M,,M,,*57
$GNGGA,000819.011,,,,,0,0,,,M,,M,,*56
$GNGGA,000820.011,,,,,0,0,,,M,,M,,*5C
$GNGGA,000821.011,,,,,0,0,,,M,,M,,*5D
$GNGGA,000822.011,,,,,0,0,,,M,,M,,*5E
$GNGGA,000823.011,,,,,0,0,,,M,,M,,*5F
$GNGGA,000824.011,,,,,0,0,,,M,,M,,*58
$GNGGA,000825.011,,,,,0,0,,,M,,M,,*59
$GNGGA,000826.011,,,,,0,0,,,M,,M,,*5A
$GNGGA,000827.012,,,,,0,0,,,M,,M,,*58
$GNGGA,000828.012,,,,,0,0,,,M,,M,,*57
$GNGGA,000829.012,,,,,0,0,,,M,,M,,*56
$GNGGA,000830.012,,,,,0,0,,,M,,M,,*5E
$GNGGA,000831.012,,,,,0,0,,,M,,M,,*5F
$GNGGA,000832.012,,,,,0,0,,,M,,M,,*5C
$GNGGA,000833.012,,,,,0,0,,,M,,M,,*5D
$GNGGA,000834.012,,,,,0,0,,,M,,M,,*5A
$GNGGA,000835.012,,,,,0,0,,,M,,M,,*5B
$GNGGA,000836.012,,,,,0,0,,,M,,M,,*58
$GNGGA,000837.012,,,,,0,0,,,M,,M,,*59
$GNGGA,000838.012,,,,,0,0,,,M,,M,,*56
$GNGGA,000839.012,,,,,0,0,,,M,,M,,*57
$GNGGA,000840.012,,,,,0,0,,,M,,M,,*59
$GNGGA,000841.012,,,,,0,0,,,M,,M,,*58
$GNGGA,000842.012,,,,,0,0,,,M,,M,,*5B
$GNGGA,000843.012,,,,,0,0,,,M,,M,,*5A
$GNGGA,000844.012,,,,,0,0,,,M,,M,,*5D
$GNGGA,000845.012,,,,,0,0,,,M,,M,,*5C
$GNGGA,000846.012,,,,,0,0,,,M,,M,,*5F
$GNGGA,000847.012,,,,,0,0,,,M,,M,,*5E
$GNGGA,000848.012,,,,,0,0,,,M,,M,,*51
$GNGGA,000849.012,,,,,0,0,,,M,,M,,*50
$GNGGA,000850.012,,,,,0,0,,,M,,M,,*58
$GNGGA,000851.012,,,,,0,0,,,M,,M,,*59
$GNGGA,000852.012,,,,,0,0,,,M,,M,,*5A
$GNGGA,000853.012,,,,,0,0,,,M,,M,,*5B
$GNGGA,000854.012,,,,,0,0,,,M,,M,,*5C
$GNGGA,000855.012,,,,,0,0,,,M,,M,,*5D
$GNGGA,000856.012,,,,,0,0,,,M,,M,,*5E
$GNGGA,000857.012,,,,,0,0,,,M,,M,,*5F
$GNGGA,000858.012,,,,,0,0,,,M,,M,,*50
$GNGGA,000859.012,,,,,0,0,,,M,,M,,*51
$GNGGA,000900.012,,,,,0,0,,,M,,M,,*5C
$GNGGA,000901.012,,,,,0,0,,,M,,M,,*5D
$GNGGA,000902.012,,,,,0,0,,,M,,M,,*5E
$GNGGA,000903.012,,,,,0,0,,,M,,M,,*5F
$GNGGA,000904.012,,,,,0,0,,,M,,M,,*58
$GNGGA,000905.012,,,,,0,0,,,M,,M,,*59
$GNGGA,000906.012,,,,,0,0,,,M,,M,,*5A
$GNGGA,000907.012,,,,,0,0,,,M,,M,,*5B
$GNGGA,000908.012,,,,,0,0,,,M,,M,,*54
$GNGGA,000909.012,,,,,0,0,,,M,,M,,*55
$GNGGA,000910.012,,,,,0,0,,,M,,M,,*5D
$GNGGA,000911.012,,,,,0,0,,,M,,M,,*5C
$GNGGA,000912.012,,,,,0,0,,,M,,M,,*5F
$GNGGA,000913.012,,,,,0,0,,,M,,M,,*5E
$GNGGA,000914.012,,,,,0,0,,,M,,M,,*59
$GNGGA,000915.012,,,,,0,0,,,M,,M,,*58
$GNGGA,000916.012,,,,,0,0,,,M,,M,,*5B
$GNGGA,000917.012,,,,,0,0,,,M,,M,,*5A
$GNGGA,000918.012,,,,,0,0,,,M,,M,,*55
$GNGGA,000919.012,,,,,0,0,,,M,,M,,*54
$GNGGA,000920.012,,,,,0,0,,,M,,M,,*5E
$GNGGA,000921.012,,,,,0,0,,,M,,M,,*5F
$GNGGA,000922.012,,,,,0,0,,,M,,M,,*5C
$GNGGA,000923.012,,,,,0,0,,,M,,M,,*5D
$GNGGA,000924.012,,,,,0,0,,,M,,M,,*5A
$GNGGA,000925.012,,,,,0,0,,,M,,M,,*5B
$GNGGA,000926.012,,,,,0,0,,,M,,M,,*58
$GNGGA,000927.012,,,,,0,0,,,M,,M,,*59
$GNGGA,000928.012,,,,,0,0,,,M,,M,,*56
$GNGGA,000929.012,,,,,0,0,,,M,,M,,*57
$GNGGA,000930.012,,,,,0,0,,,M,,M,,*5F
$GNGGA,000931.012,,,,,0,0,,,M,,M,,*5E
$GNGGA,000932.012,,,,,0,0,,,M,,M,,*5D
$GNGGA,000933.012,,,,,0,0,,,M,,M,,*5C
$GNGGA,000934.012,,,,,0,0,,,M,,M,,*5B
$GNGGA,000935.012,,,,,0,0,,,M,,M,,*5A
$GNGGA,000936.012,,,,,0,0,,,M,,M,,*59
$GNGGA,000937.012,,,,,0,0,,,M,,M,,*58
$GNGGA,000938.012,,,,,0,0,,,M,,M,,*57
$GNGGA,000939.012,,,,,0,0,,,M,,M,,*56
$GNGGA,000940.012,,,,,0,0,,,M,,M,,*58
$GNGGA,000941.012,,,,,0,0,,,M,,M,,*59
$GNGGA,000942.012,,,,,0,0,,,M,,M,,*5A
$GNGGA,000943.012,,,,,0,0,,,M,,M,,*5B
$GNGGA,000944.012,,,,,0,0,,,M,,M,,*5C
$GNGGA,000945.012,,,,,0,0,,,M,,M,,*5D
$GNGGA,000946.012,,,,,0,0,,,M,,M,,*5E
$GNGGA,000947.012,,,,,0,0,,,M,,M,,*5F
$GNGGA,000948.012,,,,,0,0,,,M,,M,,*50
$GNGGA,000949.012,,,,,0,0,,,M,,M,,*51
$GNGGA,000950.012,,,,,0,0,,,M,,M,,*59
$GNGGA,000951.012,,,,,0,0,,,M,,M,,*58
$GNGGA,000952.012,,,,,0,0,,,M,,M,,*5B
$GNGGA,000953.012,,,,,0,0,,,M,,M,,*5A
$GNGGA,000954.012,,,,,0,0,,,M,,M,,*5D
$GNGGA,000955.012,,,,,0,0,,,M,,M,,*5C
$GNGGA,000956.012,,,,,0,0,,,M,,M,,*5F
$GNGGA,000957.012,,,,,0,0,,,M,,M,,*5E
$GNGGA,000958.012,,,,,0,0,,,M,,M,,*51
$GNGGA,000959.012,,,,,0,0,,,M,,M,,*50
$GNGGA,001000.012,,,,,0,0,,,M,,M,,*54
$GNGGA,001001.012,,,,,0,0,,,M,,M,,*55
$GNGGA,001002.012,,,,,0,0,,,M,,M,,*56
$GNGGA,001003.012,,,,,0,0,,,M,,M,,*57
$GNGGA,001004.012,,,,,0,0,,,M,,M,,*50
$GNGGA,001005.012,,,,,0,0,,,M,,M,,*51
$GNGGA,001006.012,,,,,0,0,,,M,,M,,*52
$GNGGA,001007.012,,,,,0,0,,,M,,M,,*53
$GNGGA,001008.012,,,,,0,0,,,M,,M,,*5C
$GNGGA,001009.012,,,,,0,0,,,M,,M,,*5D
$GNGGA,001010.012,,,,,0,0,,,M,,M,,*55
$GNGGA,001011.012,,,,,0,0,,,M,,M,,*54
$GNGGA,001012.012,,,,,0,0,,,M,,M,,*57
$GNGGA,001012.611,,,,,0,0,,,M,,M,,*52
$GNGGA,222525.093,,,,,0,0,,,M,,M,,*5C
$GNGGA,222526.093,,,,,0,0,,,M,,M,,*5F
$GNGGA,222527.093,,,,,0,0,,,M,,M,,*5E
$GNGGA,222528.093,,,,,0,0,,,M,,M,,*51
$GNGGA,222529.093,,,,,0,0,,,M,,M,,*50
$GNGGA,222530.093,,,,,0,0,,,M,,M,,*58
$GNGGA,222531.093,,,,,0,0,,,M,,M,,*59
$GNGGA,222532.093,,,,,0,0,,,M,,M,,*5A
$GNGGA,222533.093,,,,,0,0,,,M,,M,,*5B
$GNGGA,222534.093,,,,,0,0,,,M,,M,,*5C
$GNGGA,222535.093,,,,,0,0,,,M,,M,,*5D
$GNGGA,222536.093,,,,,0,0,,,M,,M,,*5E
$GNGGA,222537.093,,,,,0,0,,,M,,M,,*5F
$GNGGA,222538.093,,,,,0,0,,,M,,M,,*50
$GNGGA,222539.093,,,,,0,0,,,M,,M,,*51
$GNGGA,222540.088,,,,,0,0,,,M,,M,,*55
$GNGGA,222541.088,4910.429920,N,12304.368060,W,1,6,1.69,33.551,M,-16.816,M,,*49
$GNGGA,222543.000,4910.428240,N,12304.370658,W,1,6,1.69,27.405,M,-16.817,M,,*47
$GNGGA,222544.000,4910.427688,N,12304.372050,W,1,6,1.69,24.258,M,-16.816,M,,*4F
$GNGGA,222545.000,4910.427304,N,12304.372830,W,1,6,1.69,22.581,M,-16.816,M,,*44
$GNGGA,222546.000,4910.427094,N,12304.373118,W,1,5,1.69,21.917,M,-16.816,M,,*4C
$GNGGA,222547.000,4910.426710,N,12304.373574,W,1,6,1.69,20.702,M,-16.816,M,,*41
$GNGGA,222548.000,4910.426506,N,12304.373982,W,1,6,1.69,19.281,M,-16.816,M,,*4A
$GNGGA,222549.000,4910.419210,N,12304.384458,W,1,11,1.35,-5.267,M,-16.816,M,,*62
$GNGGA,222550.000,4910.419168,N,12304.384800,W,1,10,1.35,-5.374,M,-16.816,M,,*65
$GNGGA,222551.000,4910.420536,N,12304.385226,W,1,14,1.10,-1.562,M,-16.816,M,,*68
$GNGGA,222552.000,4910.420416,N,12304.385286,W,1,16,1.10,-1.423,M,-16.816,M,,*64
$GNGGA,222553.000,4910.420296,N,12304.385394,W,1,16,1.10,-1.827,M,-16.816,M,,*61
$GNGGA,222554.000,4910.420314,N,12304.385442,W,1,16,1.10,-2.207,M,-16.816,M,,*6A
$GNGGA,222555.000,4910.420326,N,12304.385448,W,1,15,1.03,-2.189,M,-16.816,M,,*64
$GNGGA,222556.000,4910.420338,N,12304.385436,W,1,17,1.03,-1.969,M,-16.817,M,,*67
$GNGGA,222557.000,4910.420266,N,12304.385382,W,1,18,1.03,-1.751,M,-16.816,M,,*6F
$GNGGA,222558.000,4910.420242,N,12304.385340,W,1,15,1.03,-1.703,M,-16.816,M,,*62
$GNGGA,222559.000,4910.420254,N,12304.385328,W,1,18,1.03,-1.718,M,-16.816,M,,*6D
$GNGGA,222600.000,4910.420242,N,12304.385292,W,1,18,1.03,-1.724,M,-16.817,M,,*6B
$GNGGA,222601.000,4910.420224,N,12304.385202,W,1,19,0.86,-1.778,M,-16.816,M,,*66
$GNGGA,222602.000,4910.420410,N,12304.385232,W,1,19,0.86,-1.797,M,-16.817,M,,*67
$GNGGA,222603.000,4910.420260,N,12304.385166,W,1,19,0.86,-1.909,M,-16.817,M,,*6C
$GNGGA,222604.000,4910.420098,N,12304.385070,W,1,19,0.86,-1.937,M,-16.816,M,,*64
$GNGGA,222605.000,4910.419912,N,12304.384902,W,1,19,0.86,-1.995,M,-16.816,M,,*61
$GNGGA,222606.000,4910.419726,N,12304.384716,W,1,19,0.86,-2.047,M,-16.817,M,,*64
$GNGGA,222607.000,4910.419564,N,12304.384536,W,1,19,0.86,-2.159,M,-16.817,M,,*6F
$GNGGA,222608.000,4910.419468,N,12304.384410,W,1,19,0.86,-2.232,M,-16.816,M,,*67
$GNGGA,222609.000,4910.419420,N,12304.384326,W,1,19,0.86,-2.346,M,-16.817,M,,*6B
$GNGGA,222610.000,4910.419354,N,12304.384224,W,1,20,0.76,-2.344,M,-16.816,M,,*62
$GNGGA,222611.000,4910.419306,N,12304.384146,W,1,20,0.76,-2.343,M,-16.816,M,,*64
$GNGGA,222612.000,4910.419276,N,12304.384068,W,1,20,0.76,-2.354,M,-16.816,M,,*6A
$GNGGA,222613.000,4910.419204,N,12304.383924,W,1,20,0.76,-2.248,M,-16.816,M,,*64
$GNGGA,222614.000,4910.419150,N,12304.383786,W,1,20,0.76,-2.177,M,-16.816,M,,*68
$GNGGA,222615.000,4910.419120,N,12304.383672,W,1,20,0.76,-2.096,M,-16.816,M,,*6A
$GNGGA,222616.000,4910.419084,N,12304.383558,W,1,20,0.76,-2.028,M,-16.816,M,,*68
$GNGGA,222617.000,4910.419102,N,12304.383510,W,1,20,0.76,-2.040,M,-16.816,M,,*64
$GNGGA,222618.000,4910.419114,N,12304.383432,W,1,28,0.67,-1.942,M,-16.816,M,,*6D
$GNGGA,222619.000,4910.419126,N,12304.383378,W,1,28,0.67,-1.844,M,-16.816,M,,*63
$GNGGA,222620.000,4910.419132,N,12304.383324,W,1,28,0.67,-1.787,M,-16.816,M,,*65
$GNGGA,222621.000,4910.419168,N,12304.383294,W,1,28,0.67,-1.749,M,-16.816,M,,*63
$GNGGA,222622.000,4910.419198,N,12304.383288,W,1,28,0.67,-1.711,M,-16.816,M,,*6F
$GNGGA,222623.000,4910.419228,N,12304.383282,W,1,28,0.67,-1.712,M,-16.816,M,,*6F
$GNGGA,222624.000,4910.419252,N,12304.383258,W,1,28,0.68,-1.724,M,-16.816,M,,*68
$GNGGA,222625.000,4910.419258,N,12304.383258,W,1,28,0.68,-1.748,M,-16.817,M,,*68
$GNGGA,222626.000,4910.419192,N,12304.383258,W,1,28,0.68,-1.915,M,-16.817,M,,*68
$GNGGA,222627.000,4910.419108,N,12304.383258,W,1,28,0.68,-2.025,M,-16.816,M,,*62
$GNGGA,222628.000,4910.419030,N,12304.383270,W,1,28,0.68,-2.133,M,-16.816,M,,*6B
$GNGGA,222629.000,4910.418970,N,12304.383276,W,1,28,0.68,-2.149,M,-16.817,M,,*6C
$GNGGA,222630.000,4910.418892,N,12304.383270,W,1,29,0.65,-2.155,M,-16.816,M,,*6F
$GNGGA,222631.000,4910.418796,N,12304.383222,W,1,30,0.65,-2.224,M,-16.816,M,,*6F
$GNGGA,222632.000,4910.418706,N,12304.383192,W,1,30,0.65,-2.270,M,-16.816,M,,*6C
$GNGGA,222633.000,4910.418616,N,12304.383150,W,1,30,0.65,-2.246,M,-16.817,M,,*67
$GNGGA,222634.000,4910.418532,N,12304.383108,W,1,30,0.65,-2.167,M,-16.816,M,,*69
$GNGGA,222635.000,4910.418472,N,12304.383102,W,1,30,0.65,-2.107,M,-16.816,M,,*61
$GNGGA,222636.000,4910.418406,N,12304.383090,W,1,30,0.65,-2.022,M,-16.816,M,,*6D
$GNGGA,222637.000,4910.418358,N,12304.383072,W,1,30,0.65,-1.932,M,-16.816,M,,*67
$GNGGA,222638.000,4910.418328,N,12304.383126,W,1,30,0.65,-1.894,M,-16.816,M,,*62
$GNGGA,222639.000,4910.418286,N,12304.383156,W,1,30,0.65,-1.828,M,-16.816,M,,*66
$GNGGA,222640.000,4910.418274,N,12304.383210,W,1,30,0.65,-1.802,M,-16.816,M,,*6C
$GNGGA,222641.000,4910.418262,N,12304.383282,W,1,30,0.65,-1.745,M,-16.817,M,,*6C
$GNGGA,222642.000,4910.418250,N,12304.383348,W,1,30,0.65,-1.691,M,-16.816,M,,*60
$GNGGA,222643.000,4910.418244,N,12304.383348,W,1,30,0.65,-1.697,M,-16.816,M,,*62
$GNGGA,222644.000,4910.418238,N,12304.383366,W,1,30,0.65,-1.680,M,-16.816,M,,*64
$GNGGA,222645.000,4910.418232,N,12304.383384,W,1,30,0.65,-1.673,M,-16.816,M,,*6F
$GNGGA,222646.000,4910.418232,N,12304.383402,W,1,30,0.65,-1.660,M,-16.816,M,,*67
$GNGGA,222647.000,4910.418226,N,12304.383414,W,1,30,0.65,-1.650,M,-16.816,M,,*67
$GNGGA,222648.000,4910.418220,N,12304.383426,W,1,30,0.65,-1.641,M,-16.816,M,,*6F
$GNGGA,222649.000,4910.418220,N,12304.383432,W,1,30,0.65,-1.635,M,-16.816,M,,*68
$GNGGA,222650.000,4910.418214,N,12304.383450,W,1,30,0.65,-1.631,M,-16.817,M,,*66
$GNGGA,222651.000,4910.418208,N,12304.383456,W,1,30,0.65,-1.625,M,-16.816,M,,*68
$GNGGA,222652.000,4910.418208,N,12304.383468,W,1,30,0.65,-1.621,M,-16.816,M,,*62
$GNGGA,222653.000,4910.418208,N,12304.383480,W,1,30,0.65,-1.621,M,-16.816,M,,*65
$GNGGA,222654.000,4910.418208,N,12304.383492,W,1,32,0.63,-1.619,M,-16.816,M,,*6E
$GNGGA,222655.000,4910.418208,N,12304.383492,W,1,32,0.63,-1.614,M,-16.816,M,,*62
$GNGGA,222656.000,4910.418208,N,12304.383498,W,1,32,0.63,-1.612,M,-16.816,M,,*6D
$GNGGA,222657.000,4910.418214,N,12304.383504,W,1,32,0.63,-1.613,M,-16.816,M,,*64
$GNGGA,222658.000,4910.418214,N,12304.383516,W,1,32,0.63,-1.615,M,-16.816,M,,*6E
$GNGGA,222659.000,4910.418220,N,12304.383522,W,1,32,0.63,-1.613,M,-16.816,M,,*69
$GNGGA,222700.000,4910.418220,N,12304.383522,W,1,32,0.63,-1.611,M,-16.816,M,,*66
$GNGGA,222701.000,4910.418226,N,12304.383528,W,1,32,0.63,-1.614,M,-16.816,M,,*6E
$GNGGA,222702.000,4910.418226,N,12304.383534,W,1,32,0.63,-1.623,M,-16.816,M,,*64
$GNGGA,222703.000,4910.418232,N,12304.383540,W,1,32,0.63,-1.620,M,-16.816,M,,*60
$GNGGA,222704.000,4910.418238,N,12304.383546,W,1,32,0.63,-1.618,M,-16.816,M,,*60
$GNGGA,222705.000,4910.418244,N,12304.383558,W,1,32,0.63,-1.620,M,-16.816,M,,*6E
$GNGGA,222706.000,4910.418250,N,12304.383564,W,1,32,0.63,-1.621,M,-16.816,M,,*66
$GNGGA,222707.000,4910.418262,N,12304.383570,W,1,34,0.61,-1.617,M,-16.816,M,,*62
$GNGGA,222708.000,4910.418268,N,12304.383570,W,1,33,0.61,-1.613,M,-16.816,M,,*64
$GNGGA,222709.000,4910.418274,N,12304.383570,W,1,34,0.61,-1.605,M,-16.816,M,,*68
$GNGGA,222710.000,4910.418280,N,12304.383570,W,2,34,0.61,-1.603,M,-16.816,M,,*6E
$GNGGA,222711.000,4910.418286,N,12304.383582,W,2,34,0.61,-1.606,M,-16.816,M,,*61
$GNGGA,222712.000,4910.418298,N,12304.383588,W,2,34,0.61,-1.600,M,-16.816,M,,*61
$GNGGA,222713.000,4910.418304,N,12304.383594,W,2,34,0.61,-1.594,M,-16.817,M,,*66
$GNGGA,222714.000,4910.418304,N,12304.383594,W,2,34,0.61,-1.587,M,-16.816,M,,*62
$GNGGA,222715.000,4910.418322,N,12304.383594,W,2,38,0.60,-1.568,M,-16.817,M,,*6A
$GNGGA,222716.000,4910.418352,N,12304.383600,W,2,38,0.60,-1.544,M,-16.816,M,,*6F
$GNGGA,222717.000,4910.418376,N,12304.383600,W,2,38,0.60,-1.522,M,-16.816,M,,*68
$GNGGA,222718.000,4910.418400,N,12304.383600,W,2,38,0.60,-1.495,M,-16.816,M,,*6C
$GNGGA,222719.000,4910.418436,N,12304.383600,W,2,38,0.60,-1.470,M,-16.816,M,,*63
$GNGGA,222720.000,4910.418478,N,12304.383582,W,2,38,0.60,-1.443,M,-16.816,M,,*6A
$GNGGA,222721.000,4910.418514,N,12304.383546,W,2,38,0.60,-1.410,M,-16.816,M,,*6E
$GNGGA,222722.000,4910.418550,N,12304.383510,W,2,38,0.60,-1.377,M,-16.816,M,,*68
$GNGGA,222723.000,4910.418574,N,12304.383462,W,2,38,0.60,-1.350,M,-16.817,M,,*6F
$GNGGA,222724.000,4910.418604,N,12304.383420,W,2,38,0.60,-1.318,M,-16.816,M,,*67
$GNGGA,222725.000,4910.418640,N,12304.383384,W,2,38,0.60,-1.286,M,-16.816,M,,*69
$GNGGA,222726.000,4910.418652,N,12304.383342,W,2,38,0.60,-1.252,M,-16.816,M,,*6A
$GNGGA,222727.000,4910.418676,N,12304.383282,W,2,38,0.60,-1.219,M,-16.816,M,,*6F
$GNGGA,222728.000,4910.418706,N,12304.383240,W,2,38,0.60,-1.181,M,-16.817,M,,*6B
$GNGGA,222729.000,4910.418724,N,12304.383198,W,2,38,0.60,-1.142,M,-16.816,M,,*62
$GNGGA,222730.000,4910.418742,N,12304.383156,W,2,38,0.60,-1.090,M,-16.816,M,,*66
$GNGGA,222731.000,4910.418754,N,12304.383090,W,2,40,0.54,-1.025,M,-16.817,M,,*6C
$GNGGA,222732.000,4910.418790,N,12304.383024,W,2,40,0.54,-0.961,M,-16.816,M,,*61
$GNGGA,222733.000,4910.418814,N,12304.382934,W,2,40,0.54,-0.922,M,-16.816,M,,*6D
$GNGGA,222734.000,4910.418844,N,12304.382886,W,2,40,0.54,-0.892,M,-16.817,M,,*6C
$GNGGA,222735.000,4910.418862,N,12304.382832,W,2,40,0.54,-0.856,M,-16.816,M,,*6F
$GNGGA,222736.000,4910.418904,N,12304.382802,W,2,42,0.52,-0.823,M,-16.816,M,,*68
$GNGGA,222737.000,4910.418958,N,12304.382766,W,2,42,0.52,-0.775,M,-16.816,M,,*61
$GNGGA,222738.000,4910.419030,N,12304.382772,W,2,43,0.52,-0.730,M,-16.816,M,,*6D
$GNGGA,222739.000,4910.419054,N,12304.382754,W,2,44,0.52,-0.704,M,-16.816,M,,*6A
$GNGGA,222740.000,4910.419090,N,12304.382790,W,2,45,0.51,-0.661,M,-16.816,M,,*64
$GNGGA,222741.000,4910.419138,N,12304.382910,W,2,45,0.51,-0.641,M,-16.817,M,,*63
$GNGGA,222742.000,4910.419174,N,12304.382988,W,2,45,0.51,-0.616,M,-16.816,M,,*6A
$GNGGA,222743.000,4910.419222,N,12304.383072,W,2,45,0.51,-0.614,M,-16.816,M,,*64
$GNGGA,222744.000,4910.419246,N,12304.383132,W,2,45,0.51,-0.603,M,-16.817,M,,*63
$GNGGA,222745.000,4910.419282,N,12304.383222,W,2,45,0.51,-0.595,M,-16.817,M,,*64
$GNGGA,222746.000,4910.419336,N,12304.383342,W,2,45,0.51,-0.610,M,-16.816,M,,*61
$GNGGA,222747.000,4910.419378,N,12304.383342,W,2,45,0.51,-0.611,M,-16.816,M,,*6B
$GNGGA,222748.000,4910.419390,N,12304.383354,W,2,45,0.51,-0.610,M,-16.817,M,,*65
$GNGGA,222749.000,4910.419420,N,12304.383402,W,2,45,0.51,-0.606,M,-16.816,M,,*6A
$GNGGA,222750.000,4910.419432,N,12304.383420,W,2,45,0.51,-0.579,M,-16.817,M,,*6B
$GNGGA,222751.000,4910.419468,N,12304.383492,W,2,45,0.51,-0.571,M,-16.816,M,,*65
$GNGGA,222752.000,4910.419492,N,12304.383534,W,2,45,0.51,-0.554,M,-16.816,M,,*69
$GNGGA,222753.000,4910.419528,N,12304.383600,W,2,45,0.51,-0.540,M,-16.816,M,,*69
$GNGGA,222754.000,4910.419498,N,12304.383540,W,2,45,0.51,-0.552,M,-16.816,M,,*60
$GNGGA,222755.000,4910.419522,N,12304.383588,W,2,45,0.51,-0.544,M,-16.816,M,,*62
$GNGGA,222756.000,4910.419522,N,12304.383594,W,2,45,0.51,-0.543,M,-16.816,M,,*6B
$GNGGA,222757.000,4910.419522,N,12304.383606,W,2,45,0.51,-0.542,M,-16.817,M,,*62
$GNGGA,222758.000,4910.419522,N,12304.383618,W,2,45,0.51,-0.540,M,-16.816,M,,*61
$GNGGA,222759.000,4910.419522,N,12304.383636,W,2,45,0.51,-0.538,M,-16.816,M,,*63
$GNGGA,222800.000,4910.419516,N,12304.383648,W,2,45,0.51,-0.535,M,-16.816,M,,*63
$GNGGA,222801.000,4910.419522,N,12304.383666,W,2,46,0.48,-0.533,M,-16.816,M,,*64
$GNGGA,222802.000,4910.419516,N,12304.383648,W,2,46,0.48,-0.534,M,-16.816,M,,*6B
$GNGGA,222803.000,4910.419516,N,12304.383660,W,2,48,0.46,-0.533,M,-16.816,M,,*67
$GNGGA,222804.000,4910.419516,N,12304.383666,W,2,48,0.46,-0.533,M,-16.816,M,,*66
$GNGGA,222805.000,4910.419510,N,12304.383672,W,2,48,0.46,-0.531,M,-16.816,M,,*66
$GNGGA,222806.000,4910.419510,N,12304.383678,W,2,48,0.46,-0.528,M,-16.817,M,,*66
$GNGGA,222807.000,4910.419498,N,12304.383684,W,2,48,0.46,-0.525,M,-16.816,M,,*69
$GNGGA,222808.000,4910.419492,N,12304.383690,W,2,48,0.46,-0.520,M,-16.816,M,,*6C
$GNGGA,222809.000,4910.419492,N,12304.383684,W,2,48,0.46,-0.518,M,-16.816,M,,*63
$GNGGA,222810.000,4910.419486,N,12304.383690,W,2,48,0.45,-0.509,M,-16.816,M,,*68
$GNGGA,222811.000,4910.419486,N,12304.383678,W,2,48,0.45,-0.504,M,-16.816,M,,*62
$GNGGA,222812.000,4910.419480,N,12304.383690,W,2,48,0.45,-0.496,M,-16.816,M,,*6B
$GNGGA,222813.000,4910.419468,N,12304.383690,W,2,48,0.45,-0.488,M,-16.816,M,,*63
$GNGGA,222814.000,4910.419468,N,12304.383696,W,2,48,0.45,-0.479,M,-16.817,M,,*6D
$GNGGA,222815.000,4910.419468,N,12304.383720,W,2,48,0.45,-0.471,M,-16.816,M,,*69
$GNGGA,222816.000,4910.419492,N,12304.383744,W,2,48,0.45,-0.463,M,-16.816,M,,*6E
$GNGGA,222817.000,4910.419504,N,12304.383780,W,2,48,0.45,-0.452,M,-16.817,M,,*6A
$GNGGA,222818.000,4910.419510,N,12304.383810,W,2,48,0.45,-0.439,M,-16.817,M,,*6B
$GNGGA,222819.000,4910.419504,N,12304.383780,W,2,48,0.45,-0.451,M,-16.816,M,,*66
$GNGGA,222820.000,4910.419510,N,12304.383804,W,2,47,0.47,-0.443,M,-16.816,M,,*64
$GNGGA,222821.000,4910.419510,N,12304.383804,W,2,48,0.45,-0.442,M,-16.816,M,,*69
$GNGGA,222822.000,4910.419516,N,12304.383810,W,2,48,0.45,-0.441,M,-16.817,M,,*6B
$GNGGA,222823.000,4910.419522,N,12304.383822,W,2,47,0.47,-0.440,M,-16.816,M,,*61
$GNGGA,222824.000,4910.419534,N,12304.383828,W,2,47,0.47,-0.438,M,-16.816,M,,*64
$GNGGA,222825.000,4910.419534,N,12304.383828,W,2,48,0.45,-0.436,M,-16.816,M,,*66
$GNGGA,222826.000,4910.419540,N,12304.383810,W,2,47,0.47,-0.433,M,-16.817,M,,*64
$GNGGA,222827.000,4910.419552,N,12304.383804,W,2,50,0.47,-0.434,M,-16.816,M,,*63
$GNGGA,222828.000,4910.419564,N,12304.383798,W,2,50,0.47,-0.431,M,-16.816,M,,*66
$GNGGA,222829.000,4910.419576,N,12304.383774,W,2,50,0.47,-0.430,M,-16.816,M,,*67
$GNGGA,222830.000,4910.419564,N,12304.383750,W,2,50,0.47,-0.430,M,-16.817,M,,*6B
$GNGGA,222831.000,4910.419552,N,12304.383714,W,2,50,0.47,-0.423,M,-16.816,M,,*6C
$GNGGA,222832.000,4910.419540,N,12304.383678,W,2,51,0.44,-0.425,M,-16.816,M,,*63
$GNGGA,222833.000,4910.419528,N,12304.383630,W,2,51,0.44,-0.421,M,-16.817,M,,*65
$GNGGA,222834.000,4910.419522,N,12304.383606,W,2,50,0.47,-0.421,M,-16.817,M,,*6F
$GNGGA,222835.000,4910.419510,N,12304.383564,W,2,50,0.47,-0.424,M,-16.816,M,,*6C
$GNGGA,222836.000,4910.419504,N,12304.383528,W,2,51,0.44,-0.422,M,-16.817,M,,*67
$GNGGA,222837.000,4910.419486,N,12304.383504,W,2,51,0.44,-0.414,M,-16.816,M,,*67
$GNGGA,222838.000,4910.419474,N,12304.383456,W,2,51,0.44,-0.408,M,-16.816,M,,*6E
$GNGGA,222839.000,4910.419462,N,12304.383426,W,2,51,0.44,-0.398,M,-16.817,M,,*60
$GNGGA,222840.000,4910.419450,N,12304.383360,W,2,52,0.44,-0.366,M,-16.816,M,,*69
$GNGGA,222841.000,4910.419444,N,12304.383312,W,2,52,0.44,-0.344,M,-16.817,M,,*69
$GNGGA,222842.000,4910.419432,N,12304.383258,W,2,52,0.44,-0.336,M,-16.816,M,,*60
$GNGGA,222843.000,4910.419426,N,12304.383198,W,2,52,0.44,-0.319,M,-16.817,M,,*67
$GNGGA,222844.000,4910.419414,N,12304.383132,W,2,52,0.44,-0.301,M,-16.816,M,,*69
$GNGGA,222845.000,4910.419408,N,12304.383078,W,2,52,0.44,-0.290,M,-16.817,M,,*62
$GNGGA,222846.000,4910.419396,N,12304.382988,W,2,52,0.44,-0.252,M,-16.816,M,,*69
$GNGGA,222847.000,4910.419384,N,12304.382922,W,2,52,0.44,-0.222,M,-16.816,M,,*6C
$GNGGA,222848.000,4910.419390,N,12304.382982,W,2,52,0.44,-0.249,M,-16.816,M,,*61
$GNGGA,222849.000,4910.419390,N,12304.382976,W,2,52,0.44,-0.249,M,-16.816,M,,*6B
$GNGGA,222850.000,4910.419390,N,12304.382976,W,2,52,0.44,-0.248,M,-16.816,M,,*62
$GNGGA,222851.000,4910.419384,N,12304.382982,W,2,52,0.44,-0.247,M,-16.816,M,,*62
$GNGGA,222852.000,4910.419384,N,12304.382970,W,2,52,0.44,-0.246,M,-16.816,M,,*6D
$GNGGA,222853.000,4910.419390,N,12304.382982,W,2,52,0.44,-0.243,M,-16.817,M,,*60
$GNGGA,222854.000,4910.419396,N,12304.382988,W,2,52,0.44,-0.244,M,-16.816,M,,*6D
$GNGGA,222855.000,4910.419402,N,12304.382994,W,2,52,0.44,-0.242,M,-16.816,M,,*6D
$GNGGA,222856.000,4910.419402,N,12304.383006,W,2,52,0.44,-0.241,M,-16.816,M,,*6E
$GNGGA,222857.000,4910.419420,N,12304.383030,W,2,51,0.44,-0.229,M,-16.816,M,,*67
$GNGGA,222858.000,4910.419432,N,12304.383060,W,2,52,0.44,-0.222,M,-16.816,M,,*66
$GNGGA,222859.000,4910.419456,N,12304.383126,W,2,52,0.44,-0.222,M,-16.816,M,,*66
$GNGGA,222900.000,4910.419480,N,12304.383198,W,2,52,0.44,-0.212,M,-16.817,M,,*67
$GNGGA,222901.000,4910.419510,N,12304.383246,W,2,52,0.44,-0.199,M,-16.816,M,,*6F
$GNGGA,222902.000,4910.419534,N,12304.383300,W,2,52,0.44,-0.188,M,-16.816,M,,*69
$GNGGA,222903.000,4910.419582,N,12304.383366,W,2,52,0.44,-0.177,M,-16.816,M,,*65
$GNGGA,222904.000,4910.419612,N,12304.383420,W,2,52,0.44,-0.171,M,-16.816,M,,*6B
$GNGGA,222905.000,4910.419618,N,12304.383450,W,2,52,0.44,-0.161,M,-16.816,M,,*66
$GNGGA,222906.000,4910.419624,N,12304.383504,W,2,52,0.44,-0.147,M,-16.816,M,,*6E
$GNGGA,222907.000,4910.419618,N,12304.383534,W,2,52,0.44,-0.129,M,-16.817,M,,*6A
$GNGGA,222908.000,4910.419624,N,12304.383582,W,2,52,0.44,-0.121,M,-16.816,M,,*6E
$GNGGA,222909.000,4910.419612,N,12304.383600,W,2,52,0.44,-0.116,M,-16.816,M,,*67
$GNGGA,222910.000,4910.419600,N,12304.383618,W,2,52,0.44,-0.088,M,-16.816,M,,*63
$GNGGA,222911.000,4910.419600,N,12304.383636,W,2,52,0.44,-0.065,M,-16.816,M,,*6D
$GNGGA,222912.000,4910.419600,N,12304.383636,W,2,52,0.44,-0.030,M,-16.816,M,,*6E
$GNGGA,222913.000,4910.419606,N,12304.383612,W,2,52,0.44,0.010,M,-16.816,M,,*40
$GNGGA,222914.000,4910.419600,N,12304.383630,W,2,52,0.44,0.038,M,-16.816,M,,*4B
$GNGGA,222915.000,4910.419588,N,12304.383636,W,2,52,0.44,0.063,M,-16.816,M,,*41
$GNGGA,222916.000,4910.419588,N,12304.383636,W,2,52,0.44,0.094,M,-16.816,M,,*4A
$GNGGA,222917.000,4910.419582,N,12304.383642,W,2,52,0.44,0.137,M,-16.817,M,,*4B
$GNGGA,222918.000,4910.419570,N,12304.383618,W,2,52,0.44,0.173,M,-16.816,M,,*47
$GNGGA,222919.000,4910.419582,N,12304.383606,W,2,52,0.44,0.222,M,-16.817,M,,*42
$GNGGA,222920.000,4910.419582,N,12304.383600,W,2,52,0.44,0.276,M,-16.816,M,,*4E
$GNGGA,222921.000,4910.419582,N,12304.383588,W,2,52,0.44,0.316,M,-16.817,M,,*4A
$GNGGA,222922.000,4910.419576,N,12304.383576,W,2,52,0.44,0.366,M,-16.816,M,,*45
$GNGGA,222923.000,4910.419576,N,12304.383588,W,2,52,0.44,0.393,M,-16.816,M,,*4F
$GNGGA,222924.000,4910.419576,N,12304.383576,W,2,52,0.44,0.370,M,-16.817,M,,*45
$GNGGA,222925.000,4910.419576,N,12304.383582,W,2,52,0.44,0.388,M,-16.816,M,,*49
$GNGGA,222926.000,4910.419570,N,12304.383594,W,2,52,0.44,0.394,M,-16.816,M,,*46
$GNGGA,222927.000,4910.419576,N,12304.383600,W,2,52,0.44,0.396,M,-16.816,M,,*4D
$GNGGA,222928.000,4910.419588,N,12304.383612,W,2,52,0.44,0.405,M,-16.816,M,,*4D
$GNGGA,222929.000,4910.419594,N,12304.383630,W,2,52,0.44,0.384,M,-16.816,M,,*4F
$GNGGA,222930.000,4910.419594,N,12304.383624,W,2,52,0.44,0.388,M,-16.817,M,,*4F
$GNGGA,222931.000,4910.419600,N,12304.383606,W,2,52,0.44,0.415,M,-16.816,M,,*42
$GNGGA,222932.000,4910.419606,N,12304.383594,W,2,52,0.44,0.434,M,-16.817,M,,*4D
$GNGGA,222933.000,4910.419618,N,12304.383564,W,2,52,0.44,0.436,M,-16.816,M,,*4F
$GNGGA,222934.000,4910.419606,N,12304.383522,W,2,52,0.44,0.466,M,-16.816,M,,*40
$GNGGA,222935.000,4910.419612,N,12304.383510,W,2,52,0.44,0.504,M,-16.816,M,,*40
$GNGGA,222936.000,4910.419582,N,12304.383414,W,2,52,0.44,0.594,M,-16.816,M,,*45
$GNGGA,222937.000,4910.419564,N,12304.383336,W,2,52,0.44,0.686,M,-16.816,M,,*4B
$GNGGA,222938.000,4910.419546,N,12304.383264,W,2,52,0.44,0.758,M,-16.816,M,,*40
$GNGGA,222939.000,4910.419522,N,12304.383174,W,2,52,0.44,0.851,M,-16.816,M,,*47
$GNGGA,222940.000,4910.419510,N,12304.383114,W,2,52,0.44,0.894,M,-16.816,M,,*47
$GNGGA,222941.000,4910.419474,N,12304.383054,W,2,52,0.44,0.975,M,-16.816,M,,*4E
$GNGGA,222942.000,4910.419444,N,12304.382994,W,2,52,0.44,1.051,M,-16.816,M,,*44
$GNGGA,222943.000,4910.419468,N,12304.383048,W,2,52,0.44,0.984,M,-16.816,M,,*42
$GNGGA,222944.000,4910.419450,N,12304.383000,W,2,52,0.44,1.041,M,-16.816,M,,*43
$GNGGA,222945.000,4910.419444,N,12304.383000,W,2,53,0.42,1.063,M,-16.816,M,,*40
$GNGGA,222946.000,4910.419450,N,12304.383012,W,2,54,0.42,1.054,M,-16.816,M,,*46
$GNGGA,222947.000,4910.419450,N,12304.383006,W,2,54,0.42,1.060,M,-16.816,M,,*45
$GNGGA,222948.000,4910.419444,N,12304.383012,W,2,54,0.42,1.089,M,-16.816,M,,*4D
$GNGGA,222949.000,4910.419438,N,12304.383036,W,2,54,0.42,1.077,M,-16.816,M,,*40
$GNGGA,222950.000,4910.419438,N,12304.383048,W,2,53,0.42,1.070,M,-16.816,M,,*41
$GNGGA,222951.000,4910.419432,N,12304.383048,W,2,54,0.42,1.093,M,-16.816,M,,*40
$GNGGA,222952.000,4910.419444,N,12304.383066,W,2,54,0.42,1.050,M,-16.817,M,,*40
$GNGGA,222953.000,4910.419432,N,12304.383060,W,2,54,0.42,1.047,M,-16.816,M,,*41
$GNGGA,222954.000,4910.419426,N,12304.383060,W,2,54,0.42,1.041,M,-16.816,M,,*45
$GNGGA,222955.000,4910.419414,N,12304.383042,W,2,53,0.45,1.076,M,-16.816,M,,*41
$GNGGA,222956.000,4910.419408,N,12304.383030,W,2,54,0.42,1.095,M,-16.816,M,,*47
$GNGGA,222957.000,4910.419402,N,12304.383006,W,2,53,0.45,1.152,M,-16.817,M,,*42
$GNGGA,222958.000,4910.419396,N,12304.382988,W,2,54,0.42,1.175,M,-16.816,M,,*4D
$GNGGA,222959.000,4910.419384,N,12304.382940,W,2,54,0.42,1.230,M,-16.816,M,,*49
$GNGGA,223000.000,4910.419366,N,12304.382934,W,2,53,0.45,1.243,M,-16.816,M,,*46
$GNGGA,223001.000,4910.419360,N,12304.382946,W,2,53,0.45,1.236,M,-16.816,M,,*46
$GNGGA,223002.000,4910.419354,N,12304.382946,W,2,54,0.42,1.296,M,-16.816,M,,*48
$GNGGA,223003.000,4910.419342,N,12304.382964,W,2,53,0.45,1.320,M,-16.817,M,,*43
$GNGGA,223004.000,4910.419330,N,12304.382988,W,2,53,0.45,1.336,M,-16.816,M,,*45
$GNGGA,223005.000,4910.419312,N,12304.382964,W,2,53,0.45,1.415,M,-16.816,M,,*40
$GNGGA,223006.000,4910.419288,N,12304.382964,W,2,54,0.42,1.465,M,-16.816,M,,*46
$GNGGA,223007.000,4910.419270,N,12304.382952,W,2,54,0.42,1.532,M,-16.816,M,,*46
$GNGGA,223008.000,4910.419264,N,12304.382964,W,2,54,0.42,1.583,M,-16.816,M,,*43
$GNGGA,223009.000,4910.419240,N,12304.382934,W,2,54,0.42,1.614,M,-16.816,M,,*4C
$GNGGA,223010.000,4910.419216,N,12304.382928,W,2,54,0.42,1.652,M,-16.816,M,,*48
$GNGGA,223011.000,4910.419186,N,12304.382904,W,2,54,0.42,1.693,M,-16.816,M,,*40
$GNGGA,223012.000,4910.419150,N,12304.382916,W,2,54,0.42,1.696,M,-16.816,M,,*4E
$GNGGA,223013.000,4910.419120,N,12304.382904,W,2,54,0.42,1.714,M,-16.816,M,,*40
$GNGGA,223014.000,4910.419078,N,12304.382892,W,2,54,0.42,1.750,M,-16.817,M,,*44
$GNGGA,223015.000,4910.419048,N,12304.382874,W,2,53,0.45,1.771,M,-16.816,M,,*4C
$GNGGA,223016.000,4910.419000,N,12304.382838,W,2,54,0.42,1.796,M,-16.816,M,,*42
$GNGGA,223017.000,4910.418958,N,12304.382820,W,2,54,0.42,1.848,M,-16.816,M,,*43
$GNGGA,223018.000,4910.418904,N,12304.382766,W,2,55,0.44,1.873,M,-16.816,M,,*47
$GNGGA,223019.000,4910.418862,N,12304.382742,W,2,55,0.44,1.880,M,-16.816,M,,*4D
$GNGGA,223020.000,4910.418802,N,12304.382688,W,2,55,0.42,1.910,M,-16.816,M,,*48
$GNGGA,223021.000,4910.418730,N,12304.382646,W,2,56,0.42,1.928,M,-16.817,M,,*4C
$GNGGA,223022.000,4910.418676,N,12304.382616,W,2,54,0.44,1.957,M,-16.816,M,,*44
$GNGGA,223023.000,4910.418622,N,12304.382568,W,2,55,0.42,2.000,M,-16.816,M,,*41
$GNGGA,223024.000,4910.418568,N,12304.382502,W,2,55,0.42,2.086,M,-16.816,M,,*49
$GNGGA,223025.000,4910.418520,N,12304.382508,W,2,55,0.42,2.083,M,-16.816,M,,*4B
$GNGGA,223026.000,4910.418472,N,12304.382478,W,2,55,0.42,2.155,M,-16.816,M,,*42
$GNGGA,223027.000,4910.418424,N,12304.382442,W,2,55,0.42,2.226,M,-16.816,M,,*4E
$GNGGA,223028.000,4910.418388,N,12304.382436,W,2,55,0.42,2.270,M,-16.816,M,,*40
$GNGGA,223029.000,4910.418340,N,12304.382472,W,2,55,0.42,2.170,M,-16.816,M,,*46
$GNGGA,223030.000,4910.418298,N,12304.382496,W,2,56,0.42,2.116,M,-16.816,M,,*43
$GNGGA,223031.000,4910.418256,N,12304.382496,W,2,56,0.42,2.076,M,-16.816,M,,*47
$GNGGA,223032.000,4910.418208,N,12304.382550,W,2,56,0.42,2.021,M,-16.816,M,,*46
$GNGGA,223033.000,4910.418160,N,12304.382586,W,2,55,0.42,1.980,M,-16.816,M,,*43
$GNGGA,223034.000,4910.418130,N,12304.382610,W,2,56,0.42,1.948,M,-16.816,M,,*4A
$GNGGA,223035.000,4910.418106,N,12304.382628,W,2,56,0.42,1.933,M,-16.816,M,,*49
$GNGGA,223036.000,4910.418082,N,12304.382610,W,2,56,0.42,1.939,M,-16.816,M,,*46
$GNGGA,223037.000,4910.418100,N,12304.382628,W,2,56,0.42,1.934,M,-16.817,M,,*4B
$GNGGA,223038.000,4910.418082,N,12304.382610,W,2,56,0.42,1.938,M,-16.817,M,,*48
$GNGGA,223039.000,4910.418088,N,12304.382616,W,2,56,0.42,1.938,M,-16.816,M,,*44
$GNGGA,223040.000,4910.418082,N,12304.382610,W,2,56,0.42,1.936,M,-16.816,M,,*48
$GNGGA,223041.000,4910.418070,N,12304.382598,W,2,55,0.42,1.937,M,-16.817,M,,*44
$GNGGA,223042.000,4910.418064,N,12304.382592,W,2,55,0.42,1.937,M,-16.816,M,,*49
$GNGGA,223043.000,4910.418046,N,12304.382598,W,2,56,0.42,1.935,M,-16.816,M,,*43
$GNGGA,223044.000,4910.418034,N,12304.382598,W,2,56,0.42,1.930,M,-16.816,M,,*44
$GNGGA,223045.000,4910.418016,N,12304.382592,W,2,56,0.42,1.932,M,-16.816,M,,*4D
$GNGGA,223046.000,4910.417992,N,12304.382568,W,2,56,0.42,1.935,M,-16.816,M,,*46
$GNGGA,223047.000,4910.417968,N,12304.382562,W,2,55,0.42,1.942,M,-16.816,M,,*4B
$GNGGA,223048.000,4910.417986,N,12304.382568,W,2,55,0.42,1.936,M,-16.816,M,,*4D
$GNGGA,223049.000,4910.417968,N,12304.382562,W,2,56,0.42,1.941,M,-16.816,M,,*45
$GNGGA,223050.000,4910.417968,N,12304.382562,W,2,56,0.42,1.946,M,-16.816,M,,*4A
$GNGGA,223051.000,4910.417962,N,12304.382568,W,2,56,0.42,1.946,M,-16.816,M,,*4B
$GNGGA,223052.000,4910.417956,N,12304.382568,W,2,55,0.44,1.946,M,-16.816,M,,*4A
$GNGGA,223053.000,4910.417944,N,12304.382568,W,2,56,0.42,1.958,M,-16.817,M,,*43
$GNGGA,223054.000,4910.417944,N,12304.382568,W,2,55,0.44,1.985,M,-16.817,M,,*41
$GNGGA,223055.000,4910.417944,N,12304.382568,W,2,56,0.42,1.961,M,-16.816,M,,*4E
$GNGGA,223056.000,4910.417944,N,12304.382568,W,2,55,0.44,1.981,M,-16.816,M,,*46
$GNGGA,223057.000,4910.417944,N,12304.382574,W,2,56,0.42,1.977,M,-16.816,M,,*46
$GNGGA,223058.000,4910.417950,N,12304.382592,W,2,56,0.42,1.972,M,-16.816,M,,*41
$GNGGA,223059.000,4910.417944,N,12304.382586,W,2,54,0.44,1.971,M,-16.816,M,,*47
$GNGGA,223100.000,4910.417944,N,12304.382598,W,2,56,0.42,1.963,M,-16.816,M,,*42
$GNGGA,223101.000,4910.417944,N,12304.382592,W,2,55,0.44,1.956,M,-16.816,M,,*4A
$GNGGA,223102.000,4910.417950,N,12304.382598,W,2,56,0.42,1.949,M,-16.816,M,,*4D
$GNGGA,223103.000,4910.417956,N,12304.382610,W,2,56,0.42,1.946,M,-16.817,M,,*47
$GNGGA,223104.000,4910.417956,N,12304.382616,W,2,56,0.42,1.963,M,-16.817,M,,*41
$GNGGA,223105.000,4910.417956,N,12304.382610,W,2,56,0.42,1.948,M,-16.817,M,,*4F
$GNGGA,223106.000,4910.417956,N,12304.382616,W,2,55,0.44,1.958,M,-16.816,M,,*4F
$GNGGA,223107.000,4910.417956,N,12304.382622,W,2,56,0.42,1.958,M,-16.816,M,,*4C
$GNGGA,223108.000,4910.417962,N,12304.382622,W,2,56,0.42,1.957,M,-16.816,M,,*4B
$GNGGA,223109.000,4910.417968,N,12304.382622,W,2,56,0.42,1.957,M,-16.817,M,,*41
$GNGGA,223110.000,4910.417980,N,12304.382640,W,2,56,0.42,1.957,M,-16.817,M,,*4B
$GNGGA,223111.000,4910.417992,N,12304.382646,W,2,56,0.42,1.953,M,-16.816,M,,*4A
$GNGGA,223112.000,4910.418022,N,12304.382664,W,2,56,0.42,1.952,M,-16.816,M,,*45
$GNGGA,223113.000,4910.418052,N,12304.382676,W,2,56,0.42,1.953,M,-16.816,M,,*41
$GNGGA,223114.000,4910.418082,N,12304.382694,W,2,56,0.42,1.955,M,-16.816,M,,*41
$GNGGA,223115.000,4910.418118,N,12304.382712,W,2,54,0.44,1.954,M,-16.816,M,,*48
$GNGGA,223116.000,4910.418148,N,12304.382712,W,2,56,0.42,1.960,M,-16.816,M,,*4D
$GNGGA,223117.000,4910.418184,N,12304.382706,W,2,56,0.42,1.974,M,-16.816,M,,*4C
$GNGGA,223118.000,4910.418232,N,12304.382706,W,2,56,0.42,1.993,M,-16.816,M,,*44
$GNGGA,223119.000,4910.418292,N,12304.382688,W,2,56,0.42,2.012,M,-16.816,M,,*4B
$GNGGA,223120.000,4910.418358,N,12304.382694,W,2,56,0.42,2.026,M,-16.816,M,,*4C
$GNGGA,223121.000,4910.418436,N,12304.382682,W,2,56,0.42,2.047,M,-16.816,M,,*42
$GNGGA,223122.000,4910.418490,N,12304.382670,W,2,54,0.44,2.071,M,-16.816,M,,*41
$GNGGA,223123.000,4910.418538,N,12304.382664,W,2,55,0.42,2.091,M,-16.816,M,,*4F
$GNGGA,223124.000,4910.418586,N,12304.382646,W,2,55,0.42,2.131,M,-16.816,M,,*46
$GNGGA,223125.000,4910.418616,N,12304.382628,W,2,55,0.42,2.145,M,-16.817,M,,*47
$GNGGA,223126.000,4910.418646,N,12304.382628,W,2,55,0.42,2.169,M,-16.816,M,,*4E
$GNGGA,223127.000,4910.418670,N,12304.382622,W,2,55,0.44,2.184,M,-16.817,M,,*44
$GNGGA,223128.000,4910.418706,N,12304.382628,W,2,55,0.44,2.206,M,-16.816,M,,*49
$GNGGA,223129.000,4910.418724,N,12304.382610,W,2,56,0.42,2.232,M,-16.816,M,,*41
$GNGGA,223130.000,4910.418748,N,12304.382586,W,2,56,0.42,2.267,M,-16.817,M,,*4E
$GNGGA,223131.000,4910.418766,N,12304.382568,W,2,56,0.42,2.285,M,-16.816,M,,*4E
$GNGGA,223132.000,4910.418778,N,12304.382580,W,2,55,0.42,2.294,M,-16.816,M,,*47
$GNGGA,223133.000,4910.418802,N,12304.382592,W,2,55,0.42,2.300,M,-16.816,M,,*4B
$GNGGA,223134.000,4910.418820,N,12304.382616,W,2,54,0.44,2.327,M,-16.816,M,,*41
$GNGGA,223135.000,4910.418832,N,12304.382586,W,2,55,0.42,2.377,M,-16.816,M,,*4B
$GNGGA,223136.000,4910.418838,N,12304.382562,W,2,55,0.42,2.419,M,-16.816,M,,*47
$GNGGA,223137.000,4910.418832,N,12304.382526,W,2,56,0.42,2.455,M,-16.816,M,,*47
$GNGGA,223138.000,4910.418874,N,12304.382502,W,2,56,0.42,2.501,M,-16.816,M,,*4C
$GNGGA,223139.000,4910.418898,N,12304.382454,W,2,55,0.44,2.580,M,-16.816,M,,*41
$GNGGA,223140.000,4910.418910,N,12304.382376,W,2,55,0.44,2.665,M,-16.816,M,,*41
$GNGGA,223141.000,4910.418934,N,12304.382328,W,2,55,0.44,2.745,M,-16.816,M,,*4E
$GNGGA,223142.000,4910.418946,N,12304.382274,W,2,54,0.44,2.819,M,-16.817,M,,*46
$GNGGA,223143.000,4910.418964,N,12304.382226,W,2,55,0.44,2.891,M,-16.816,M,,*40
$GNGGA,223144.000,4910.418982,N,12304.382166,W,2,55,0.44,2.973,M,-16.816,M,,*45
$GNGGA,223145.000,4910.418982,N,12304.382112,W,2,55,0.44,3.054,M,-16.816,M,,*4A
$GNGGA,223146.000,4910.419006,N,12304.382076,W,2,55,0.42,3.115,M,-16.816,M,,*4C
$GNGGA,223147.000,4910.419018,N,12304.382004,W,2,55,0.42,3.205,M,-16.816,M,,*45
$GNGGA,223148.000,4910.419018,N,12304.381992,W,2,54,0.44,3.246,M,-16.816,M,,*4F
$GNGGA,223149.000,4910.419006,N,12304.381974,W,2,55,0.42,3.299,M,-16.816,M,,*4C
$GNGGA,223150.000,4910.419024,N,12304.381980,W,2,56,0.42,3.338,M,-16.817,M,,*47
$GNGGA,223151.000,4910.419030,N,12304.381992,W,2,55,0.42,3.349,M,-16.816,M,,*44
$GNGGA,223152.000,4910.419036,N,12304.382016,W,2,54,0.42,3.366,M,-16.816,M,,*4B
$GNGGA,223153.000,4910.419042,N,12304.382058,W,2,55,0.42,3.375,M,-16.817,M,,*41
$GNGGA,223154.000,4910.419042,N,12304.382106,W,2,55,0.42,3.387,M,-16.816,M,,*40
$GNGGA,223155.000,4910.419072,N,12304.382172,W,2,56,0.42,3.392,M,-16.816,M,,*46
$GNGGA,223156.000,4910.419090,N,12304.382196,W,2,54,0.44,3.434,M,-16.816,M,,*4C
$GNGGA,223157.000,4910.419108,N,12304.382232,W,2,54,0.44,3.474,M,-16.816,M,,*44
$GNGGA,223158.000,4910.419126,N,12304.382238,W,2,55,0.42,3.508,M,-16.816,M,,*40
$GNGGA,223159.000,4910.419156,N,12304.382268,W,2,54,0.42,3.538,M,-16.816,M,,*41
$GNGGA,223200.000,4910.419174,N,12304.382268,W,2,55,0.44,3.590,M,-16.816,M,,*4B
$GNGGA,223201.000,4910.419186,N,12304.382250,W,2,56,0.42,3.664,M,-16.816,M,,*41
$GNGGA,223202.000,4910.419168,N,12304.382256,W,2,54,0.44,3.694,M,-16.817,M,,*4E
$GNGGA,223203.000,4910.419132,N,12304.382268,W,2,54,0.44,3.705,M,-16.816,M,,*45
$GNGGA,223204.000,4910.419108,N,12304.382262,W,2,54,0.44,3.739,M,-16.816,M,,*4E
$GNGGA,223205.000,4910.419102,N,12304.382250,W,2,56,0.42,3.789,M,-16.816,M,,*4B
$GNGGA,223206.000,4910.419078,N,12304.382226,W,2,56,0.42,3.821,M,-16.816,M,,*48
$GNGGA,223207.000,4910.419060,N,12304.382202,W,2,56,0.42,3.878,M,-16.816,M,,*4A
$GNGGA,223208.000,4910.419048,N,12304.382226,W,2,55,0.42,3.880,M,-16.816,M,,*4D
$GNGGA,223209.000,4910.419042,N,12304.382244,W,2,54,0.44,3.912,M,-16.816,M,,*4F
$GNGGA,223210.000,4910.419018,N,12304.382268,W,2,54,0.42,3.927,M,-16.816,M,,*46
$GNGGA,223211.000,4910.419000,N,12304.382268,W,2,55,0.42,3.950,M,-16.816,M,,*4F
$GNGGA,223212.000,4910.418970,N,12304.382256,W,2,54,0.44,3.995,M,-16.816,M,,*40
$GNGGA,223213.000,4910.418964,N,12304.382292,W,2,54,0.44,4.013,M,-16.816,M,,*4C
$GNGGA,223214.000,4910.418952,N,12304.382322,W,2,55,0.42,4.017,M,-16.817,M,,*46
$GNGGA,223215.000,4910.418946,N,12304.382388,W,2,55,0.42,3.992,M,-16.816,M,,*40
$GNGGA,223216.000,4910.418946,N,12304.382484,W,2,56,0.42,3.955,M,-16.816,M,,*40
$GNGGA,223217.000,4910.418958,N,12304.382568,W,2,56,0.42,3.917,M,-16.816,M,,*4B
$GNGGA,223218.000,4910.418964,N,12304.382646,W,2,56,0.42,3.864,M,-16.816,M,,*41
$GNGGA,223219.000,4910.418970,N,12304.382742,W,2,56,0.42,3.797,M,-16.816,M,,*43
$GNGGA,223220.000,4910.418994,N,12304.382844,W,2,56,0.42,3.733,M,-16.816,M,,*44
$GNGGA,223221.000,4910.419018,N,12304.382898,W,2,56,0.42,3.720,M,-16.816,M,,*4A
$GNGGA,223222.000,4910.419030,N,12304.382970,W,2,56,0.42,3.657,M,-16.816,M,,*45
$GNGGA,223223.000,4910.419018,N,12304.382982,W,2,56,0.42,3.633,M,-16.816,M,,*41
$GNGGA,223224.000,4910.419030,N,12304.383024,W,2,56,0.42,3.585,M,-16.816,M,,*46
$GNGGA,223225.000,4910.419024,N,12304.383054,W,2,56,0.42,3.535,M,-16.816,M,,*4E
$GNGGA,223226.000,4910.419042,N,12304.383084,W,2,56,0.42,3.498,M,-16.817,M,,*47
$GNGGA,223227.000,4910.419066,N,12304.383102,W,2,55,0.44,3.489,M,-16.816,M,,*4B
$GNGGA,223228.000,4910.419078,N,12304.383132,W,2,54,0.42,3.463,M,-16.816,M,,*4B
$GNGGA,223229.000,4910.419084,N,12304.383120,W,2,55,0.42,3.458,M,-16.817,M,,*42
$GNGGA,223230.000,4910.419090,N,12304.383156,W,2,55,0.42,3.431,M,-16.817,M,,*41
$GNGGA,223231.000,4910.419108,N,12304.383144,W,2,55,0.42,3.444,M,-16.816,M,,*40
$GNGGA,223232.000,4910.419132,N,12304.383204,W,2,55,0.42,3.399,M,-16.816,M,,*4A
$GNGGA,223233.000,4910.419138,N,12304.383192,W,2,54,0.42,3.403,M,-16.816,M,,*48
$GNGGA,223234.000,4910.419144,N,12304.383210,W,2,55,0.42,3.344,M,-16.816,M,,*48
$GNGGA,223235.000,4910.419156,N,12304.383246,W,2,55,0.42,3.327,M,-16.816,M,,*4C
$GNGGA,223236.000,4910.419162,N,12304.383216,W,2,56,0.42,3.332,M,-16.816,M,,*4A
$GNGGA,223237.000,4910.419180,N,12304.383312,W,2,55,0.42,3.236,M,-16.816,M,,*44
$GNGGA,223238.000,4910.419186,N,12304.383306,W,2,54,0.42,3.250,M,-16.817,M,,*48
$GNGGA,223239.000,4910.419192,N,12304.383282,W,2,54,0.42,3.245,M,-16.816,M,,*44
$GNGGA,223240.000,4910.419186,N,12304.383288,W,2,54,0.42,3.208,M,-16.817,M,,*4D
$GNGGA,223241.000,4910.419192,N,12304.383258,W,2,54,0.42,3.223,M,-16.816,M,,*4C
$GNGGA,223242.000,4910.419180,N,12304.383222,W,2,55,0.42,3.226,M,-16.816,M,,*45
$GNGGA,223243.000,4910.419174,N,12304.383204,W,2,55,0.42,3.242,M,-16.816,M,,*49
$GNGGA,223244.000,4910.419174,N,12304.383138,W,2,55,0.42,3.281,M,-16.816,M,,*4D
$GNGGA,223245.000,4910.419156,N,12304.383072,W,2,53,0.44,3.325,M,-16.816,M,,*4C
$GNGGA,223246.000,4910.419138,N,12304.382994,W,2,54,0.42,3.376,M,-16.816,M,,*40
$GNGGA,223247.000,4910.419126,N,12304.382928,W,2,53,0.44,3.419,M,-16.816,M,,*46
$GNGGA,223248.000,4910.419120,N,12304.382886,W,2,54,0.42,3.463,M,-16.816,M,,*46
$GNGGA,223249.000,4910.419114,N,12304.382850,W,2,54,0.42,3.493,M,-16.816,M,,*44
$GNGGA,223250.000,4910.419132,N,12304.382868,W,2,54,0.42,3.481,M,-16.816,M,,*40
$GNGGA,223251.000,4910.419144,N,12304.382862,W,2,54,0.42,3.501,M,-16.816,M,,*43
$GNGGA,223252.000,4910.419144,N,12304.382880,W,2,54,0.42,3.489,M,-16.816,M,,*4D
$GNGGA,223253.000,4910.419150,N,12304.382856,W,2,55,0.42,3.514,M,-16.816,M,,*46
$GNGGA,223254.000,4910.419156,N,12304.382862,W,2,54,0.44,3.495,M,-16.817,M,,*4E
$GNGGA,223255.000,4910.419168,N,12304.382856,W,2,54,0.42,3.495,M,-16.816,M,,*42
$GNGGA,223256.000,4910.419150,N,12304.382838,W,2,54,0.44,3.495,M,-16.816,M,,*44
$GNGGA,223257.000,4910.419132,N,12304.382832,W,2,54,0.42,3.500,M,-16.816,M,,*40
$GNGGA,223258.000,4910.419126,N,12304.382832,W,2,54,0.44,3.491,M,-16.816,M,,*45
$GNGGA,223259.000,4910.419114,N,12304.382826,W,2,53,0.45,3.503,M,-16.816,M,,*4C
$GNGGA,223300.000,4910.419090,N,12304.382784,W,2,55,0.42,3.548,M,-16.817,M,,*44
$GNGGA,223301.000,4910.419090,N,12304.382808,W,2,53,0.45,3.542,M,-16.816,M,,*44
$GNGGA,223302.000,4910.419060,N,12304.382802,W,2,54,0.44,3.551,M,-16.816,M,,*46
$GNGGA,223303.000,4910.419048,N,12304.382772,W,2,54,0.44,3.586,M,-16.816,M,,*4F
$GNGGA,223304.000,4910.419018,N,12304.382730,W,2,54,0.44,3.624,M,-16.816,M,,*40
$GNGGA,223305.000,4910.419006,N,12304.382724,W,2,54,0.44,3.626,M,-16.816,M,,*49
$GNGGA,223306.000,4910.419012,N,12304.382826,W,2,54,0.44,3.526,M,-16.816,M,,*41
$GNGGA,223307.000,4910.419006,N,12304.382904,W,2,54,0.44,3.432,M,-16.816,M,,*40
$GNGGA,223308.000,4910.419012,N,12304.382976,W,2,54,0.44,3.354,M,-16.816,M,,*48
$GNGGA,223309.000,4910.419018,N,12304.383072,W,2,53,0.44,3.273,M,-16.816,M,,*4C
$GNGGA,223310.000,4910.419018,N,12304.383144,W,2,53,0.44,3.203,M,-16.816,M,,*47
$GNGGA,223311.000,4910.419006,N,12304.383168,W,2,53,0.44,3.140,M,-16.816,M,,*43
$GNGGA,223312.000,4910.419018,N,12304.383030,W,2,54,0.44,3.041,M,-16.816,M,,*44
$GNGGA,223313.000,4910.419012,N,12304.382706,W,2,55,0.42,3.027,M,-16.817,M,,*4A
$GNGGA,223314.000,4910.419024,N,12304.382220,W,2,53,0.44,3.033,M,-16.816,M,,*4D
$GNGGA,223315.000,4910.419054,N,12304.381614,W,2,54,0.44,3.036,M,-16.816,M,,*49
