$GNRMC,004704.000,A,4910.419558,N,12304.400592,W,0.02,237.02,090125,,,D,V*15
$GNGGA,004704.000,4910.419558,N,12304.400592,W,2,47,0.52,12.068,M,-16.816,M,,*7E
$GNVTG,237.02,T,,M,0.02,N,0.04,K,D*24
$GNGSA,A,3,12,06,11,19,24,25,17,03,32,,,,0.91,0.52,0.74,1*05
$GNGSA,A,3,86,77,76,87,85,,,,,,,,0.91,0.52,0.74,2*03
$GNGSA,A,3,24,12,10,25,11,33,31,03,08,,,,0.91,0.52,0.74,3*05
$GNGSA,A,3,35,26,29,24,44,45,39,,,,,,0.91,0.52,0.74,4*0C
$GPGSV,3,1,11,12,62,299,38,06,61,097,38,11,48,166,36,19,46,063,36,1*6E
$GPGSV,3,2,11,24,41,220,34,46,33,188,34,25,22,299,32,17,17,066,20,1*63
$GPGSV,3,3,11,03,09,028,26,32,08,313,29,20,03,152,18,1*5D
$GPGSV,1,1,04,06,61,097,30,11,48,166,26,24,41,220,26,25,22,299,24,8*68
$GLGSV,2,1,08,86,71,053,20,77,65,318,21,76,63,139,28,87,54,207,24,1*7D
$GLGSV,2,2,08,85,16,037,17,69,10,003,22,68,07,317,17,75,05,139,16,1*74
$GAGSV,3,1,10,24,72,108,36,12,60,107,32,10,53,153,32,25,51,298,35,7*7A
$GAGSV,3,2,10,11,32,180,28,33,25,042,28,31,20,114,27,03,12,274,10,7*7B
$GAGSV,3,3,10,08,11,324,24,02,02,296,19,7*7C
$GAGSV,2,1,06,24,72,108,26,12,60,107,23,10,53,153,27,25,51,298,24,1*7F
$GAGSV,2,2,06,33,25,042,17,08,11,324,16,1*7E
$GBGSV,3,1,10,35,75,199,34,26,71,224,31,29,39,057,28,24,36,305,29,1*74
$GBGSV,3,2,10,44,28,226,27,45,28,152,21,39,12,330,20,12,05,225,14,1*7C
$GBGSV,3,3,10,32,03,028,15,16,03,335,,1*7A
$GBGSV,2,1,07,35,75,199,25,26,71,224,25,29,39,057,21,24,36,305,24,5*76
$GBGSV,2,2,07,44,28,226,20,45,28,152,21,39,12,330,16,5*4B
$GNGLL,4910.419558,N,12304.400592,W,004704.000,A,D*51
$GNRMC,004705.000,A,4910.419534,N,12304.400520,W,0.02,237.02,090125,,,D,V*17
$GNGGA,004705.000,4910.419534,N,12304.400520,W,2,47,0.52,12.282,M,-16.816,M,,*7A
$GNVTG,237.02,T,,M,0.02,N,0.03,K,D*23
$GNGSA,A,3,12,06,11,19,24,25,17,03,32,,,,0.91,0.52,0.74,1*05
$GNGSA,A,3,86,77,76,87,85,,,,,,,,0.91,0.52,0.74,2*03
$GNGSA,A,3,24,12,10,25,11,33,31,03,08,,,,0.91,0.52,0.74,3*05
$GNGSA,A,3,35,26,29,24,44,45,39,,,,,,0.91,0.52,0.74,4*0C
$GPGSV,3,1,11,12,62,299,38,06,61,097,38,11,48,166,36,19,46,063,36,1*6E
$GPGSV,3,2,11,24,41,220,34,46,33,188,34,25,22,299,32,17,17,066,21,1*62
$GPGSV,3,3,11,03,09,028,26,32,08,313,29,20,03,152,19,1*5C
$GPGSV,1,1,04,06,61,097,30,11,48,166,26,24,41,220,26,25,22,299,24,8*68
$GLGSV,2,1,08,86,71,053,20,77,65,318,21,76,63,139,28,87,54,207,24,1*7D
$GLGSV,2,2,08,85,16,037,17,69,10,003,22,68,07,317,17,75,05,139,16,1*74
$GAGSV,3,1,10,24,72,108,36,12,60,107,32,10,53,153,32,25,51,298,35,7*7A
$GAGSV,3,2,10,11,32,180,28,33,25,042,28,31,20,114,27,03,12,274,10,7*7B
$GAGSV,3,3,10,08,11,324,24,02,02,296,19,7*7C
$GAGSV,2,1,06,24,72,108,26,12,60,107,24,10,53,153,27,25,51,298,24,1*78
$GAGSV,2,2,06,33,25,042,17,08,11,324,16,1*7E
$GBGSV,3,1,10,35,75,199,34,26,71,224,32,29,39,057,28,24,36,305,29,1*77
$GBGSV,3,2,10,44,28,226,27,45,28,152,21,39,12,330,20,12,05,225,14,1*7C
$GBGSV,3,3,10,32,03,028,14,16,03,335,,1*7B
$GBGSV,2,1,07,35,75,199,25,26,71,224,25,29,39,057,21,24,36,305,24,5*76
$GBGSV,2,2,07,44,28,226,20,45,28,152,21,39,12,330,16,5*4B
$GNGLL,4910.419534,N,12304.400520,W,004705.000,A,D*53
$GNRMC,004706.000,A,4910.419540,N,12304.400460,W,0.01,237.02,090125,,,D,V*11
$GNGGA,004706.000,4910.419540,N,12304.400460,W,2,47,0.52,12.424,M,-16.816,M,,*75
$GNVTG,237.02,T,,M,0.01,N,0.03,K,D*20
$GNGSA,A,3,12,06,11,19,24,25,17,03,32,,,,0.91,0.52,0.74,1*05
$GNGSA,A,3,86,77,76,87,85,,,,,,,,0.91,0.52,0.74,2*03
$GNGSA,A,3,24,12,10,25,11,33,31,03,08,,,,0.91,0.52,0.74,3*05
$GNGSA,A,3,35,26,29,24,44,45,39,,,,,,0.91,0.52,0.74,4*0C
$GPGSV,3,1,11,12,62,299,38,06,61,097,38,11,48,166,36,19,46,063,36,1*6E
$GPGSV,3,2,11,24,41,220,34,46,33,188,34,25,22,299,32,17,17,066,21,1*62
$GPGSV,3,3,11,03,09,028,27,32,08,313,29,20,03,152,19,1*5D
$GPGSV,1,1,04,06,61,097,30,11,48,166,26,24,41,220,26,25,22,299,24,8*68
$GLGSV,2,1,08,86,71,053,21,77,65,318,22,76,63,139,28,87,54,207,24,1*7F
$GLGSV,2,2,08,85,16,037,17,69,10,003,22,68,07,317,17,75,05,139,16,1*74
$GAGSV,3,1,10,24,72,108,36,12,60,107,33,10,53,153,32,25,51,298,35,7*7B
$GAGSV,3,2,10,11,32,180,28,33,25,042,28,31,20,114,27,03,12,274,10,7*7B
$GAGSV,3,3,10,08,11,324,24,02,02,296,19,7*7C
$GAGSV,2,1,06,24,72,108,26,12,60,107,24,10,53,153,27,25,51,298,24,1*78
$GAGSV,2,2,06,33,25,042,17,08,11,324,16,1*7E
$GBGSV,3,1,10,35,75,199,34,26,71,224,32,29,39,057,28,24,36,305,29,1*77
$GBGSV,3,2,10,44,28,226,27,45,28,152,21,39,12,330,20,12,05,225,14,1*7C
$GBGSV,3,3,10,32,03,028,13,16,03,335,,1*7C
$GBGSV,2,1,07,35,75,199,25,26,71,224,25,29,39,057,21,24,36,305,24,5*76
$GBGSV,2,2,07,44,28,226,20,45,28,152,21,39,12,330,16,5*4B
$GNGLL,4910.419540,N,12304.400460,W,004706.000,A,D*56
$GNRMC,004707.000,A,4910.419564,N,12304.400484,W,0.01,237.02,090125,,,D,V*1C
$GNGGA,004707.000,4910.419564,N,12304.400484,W,2,47,0.52,12.797,M,-16.816,M,,*73
$GNVTG,237.02,T,,M,0.01,N,0.02,K,D*21
$GNGSA,A,3,12,06,11,19,24,25,17,03,32,,,,0.91,0.52,0.74,1*05
$GNGSA,A,3,86,77,76,87,85,,,,,,,,0.91,0.52,0.74,2*03
$GNGSA,A,3,24,12,10,25,11,33,31,03,08,,,,0.91,0.52,0.74,3*05
$GNGSA,A,3,35,26,29,24,44,45,39,,,,,,0.91,0.52,0.74,4*0C
$GPGSV,3,1,11,12,62,299,38,06,61,097,38,11,48,166,36,19,46,063,36,1*6E
$GPGSV,3,2,11,24,41,220,34,46,33,188,33,25,22,299,32,17,17,066,21,1*65
$GPGSV,3,3,11,03,09,028,27,32,08,313,29,20,03,152,19,1*5D
$GPGSV,1,1,04,06,61,097,30,11,48,166,26,24,41,220,26,25,22,299,24,8*68
$GLGSV,2,1,08,86,71,053,21,77,65,318,22,76,63,139,28,87,54,207,24,1*7F
$GLGSV,2,2,08,85,16,037,17,69,10,003,22,68,07,317,17,75,05,139,17,1*75
$GAGSV,3,1,10,24,72,108,36,12,60,107,32,10,53,153,32,25,51,298,35,7*7A
$GAGSV,3,2,10,11,32,180,28,33,25,042,28,31,20,114,27,03,12,274,11,7*7A
$GAGSV,3,3,10,08,11,323,24,02,02,296,19,7*7B
$GAGSV,2,1,06,24,72,108,26,12,60,107,24,10,53,153,27,25,51,298,24,1*78
$GAGSV,2,2,06,33,25,042,17,08,11,323,16,1*79
$GBGSV,3,1,10,35,75,199,33,26,71,224,32,29,39,057,28,24,36,305,29,1*70
$GBGSV,3,2,10,44,28,226,27,45,28,152,21,39,12,330,20,12,05,225,14,1*7C
$GBGSV,3,3,10,32,03,028,13,16,03,335,,1*7C
$GBGSV,2,1,07,35,75,199,25,26,71,224,25,29,39,057,20,24,36,305,24,5*77
$GBGSV,2,2,07,44,28,226,20,45,28,152,21,39,12,330,15,5*48
$GNGLL,4910.419564,N,12304.400484,W,004707.000,A,D*5B
$GNRMC,004708.000,A,4910.419564,N,12304.400460,W,0.01,237.02,090125,,,D,V*19
$GNGGA,004708.000,4910.419564,N,12304.400460,W,2,47,0.52,12.966,M,-16.817,M,,*77
$GNVTG,237.02,T,,M,0.01,N,0.01,K,D*22
$GNGSA,A,3,12,06,11,19,24,25,17,03,32,,,,0.91,0.52,0.74,1*05
$GNGSA,A,3,86,77,76,87,85,,,,,,,,0.91,0.52,0.74,2*03
$GNGSA,A,3,24,12,10,25,11,33,31,03,08,,,,0.91,0.52,0.74,3*05
$GNGSA,A,3,35,26,29,24,44,45,39,,,,,,0.91,0.52,0.74,4*0C
$GPGSV,3,1,11,12,62,299,38,06,61,097,38,11,48,166,36,19,46,063,37,1*6F
$GPGSV,3,2,11,24,41,220,34,46,33,188,33,25,22,299,32,17,17,066,21,1*65
$GPGSV,3,3,11,03,09,028,27,32,08,313,29,20,03,152,19,1*5D
$GPGSV,1,1,04,06,61,097,30,11,48,166,26,24,41,220,26,25,22,299,24,8*68
$GLGSV,3,1,09,86,71,053,21,77,65,318,22,76,63,139,28,87,54,207,24,1*7F
$GLGSV,3,2,09,85,16,037,16,69,10,003,21,68,07,317,17,78,06,319,,1*7F
$GLGSV,3,3,09,75,05,139,17,1*4B
$GAGSV,3,1,10,24,72,108,36,12,60,107,32,10,53,153,32,25,51,298,35,7*7A
$GAGSV,3,2,10,11,32,180,28,33,25,042,28,31,20,114,27,03,12,274,11,7*7A
$GAGSV,3,3,10,08,11,323,24,02,02,296,19,7*7B
$GAGSV,2,1,06,24,72,108,26,12,60,107,24,10,53,153,27,25,51,298,24,1*78
$GAGSV,2,2,06,33,25,042,17,08,11,323,16,1*79
$GBGSV,3,1,10,35,75,199,33,26,71,224,32,29,39,057,28,24,36,305,29,1*70
$GBGSV,3,2,10,44,28,226,27,45,28,152,21,39,12,330,20,12,05,225,14,1*7C
$GBGSV,3,3,10,32,03,028,13,16,03,335,,1*7C
$GBGSV,2,1,07,35,75,199,25,26,71,224,25,29,39,057,20,24,36,305,24,5*77
$GBGSV,2,2,07,44,28,226,20,45,28,152,21,39,12,330,16,5*4B
$GNGLL,4910.419564,N,12304.400460,W,004708.000,A,D*5E
$GNRMC,004709.000,A,4910.419660,N,12304.400418,W,0.01,237.02,090125,,,D,V*10
$GNGGA,004709.000,4910.419660,N,12304.400418,W,2,47,0.52,13.500,M,-16.817,M,,*73
$GNVTG,237.02,T,,M,0.01,N,0.01,K,D*22
$GNGSA,A,3,12,06,11,19,24,25,17,03,32,,,,0.91,0.52,0.74,1*05
$GNGSA,A,3,86,77,76,87,85,,,,,,,,0.91,0.52,0.74,2*03
$GNGSA,A,3,24,12,10,25,11,33,31,03,08,,,,0.91,0.52,0.74,3*05
$GNGSA,A,3,35,26,29,24,44,45,39,,,,,,0.91,0.52,0.74,4*0C
$GPGSV,3,1,11,12,62,299,38,06,61,097,38,11,48,166,37,19,46,063,37,1*6E
$GPGSV,3,2,11,24,41,220,34,46,33,188,33,25,22,299,32,17,17,066,21,1*65
$GPGSV,3,3,11,03,09,028,27,32,08,313,29,20,03,152,19,1*5D
$GPGSV,1,1,04,06,61,097,30,11,48,166,26,24,41,220,26,25,22,299,24,8*68
$GLGSV,2,1,08,86,71,053,21,77,65,318,23,76,63,139,28,87,54,207,23,1*79
$GLGSV,2,2,08,85,16,037,16,69,10,003,21,68,07,317,17,75,05,139,16,1*76
$GAGSV,3,1,10,24,72,108,36,12,60,107,32,10,54,152,32,25,51,298,35,7*7C
$GAGSV,3,2,10,11,32,180,29,33,25,042,29,31,20,114,27,03,12,274,11,7*7A
$GAGSV,3,3,10,08,11,323,25,02,02,296,19,7*7A
$GAGSV,2,1,06,24,72,108,26,12,60,107,24,10,54,152,27,25,51,298,24,1*7E
$GAGSV,2,2,06,33,25,042,17,08,11,323,17,1*78
$GBGSV,3,1,10,35,75,199,33,26,71,224,32,29,39,057,28,24,36,305,29,1*70
$GBGSV,3,2,10,44,28,226,27,45,28,152,21,39,12,330,20,12,05,225,14,1*7C
$GBGSV,3,3,10,32,03,028,13,16,03,335,,1*7C
$GBGSV,2,1,07,35,75,199,25,26,71,224,25,29,39,057,20,24,36,305,24,5*77
$GBGSV,2,2,07,44,28,226,20,45,28,152,21,39,12,330,16,5*4B
$GNGLL,4910.419660,N,12304.400418,W,004709.000,A,D*57
$GNRMC,004710.000,A,4910.419678,N,12304.400358,W,0.01,237.02,090125,,,D,V*12
$GNGGA,004710.000,4910.419678,N,12304.400358,W,2,47,0.52,13.575,M,-16.816,M,,*72
$GNVTG,237.02,T,,M,0.01,N,0.02,K,D*21
$GNGSA,A,3,12,06,11,19,24,25,17,03,32,,,,0.91,0.52,0.74,1*05
$GNGSA,A,3,86,77,76,87,85,,,,,,,,0.91,0.52,0.74,2*03
$GNGSA,A,3,24,12,10,25,11,33,31,03,08,,,,0.91,0.52,0.74,3*05
$GNGSA,A,3,35,26,29,24,44,45,39,,,,,,0.91,0.52,0.74,4*0C
$GPGSV,3,1,11,12,62,299,38,06,61,097,38,11,48,166,37,19,46,063,37,1*6E
$GPGSV,3,2,11,24,41,220,34,46,33,188,33,25,22,299,32,17,17,066,21,1*65
$GPGSV,3,3,11,03,09,028,26,32,08,313,29,20,03,152,19,1*5C
$GPGSV,1,1,04,06,61,097,29,11,48,166,26,24,41,220,26,25,22,299,24,8*60
$GLGSV,2,1,08,86,71,053,20,77,65,318,19,76,63,139,27,87,54,207,23,1*7E
$GLGSV,2,2,08,85,16,037,16,69,10,003,20,68,07,317,16,75,05,139,15,1*75
$GAGSV,3,1,10,24,72,108,36,12,60,107,32,10,54,152,32,25,51,298,35,7*7C
$GAGSV,3,2,10,11,33,180,29,33,25,042,29,31,20,114,26,03,12,274,11,7*7A
$GAGSV,3,3,10,08,11,323,25,02,02,296,19,7*7A
$GAGSV,2,1,06,24,72,108,26,12,60,107,24,10,54,152,27,25,51,298,24,1*7E
$GAGSV,2,2,06,33,25,042,17,08,11,323,17,1*78
$GBGSV,3,1,10,35,75,199,33,26,71,224,32,29,39,057,28,24,36,305,29,1*70
$GBGSV,3,2,10,44,28,226,27,45,28,152,20,39,12,330,20,12,05,225,13,1*7A
$GBGSV,3,3,10,32,03,028,13,16,03,335,,1*7C
$GBGSV,2,1,07,35,75,199,25,26,71,224,25,29,39,057,20,24,36,305,24,5*77
$GBGSV,2,2,07,44,28,226,20,45,28,152,21,39,12,330,16,5*4B
$GNGLL,4910.419678,N,12304.400358,W,004710.000,A,D*55
$GNRMC,004711.000,A,4910.419630,N,12304.400346,W,0.01,237.02,090125,,,D,V*10
$GNGGA,004711.000,4910.419630,N,12304.400346,W,2,47,0.52,13.738,M,-16.817,M,,*7A
$GNVTG,237.02,T,,M,0.01,N,0.02,K,D*21
$GNGSA,A,3,12,06,11,19,24,25,17,03,32,,,,0.91,0.52,0.74,1*05
$GNGSA,A,3,86,77,76,87,85,,,,,,,,0.91,0.52,0.74,2*03
$GNGSA,A,3,24,12,10,25,11,33,31,03,08,,,,0.91,0.52,0.74,3*05
$GNGSA,A,3,35,26,29,24,44,45,39,,,,,,0.91,0.52,0.74,4*0C
$GPGSV,3,1,11,12,62,299,38,06,61,097,38,11,48,166,37,19,46,063,37,1*6E
$GPGSV,3,2,11,24,41,220,34,46,33,188,33,25,22,299,32,17,17,066,21,1*65
$GPGSV,3,3,11,03,09,028,26,32,08,313,29,20,03,152,18,1*5D
$GPGSV,1,1,04,06,61,097,29,11,48,166,26,24,41,220,26,25,22,299,24,8*60
$GLGSV,3,1,09,86,71,053,20,77,65,318,20,76,63,139,27,87,54,207,24,1*73
$GLGSV,3,2,09,85,16,037,16,69,10,003,20,68,07,317,17,78,06,319,,1*7E
$GLGSV,3,3,09,75,05,139,15,1*49
$GAGSV,3,1,10,24,72,108,36,12,60,105,32,10,54,152,32,25,51,298,35,7*7E
$GAGSV,3,2,10,11,33,180,29,33,25,042,29,31,20,114,26,03,12,274,11,7*7A
$GAGSV,3,3,10,08,11,323,25,02,02,296,19,7*7A
$GAGSV,2,1,06,24,72,108,26,12,60,105,24,10,54,152,27,25,51,298,24,1*7C
$GAGSV,2,2,06,33,25,042,17,08,11,323,17,1*78
$GBGSV,3,1,10,35,75,199,33,26,71,224,32,29,39,057,28,24,36,305,29,1*70
$GBGSV,3,2,10,44,28,226,27,45,28,152,20,39,12,330,20,12,05,225,14,1*7D
$GBGSV,3,3,10,32,03,028,13,16,03,335,,1*7C
$GBGSV,2,1,07,35,75,199,25,26,71,224,25,29,39,057,20,24,36,305,23,5*70
$GBGSV,2,2,07,44,28,226,20,45,28,152,21,39,12,330,16,5*4B
$GNGLL,4910.419630,N,12304.400346,W,004711.000,A,D*57
$GNRMC,004712.000,A,4910.419600,N,12304.400250,W,0.01,237.02,090125,,,D,V*16
$GNGGA,004712.000,4910.419600,N,12304.400250,W,2,47,0.52,13.878,M,-16.816,M,,*76
$GNVTG,237.02,T,,M,0.01,N,0.02,K,D*21
$GNGSA,A,3,12,06,11,19,24,25,17,03,32,,,,0.91,0.52,0.74,1*05
$GNGSA,A,3,86,77,76,87,85,,,,,,,,0.91,0.52,0.74,2*03
$GNGSA,A,3,24,12,10,25,11,33,31,03,08,,,,0.91,0.52,0.74,3*05
$GNGSA,A,3,35,26,29,24,44,45,39,,,,,,0.91,0.52,0.74,4*0C
$GPGSV,3,1,11,12,62,299,38,06,61,097,38,11,48,166,37,19,46,063,37,1*6E
$GPGSV,3,2,11,24,41,220,34,46,33,188,33,25,22,299,32,17,17,066,21,1*65
$GPGSV,3,3,11,03,09,028,26,32,08,313,30,20,03,152,18,1*55
$GPGSV,1,1,04,06,61,097,29,11,48,166,26,24,41,220,26,25,22,299,24,8*60
$GLGSV,2,1,08,86,71,053,19,77,65,318,20,76,63,139,27,87,54,207,24,1*79
$GLGSV,2,2,08,85,16,037,16,69,10,003,20,68,07,317,17,75,05,139,15,1*74
$GAGSV,3,1,10,24,72,108,36,12,60,105,32,10,54,152,32,25,51,298,35,7*7E
$GAGSV,3,2,10,11,33,180,29,33,25,042,29,31,20,114,26,03,12,274,11,7*7A
$GAGSV,3,3,10,08,11,323,25,02,02,296,19,7*7A
$GAGSV,2,1,06,24,72,108,26,12,60,105,24,10,54,152,27,25,51,298,24,1*7C
$GAGSV,2,2,06,33,25,042,17,08,11,323,17,1*78
$GBGSV,3,1,10,35,75,199,33,26,71,224,32,29,39,057,28,24,36,305,29,1*70
$GBGSV,3,2,10,44,28,226,27,45,28,152,20,39,12,330,19,12,05,225,14,1*77
$GBGSV,3,3,10,32,03,028,13,16,03,335,,1*7C
$GBGSV,2,1,07,35,75,199,25,26,71,224,25,29,39,057,20,24,36,305,24,5*77
$GBGSV,2,2,07,44,28,226,20,45,28,152,21,39,12,330,16,5*4B
$GNGLL,4910.419600,N,12304.400250,W,004712.000,A,D*51
$GNRMC,004713.000,A,4910.419564,N,12304.400160,W,0.01,237.02,090125,,,D,V*16
$GNGGA,004713.000,4910.419564,N,12304.400160,W,2,47,0.52,14.056,M,-16.816,M,,*75
$GNVTG,237.02,T,,M,0.01,N,0.02,K,D*21
$GNGSA,A,3,12,06,11,19,24,25,17,03,32,,,,0.91,0.52,0.74,1*05
$GNGSA,A,3,86,77,76,87,85,,,,,,,,0.91,0.52,0.74,2*03
$GNGSA,A,3,24,12,10,25,11,33,31,03,08,,,,0.91,0.52,0.74,3*05
$GNGSA,A,3,35,26,29,24,44,45,39,,,,,,0.91,0.52,0.74,4*0C
$GPGSV,3,1,11,12,62,299,39,06,61,097,38,11,48,166,37,19,46,063,37,1*6F
$GPGSV,3,2,11,24,41,220,34,46,33,188,33,25,22,299,32,17,17,066,21,1*65
$GPGSV,3,3,11,03,09,028,26,32,08,313,30,20,03,152,18,1*55
$GPGSV,1,1,04,06,61,097,29,11,48,166,26,24,41,220,26,25,22,299,24,8*60
$GLGSV,2,1,08,86,71,053,19,77,65,318,19,76,63,139,27,87,54,207,24,1*73
$GLGSV,2,2,08,85,16,037,16,69,10,003,21,68,07,317,17,75,05,139,15,1*75
$GAGSV,3,1,10,24,72,108,36,12,60,105,33,10,54,152,32,25,51,298,35,7*7F
$GAGSV,3,2,10,11,33,180,29,33,25,042,29,31,20,114,26,03,12,274,11,7*7A
$GAGSV,3,3,10,08,11,323,26,02,02,296,19,7*79
$GAGSV,2,1,06,24,72,108,26,12,60,105,24,10,54,152,26,25,51,298,24,1*7D
$GAGSV,2,2,06,33,25,042,17,08,11,323,17,1*78
$GBGSV,3,1,10,35,75,199,33,26,71,224,32,29,39,057,28,24,36,305,29,1*70
$GBGSV,3,2,10,44,28,226,26,45,28,152,20,39,12,330,19,12,05,225,14,1*76
$GBGSV,3,3,10,32,03,028,13,16,03,335,,1*7C
$GBGSV,2,1,07,35,75,199,25,26,71,224,25,29,39,057,20,24,36,305,24,5*77
$GBGSV,2,2,07,44,28,226,20,45,28,152,21,39,12,330,16,5*4B
$GNGLL,4910.419564,N,12304.400160,W,004713.000,A,D*51
$GNRMC,004714.000,A,4910.419522,N,12304.400250,W,0.02,237.02,090125,,,D,V*10
$GNGGA,004714.000,4910.419522,N,12304.400250,W,2,47,0.52,14.213,M,-16.817,M,,*72
$GNVTG,237.02,T,,M,0.02,N,0.03,K,D*23
$GNGSA,A,3,12,06,11,19,24,25,17,03,32,,,,0.91,0.52,0.74,1*05
$GNGSA,A,3,86,77,76,87,85,,,,,,,,0.91,0.52,0.74,2*03
$GNGSA,A,3,24,12,10,25,11,33,31,03,08,,,,0.91,0.52,0.74,3*05
$GNGSA,A,3,35,26,29,24,44,45,39,,,,,,0.91,0.52,0.74,4*0C
$GPGSV,3,1,11,12,62,299,39,06,61,097,38,11,48,166,37,19,46,063,37,1*6F
$GPGSV,3,2,11,24,41,220,34,46,33,188,33,25,22,299,32,17,17,066,21,1*65
$GPGSV,3,3,11,03,09,028,26,32,08,313,30,20,03,152,18,1*55
$GPGSV,1,1,04,06,61,097,29,11,48,166,26,24,41,220,26,25,22,299,24,8*60
$GLGSV,2,1,08,86,71,053,19,77,65,318,19,76,63,139,27,87,54,207,24,1*73
$GLGSV,2,2,08,85,16,037,16,69,10,003,21,68,07,317,17,75,05,139,15,1*75
$GAGSV,3,1,10,24,72,108,36,12,60,105,33,10,54,152,32,25,51,298,35,7*7F
$GAGSV,3,2,10,11,33,180,29,33,25,042,29,31,20,114,26,03,12,274,10,7*7B
$GAGSV,3,3,10,08,11,323,26,02,02,296,19,7*79
$GAGSV,2,1,06,24,72,108,26,12,60,105,23,10,54,152,26,25,51,298,24,1*7A
$GAGSV,2,2,06,33,25,042,17,08,11,323,17,1*78
$GBGSV,3,1,10,35,75,199,33,26,71,224,32,29,39,057,28,24,36,305,28,1*71
$GBGSV,3,2,10,44,28,226,26,45,28,152,20,39,12,330,19,12,05,225,14,1*76
$GBGSV,3,3,10,32,03,028,14,16,03,335,,1*7B
$GBGSV,2,1,07,35,75,199,25,26,71,224,25,29,39,057,20,24,36,305,24,5*77
$GBGSV,2,2,07,44,28,226,20,45,28,152,21,39,12,330,16,5*4B
$GNGLL,4910.419522,N,12304.400250,W,004714.000,A,D*54
$GNRMC,004715.000,A,4910.419546,N,12304.400340,W,0.01,237.02,090125,,,D,V*10
$GNGGA,004715.000,4910.419546,N,12304.400340,W,2,47,0.52,14.345,M,-16.816,M,,*72
$GNVTG,237.02,T,,M,0.01,N,0.03,K,D*20
$GNGSA,A,3,12,06,11,19,24,25,17,03,32,,,,0.91,0.52,0.74,1*05
$GNGSA,A,3,86,77,76,87,85,,,,,,,,0.91,0.52,0.74,2*03
$GNGSA,A,3,24,12,10,25,11,33,31,03,08,,,,0.91,0.52,0.74,3*05
$GNGSA,A,3,35,26,29,24,44,45,39,,,,,,0.91,0.52,0.74,4*0C
$GPGSV,3,1,11,12,62,299,39,06,61,097,38,11,48,166,37,19,46,063,37,1*6F
$GPGSV,3,2,11,24,41,220,34,46,33,188,33,25,22,299,32,17,17,066,20,1*64
$GPGSV,3,3,11,03,09,028,26,32,08,313,30,20,03,152,18,1*55
$GPGSV,1,1,04,06,61,097,29,11,48,166,26,24,41,220,26,25,22,299,24,8*60
$GLGSV,2,1,08,86,71,053,19,77,65,318,19,76,63,139,27,87,54,207,24,1*73
$GLGSV,2,2,08,85,16,037,17,69,10,003,21,68,07,317,18,75,05,139,15,1*7B
$GAGSV,3,1,10,24,72,108,36,12,60,105,33,10,54,152,32,25,51,298,35,7*7F
$GAGSV,3,2,10,11,33,180,29,33,25,042,29,31,20,114,26,03,12,274,10,7*7B
$GAGSV,3,3,10,08,11,323,26,02,02,296,19,7*79
$GAGSV,2,1,06,24,72,108,26,12,60,105,23,10,54,152,26,25,51,298,24,1*7A
$GAGSV,2,2,06,33,25,042,17,08,11,323,17,1*78
$GBGSV,3,1,10,35,75,199,34,26,71,224,32,29,39,057,28,24,36,305,28,1*76
$GBGSV,3,2,10,44,28,226,26,45,28,152,20,39,12,330,19,12,05,225,15,1*77
$GBGSV,3,3,10,32,03,028,14,16,03,335,,1*7B
$GBGSV,2,1,07,35,75,199,25,26,71,224,25,29,39,057,20,24,36,305,24,5*77
$GBGSV,2,2,07,44,28,226,20,45,28,152,21,39,12,330,16,5*4B
$GNGLL,4910.419546,N,12304.400340,W,004715.000,A,D*57
$GNRMC,004716.000,A,4910.419564,N,12304.400454,W,0.02,237.02,090125,,,D,V*12
$GNGGA,004716.000,4910.419564,N,12304.400454,W,2,47,0.52,14.496,M,-16.816,M,,*7A
$GNVTG,237.02,T,,M,0.02,N,0.03,K,D*23
$GNGSA,A,3,12,06,11,19,24,25,17,03,32,,,,0.91,0.52,0.74,1*05
$GNGSA,A,3,86,77,76,87,85,,,,,,,,0.91,0.52,0.74,2*03
$GNGSA,A,3,24,12,10,25,11,33,31,03,08,,,,0.91,0.52,0.74,3*05
$GNGSA,A,3,35,26,29,24,44,45,39,,,,,,0.91,0.52,0.74,4*0C
$GPGSV,3,1,11,12,62,299,39,06,61,097,38,11,48,166,36,19,46,063,37,1*6E
$GPGSV,3,2,11,24,41,220,34,46,33,188,33,25,22,299,32,17,17,066,20,1*64
$GPGSV,3,3,11,03,09,028,26,32,08,313,30,20,03,152,18,1*55
$GPGSV,1,1,04,06,61,097,28,11,48,166,26,24,41,220,26,25,22,299,24,8*61
$GLGSV,2,1,08,86,71,053,19,77,65,318,19,76,63,139,28,87,54,207,24,1*7C
$GLGSV,2,2,08,85,16,037,17,69,10,003,21,68,07,317,18,75,05,139,16,1*78
$GAGSV,3,1,10,24,72,108,36,12,60,105,33,10,54,152,32,25,51,298,34,7*7E
$GAGSV,3,2,10,11,33,180,28,33,25,042,28,31,20,114,26,03,12,274,10,7*7B
$GAGSV,3,3,10,08,11,323,25,02,02,296,19,7*7A
$GAGSV,2,1,06,24,72,108,26,12,60,105,23,10,54,152,26,25,51,298,24,1*7A
$GAGSV,2,2,06,33,25,042,17,08,11,323,16,1*79
$GBGSV,3,1,10,35,75,199,34,26,71,224,32,29,39,057,28,24,36,305,28,1*76
$GBGSV,3,2,10,44,28,226,26,45,28,152,20,39,12,330,19,12,05,225,15,1*77
$GBGSV,3,3,10,32,03,028,14,16,03,335,,1*7B
$GBGSV,2,1,07,35,75,199,25,26,71,224,25,29,39,057,20,24,36,305,24,5*77
$GBGSV,2,2,07,44,28,226,20,45,28,152,21,39,12,330,16,5*4B
$GNGLL,4910.419564,N,12304.400454,W,004716.000,A,D*56
$GNRMC,004717.000,A,4910.419600,N,12304.400358,W,0.02,237.02,090125,,,D,V*19
$GNGGA,004717.000,4910.419600,N,12304.400358,W,2,47,0.52,14.597,M,-16.817,M,,*70
$GNVTG,237.02,T,,M,0.02,N,0.03,K,D*23
$GNGSA,A,3,12,06,11,19,24,25,17,03,32,,,,0.91,0.52,0.74,1*05
$GNGSA,A,3,86,77,76,87,85,,,,,,,,0.91,0.52,0.74,2*03
$GNGSA,A,3,24,12,10,25,11,33,31,03,08,,,,0.91,0.52,0.74,3*05
$GNGSA,A,3,35,26,29,24,44,45,39,,,,,,0.91,0.52,0.74,4*0C
$GPGSV,3,1,11,12,62,299,39,06,61,097,38,11,48,166,36,19,46,063,37,1*6E
$GPGSV,3,2,11,24,41,220,34,46,33,188,33,25,22,299,32,17,17,066,20,1*64
$GPGSV,3,3,11,03,09,028,26,32,08,313,30,20,03,152,18,1*55
$GPGSV,1,1,04,06,61,097,28,11,48,166,26,24,41,220,26,25,22,299,24,8*61
$GLGSV,2,1,08,86,71,053,19,77,65,318,19,76,63,139,29,87,54,207,24,1*7D
$GLGSV,2,2,08,85,16,037,17,69,10,003,21,68,07,317,18,75,05,139,16,1*78
$GAGSV,3,1,10,24,72,108,36,12,60,105,33,10,54,152,32,25,51,298,34,7*7E
$GAGSV,3,2,10,11,33,180,28,33,25,042,28,31,20,114,26,03,12,274,11,7*7A
$GAGSV,3,3,10,08,11,323,26,02,02,296,19,7*79
$GAGSV,2,1,06,24,72,108,25,12,60,105,23,10,54,152,26,25,51,298,24,1*79
$GAGSV,2,2,06,33,25,042,17,08,11,323,16,1*79
$GBGSV,3,1,10,35,75,199,34,26,71,224,32,29,39,057,28,24,36,305,28,1*76
$GBGSV,3,2,10,44,28,226,26,45,28,152,21,39,12,330,19,12,05,225,15,1*76
$GBGSV,3,3,10,32,03,028,14,16,03,335,,1*7B
$GBGSV,2,1,07,35,75,199,25,26,71,224,24,29,39,057,19,24,36,305,23,5*7B
$GBGSV,2,2,07,44,28,226,19,45,28,152,20,39,12,330,15,5*43
$GNGLL,4910.419600,N,12304.400358,W,004717.000,A,D*5D
$GNRMC,004718.000,A,4910.419612,N,12304.400256,W,0.02,237.02,090125,,,D,V*1A
$GNGGA,004718.000,4910.419612,N,12304.400256,W,2,47,0.52,14.598,M,-16.816,M,,*7D
$GNVTG,237.02,T,,M,0.02,N,0.03,K,D*23
$GNGSA,A,3,12,06,11,19,24,25,17,03,32,,,,0.91,0.52,0.74,1*05
$GNGSA,A,3,86,77,76,87,85,,,,,,,,0.91,0.52,0.74,2*03
$GNGSA,A,3,24,12,10,25,11,33,31,03,08,,,,0.91,0.52,0.74,3*05
$GNGSA,A,3,35,26,29,24,44,45,39,,,,,,0.91,0.52,0.74,4*0C
$GPGSV,3,1,11,12,62,299,39,06,61,097,38,11,48,166,36,19,46,063,37,1*6E
$GPGSV,3,2,11,24,41,220,34,46,33,188,33,25,22,299,32,17,17,066,20,1*64
$GPGSV,3,3,11,03,09,028,26,32,08,313,30,20,03,152,18,1*55
$GPGSV,1,1,04,06,61,097,29,11,48,166,26,24,41,220,27,25,22,299,24,8*61
$GLGSV,2,1,08,86,71,053,19,77,65,318,19,76,63,139,29,87,54,207,24,1*7D
$GLGSV,2,2,08,85,16,037,17,69,10,003,21,68,07,317,18,75,05,139,16,1*78
$GAGSV,3,1,10,24,72,108,36,12,60,105,33,10,54,152,32,25,51,298,34,7*7E
$GAGSV,3,2,10,11,33,180,28,33,25,042,28,31,20,114,26,03,12,274,11,7*7A
$GAGSV,3,3,10,08,11,323,26,02,02,296,19,7*79
$GAGSV,2,1,06,24,72,108,25,12,60,105,23,10,54,152,26,25,51,298,24,1*79
$GAGSV,2,2,06,33,25,042,17,08,11,323,16,1*79
$GBGSV,3,1,10,35,75,199,34,26,71,224,32,29,39,057,29,24,36,305,28,1*77
$GBGSV,3,2,10,44,28,226,26,45,28,152,21,39,12,330,19,12,05,225,15,1*76
$GBGSV,3,3,10,32,03,028,14,16,03,335,,1*7B
$GBGSV,2,1,07,35,75,199,25,26,71,224,25,29,39,057,19,24,36,305,23,5*7A
$GBGSV,2,2,07,44,28,226,19,45,28,152,20,39,12,330,15,5*43
$GNGLL,4910.419612,N,12304.400256,W,004718.000,A,D*5E
$GNRMC,004719.000,A,4910.419564,N,12304.400274,W,0.01,237.02,090125,,,D,V*1A
$GNGGA,004719.000,4910.419564,N,12304.400274,W,2,47,0.52,14.533,M,-16.817,M,,*7E
$GNVTG,237.02,T,,M,0.01,N,0.02,K,D*21
$GNGSA,A,3,12,06,11,19,24,25,17,03,32,,,,0.91,0.52,0.74,1*05
$GNGSA,A,3,86,77,76,87,85,,,,,,,,0.91,0.52,0.74,2*03
$GNGSA,A,3,24,12,10,25,11,33,31,03,08,,,,0.91,0.52,0.74,3*05
$GNGSA,A,3,35,26,29,24,44,45,39,,,,,,0.91,0.52,0.74,4*0C
$GPGSV,3,1,11,12,62,299,39,06,61,097,38,11,48,166,36,19,46,063,37,1*6E
$GPGSV,3,2,11,24,41,220,34,46,33,188,34,25,22,299,32,17,17,066,20,1*63
$GPGSV,3,3,11,03,09,028,26,32,08,313,30,20,03,152,18,1*55
$GPGSV,1,1,04,06,61,097,29,11,48,166,25,24,41,220,27,25,22,299,24,8*62
$GLGSV,2,1,08,86,71,053,19,77,65,318,19,76,63,139,29,87,54,207,23,1*7A
$GLGSV,2,2,08,85,16,037,17,69,10,003,21,68,07,317,18,75,05,139,16,1*78
$GAGSV,3,1,10,24,72,108,36,12,60,105,33,10,54,152,32,25,51,298,34,7*7E
$GAGSV,3,2,10,11,33,180,28,33,25,042,28,31,20,114,26,03,12,274,11,7*7A
$GAGSV,3,3,10,08,11,323,26,02,02,296,19,7*79
$GAGSV,2,1,06,24,72,108,25,12,60,105,23,10,54,152,26,25,51,298,24,1*79
$GAGSV,2,2,06,33,25,042,17,08,11,323,16,1*79
$GBGSV,3,1,10,35,75,199,34,26,71,224,32,29,39,057,29,24,36,305,28,1*77
$GBGSV,3,2,10,44,28,226,27,45,28,152,21,39,12,330,19,12,05,225,15,1*77
$GBGSV,3,3,10,32,03,028,14,16,03,335,,1*7B
$GBGSV,2,1,07,35,75,199,25,26,71,224,25,29,39,057,19,24,36,305,23,5*7A
$GBGSV,2,2,07,44,28,226,19,45,28,152,20,39,12,330,15,5*43
$GNGLL,4910.419564,N,12304.400274,W,004719.000,A,D*5D
$GNRMC,004720.000,A,4910.419612,N,12304.400238,W,0.01,237.02,090125,,,D,V*1A
$GNGGA,004720.000,4910.419612,N,12304.400238,W,2,47,0.52,14.875,M,-16.816,M,,*70
$GNVTG,237.02,T,,M,0.01,N,0.02,K,D*21
$GNGSA,A,3,12,06,11,19,24,25,17,03,32,,,,0.91,0.52,0.74,1*05
$GNGSA,A,3,86,77,76,87,85,,,,,,,,0.91,0.52,0.74,2*03
$GNGSA,A,3,24,12,10,25,11,33,31,03,08,,,,0.91,0.52,0.74,3*05
$GNGSA,A,3,35,26,29,24,44,45,39,,,,,,0.91,0.52,0.74,4*0C
$GPGSV,3,1,11,12,62,299,39,06,61,097,39,11,48,166,36,19,46,063,37,1*6F
$GPGSV,3,2,11,24,41,220,34,46,33,188,34,25,22,299,32,17,17,066,20,1*63
$GPGSV,3,3,11,03,09,028,26,32,08,313,30,20,03,152,18,1*55
$GPGSV,1,1,04,06,61,097,29,11,48,166,25,24,41,220,27,25,22,299,24,8*62
$GLGSV,2,1,08,86,71,053,19,77,65,318,19,76,63,139,29,87,54,207,23,1*7A
$GLGSV,2,2,08,85,16,037,17,69,10,003,21,68,07,317,18,75,05,139,16,1*78
$GAGSV,3,1,10,24,72,108,36,12,60,105,33,10,54,152,32,25,51,298,34,7*7E
$GAGSV,3,2,10,11,33,180,29,33,25,042,29,31,20,114,26,03,12,274,10,7*7B
$GAGSV,3,3,10,08,11,323,26,02,02,296,19,7*79
$GAGSV,2,1,06,24,72,108,26,12,60,105,23,10,54,152,26,25,51,298,24,1*7A
$GAGSV,2,2,06,33,25,042,17,08,11,323,16,1*79
$GBGSV,3,1,10,35,75,199,34,26,71,224,32,29,39,057,29,24,36,305,29,1*76
$GBGSV,3,2,10,44,28,226,27,45,28,152,21,39,12,330,19,12,05,225,15,1*77
$GBGSV,3,3,10,32,03,028,14,16,03,335,,1*7B
$GBGSV,2,1,07,35,75,199,25,26,71,224,25,29,39,057,20,24,36,305,23,5*70
$GBGSV,2,2,07,44,28,226,19,45,28,152,20,39,12,330,15,5*43
$GNGLL,4910.419612,N,12304.400238,W,004720.000,A,D*5D
$GNRMC,004721.000,A,4910.419630,N,12304.400190,W,0.01,237.02,090125,,,D,V*1A
$GNGGA,004721.000,4910.419630,N,12304.400190,W,2,47,0.52,14.979,M,-16.817,M,,*7C
$GNVTG,237.02,T,,M,0.01,N,0.02,K,D*21
$GNGSA,A,3,12,06,11,19,24,25,17,03,32,,,,0.91,0.52,0.74,1*05
$GNGSA,A,3,86,77,76,87,85,,,,,,,,0.91,0.52,0.74,2*03
$GNGSA,A,3,24,12,10,25,11,33,31,03,08,,,,0.91,0.52,0.74,3*05
$GNGSA,A,3,35,26,29,24,44,45,39,,,,,,0.91,0.52,0.74,4*0C
$GPGSV,3,1,11,12,62,299,39,06,61,097,39,11,48,166,36,19,46,063,37,1*6F
$GPGSV,3,2,11,24,41,220,34,46,33,188,34,25,22,299,32,17,17,066,20,1*63
$GPGSV,3,3,11,03,09,028,26,32,08,313,30,20,03,152,18,1*55
$GPGSV,1,1,04,06,61,097,29,11,48,166,25,24,41,220,27,25,22,299,24,8*62
$GLGSV,2,1,08,86,71,053,19,77,65,318,20,76,63,139,29,87,54,207,23,1*70
$GLGSV,2,2,08,85,16,037,15,69,10,003,21,68,07,317,17,75,05,139,16,1*75
$GAGSV,3,1,10,24,72,108,36,12,60,105,33,10,54,152,32,25,51,298,35,7*7F
$GAGSV,3,2,10,11,33,180,29,33,25,042,29,31,20,114,26,03,12,274,10,7*7B
$GAGSV,3,3,10,08,11,323,26,02,02,296,19,7*79
$GAGSV,2,1,06,24,72,108,26,12,60,105,23,10,54,152,26,25,51,298,24,1*7A
$GAGSV,2,2,06,33,25,042,17,08,11,323,16,1*79
$GBGSV,3,1,10,35,75,199,34,26,71,224,32,29,39,057,29,24,36,305,29,1*76
$GBGSV,3,2,10,44,28,226,27,45,28,152,21,39,12,330,19,12,05,225,15,1*77
$GBGSV,3,3,10,32,03,028,15,16,03,335,,1*7A
$GBGSV,2,1,07,35,75,199,25,26,71,224,25,29,39,057,20,24,36,305,23,5*70
$GBGSV,2,2,07,44,28,226,19,45,28,152,20,39,12,330,15,5*43
$GNGLL,4910.419630,N,12304.400190,W,004721.000,A,D*5D
$GNRMC,004722.000,A,4910.419648,N,12304.400166,W,0.01,237.02,090125,,,D,V*1F
$GNGGA,004722.000,4910.419648,N,12304.400166,W,2,47,0.52,15.086,M,-16.816,M,,*70
$GNVTG,237.02,T,,M,0.01,N,0.01,K,D*22
$GNGSA,A,3,12,06,11,19,24,25,17,03,32,,,,0.91,0.52,0.74,1*05
$GNGSA,A,3,86,77,76,87,85,,,,,,,,0.91,0.52,0.74,2*03
$GNGSA,A,3,24,12,10,25,11,33,31,03,08,,,,0.91,0.52,0.74,3*05
$GNGSA,A,3,35,26,29,24,44,45,39,,,,,,0.91,0.52,0.74,4*0C
$GPGSV,3,1,11,12,62,299,39,06,61,097,39,11,48,166,36,19,46,063,37,1*6F
$GPGSV,3,2,11,24,41,220,34,46,33,188,34,25,22,299,32,17,17,066,20,1*63
$GPGSV,3,3,11,03,09,028,27,32,08,313,30,20,03,152,18,1*54
$GPGSV,1,1,04,06,61,097,29,11,48,166,25,24,41,220,27,25,22,299,24,8*62
$GLGSV,2,1,08,86,71,053,19,77,65,318,20,76,63,139,29,87,54,207,23,1*70
$GLGSV,2,2,08,85,16,037,15,69,10,003,20,68,07,317,17,75,05,139,16,1*74
$GAGSV,3,1,10,24,72,108,36,12,60,105,33,10,54,152,32,25,51,298,35,7*7F
$GAGSV,3,2,10,11,33,180,29,33,25,042,29,31,20,114,26,03,12,274,11,7*7A
$GAGSV,3,3,10,08,11,323,26,02,02,296,19,7*79
$GAGSV,2,1,06,24,72,108,26,12,60,105,23,10,54,152,26,25,51,298,24,1*7A
$GAGSV,2,2,06,33,25,042,17,08,11,323,16,1*79
$GBGSV,3,1,10,35,75,199,34,26,71,224,32,29,39,057,29,24,36,305,29,1*76
$GBGSV,3,2,10,44,28,226,27,45,28,152,22,39,12,330,19,12,05,225,15,1*74
$GBGSV,3,3,10,32,03,028,15,16,03,335,,1*7A
$GBGSV,2,1,07,35,75,199,25,26,71,224,25,29,39,057,20,24,36,305,24,5*77
$GBGSV,2,2,07,44,28,226,19,45,28,152,20,39,12,330,15,5*43
$GNGLL,4910.419648,N,12304.400166,W,004722.000,A,D*58
$GNRMC,004723.000,A,4910.419654,N,12304.400160,W,0.01,237.02,090125,,,D,V*15
$GNGGA,004723.000,4910.419654,N,12304.400160,W,2,47,0.52,15.183,M,-16.817,M,,*7F
$GNVTG,237.02,T,,M,0.01,N,0.01,K,D*22
$GNGSA,A,3,12,06,11,19,24,25,17,03,32,,,,0.91,0.52,0.74,1*05
$GNGSA,A,3,86,77,76,87,85,,,,,,,,0.91,0.52,0.74,2*03
$GNGSA,A,3,24,12,10,25,11,33,31,03,08,,,,0.91,0.52,0.74,3*05
$GNGSA,A,3,35,26,29,24,44,45,39,,,,,,0.91,0.52,0.74,4*0C
$GPGSV,3,1,11,12,62,299,39,06,61,097,39,11,48,166,36,19,46,063,37,1*6F
$GPGSV,3,2,11,24,41,220,34,46,33,188,34,25,22,299,32,17,17,066,20,1*63
$GPGSV,3,3,11,03,09,028,27,32,08,313,30,20,03,152,18,1*54
$GPGSV,1,1,04,06,61,097,29,11,48,166,25,24,41,220,27,25,22,299,24,8*62
$GLGSV,2,1,08,86,71,053,19,77,65,318,20,76,63,139,29,87,54,207,23,1*70
$GLGSV,2,2,08,85,16,037,15,69,10,003,20,68,07,317,16,75,05,139,16,1*75
$GAGSV,3,1,10,24,71,110,36,12,60,105,33,10,54,152,32,25,51,298,35,7*75
$GAGSV,3,2,10,11,33,180,29,33,25,042,28,31,20,114,26,03,12,274,11,7*7B
$GAGSV,3,3,10,08,11,323,26,02,02,296,19,7*79
$GAGSV,2,1,06,24,71,110,26,12,60,105,23,10,54,152,27,25,51,298,24,1*71
$GAGSV,2,2,06,33,25,042,18,08,11,323,16,1*76
$GBGSV,3,1,10,35,75,199,34,26,71,224,32,29,39,057,29,24,36,305,29,1*76
$GBGSV,3,2,10,44,28,226,27,45,28,152,22,39,12,330,19,12,05,225,15,1*74
$GBGSV,3,3,10,32,03,028,15,16,03,335,,1*7A
$GBGSV,2,1,07,35,75,199,25,26,71,224,25,29,39,057,20,24,36,305,24,5*77
$GBGSV,2,2,07,44,28,226,19,45,28,152,21,39,12,330,15,5*42
$GNGLL,4910.419654,N,12304.400160,W,004723.000,A,D*52
$GNRMC,004724.000,A,4910.419612,N,12304.400208,W,0.01,237.02,090125,,,D,V*1D
$GNGGA,004724.000,4910.419612,N,12304.400208,W,2,47,0.52,15.173,M,-16.816,M,,*79
$GNVTG,237.02,T,,M,0.01,N,0.02,K,D*21
$GNGSA,A,3,12,06,11,19,24,25,17,03,32,,,,0.91,0.52,0.74,1*05
$GNGSA,A,3,86,77,76,87,85,,,,,,,,0.91,0.52,0.74,2*03
$GNGSA,A,3,24,12,10,25,11,33,31,03,08,,,,0.91,0.52,0.74,3*05
$GNGSA,A,3,35,26,29,24,44,45,39,,,,,,0.91,0.52,0.74,4*0C
$GPGSV,3,1,11,12,62,299,39,06,61,097,39,11,48,166,36,19,46,063,37,1*6F
$GPGSV,3,2,11,24,41,220,34,46,33,188,34,25,22,299,32,17,17,066,20,1*63
$GPGSV,3,3,11,03,09,028,27,32,08,313,30,20,03,152,17,1*5B
$GPGSV,1,1,04,06,61,097,29,11,48,166,25,24,41,220,27,25,22,299,24,8*62
$GLGSV,2,1,08,86,71,053,19,77,65,318,21,76,63,139,29,87,54,207,23,1*71
$GLGSV,2,2,08,85,16,037,16,69,10,003,20,68,07,317,16,75,05,139,16,1*76
$GAGSV,3,1,10,24,71,110,36,12,60,105,33,10,54,152,33,25,52,298,35,7*77
$GAGSV,3,2,10,11,33,180,29,33,25,042,28,31,20,114,26,03,12,274,11,7*7B
$GAGSV,3,3,10,08,11,323,26,02,02,296,19,7*79
$GAGSV,2,1,06,24,71,110,26,12,60,105,23,10,54,152,27,25,52,298,25,1*73
$GAGSV,2,2,06,33,25,042,18,08,11,323,17,1*77
$GBGSV,3,1,10,35,75,199,34,26,71,224,32,29,39,057,29,24,36,305,29,1*76
$GBGSV,3,2,10,44,28,226,27,45,28,152,22,39,12,330,18,12,05,225,15,1*75
$GBGSV,3,3,10,32,03,028,15,16,03,335,,1*7A
$GBGSV,2,1,07,35,75,199,25,26,71,224,25,29,39,057,20,24,36,305,24,5*77
$GBGSV,2,2,07,44,28,226,19,45,28,152,21,39,12,330,15,5*42
$GNGLL,4910.419612,N,12304.400208,W,004724.000,A,D*5A
$GNRMC,004725.000,A,4910.419606,N,12304.400244,W,0.01,237.02,090125,,,D,V*11
$GNGGA,004725.000,4910.419606,N,12304.400244,W,2,47,0.52,15.198,M,-16.816,M,,*70
$GNVTG,237.02,T,,M,0.01,N,0.01,K,D*22
$GNGSA,A,3,12,06,11,19,24,25,17,03,32,,,,0.91,0.52,0.74,1*05
$GNGSA,A,3,86,77,76,87,85,,,,,,,,0.91,0.52,0.74,2*03
$GNGSA,A,3,24,12,10,25,11,33,31,03,08,,,,0.91,0.52,0.74,3*05
$GNGSA,A,3,35,26,29,24,44,45,39,,,,,,0.91,0.52,0.74,4*0C
$GPGSV,3,1,11,12,62,299,39,06,61,097,39,11,48,166,36,19,46,063,37,1*6F
$GPGSV,3,2,11,24,41,220,34,46,33,188,34,25,22,299,32,17,17,066,20,1*63
$GPGSV,3,3,11,03,09,028,27,32,08,313,30,20,03,152,17,1*5B
$GPGSV,1,1,04,06,61,097,29,11,48,166,25,24,41,220,27,25,22,299,24,8*62
$GLGSV,2,1,08,86,71,053,19,77,65,318,21,76,63,139,29,87,54,207,23,1*71
$GLGSV,2,2,08,85,16,037,16,69,10,003,21,68,07,317,16,75,05,139,16,1*77
$GAGSV,3,1,10,24,71,110,36,12,60,105,33,10,54,152,33,25,52,298,35,7*77
$GAGSV,3,2,10,11,33,180,29,33,25,042,28,31,20,114,26,03,12,274,11,7*7B
$GAGSV,3,3,10,08,11,323,26,02,02,296,19,7*79
$GAGSV,2,1,06,24,71,110,26,12,60,105,23,10,54,152,27,25,52,298,25,1*73
$GAGSV,2,2,06,33,25,042,18,08,11,323,17,1*77
$GBGSV,3,1,10,35,75,199,34,26,71,224,32,29,39,057,29,24,36,305,29,1*76
$GBGSV,3,2,10,44,28,226,27,45,28,152,22,39,12,330,18,12,05,225,15,1*75
$GBGSV,3,3,10,32,03,028,16,16,03,335,,1*79
$GBGSV,2,1,07,35,75,199,25,26,71,224,25,29,39,057,20,24,36,305,24,5*77
$GBGSV,2,2,07,44,28,226,19,45,28,152,21,39,12,330,15,5*42
$GNGLL,4910.419606,N,12304.400244,W,004725.000,A,D*56
$GNRMC,004726.000,A,4910.419588,N,12304.400262,W,0.01,237.02,090125,,,D,V*13
$GNGGA,004726.000,4910.419588,N,12304.400262,W,2,47,0.52,15.346,M,-16.816,M,,*73
$GNVTG,237.02,T,,M,0.01,N,0.01,K,D*22
$GNGSA,A,3,12,06,11,19,24,25,17,03,32,,,,0.91,0.52,0.74,1*05
$GNGSA,A,3,86,77,76,87,85,,,,,,,,0.91,0.52,0.74,2*03
$GNGSA,A,3,24,12,10,25,11,33,31,03,08,,,,0.91,0.52,0.74,3*05
$GNGSA,A,3,35,26,29,24,44,45,39,,,,,,0.91,0.52,0.74,4*0C
$GPGSV,3,1,11,12,62,299,39,06,61,097,39,11,48,166,36,19,46,063,37,1*6F
$GPGSV,3,2,11,24,41,220,34,46,33,188,34,25,22,299,32,17,17,066,21,1*62
$GPGSV,3,3,11,03,09,028,27,32,08,313,30,20,03,152,17,1*5B
$GPGSV,1,1,04,06,61,097,29,11,48,166,25,24,41,220,27,25,22,299,24,8*62
$GLGSV,2,1,08,86,71,053,20,77,65,318,22,76,63,139,29,87,54,207,24,1*7F
$GLGSV,2,2,08,85,16,037,16,69,10,003,22,68,07,317,16,75,05,139,16,1*74
$GAGSV,3,1,10,24,71,110,36,12,60,105,33,10,54,152,33,25,52,298,35,7*77
$GAGSV,3,2,10,11,33,180,29,33,25,042,28,31,20,114,26,03,12,274,11,7*7B
$GAGSV,3,3,10,08,11,323,26,02,02,296,19,7*79
$GAGSV,2,1,06,24,71,110,26,12,60,105,23,10,54,152,27,25,52,298,25,1*73
$GAGSV,2,2,06,33,25,042,18,08,11,323,17,1*77
$GBGSV,3,1,10,35,75,199,34,26,71,224,31,29,39,057,28,24,36,305,28,1*75
$GBGSV,3,2,10,44,28,226,27,45,28,152,22,39,12,330,18,12,05,225,16,1*76
$GBGSV,3,3,10,32,03,028,16,16,03,335,,1*79
$GBGSV,2,1,07,35,75,199,25,26,71,224,25,29,39,057,20,24,36,305,24,5*77
$GBGSV,2,2,07,44,28,226,19,45,28,152,20,39,12,330,15,5*43
$GNGLL,4910.419588,N,12304.400262,W,004726.000,A,D*54
$GNRMC,004727.000,A,4910.419654,N,12304.400322,W,0.01,237.02,090125,,,D,V*15
$GNGGA,004727.000,4910.419654,N,12304.400322,W,2,47,0.52,15.627,M,-16.816,M,,*77
$GNVTG,237.02,T,,M,0.01,N,0.01,K,D*22
$GNGSA,A,3,12,06,11,19,24,25,17,03,32,,,,0.91,0.52,0.74,1*05
$GNGSA,A,3,86,77,76,87,85,,,,,,,,0.91,0.52,0.74,2*03
$GNGSA,A,3,24,12,10,25,11,33,31,03,08,,,,0.91,0.52,0.74,3*05
$GNGSA,A,3,35,26,29,24,44,45,39,,,,,,0.91,0.52,0.74,4*0C
$GPGSV,3,1,11,12,62,299,39,06,61,097,39,11,48,166,36,19,46,063,37,1*6F
$GPGSV,3,2,11,24,41,220,34,46,33,188,34,25,22,299,32,17,17,066,21,1*62
$GPGSV,3,3,11,03,09,028,27,32,08,313,30,20,03,152,17,1*5B
$GPGSV,1,1,04,06,61,097,30,11,48,166,25,24,41,220,27,25,22,299,24,8*6A
$GLGSV,2,1,08,86,71,053,20,77,65,318,22,76,63,139,29,87,54,207,24,1*7F
$GLGSV,2,2,08,85,16,037,16,69,10,003,22,68,07,317,16,75,05,139,16,1*74
$GAGSV,3,1,10,24,71,110,36,12,60,105,33,10,54,152,33,25,52,298,35,7*77
$GAGSV,3,2,10,11,33,180,29,33,25,042,28,31,20,114,27,03,12,274,11,7*7A
$GAGSV,3,3,10,08,11,323,26,02,02,296,19,7*79
$GAGSV,2,1,06,24,71,110,26,12,60,105,23,10,54,152,27,25,52,298,25,1*73
$GAGSV,2,2,06,33,25,042,18,08,11,323,17,1*77
$GBGSV,3,1,10,35,75,199,34,26,71,224,31,29,39,057,28,24,36,305,29,1*74
$GBGSV,3,2,10,44,28,226,27,45,28,152,22,39,12,330,18,12,05,225,16,1*76
$GBGSV,3,3,10,32,03,028,16,16,03,335,,1*79
$GBGSV,2,1,07,35,75,199,25,26,71,224,25,29,39,057,20,24,36,305,24,5*77
$GBGSV,2,2,07,44,28,226,20,45,28,152,20,39,12,330,15,5*49
$GNGLL,4910.419654,N,12304.400322,W,004727.000,A,D*52
$GNRMC,004728.000,A,4910.419666,N,12304.400268,W,0.01,237.02,090125,,,D,V*14
$GNGGA,004728.000,4910.419666,N,12304.400268,W,2,47,0.52,15.564,M,-16.816,M,,*72
$GNVTG,237.02,T,,M,0.01,N,0.01,K,D*22
$GNGSA,A,3,12,06,11,19,24,25,17,03,32,,,,0.91,0.52,0.74,1*05
$GNGSA,A,3,86,77,76,87,85,,,,,,,,0.91,0.52,0.74,2*03
$GNGSA,A,3,24,12,10,25,11,33,31,03,08,,,,0.91,0.52,0.74,3*05
$GNGSA,A,3,35,26,29,24,44,45,39,,,,,,0.91,0.52,0.74,4*0C
$GPGSV,3,1,11,12,62,299,39,06,61,097,39,11,48,166,36,19,46,063,37,1*6F
$GPGSV,3,2,11,24,41,220,34,46,33,188,34,25,22,299,32,17,17,066,21,1*62
$GPGSV,3,3,11,03,09,028,27,32,08,313,30,20,03,152,17,1*5B
$GPGSV,1,1,04,06,61,097,30,11,48,166,25,24,41,220,27,25,22,299,24,8*6A
$GLGSV,2,1,08,86,71,053,21,77,65,318,21,76,63,139,29,87,54,207,23,1*7A
$GLGSV,2,2,08,85,16,037,16,69,10,003,22,68,07,317,16,75,05,139,16,1*74
$GAGSV,3,1,10,24,71,110,36,12,60,105,32,10,54,152,33,25,52,298,35,7*76
$GAGSV,3,2,10,11,33,180,28,33,25,042,28,31,20,114,27,03,12,274,11,7*7B
$GAGSV,3,3,10,08,11,323,26,02,02,296,19,7*79
$GAGSV,2,1,06,24,71,110,26,12,60,105,23,10,54,152,27,25,52,298,25,1*73
$GAGSV,2,2,06,33,25,042,18,08,11,323,17,1*77
$GBGSV,3,1,10,35,75,199,34,26,71,224,31,29,39,057,29,24,36,305,29,1*75
$GBGSV,3,2,10,44,28,226,27,45,28,152,22,39,12,330,18,12,05,225,16,1*76
$GBGSV,3,3,10,32,03,028,16,16,03,335,,1*79
$GBGSV,2,1,07,35,75,199,25,26,71,224,25,29,39,057,20,24,36,305,24,5*77
$GBGSV,2,2,07,44,28,226,20,45,28,152,20,39,12,330,16,5*4A
$GNGLL,4910.419666,N,12304.400268,W,004728.000,A,D*53
$GNRMC,004729.000,A,4910.419768,N,12304.400412,W,0.01,237.02,090125,,,D,V*11
$GNGGA,004729.000,4910.419768,N,12304.400412,W,2,47,0.52,15.671,M,-16.816,M,,*70
$GNVTG,237.02,T,,M,0.01,N,0.02,K,D*21
$GNGSA,A,3,12,06,11,19,24,25,17,03,32,,,,0.91,0.52,0.74,1*05
$GNGSA,A,3,86,77,76,87,85,,,,,,,,0.91,0.52,0.74,2*03
$GNGSA,A,3,24,12,10,25,11,33,31,03,08,,,,0.91,0.52,0.74,3*05
$GNGSA,A,3,35,26,29,24,44,45,39,,,,,,0.91,0.52,0.74,4*0C
$GPGSV,3,1,11,12,62,299,39,06,61,097,39,11,48,166,36,19,46,063,37,1*6F
$GPGSV,3,2,11,24,41,220,34,46,33,188,34,25,22,299,32,17,17,066,21,1*62
$GPGSV,3,3,11,03,09,028,27,32,08,313,30,20,03,152,17,1*5B
$GPGSV,1,1,04,06,61,097,29,11,48,166,25,24,41,220,27,25,22,299,24,8*62
$GLGSV,3,1,09,86,71,053,21,77,65,318,21,76,63,139,29,87,54,207,24,1*7D
$GLGSV,3,2,09,85,16,037,16,69,10,003,22,68,07,317,16,78,06,319,,1*7D
$GLGSV,3,3,09,75,05,139,16,1*4A
$GAGSV,3,1,10,24,71,110,36,12,60,105,32,10,54,152,33,25,52,298,35,7*76
$GAGSV,3,2,10,11,33,180,29,33,25,042,28,31,20,114,27,03,12,274,11,7*7A
$GAGSV,3,3,10,08,11,323,26,02,02,296,19,7*79
$GAGSV,2,1,06,24,71,110,26,12,60,105,23,10,54,152,26,25,52,298,25,1*72
$GAGSV,2,2,06,33,25,042,18,08,11,323,17,1*77
$GBGSV,3,1,10,35,75,199,34,26,71,224,31,29,39,057,29,24,36,305,29,1*75
$GBGSV,3,2,10,44,28,226,27,45,28,152,23,39,12,330,18,12,05,225,16,1*77
$GBGSV,3,3,10,32,03,028,16,16,03,335,,1*79
$GBGSV,2,1,07,35,75,199,25,26,71,224,25,29,39,057,20,24,36,305,24,5*77
$GBGSV,2,2,07,44,28,226,20,45,28,152,20,39,12,330,16,5*4A
$GNGLL,4910.419768,N,12304.400412,W,004729.000,A,D*56
$GNRMC,004730.000,A,4910.419768,N,12304.400496,W,0.01,237.02,090125,,,D,V*15
$GNGGA,004730.000,4910.419768,N,12304.400496,W,2,47,0.52,15.564,M,-16.817,M,,*72
$GNVTG,237.02,T,,M,0.01,N,0.03,K,D*20
$GNGSA,A,3,12,06,11,19,24,25,17,03,32,,,,0.91,0.52,0.74,1*05
$GNGSA,A,3,86,77,76,87,85,,,,,,,,0.91,0.52,0.74,2*03
$GNGSA,A,3,24,12,10,25,11,33,31,03,08,,,,0.91,0.52,0.74,3*05
$GNGSA,A,3,35,26,29,24,44,45,39,,,,,,0.91,0.52,0.74,4*0C
$GPGSV,3,1,11,12,62,299,39,06,61,097,39,11,48,166,36,19,46,063,37,1*6F
$GPGSV,3,2,11,24,41,220,34,46,33,188,34,25,22,299,32,17,17,066,21,1*62
$GPGSV,3,3,11,03,09,028,27,32,08,313,30,20,03,152,17,1*5B
$GPGSV,1,1,04,06,61,097,29,11,48,166,25,24,41,220,27,25,22,299,24,8*62
$GLGSV,2,1,08,86,71,053,21,77,65,318,22,76,63,139,29,87,54,207,24,1*7E
$GLGSV,2,2,08,85,16,037,17,69,10,003,22,68,07,317,16,75,05,139,16,1*75
$GAGSV,3,1,10,24,71,110,37,12,60,105,33,10,54,152,33,25,52,298,35,7*76
$GAGSV,3,2,10,11,33,180,29,33,25,042,28,31,19,115,27,03,12,274,11,7*71
$GAGSV,3,3,10,08,11,323,27,02,02,296,19,7*78
$GAGSV,2,1,06,24,71,110,25,12,60,105,22,10,54,152,26,25,52,298,25,1*70
$GAGSV,2,2,06,33,25,042,18,08,11,323,17,1*77
$GBGSV,3,1,10,35,75,199,33,26,71,224,30,29,39,057,28,24,36,305,28,1*73
$GBGSV,3,2,10,44,28,226,26,45,28,152,23,39,12,330,18,12,05,225,15,1*75
$GBGSV,3,3,10,32,03,028,16,16,03,335,,1*79
$GBGSV,2,1,07,35,75,199,25,26,71,224,25,29,39,057,19,24,36,305,24,5*7D
$GBGSV,2,2,07,44,28,226,20,45,28,152,20,39,12,330,16,5*4A
$GNGLL,4910.419768,N,12304.400496,W,004730.000,A,D*52
$GNRMC,004731.000,A,4910.419744,N,12304.400538,W,0.01,237.02,090125,,,D,V*1F
$GNGGA,004731.000,4910.419744,N,12304.400538,W,2,47,0.52,15.745,M,-16.816,M,,*78
$GNVTG,237.02,T,,M,0.01,N,0.03,K,D*20
$GNGSA,A,3,12,06,11,19,24,25,17,03,32,,,,0.91,0.52,0.74,1*05
$GNGSA,A,3,86,77,76,87,85,,,,,,,,0.91,0.52,0.74,2*03
$GNGSA,A,3,24,12,10,25,11,33,31,03,08,,,,0.91,0.52,0.74,3*05
$GNGSA,A,3,35,26,29,24,44,45,39,,,,,,0.91,0.52,0.74,4*0C
$GPGSV,3,1,11,12,62,299,39,06,61,097,39,11,48,166,36,19,46,063,37,1*6F
$GPGSV,3,2,11,24,41,220,34,46,33,188,34,25,22,299,32,17,17,066,21,1*62
$GPGSV,3,3,11,03,09,028,27,32,08,313,30,20,03,152,17,1*5B
$GPGSV,1,1,04,06,61,097,29,11,48,166,25,24,41,220,27,25,22,299,24,8*62
$GLGSV,2,1,08,86,71,053,21,77,65,318,22,76,63,139,29,87,54,207,24,1*7E
$GLGSV,2,2,08,85,16,037,17,69,10,003,21,68,07,317,16,75,05,139,16,1*76
$GAGSV,3,1,10,24,71,110,37,12,60,105,33,10,54,152,33,25,52,298,35,7*76
$GAGSV,3,2,10,11,33,180,29,33,25,042,28,31,19,115,27,03,12,274,11,7*71
$GAGSV,3,3,10,08,11,323,26,02,02,296,19,7*79
$GAGSV,2,1,06,24,71,110,25,12,60,105,23,10,54,152,26,25,52,298,25,1*71
$GAGSV,2,2,06,33,25,042,18,08,11,323,17,1*77
$GBGSV,3,1,10,35,75,199,33,26,71,224,30,29,39,057,28,24,36,305,28,1*73
$GBGSV,3,2,10,44,28,226,26,45,28,152,23,39,12,330,18,12,05,225,15,1*75
$GBGSV,3,3,10,32,03,028,16,16,03,335,,1*79
$GBGSV,2,1,07,35,75,199,25,26,71,224,25,29,39,057,19,24,36,305,24,5*7D
$GBGSV,2,2,07,44,28,226,20,45,28,152,20,39,12,330,16,5*4A
$GNGLL,4910.419744,N,12304.400538,W,004731.000,A,D*58
$PAIR010,0,1,2348,348469*33
$GNRMC,004732.000,A,4910.419822,N,12304.400526,W,0.02,237.02,090125,,,D,V*1F
$GNGGA,004732.000,4910.419822,N,12304.400526,W,2,47,0.52,15.964,M,-16.816,M,,*76
$GNVTG,237.02,T,,M,0.02,N,0.03,K,D*23
$GNGSA,A,3,12,06,11,19,24,25,17,03,32,,,,0.91,0.52,0.74,1*05
$GNGSA,A,3,86,77,76,87,85,,,,,,,,0.91,0.52,0.74,2*03
$GNGSA,A,3,24,12,10,25,11,33,31,03,08,,,,0.91,0.52,0.74,3*05
$GNGSA,A,3,35,26,29,24,44,45,39,,,,,,0.91,0.52,0.74,4*0C
$GPGSV,3,1,11,12,62,299,39,06,61,097,39,11,48,166,36,19,46,063,37,1*6F
$GPGSV,3,2,11,24,41,220,34,46,33,188,34,25,22,299,32,17,17,066,21,1*62
$GPGSV,3,3,11,03,09,028,27,32,08,313,30,20,03,152,17,1*5B
$GPGSV,1,1,04,06,61,097,29,11,48,166,25,24,41,220,27,25,22,299,24,8*62
$GLGSV,2,1,08,86,71,053,20,77,65,318,22,76,63,139,29,87,54,207,24,1*7F
$GLGSV,2,2,08,85,16,037,17,69,10,003,22,68,07,317,16,75,05,139,16,1*75
$GAGSV,3,1,10,24,71,110,37,12,60,105,33,10,54,152,33,25,52,298,35,7*76
$GAGSV,3,2,10,11,33,180,29,33,24,041,28,31,19,115,27,03,12,274,11,7*73
$GAGSV,3,3,10,08,11,323,26,02,02,296,19,7*79
$GAGSV,2,1,06,24,71,110,25,12,60,105,23,10,54,152,27,25,52,298,25,1*70
$GAGSV,2,2,06,33,24,041,18,08,11,323,17,1*75
$GBGSV,3,1,10,35,75,199,33,26,71,224,30,29,39,057,28,24,36,305,28,1*73
$GBGSV,3,2,10,44,28,226,26,45,28,152,23,39,12,330,18,12,05,225,16,1*76
$GBGSV,3,3,10,32,03,028,16,16,03,335,,1*79
$GBGSV,2,1,07,35,75,199,25,26,71,224,25,29,39,057,19,24,36,305,24,5*7D
$GBGSV,2,2,07,44,28,226,19,45,28,152,20,39,12,330,16,5*40
$GNGLL,4910.419822,N,12304.400526,W,004732.000,A,D*5B
$GNRMC,004733.000,A,4910.419798,N,12304.400580,W,0.01,237.02,090125,,,D,V*1F
$GNGGA,004733.000,4910.419798,N,12304.400580,W,2,47,0.52,16.012,M,-16.816,M,,*7E
$GNVTG,237.02,T,,M,0.01,N,0.03,K,D*20
$GNGSA,A,3,12,06,11,19,24,25,17,03,32,,,,0.91,0.52,0.74,1*05
$GNGSA,A,3,86,77,76,87,85,,,,,,,,0.91,0.52,0.74,2*03
$GNGSA,A,3,24,12,10,25,11,33,31,03,08,,,,0.91,0.52,0.74,3*05
$GNGSA,A,3,35,26,29,24,44,45,39,,,,,,0.91,0.52,0.74,4*0C
$GPGSV,3,1,11,12,62,299,39,06,61,097,39,11,48,166,36,19,46,063,37,1*6F
$GPGSV,3,2,11,24,41,220,34,46,33,188,35,25,22,299,32,17,17,066,22,1*60
$GPGSV,3,3,11,03,09,028,27,32,08,313,30,20,03,152,17,1*5B
$GPGSV,1,1,04,06,61,097,29,11,48,166,25,24,41,220,27,25,22,299,24,8*62
$GLGSV,2,1,08,86,71,053,20,77,65,318,22,76,63,139,29,87,54,207,24,1*7F
$GLGSV,2,2,08,85,16,037,17,69,10,003,21,68,07,317,16,75,05,139,16,1*76
$GAGSV,3,1,10,24,71,110,37,12,60,105,33,10,54,152,33,25,52,298,35,7*76
$GAGSV,3,2,10,11,33,180,29,33,24,041,28,31,19,115,27,03,12,274,11,7*73
$GAGSV,3,3,10,08,11,323,26,02,02,296,20,7*73
$GAGSV,2,1,06,24,71,110,25,12,60,105,23,10,54,152,27,25,52,298,25,1*70
$GAGSV,2,2,06,33,24,041,18,08,11,323,17,1*75
$GBGSV,3,1,10,35,75,199,33,26,71,224,30,29,39,057,28,24,36,305,28,1*73
$GBGSV,3,2,10,44,28,226,26,45,28,152,23,39,12,330,18,12,05,225,16,1*76
$GBGSV,3,3,10,32,03,028,16,16,03,335,,1*79
$GBGSV,2,1,07,35,75,199,25,26,71,224,25,29,39,057,19,24,36,305,24,5*7D
$GBGSV,2,2,07,44,28,226,19,45,28,152,19,39,12,330,16,5*4A
$GNGLL,4910.419798,N,12304.400580,W,004733.000,A,D*58
$GNRMC,004734.000,A,4910.419870,N,12304.400616,W,0.01,237.02,090125,,,D,V*1D
$GNGGA,004734.000,4910.419870,N,12304.400616,W,2,47,0.52,16.230,M,-16.816,M,,*7E
$GNVTG,237.02,T,,M,0.01,N,0.02,K,D*21
$GNGSA,A,3,12,06,11,19,24,25,17,03,32,,,,0.91,0.52,0.74,1*05
$GNGSA,A,3,86,77,76,87,85,,,,,,,,0.91,0.52,0.74,2*03
$GNGSA,A,3,24,12,10,25,11,33,31,03,08,,,,0.91,0.52,0.74,3*05
$GNGSA,A,3,35,26,29,24,44,45,39,,,,,,0.91,0.52,0.74,4*0C
$GPGSV,3,1,11,12,62,299,39,06,61,097,39,11,48,166,36,19,46,063,37,1*6F
$GPGSV,3,2,11,24,41,220,34,46,33,188,35,25,22,299,33,17,17,066,22,1*61
$GPGSV,3,3,11,03,09,028,27,32,08,313,30,20,03,152,18,1*54
$GPGSV,1,1,04,06,61,097,29,11,48,166,25,24,41,220,27,25,22,299,24,8*62
$GLGSV,2,1,08,86,71,053,20,77,65,318,22,76,63,139,29,87,54,207,24,1*7F
$GLGSV,2,2,08,85,16,037,17,69,10,003,21,68,07,317,16,75,05,139,16,1*76
$GAGSV,3,1,10,24,71,110,37,12,60,105,33,10,54,152,33,25,52,298,35,7*76
$GAGSV,3,2,10,11,33,180,29,33,24,041,28,31,19,115,27,03,12,274,12,7*70
$GAGSV,3,3,10,08,11,323,26,02,02,296,20,7*73
$GAGSV,2,1,06,24,71,110,25,12,60,105,23,10,54,152,27,25,52,298,25,1*70
$GAGSV,2,2,06,33,24,041,18,08,11,323,17,1*75
$GBGSV,3,1,10,35,75,199,33,26,71,224,30,29,39,057,28,24,36,305,28,1*73
$GBGSV,3,2,10,44,28,226,26,45,28,152,23,39,12,330,18,12,05,225,16,1*76
$GBGSV,3,3,10,32,03,028,16,16,03,335,,1*79
$GBGSV,2,1,07,35,75,199,26,26,71,224,25,29,39,057,19,24,36,305,25,5*7F
$GBGSV,2,2,07,44,28,226,20,45,28,152,19,39,12,330,16,5*40
$GNGLL,4910.419870,N,12304.400616,W,004734.000,A,D*5A
$GNRMC,004735.000,A,4910.419918,N,12304.400652,W,0.01,237.02,090125,,,D,V*13
$GNGGA,004735.000,4910.419918,N,12304.400652,W,2,47,0.52,16.523,M,-16.816,M,,*75
$GNVTG,237.02,T,,M,0.01,N,0.02,K,D*21
$GNGSA,A,3,12,06,11,19,24,25,17,03,32,,,,0.91,0.52,0.74,1*05
$GNGSA,A,3,86,77,76,87,85,,,,,,,,0.91,0.52,0.74,2*03
$GNGSA,A,3,24,12,10,25,11,33,31,03,08,,,,0.91,0.52,0.74,3*05
$GNGSA,A,3,35,26,29,24,44,45,39,,,,,,0.91,0.52,0.74,4*0C
$GPGSV,3,1,11,12,62,299,39,06,61,097,39,11,48,166,36,19,46,063,37,1*6F
$GPGSV,3,2,11,24,41,220,34,46,33,188,35,25,22,299,33,17,17,066,21,1*62
$GPGSV,3,3,11,03,09,028,27,32,08,313,30,20,03,152,18,1*54
$GPGSV,1,1,04,06,61,097,29,11,48,166,25,24,41,220,27,25,22,299,24,8*62
$GLGSV,2,1,08,86,71,053,20,77,65,318,22,76,63,139,29,87,54,207,24,1*7F
$GLGSV,2,2,08,85,16,037,17,69,10,003,21,68,07,317,16,75,05,139,16,1*76
$GAGSV,3,1,10,24,71,110,37,12,60,105,33,10,54,152,34,25,52,298,35,7*71
$GAGSV,3,2,10,11,33,180,29,33,24,041,29,31,19,115,28,03,12,274,12,7*7E
$GAGSV,3,3,10,08,11,323,26,02,02,296,20,7*73
$GAGSV,2,1,06,24,71,110,25,12,60,105,23,10,54,152,27,25,52,298,25,1*70
$GAGSV,2,2,06,33,24,041,18,08,11,323,17,1*75
$GBGSV,3,1,10,35,75,199,33,26,71,224,30,29,39,057,28,24,36,305,28,1*73
$GBGSV,3,2,10,44,28,226,26,45,28,152,23,39,12,330,18,12,05,225,15,1*75
$GBGSV,3,3,10,32,03,028,16,16,03,335,,1*79
$GBGSV,2,1,07,35,75,199,26,26,71,224,25,29,39,057,20,24,36,305,25,5*75
$GBGSV,2,2,07,44,28,226,20,45,28,152,19,39,12,330,16,5*40
$GNGLL,4910.419918,N,12304.400652,W,004735.000,A,D*54
$GNRMC,004736.000,A,4910.419906,N,12304.400706,W,0.01,237.02,090125,,,D,V*1F
$GNGGA,004736.000,4910.419906,N,12304.400706,W,2,47,0.52,16.506,M,-16.816,M,,*7E
$GNVTG,237.02,T,,M,0.01,N,0.01,K,D*22
$GNGSA,A,3,12,06,11,19,24,25,17,03,32,,,,0.91,0.52,0.74,1*05
$GNGSA,A,3,86,77,76,87,85,,,,,,,,0.91,0.52,0.74,2*03
$GNGSA,A,3,24,12,10,25,11,33,31,03,08,,,,0.91,0.52,0.74,3*05
$GNGSA,A,3,35,26,29,24,44,45,39,,,,,,0.91,0.52,0.74,4*0C
$GPGSV,3,1,11,12,62,299,39,06,61,097,39,11,48,166,36,19,46,063,37,1*6F
$GPGSV,3,2,11,24,41,220,34,46,33,188,35,25,22,299,33,17,17,066,23,1*60
$GPGSV,3,3,11,03,09,028,27,32,08,313,30,20,03,152,19,1*55
$GPGSV,1,1,04,06,61,097,29,11,48,166,26,24,41,220,27,25,22,299,24,8*61
$GLGSV,2,1,08,86,71,053,20,77,65,318,22,76,63,139,29,87,54,207,24,1*7F
$GLGSV,2,2,08,85,16,037,17,69,10,003,21,68,07,317,16,75,05,139,16,1*76
$GAGSV,3,1,10,24,71,110,37,12,60,105,33,10,54,152,34,25,52,298,35,7*71
$GAGSV,3,2,10,11,33,180,29,33,24,041,29,31,19,115,28,03,12,274,12,7*7E
$GAGSV,3,3,10,08,11,323,26,02,02,296,20,7*73
$GAGSV,2,1,06,24,71,110,25,12,60,105,23,10,54,152,27,25,52,298,25,1*70
$GAGSV,2,2,06,33,24,041,18,08,11,323,17,1*75
$GBGSV,3,1,10,35,75,199,33,26,71,224,30,29,39,057,28,24,36,305,28,1*73
$GBGSV,3,2,10,44,28,226,26,45,28,152,23,39,12,330,18,12,05,225,15,1*75
$GBGSV,3,3,10,32,03,028,16,16,03,335,,1*79
$GBGSV,2,1,07,35,75,199,26,26,71,224,25,29,39,057,20,24,36,305,25,5*75
$GBGSV,2,2,07,44,28,226,20,45,28,152,19,39,12,330,16,5*40
$GNGLL,4910.419906,N,12304.400706,W,004736.000,A,D*58
$GNRMC,004737.000,A,4910.420008,N,12304.400784,W,0.01,237.02,090125,,,D,V*19
$GNGGA,004737.000,4910.420008,N,12304.400784,W,2,47,0.52,16.632,M,-16.817,M,,*7D
$GNVTG,237.02,T,,M,0.01,N,0.02,K,D*21
$GNGSA,A,3,12,06,11,19,24,25,17,03,32,,,,0.91,0.52,0.74,1*05
$GNGSA,A,3,86,77,76,87,85,,,,,,,,0.91,0.52,0.74,2*03
$GNGSA,A,3,24,12,10,25,11,33,31,03,08,,,,0.91,0.52,0.74,3*05
$GNGSA,A,3,35,26,29,24,44,45,39,,,,,,0.91,0.52,0.74,4*0C
$GPGSV,3,1,11,12,62,299,39,06,61,097,39,11,48,166,36,19,46,063,37,1*6F
$GPGSV,3,2,11,24,41,220,34,46,33,188,35,25,22,299,33,17,17,066,22,1*61
$GPGSV,3,3,11,03,09,028,27,32,08,313,30,20,03,152,19,1*55
$GPGSV,1,1,04,06,61,097,29,11,48,166,26,24,41,220,27,25,22,299,24,8*61
$GLGSV,2,1,08,86,71,053,20,77,65,318,22,76,63,139,29,87,54,207,24,1*7F
$GLGSV,2,2,08,85,16,037,17,69,10,003,21,68,07,317,16,75,05,139,16,1*76
$GAGSV,3,1,10,24,71,110,37,12,60,105,33,10,54,152,34,25,52,298,35,7*71
$GAGSV,3,2,10,11,33,180,29,33,24,041,29,31,19,115,28,03,12,274,12,7*7E
$GAGSV,3,3,10,08,11,323,26,02,02,296,21,7*72
$GAGSV,2,1,06,24,71,110,25,12,60,105,23,10,54,152,27,25,52,298,25,1*70
$GAGSV,2,2,06,33,24,041,18,08,11,323,17,1*75
$GBGSV,3,1,10,35,75,199,33,26,71,224,30,29,39,057,28,24,36,305,28,1*73
$GBGSV,3,2,10,44,28,226,26,45,28,152,23,39,12,330,18,12,05,225,15,1*75
$GBGSV,3,3,10,32,03,028,16,16,03,335,,1*79
$GBGSV,2,1,07,35,75,199,26,26,71,224,25,29,39,057,20,24,36,305,25,5*75
$GBGSV,2,2,07,44,28,226,20,45,28,152,19,39,12,330,16,5*40
$GNGLL,4910.420008,N,12304.400784,W,004737.000,A,D*5E
$GNRMC,004738.000,A,4910.420098,N,12304.400880,W,0.01,237.02,090125,,,D,V*14
$GNGGA,004738.000,4910.420098,N,12304.400880,W,2,47,0.52,16.779,M,-16.816,M,,*7F
$GNVTG,237.02,T,,M,0.01,N,0.02,K,D*21
$GNGSA,A,3,12,06,11,19,24,25,17,03,32,,,,0.91,0.52,0.74,1*05
$GNGSA,A,3,86,77,76,87,85,,,,,,,,0.91,0.52,0.74,2*03
$GNGSA,A,3,24,12,10,25,11,33,31,03,08,,,,0.91,0.52,0.74,3*05
$GNGSA,A,3,35,26,29,24,44,45,39,,,,,,0.91,0.52,0.74,4*0C
$GPGSV,3,1,11,12,62,299,39,06,61,097,39,11,48,166,36,19,46,063,37,1*6F
$GPGSV,3,2,11,24,41,220,34,46,33,188,35,25,22,299,33,17,17,066,21,1*62
$GPGSV,3,3,11,03,09,028,27,32,08,313,30,20,03,152,19,1*55
$GPGSV,1,1,04,06,61,097,29,11,48,166,26,24,41,220,27,25,22,299,24,8*61
$GLGSV,2,1,08,86,71,053,20,77,65,318,22,76,63,139,29,87,54,207,24,1*7F
$GLGSV,2,2,08,85,16,037,16,69,10,003,21,68,07,317,16,75,05,139,17,1*76
$GAGSV,3,1,10,24,71,110,37,12,60,105,32,10,54,152,34,25,52,298,35,7*70
$GAGSV,3,2,10,11,33,180,29,33,24,041,29,31,19,115,28,03,12,274,12,7*7E
$GAGSV,3,3,10,08,11,323,26,02,02,296,21,7*72
$GAGSV,2,1,06,24,71,110,25,12,60,105,23,10,54,152,27,25,52,298,25,1*70
$GAGSV,2,2,06,33,24,041,18,08,11,323,17,1*75
$GBGSV,3,1,10,35,75,199,33,26,71,224,30,29,39,057,28,24,36,305,28,1*73
$GBGSV,3,2,10,44,28,226,26,45,28,152,23,39,12,330,18,12,05,225,15,1*75
$GBGSV,3,3,10,32,03,028,16,16,03,335,,1*79
$GBGSV,2,1,07,35,75,199,26,26,71,224,25,29,39,057,20,24,36,305,25,5*75
$GBGSV,2,2,07,44,28,226,20,45,28,152,19,39,12,330,16,5*40
$GNGLL,4910.420098,N,12304.400880,W,004738.000,A,D*53
$GNRMC,004739.000,A,4910.420056,N,12304.401024,W,0.01,237.02,090125,,,D,V*10
$GNGGA,004739.000,4910.420056,N,12304.401024,W,2,47,0.52,16.778,M,-16.816,M,,*7A
$GNVTG,237.02,T,,M,0.01,N,0.03,K,D*20
$GNGSA,A,3,12,06,11,19,24,25,17,03,32,,,,0.91,0.52,0.74,1*05
$GNGSA,A,3,86,77,76,87,85,,,,,,,,0.91,0.52,0.74,2*03
$GNGSA,A,3,24,12,10,25,11,33,31,03,08,,,,0.91,0.52,0.74,3*05
$GNGSA,A,3,35,26,29,24,44,45,39,,,,,,0.91,0.52,0.74,4*0C
$GPGSV,3,1,11,12,62,299,39,06,61,097,39,11,48,166,36,19,46,063,37,1*6F
$GPGSV,3,2,11,24,41,220,34,46,33,188,35,25,22,299,33,17,17,066,20,1*63
$GPGSV,3,3,11,03,09,028,27,32,08,313,30,20,03,152,19,1*55
$GPGSV,1,1,04,06,61,097,29,11,48,166,26,24,41,220,27,25,22,299,24,8*61
$GLGSV,3,1,09,86,71,053,20,77,65,318,23,76,63,139,29,87,54,207,24,1*7E
$GLGSV,3,2,09,85,16,037,16,69,10,003,21,78,06,319,,68,06,316,16,1*7E
$GLGSV,3,3,09,75,05,139,18,1*44
$GAGSV,3,1,10,24,71,110,37,12,60,105,32,10,54,152,34,25,52,298,35,7*70
$GAGSV,3,2,10,11,33,180,29,33,24,041,29,31,19,115,28,03,12,274,12,7*7E
$GAGSV,3,3,10,08,11,323,26,02,02,296,21,7*72
$GAGSV,2,1,06,24,71,110,25,12,60,105,23,10,54,152,27,25,52,298,25,1*70
$GAGSV,2,2,06,33,24,041,18,08,11,323,17,1*75
$GBGSV,3,1,10,35,75,199,33,26,71,224,30,29,39,057,28,24,36,305,28,1*73
$GBGSV,3,2,10,44,28,226,26,45,28,152,23,39,12,330,18,12,05,225,15,1*75
$GBGSV,3,3,10,32,03,028,15,16,03,335,,1*7A
$GBGSV,2,1,07,35,75,199,25,26,71,224,25,29,39,057,20,24,36,305,25,5*76
$GBGSV,2,2,07,44,28,226,20,45,28,152,19,39,12,330,16,5*40
$GNGLL,4910.420056,N,12304.401024,W,004739.000,A,D*57
$GNRMC,004740.000,A,4910.420128,N,12304.401108,W,0.01,237.02,090125,,,D,V*19
$GNGGA,004740.000,4910.420128,N,12304.401108,W,2,47,0.52,16.840,M,-16.816,M,,*77
$GNVTG,237.02,T,,M,0.01,N,0.03,K,D*20
$GNGSA,A,3,12,06,11,19,24,25,17,03,32,,,,0.91,0.52,0.74,1*05
$GNGSA,A,3,86,77,76,87,85,,,,,,,,0.91,0.52,0.74,2*03
$GNGSA,A,3,24,12,10,25,11,33,31,03,08,,,,0.91,0.52,0.74,3*05
$GNGSA,A,3,35,26,29,24,44,45,39,,,,,,0.91,0.52,0.74,4*0C
$GPGSV,3,1,11,12,62,299,39,06,61,097,39,11,48,166,36,19,46,063,37,1*6F
$GPGSV,3,2,11,24,41,220,34,46,33,188,35,25,22,299,33,17,17,066,21,1*62
$GPGSV,3,3,11,03,09,028,27,32,08,313,30,20,03,152,19,1*55
$GPGSV,1,1,04,06,61,097,29,11,48,166,26,24,41,220,27,25,22,299,24,8*61
$GLGSV,2,1,08,86,71,053,20,77,65,318,23,76,63,139,29,87,54,207,24,1*7E
$GLGSV,2,2,08,85,16,037,16,69,10,002,20,68,06,316,16,75,05,139,18,1*79
$GAGSV,3,1,10,24,71,110,37,12,60,105,32,10,54,152,34,25,52,298,35,7*70
$GAGSV,3,2,10,11,33,180,29,33,24,041,29,31,19,115,28,03,12,274,12,7*7E
$GAGSV,3,3,10,08,11,323,27,02,02,296,21,7*73
$GAGSV,2,1,06,24,71,110,25,12,60,105,23,10,54,152,27,25,52,298,25,1*70
$GAGSV,2,2,06,33,24,041,18,08,11,323,17,1*75
$GBGSV,3,1,10,35,75,199,33,26,71,224,30,29,39,057,28,24,36,305,28,1*73
$GBGSV,3,2,10,44,28,226,26,45,28,152,25,39,12,330,18,12,05,225,15,1*73
$GBGSV,3,3,10,32,03,028,15,16,03,335,,1*7A
$GBGSV,2,1,07,35,75,199,25,26,71,224,25,29,39,057,20,24,36,305,25,5*76
$GBGSV,2,2,07,44,28,226,20,45,28,152,19,39,12,330,16,5*40
$GNGLL,4910.420128,N,12304.401108,W,004740.000,A,D*5E
$GNRMC,004741.000,A,4910.420200,N,12304.401186,W,0.01,237.02,090125,,,D,V*17
$GNGGA,004741.000,4910.420200,N,12304.401186,W,2,47,0.52,17.073,M,-16.816,M,,*70
$GNVTG,237.02,T,,M,0.01,N,0.03,K,D*20
$GNGSA,A,3,12,06,11,19,24,25,17,03,32,,,,0.90,0.52,0.73,1*03
$GNGSA,A,3,86,77,76,87,85,,,,,,,,0.90,0.52,0.73,2*05
$GNGSA,A,3,24,12,10,25,11,33,31,03,08,,,,0.90,0.52,0.73,3*03
$GNGSA,A,3,35,26,29,24,44,45,39,,,,,,0.90,0.52,0.73,4*0A
$GPGSV,3,1,11,12,62,299,39,06,61,097,39,11,48,166,36,19,46,063,37,1*6F
$GPGSV,3,2,11,24,41,220,34,46,33,188,35,25,22,299,33,17,17,066,23,1*60
$GPGSV,3,3,11,03,09,028,27,32,08,313,30,20,03,152,20,1*5F
$GPGSV,1,1,04,06,61,097,29,11,48,166,26,24,41,220,27,25,22,299,24,8*61
$GLGSV,2,1,08,86,71,053,20,77,65,318,23,76,63,139,29,87,54,207,24,1*7E
$GLGSV,2,2,08,85,16,037,16,69,10,002,20,68,06,316,16,75,05,139,18,1*79
$GAGSV,3,1,10,24,71,110,37,12,60,105,32,10,54,152,34,25,52,298,35,7*70
$GAGSV,3,2,10,11,33,180,29,33,24,041,29,31,19,115,28,03,12,274,12,7*7E
$GAGSV,3,3,10,08,11,323,27,02,02,296,21,7*73
$GAGSV,2,1,06,24,71,110,25,12,60,105,23,10,54,152,27,25,52,298,25,1*70
$GAGSV,2,2,06,33,24,041,18,08,11,323,17,1*75
$GBGSV,3,1,10,35,75,199,33,26,71,224,30,29,39,057,28,24,36,305,28,1*73
$GBGSV,3,2,10,44,28,226,25,45,28,152,23,39,12,330,17,12,05,225,14,1*78
$GBGSV,3,3,10,32,03,028,16,16,03,335,,1*79
$GBGSV,2,1,07,35,75,199,25,26,71,224,25,29,39,057,20,24,36,305,25,5*76
$GBGSV,2,2,07,44,28,226,20,45,28,152,19,39,12,330,16,5*40
$GNGLL,4910.420200,N,12304.401186,W,004741.000,A,D*50
$GNRMC,004742.000,A,4910.420290,N,12304.401246,W,0.02,237.02,090125,,,D,V*11
$GNGGA,004742.000,4910.420290,N,12304.401246,W,2,47,0.52,17.406,M,-16.817,M,,*72
$GNVTG,237.02,T,,M,0.02,N,0.03,K,D*23
$GNGSA,A,3,12,06,11,19,24,25,17,03,32,,,,0.90,0.52,0.73,1*03
$GNGSA,A,3,86,77,76,87,85,,,,,,,,0.90,0.52,0.73,2*05
$GNGSA,A,3,24,12,10,25,11,33,31,03,08,,,,0.90,0.52,0.73,3*03
$GNGSA,A,3,35,26,29,24,44,45,39,,,,,,0.90,0.52,0.73,4*0A
$GPGSV,3,1,11,12,62,299,39,06,61,097,39,11,48,166,36,19,46,063,37,1*6F
$GPGSV,3,2,11,24,41,220,34,46,33,188,35,25,22,299,33,17,17,066,22,1*61
$GPGSV,3,3,11,03,09,028,27,32,08,313,30,20,03,152,21,1*5E
$GPGSV,1,1,04,06,61,097,29,11,48,166,26,24,41,220,27,25,22,299,24,8*61
$GLGSV,3,1,09,86,71,053,20,77,65,318,23,76,63,139,29,87,54,207,24,1*7E
$GLGSV,3,2,09,85,16,037,16,69,10,002,20,78,06,319,,68,06,316,16,1*7E
$GLGSV,3,3,09,75,05,139,18,1*44
$GAGSV,3,1,10,24,71,110,37,12,60,105,32,10,54,152,34,25,52,298,35,7*70
$GAGSV,3,2,10,11,33,180,29,33,24,041,29,31,19,115,28,03,12,274,12,7*7E
$GAGSV,3,3,10,08,11,323,27,02,02,296,21,7*73
$GAGSV,2,1,06,24,71,110,25,12,60,105,23,10,54,152,27,25,52,298,25,1*70
$GAGSV,2,2,06,33,24,041,18,08,11,323,17,1*75
$GBGSV,3,1,10,35,75,199,33,26,71,224,29,29,39,057,28,24,36,305,28,1*7B
$GBGSV,3,2,10,44,28,226,24,45,28,152,22,39,12,330,17,12,05,225,14,1*78
$GBGSV,3,3,10,32,03,028,16,16,03,335,,1*79
$GBGSV,2,1,07,35,75,199,25,26,71,224,25,29,39,057,20,24,36,305,25,5*76
$GBGSV,2,2,07,44,28,226,20,45,28,152,19,39,12,330,16,5*40
$GNGLL,4910.420290,N,12304.401246,W,004742.000,A,D*55
$GNRMC,004743.000,A,4910.420236,N,12304.401456,W,0.02,237.02,090125,,,D,V*1B
$GNGGA,004743.000,4910.420236,N,12304.401456,W,2,47,0.52,17.278,M,-16.816,M,,*76
$GNVTG,237.02,T,,M,0.02,N,0.04,K,D*24
$GNGSA,A,3,12,06,11,19,24,25,17,03,32,,,,0.90,0.52,0.73,1*03
$GNGSA,A,3,86,77,76,87,85,,,,,,,,0.90,0.52,0.73,2*05
$GNGSA,A,3,24,12,10,25,11,33,31,03,08,,,,0.90,0.52,0.73,3*03
$GNGSA,A,3,35,26,29,24,44,45,39,,,,,,0.90,0.52,0.73,4*0A
$GPGSV,3,1,11,12,62,299,39,06,61,097,39,11,48,166,36,19,46,063,37,1*6F
$GPGSV,3,2,11,24,41,220,35,46,33,188,35,25,22,299,33,17,17,066,23,1*61
$GPGSV,3,3,11,03,09,028,27,32,08,313,30,20,03,152,21,1*5E
$GPGSV,1,1,04,06,61,097,29,11,48,166,26,24,41,220,27,25,22,299,24,8*61
$GLGSV,2,1,08,86,71,053,21,77,65,318,23,76,63,139,29,87,54,207,24,1*7F
$GLGSV,2,2,08,85,16,037,16,69,10,002,20,68,06,316,16,75,05,139,18,1*79
