$GNGGA,004704.000,4910.429014,N,12304.398234,W,2,31,0.52,0.882,M,-16.816,M,,*43
$GNGLL,4910.429014,N,12304.398234,W,004704.000,A,D*52
$GNGSA,A,3,12,06,11,19,24,25,17,03,32,,,,0.92,0.52,0.75,1*07
$GNGSA,A,3,86,76,87,85,69,68,,,,,,,0.92,0.52,0.75,2*00
$GNGSA,A,3,24,12,10,25,11,33,31,03,08,,,,0.92,0.52,0.75,3*07
$GNGSA,A,3,35,26,29,24,44,45,39,,,,,,0.92,0.52,0.75,4*0E
$GPGSV,3,1,11,12,63,299,31,06,61,097,29,11,48,166,29,19,46,063,29,1*66
$GPGSV,3,2,11,24,41,220,27,46,33,188,29,25,22,299,24,17,17,067,20,1*6B
$GPGSV,3,3,11,03,09,027,18,32,08,313,20,20,03,152,17,1*59
$GLGSV,2,1,07,86,71,052,36,76,62,140,34,87,55,208,33,85,15,037,26,1*7D
$GLGSV,2,2,07,69,10,003,27,78,07,319,,68,06,317,24,1*4F
$GAGSV,3,1,10,24,72,109,30,12,60,105,26,10,54,152,27,25,52,298,29,7*76
$GAGSV,3,2,10,11,33,180,23,33,24,041,23,31,19,114,24,03,12,274,13,7*72
$GAGSV,3,3,10,08,11,323,21,02,02,296,16,7*71
$GBGSV,3,1,10,35,76,199,35,26,71,223,31,29,38,057,28,24,36,305,30,1*78
$GBGSV,3,2,10,44,28,226,27,45,28,152,25,39,12,330,22,12,05,225,15,1*7B
$GBGSV,3,3,10,16,03,335,12,32,03,027,14,1*77
$GNRMC,004704.000,A,4910.429014,N,12304.398234,W,0.03,329.93,090125,,,D,V*11
$GNVTG,329.93,T,,M,0.03,N,0.05,K,D*22
$PAIRLOG,Full*51
$GNGGA,004705.000,4910.428990,N,12304.398168,W,2,31,0.52,0.597,M,-16.816,M,,*45
$GNGLL,4910.428990,N,12304.398168,W,004705.000,A,D*5D
$GNGSA,A,3,12,06,11,19,24,25,17,03,32,,,,0.92,0.52,0.75,1*07
$GNGSA,A,3,86,76,87,85,69,68,,,,,,,0.92,0.52,0.75,2*00
$GNGSA,A,3,24,12,10,25,11,33,31,03,08,,,,0.92,0.52,0.75,3*07
$GNGSA,A,3,35,26,29,24,44,45,39,,,,,,0.92,0.52,0.75,4*0E
$GPGSV,3,1,11,12,63,299,31,06,61,097,29,11,48,166,29,19,46,063,29,1*66
$GPGSV,3,2,11,24,41,220,25,46,33,188,29,25,22,299,24,17,17,067,20,1*69
$GPGSV,3,3,11,03,09,027,18,32,08,313,19,20,03,152,17,1*53
$GLGSV,2,1,07,86,71,052,36,76,62,140,33,87,55,208,33,85,15,037,26,1*7A
$GLGSV,2,2,07,69,10,003,27,78,07,319,,68,06,317,24,1*4F
$GAGSV,3,1,10,24,72,109,29,12,60,105,26,10,54,152,26,25,52,298,29,7*7F
$GAGSV,3,2,10,11,33,180,22,33,24,041,22,31,19,114,24,03,12,274,13,7*72
$GAGSV,3,3,10,08,11,323,21,02,02,296,16,7*71
$GBGSV,3,1,10,35,76,199,34,26,71,223,31,29,38,057,28,24,36,305,30,1*79
$GBGSV,3,2,10,44,28,226,26,45,28,152,24,39,12,330,21,12,05,225,14,1*79
$GBGSV,3,3,10,16,03,335,12,32,03,027,14,1*77
$GNRMC,004705.000,A,4910.428990,N,12304.398168,W,0.03,329.93,090125,,,D,V*1E
$GNVTG,329.93,T,,M,0.03,N,0.05,K,D*22
$PAIRLOG,Full*51
$GNGGA,004706.000,4910.428996,N,12304.398132,W,2,31,0.52,0.413,M,-16.816,M,,*42
$GNGLL,4910.428996,N,12304.398132,W,004706.000,A,D*57
$GNGSA,A,3,12,06,11,19,24,25,17,03,32,,,,0.92,0.52,0.75,1*07
$GNGSA,A,3,86,76,87,85,69,68,,,,,,,0.92,0.52,0.75,2*00
$GNGSA,A,3,24,12,10,25,11,33,31,03,08,,,,0.92,0.52,0.75,3*07
$GNGSA,A,3,35,26,29,24,44,45,39,,,,,,0.92,0.52,0.75,4*0E
$GPGSV,3,1,11,12,63,299,30,06,61,097,28,11,48,166,28,19,46,063,29,1*67
$GPGSV,3,2,11,24,41,220,25,46,33,188,29,25,22,299,24,17,17,067,20,1*69
$GPGSV,3,3,11,03,09,027,18,32,08,313,19,20,03,152,17,1*53
$GLGSV,2,1,07,86,71,052,36,76,62,140,32,87,55,208,32,85,15,037,26,1*7A
$GLGSV,2,2,07,69,10,003,27,78,07,319,,68,06,317,24,1*4F
$GAGSV,3,1,10,24,72,109,29,12,60,105,26,10,54,152,26,25,52,298,29,7*7F
$GAGSV,3,2,10,11,33,180,22,33,24,041,22,31,19,114,24,03,12,274,13,7*72
$GAGSV,3,3,10,08,11,323,21,02,02,296,16,7*71
$GBGSV,3,1,10,35,76,199,34,26,71,223,31,29,38,057,27,24,36,305,30,1*76
$GBGSV,3,2,10,44,28,226,26,45,28,152,24,39,12,330,21,12,05,225,14,1*79
$GBGSV,3,3,10,16,03,335,12,32,03,027,14,1*77
$GNRMC,004706.000,A,4910.428996,N,12304.398132,W,0.02,329.93,090125,,,D,V*15
$GNVTG,329.93,T,,M,0.02,N,0.04,K,D*22
$PAIRLOG,Full*51
$GNGGA,004707.000,4910.428960,N,12304.398102,W,2,31,0.52,0.113,M,-16.816,M,,*4C
$GNGLL,4910.428960,N,12304.398102,W,004707.000,A,D*5C
$GNGSA,A,3,12,06,11,19,24,25,17,03,32,,,,0.92,0.52,0.75,1*07
$GNGSA,A,3,86,76,87,85,69,68,,,,,,,0.92,0.52,0.75,2*00
$GNGSA,A,3,24,12,10,25,11,33,31,03,08,,,,0.92,0.52,0.75,3*07
$GNGSA,A,3,35,26,29,24,44,45,39,,,,,,0.92,0.52,0.75,4*0E
$GPGSV,3,1,11,12,63,299,30,06,61,097,28,11,48,166,28,19,46,063,29,1*67
$GPGSV,3,2,11,24,41,220,26,46,33,188,29,25,22,299,23,17,17,067,19,1*67
$GPGSV,3,3,11,03,09,027,18,32,08,313,19,20,03,152,17,1*53
$GLGSV,2,1,07,86,71,052,36,76,62,140,32,87,55,208,32,85,15,037,26,1*7A
$GLGSV,2,2,07,69,10,003,27,78,07,319,,68,06,317,23,1*48
$GAGSV,3,1,10,24,72,109,29,12,60,105,26,10,54,152,26,25,52,298,29,7*7F
$GAGSV,3,2,10,11,33,180,22,33,24,041,22,31,19,114,24,03,12,274,13,7*72
$GAGSV,3,3,10,08,11,323,21,02,02,296,16,7*71
$GBGSV,3,1,10,35,76,199,34,26,71,223,31,29,38,057,28,24,36,305,30,1*79
$GBGSV,3,2,10,44,28,226,26,45,28,152,24,39,12,330,21,12,05,225,14,1*79
$GBGSV,3,3,10,16,03,335,12,32,03,027,14,1*77
$GNRMC,004707.000,A,4910.428960,N,12304.398102,W,0.02,329.93,090125,,,D,V*1E
$GNVTG,329.93,T,,M,0.02,N,0.04,K,D*22
$PAIRLOG,Full*51
$GNGGA,004708.000,4910.428888,N,12304.398156,W,2,31,0.52,-0.066,M,-16.816,M,,*6B
$GNGLL,4910.428888,N,12304.398156,W,004708.000,A,D*55
$GNGSA,A,3,12,06,11,19,24,25,17,03,32,,,,0.92,0.52,0.75,1*07
$GNGSA,A,3,86,76,87,85,69,68,,,,,,,0.92,0.52,0.75,2*00
$GNGSA,A,3,24,12,10,25,11,33,31,03,08,,,,0.92,0.52,0.75,3*07
$GNGSA,A,3,35,26,29,24,44,45,39,,,,,,0.92,0.52,0.75,4*0E
$GPGSV,3,1,11,12,63,299,30,06,61,097,27,11,48,166,28,19,46,063,29,1*68
$GPGSV,3,2,11,24,41,220,25,46,33,188,28,25,22,299,23,17,17,067,19,1*65
$GPGSV,3,3,11,03,09,027,16,32,08,313,19,20,03,152,17,1*5D
$GLGSV,2,1,07,86,71,052,37,76,62,140,33,87,55,208,33,85,15,037,26,1*7B
$GLGSV,2,2,07,69,10,003,28,78,07,319,,68,06,317,22,1*46
$GAGSV,3,1,10,24,72,109,29,12,60,105,25,10,54,152,26,25,52,298,29,7*7C
$GAGSV,3,2,10,11,33,180,22,33,24,041,22,31,19,114,23,03,12,274,13,7*75
$GAGSV,3,3,10,08,11,323,21,02,02,296,15,7*72
$GBGSV,3,1,10,35,76,199,35,26,71,223,32,29,38,057,29,24,36,305,30,1*7A
$GBGSV,3,2,10,44,28,226,27,45,28,152,24,39,12,330,22,12,05,225,14,1*7B
$GBGSV,3,3,10,16,03,335,12,32,03,027,14,1*77
$GNRMC,004708.000,A,4910.428888,N,12304.398156,W,0.02,329.93,090125,,,D,V*17
$GNVTG,329.93,T,,M,0.02,N,0.03,K,D*25
$PAIRLOG,Full*51
$GNGGA,004709.000,4910.428828,N,12304.398150,W,2,31,0.52,-0.448,M,-16.816,M,,*6E
$GNGLL,4910.428828,N,12304.398150,W,004709.000,A,D*58
$GNGSA,A,3,12,06,11,19,24,25,17,03,32,,,,0.92,0.52,0.75,1*07
$GNGSA,A,3,86,76,87,85,69,68,,,,,,,0.92,0.52,0.75,2*00
$GNGSA,A,3,24,12,10,25,11,33,31,03,08,,,,0.92,0.52,0.75,3*07
$GNGSA,A,3,35,26,29,24,44,45,39,,,,,,0.92,0.52,0.75,4*0E
$GPGSV,3,1,11,12,63,299,30,06,61,097,29,11,48,166,28,19,46,063,29,1*66
$GPGSV,3,2,11,24,41,220,25,46,33,188,28,25,22,299,23,17,17,067,19,1*65
$GPGSV,3,3,11,03,09,027,16,32,08,313,19,20,03,152,17,1*5D
$GLGSV,2,1,07,86,71,052,37,76,62,140,33,87,55,208,33,85,15,037,26,1*7B
$GLGSV,2,2,07,69,10,003,28,78,07,319,,68,06,317,22,1*46
$GAGSV,3,1,10,24,72,109,29,12,60,105,25,10,54,152,26,25,52,298,29,7*7C
$GAGSV,3,2,10,11,33,180,22,33,24,041,22,31,19,114,23,03,12,274,13,7*75
$GAGSV,3,3,10,08,11,323,21,02,02,296,14,7*73
$GBGSV,3,1,10,35,76,199,35,26,71,223,32,29,38,057,29,24,36,305,30,1*7A
$GBGSV,3,2,10,44,28,226,26,45,28,152,23,39,12,330,22,12,05,225,13,1*7A
$GBGSV,3,3,10,16,03,335,12,32,03,027,14,1*77
$GNRMC,004709.000,A,4910.428828,N,12304.398150,W,0.01,329.93,090125,,,D,V*19
$GNVTG,329.93,T,,M,0.01,N,0.03,K,D*26
$PAIRLOG,Full*51
$GNGGA,004710.000,4910.428744,N,12304.398216,W,2,31,0.52,-0.893,M,-16.816,M,,*68
$GNGLL,4910.428744,N,12304.398216,W,004710.000,A,D*54
$GNGSA,A,3,12,06,11,19,24,25,17,03,32,,,,0.92,0.52,0.75,1*07
$GNGSA,A,3,86,76,87,85,69,68,,,,,,,0.92,0.52,0.75,2*00
$GNGSA,A,3,24,12,10,25,11,33,31,03,08,,,,0.92,0.52,0.75,3*07
$GNGSA,A,3,35,26,29,24,44,45,39,,,,,,0.92,0.52,0.75,4*0E
$GPGSV,3,1,11,12,63,299,31,06,61,097,30,11,48,166,29,19,46,063,29,1*6E
$GPGSV,3,2,11,24,41,220,25,46,33,188,28,25,22,299,24,17,17,067,19,1*62
$GPGSV,3,3,11,03,09,027,17,32,08,313,19,20,03,152,17,1*5C
$GLGSV,2,1,07,86,71,052,37,76,62,140,33,87,55,208,33,85,15,037,26,1*7B
$GLGSV,2,2,07,69,10,003,28,78,07,319,,68,06,317,22,1*46
$GAGSV,3,1,10,24,72,109,29,12,60,105,26,10,54,152,26,25,52,298,29,7*7F
$GAGSV,3,2,10,11,33,180,22,33,24,041,22,31,19,114,23,03,12,274,13,7*75
$GAGSV,3,3,10,08,11,323,22,02,02,296,14,7*70
$GBGSV,3,1,10,35,76,199,35,26,71,223,32,29,38,057,29,24,36,305,30,1*7A
$GBGSV,3,2,10,44,28,226,27,45,28,152,24,39,12,330,22,12,05,225,13,1*7C
$GBGSV,3,3,10,16,03,335,12,32,03,027,14,1*77
$GNRMC,004710.000,A,4910.428744,N,12304.398216,W,0.01,329.93,090125,,,D,V*15
$GNVTG,329.93,T,,M,0.01,N,0.02,K,D*27
$PAIRLOG,Full*51
$GNGGA,004711.000,4910.428696,N,12304.398126,W,2,31,0.52,-1.073,M,-16.816,M,,*60
$GNGLL,4910.428696,N,12304.398126,W,004711.000,A,D*5B
$GNGSA,A,3,12,06,11,19,24,25,17,03,32,,,,0.92,0.52,0.75,1*07
$GNGSA,A,3,86,76,87,85,69,68,,,,,,,0.92,0.52,0.75,2*00
$GNGSA,A,3,24,12,10,25,11,33,31,03,08,,,,0.92,0.52,0.75,3*07
$GNGSA,A,3,35,26,29,24,44,45,39,,,,,,0.92,0.52,0.75,4*0E
$GPGSV,3,1,11,12,63,299,30,06,61,097,26,11,48,166,28,19,46,063,28,1*68
$GPGSV,3,2,11,24,41,220,23,46,33,188,28,25,22,299,22,17,17,067,19,1*62
$GPGSV,3,3,11,03,09,027,18,32,08,313,19,20,03,152,17,1*53
$GLGSV,2,1,07,86,70,052,37,76,62,141,33,87,55,208,33,85,15,037,26,1*7B
$GLGSV,2,2,07,69,10,002,28,78,07,319,,68,06,316,22,1*46
$GAGSV,3,1,10,24,71,110,29,12,60,105,25,10,54,152,26,25,52,298,29,7*77
$GAGSV,3,2,10,11,33,180,21,33,24,041,21,31,19,115,22,03,12,274,13,7*75
$GAGSV,3,3,10,08,11,323,21,02,02,296,14,7*73
$GBGSV,3,1,10,35,76,199,35,26,71,222,32,29,38,057,29,24,36,305,30,1*7B
$GBGSV,3,2,10,44,28,226,27,45,27,152,24,39,12,330,22,12,05,225,14,1*74
$GBGSV,3,3,10,16,03,335,12,32,03,027,14,1*77
$GNRMC,004711.000,A,4910.428696,N,12304.398126,W,0.01,329.93,090125,,,D,V*1A
$GNVTG,329.93,T,,M,0.01,N,0.03,K,D*26
$PAIRLOG,Full*51
$GNGGA,004712.000,4910.428672,N,12304.398210,W,2,31,0.52,-1.317,M,-16.816,M,,*6E
$GNGLL,4910.428672,N,12304.398210,W,004712.000,A,D*54
$GNGSA,A,3,12,06,11,19,24,25,17,03,32,,,,0.92,0.52,0.75,1*07
$GNGSA,A,3,86,76,87,85,69,68,,,,,,,0.92,0.52,0.75,2*00
$GNGSA,A,3,24,12,10,25,11,33,31,03,08,,,,0.92,0.52,0.75,3*07
$GNGSA,A,3,35,26,29,24,44,45,39,,,,,,0.92,0.52,0.75,4*0E
$GPGSV,3,1,11,12,63,299,31,06,61,097,29,11,48,166,29,19,46,063,28,1*67
$GPGSV,3,2,11,24,41,220,25,46,33,188,28,25,22,299,25,17,17,067,19,1*63
$GPGSV,3,3,11,03,09,027,19,32,08,313,20,20,03,152,17,1*58
$GLGSV,2,1,07,86,70,052,37,76,62,141,34,87,55,208,33,85,15,037,26,1*7C
$GLGSV,2,2,07,69,10,002,28,78,07,319,,68,06,316,22,1*46
$GAGSV,3,1,10,24,71,110,29,12,60,105,26,10,54,152,26,25,52,298,29,7*74
$GAGSV,3,2,10,11,33,180,22,33,24,041,22,31,19,115,23,03,12,274,13,7*74
$GAGSV,3,3,10,08,11,323,21,02,02,296,14,7*73
$GBGSV,3,1,10,35,76,199,34,26,71,222,31,29,38,057,28,24,36,305,30,1*78
$GBGSV,3,2,10,44,28,226,26,45,27,152,21,39,12,330,21,12,05,225,14,1*73
$GBGSV,3,3,10,16,03,335,11,32,03,027,14,1*74
$GNRMC,004712.000,A,4910.428672,N,12304.398210,W,0.01,329.93,090125,,,D,V*15
$GNVTG,329.93,T,,M,0.01,N,0.02,K,D*27
$PAIRLOG,Full*51
$GNGGA,004713.000,4910.428666,N,12304.398300,W,2,31,0.52,-1.512,M,-16.816,M,,*69
$GNGLL,4910.428666,N,12304.398300,W,004713.000,A,D*50
$GNGSA,A,3,12,06,11,19,24,25,17,03,32,,,,0.92,0.52,0.75,1*07
$GNGSA,A,3,86,76,87,85,69,68,,,,,,,0.92,0.52,0.75,2*00
$GNGSA,A,3,24,12,10,25,11,33,31,03,08,,,,0.92,0.52,0.75,3*07
$GNGSA,A,3,35,26,29,24,44,45,39,,,,,,0.92,0.52,0.75,4*0E
$GPGSV,3,1,11,12,63,299,31,06,61,097,30,11,48,166,29,19,46,063,29,1*6E
$GPGSV,3,2,11,24,41,220,25,46,33,188,28,25,22,299,23,17,17,067,19,1*65
$GPGSV,3,3,11,03,09,027,18,32,08,313,20,20,03,152,16,1*58
$GLGSV,2,1,07,86,70,052,37,76,62,141,33,87,55,208,33,85,15,037,26,1*7B
$GLGSV,2,2,07,69,10,002,28,78,07,319,,68,06,316,22,1*46
$GAGSV,3,1,10,24,71,110,29,12,60,105,26,10,54,152,26,25,52,298,29,7*74
$GAGSV,3,2,10,11,33,180,22,33,24,041,23,31,19,115,23,03,12,274,12,7*74
$GAGSV,3,3,10,08,11,323,22,02,02,296,15,7*71
$GBGSV,3,1,10,35,76,199,35,26,71,222,32,29,38,057,29,24,36,305,30,1*7B
$GBGSV,3,2,10,44,28,226,27,45,27,152,23,39,12,330,21,12,05,225,14,1*70
$GBGSV,3,3,10,16,03,335,11,32,03,027,14,1*74
$GNRMC,004713.000,A,4910.428666,N,12304.398300,W,0.01,329.93,090125,,,D,V*11
$GNVTG,329.93,T,,M,0.01,N,0.03,K,D*26
$PAIRLOG,Full*51
$GNGGA,004714.000,4910.428630,N,12304.398300,W,2,31,0.52,-1.601,M,-16.816,M,,*6C
$GNGLL,4910.428630,N,12304.398300,W,004714.000,A,D*54
$GNGSA,A,3,12,06,11,19,24,25,17,03,32,,,,0.92,0.52,0.75,1*07
$GNGSA,A,3,86,76,87,85,69,68,,,,,,,0.92,0.52,0.75,2*00
$GNGSA,A,3,24,12,10,25,11,33,31,03,08,,,,0.92,0.52,0.75,3*07
$GNGSA,A,3,35,26,29,24,44,45,39,,,,,,0.92,0.52,0.75,4*0E
$GPGSV,3,1,11,12,63,299,31,06,61,097,30,11,48,166,29,19,46,063,29,1*6E
$GPGSV,3,2,11,24,41,220,25,46,33,188,28,25,22,299,23,17,17,067,19,1*65
$GPGSV,3,3,11,03,09,027,18,32,08,313,20,20,03,152,16,1*58
$GLGSV,2,1,07,86,70,052,37,76,62,141,33,87,55,208,33,85,15,037,26,1*7B
$GLGSV,2,2,07,69,10,002,28,78,07,319,,68,06,316,22,1*46
$GAGSV,3,1,10,24,71,110,29,12,60,105,26,10,54,152,27,25,52,298,29,7*75
$GAGSV,3,2,10,11,33,180,22,33,24,041,23,31,19,115,23,03,12,274,11,7*77
$GAGSV,3,3,10,08,11,323,22,02,02,296,15,7*71
$GBGSV,3,1,10,35,76,199,34,26,71,222,31,29,38,057,28,24,36,305,30,1*78
$GBGSV,3,2,10,44,28,226,26,45,27,152,20,39,12,330,21,12,05,225,14,1*72
$GBGSV,3,3,10,16,03,335,12,32,03,027,14,1*77
$GNRMC,004714.000,A,4910.428630,N,12304.398300,W,0.01,329.93,090125,,,D,V*15
$GNVTG,329.93,T,,M,0.01,N,0.03,K,D*26
$PAIRLOG,Full*51
$GNGGA,004715.000,4910.428618,N,12304.398300,W,2,31,0.52,-1.642,M,-16.817,M,,*61
$GNGLL,4910.428618,N,12304.398300,W,004715.000,A,D*5F
$GNGSA,A,3,12,06,11,19,24,25,17,03,32,,,,0.92,0.52,0.75,1*07
$GNGSA,A,3,86,76,87,85,69,68,,,,,,,0.92,0.52,0.75,2*00
$GNGSA,A,3,24,12,10,25,11,33,31,03,08,,,,0.92,0.52,0.75,3*07
$GNGSA,A,3,35,26,29,24,44,45,39,,,,,,0.92,0.52,0.75,4*0E
$GPGSV,3,1,11,12,63,299,31,06,61,097,30,11,48,166,29,19,46,063,29,1*6E
$GPGSV,3,2,11,24,41,220,26,46,33,188,28,25,22,299,24,17,17,067,19,1*61
$GPGSV,3,3,11,03,09,027,18,32,08,313,20,20,03,152,16,1*58
$GLGSV,2,1,07,86,70,052,37,76,62,141,33,87,55,208,33,85,15,037,26,1*7B
$GLGSV,2,2,07,69,10,002,28,78,07,319,,68,06,316,23,1*47
$GAGSV,3,1,10,24,71,110,29,12,60,105,26,10,54,152,27,25,52,298,29,7*75
$GAGSV,3,2,10,11,33,180,22,33,24,041,23,31,19,115,23,03,12,274,11,7*77
$GAGSV,3,3,10,08,11,323,23,02,02,296,16,7*73
$GBGSV,3,1,10,35,76,199,33,26,71,222,31,29,38,057,28,24,36,305,29,1*77
$GBGSV,3,2,10,44,28,226,25,45,27,152,20,39,12,330,20,12,05,225,14,1*70
$GBGSV,3,3,10,16,03,335,,32,03,027,14,1*74
$GNRMC,004715.000,A,4910.428618,N,12304.398300,W,0.01,329.93,090125,,,D,V*1E
$GNVTG,329.93,T,,M,0.01,N,0.02,K,D*27
$PAIRLOG,Full*51
$GNGGA,004716.000,4910.428606,N,12304.398306,W,2,31,0.52,-1.760,M,-16.816,M,,*6B
$GNGLL,4910.428606,N,12304.398306,W,004716.000,A,D*55
$GNGSA,A,3,12,06,11,19,24,25,17,03,32,,,,0.92,0.52,0.75,1*07
$GNGSA,A,3,86,76,87,85,69,68,,,,,,,0.92,0.52,0.75,2*00
$GNGSA,A,3,24,12,10,25,11,33,31,03,08,,,,0.92,0.52,0.75,3*07
$GNGSA,A,3,35,26,29,24,44,45,39,,,,,,0.92,0.52,0.75,4*0E
$GPGSV,3,1,11,12,63,299,31,06,61,097,29,11,48,166,29,19,46,063,29,1*66
$GPGSV,3,2,11,24,41,220,25,46,33,188,28,25,22,299,23,17,17,067,19,1*65
$GPGSV,3,3,11,03,09,027,18,32,08,313,20,20,03,152,16,1*58
$GLGSV,2,1,07,86,70,052,37,76,62,141,33,87,55,208,33,85,15,037,26,1*7B
$GLGSV,2,2,07,69,10,002,28,78,07,319,,68,06,316,23,1*47
$GAGSV,3,1,10,24,71,110,29,12,60,105,26,10,54,152,27,25,52,298,29,7*75
$GAGSV,3,2,10,11,33,180,22,33,24,041,23,31,19,115,24,03,12,274,11,7*70
$GAGSV,3,3,10,08,11,323,23,02,02,296,16,7*73
$GBGSV,3,1,10,35,76,199,33,26,71,222,31,29,38,057,27,24,36,305,29,1*78
$GBGSV,3,2,10,44,28,226,25,45,27,152,20,39,12,330,20,12,05,225,14,1*70
$GBGSV,3,3,10,16,03,335,,32,03,027,14,1*74
$GNRMC,004716.000,A,4910.428606,N,12304.398306,W,0.01,329.93,090125,,,D,V*14
$GNVTG,329.93,T,,M,0.01,N,0.02,K,D*27
$PAIRLOG,Full*51
$GNGGA,004717.000,4910.428504,N,12304.398342,W,2,31,0.52,-1.830,M,-16.816,M,,*61
$GNGLL,4910.428504,N,12304.398342,W,004717.000,A,D*55
$GNGSA,A,3,12,06,11,19,24,25,17,03,32,,,,0.92,0.52,0.75,1*07
$GNGSA,A,3,86,76,87,85,69,68,,,,,,,0.92,0.52,0.75,2*00
$GNGSA,A,3,24,12,10,25,11,33,31,03,08,,,,0.92,0.52,0.75,3*07
$GNGSA,A,3,35,26,29,24,44,45,39,,,,,,0.92,0.52,0.75,4*0E
$GPGSV,3,1,11,12,63,299,31,06,61,097,30,11,48,166,29,19,46,063,29,1*6E
$GPGSV,3,2,11,24,41,220,25,46,33,188,29,25,22,299,24,17,17,067,19,1*63
$GPGSV,3,3,11,03,09,027,18,32,08,313,20,20,03,152,16,1*58
$GLGSV,2,1,07,86,70,052,37,76,62,141,33,87,55,208,33,85,15,037,26,1*7B
$GLGSV,2,2,07,69,10,002,28,78,07,319,,68,06,316,24,1*40
$GAGSV,3,1,10,24,71,110,30,12,60,105,27,10,54,152,28,25,52,298,30,7*7B
$GAGSV,3,2,10,11,33,180,22,33,24,041,24,31,19,115,24,03,12,274,11,7*77
$GAGSV,3,3,10,08,11,323,23,02,02,296,16,7*73
$GBGSV,3,1,10,35,76,199,33,26,71,222,32,29,38,057,28,24,36,305,30,1*7C
$GBGSV,3,2,10,44,28,226,25,45,27,152,22,39,12,330,20,12,05,225,15,1*73
$GBGSV,3,3,10,16,03,335,,32,03,027,15,1*75
$GNRMC,004717.000,A,4910.428504,N,12304.398342,W,0.01,329.93,090125,,,D,V*14
$GNVTG,329.93,T,,M,0.01,N,0.02,K,D*27
$PAIRLOG,Full*51
$GNGGA,004718.000,4910.428402,N,12304.398336,W,2,31,0.52,-1.976,M,-16.816,M,,*69
$GNGLL,4910.428402,N,12304.398336,W,004718.000,A,D*5E
$GNGSA,A,3,12,06,11,19,24,25,17,03,32,,,,0.92,0.52,0.75,1*07
$GNGSA,A,3,86,76,87,85,69,68,,,,,,,0.92,0.52,0.75,2*00
$GNGSA,A,3,24,12,10,25,11,33,31,03,08,,,,0.92,0.52,0.75,3*07
$GNGSA,A,3,35,26,29,24,44,45,39,,,,,,0.92,0.52,0.75,4*0E
$GPGSV,3,1,11,12,63,299,31,06,61,097,30,11,48,166,29,19,46,063,29,1*6E
$GPGSV,3,2,11,24,41,220,25,46,33,188,29,25,22,299,25,17,17,067,19,1*62
$GPGSV,3,3,11,03,09,027,18,32,08,313,21,20,03,152,16,1*59
$GLGSV,2,1,07,86,70,052,37,76,62,141,33,87,55,208,34,85,15,037,27,1*7D
$GLGSV,2,2,07,69,10,002,28,78,07,319,,68,06,316,24,1*40
$GAGSV,3,1,10,24,71,110,30,12,60,105,27,10,54,152,28,25,52,298,30,7*7B
$GAGSV,3,2,10,11,33,180,23,33,24,041,24,31,19,115,24,03,12,274,11,7*76
$GAGSV,3,3,10,08,11,323,23,02,02,296,16,7*73
$GBGSV,3,1,10,35,76,199,33,26,71,222,32,29,38,057,28,24,36,305,30,1*7C
$GBGSV,3,2,10,44,28,226,25,45,27,152,21,39,12,330,20,12,05,225,15,1*70
$GBGSV,3,3,10,16,03,335,,32,03,027,15,1*75
$GNRMC,004718.000,A,4910.428402,N,12304.398336,W,0.01,329.93,090125,,,D,V*1F
$GNVTG,329.93,T,,M,0.01,N,0.02,K,D*27
$PAIRLOG,Full*51
$GNGGA,004719.000,4910.428306,N,12304.398474,W,2,31,0.52,-2.164,M,-16.816,M,,*62
$GNGLL,4910.428306,N,12304.398474,W,004719.000,A,D*5D
$GNGSA,A,3,12,06,11,19,24,25,17,03,32,,,,0.92,0.52,0.75,1*07
$GNGSA,A,3,86,76,87,85,69,68,,,,,,,0.92,0.52,0.75,2*00
$GNGSA,A,3,24,12,10,25,11,33,31,03,08,,,,0.92,0.52,0.75,3*07
$GNGSA,A,3,35,26,29,24,44,45,39,,,,,,0.92,0.52,0.75,4*0E
$GPGSV,3,1,11,12,63,299,32,06,61,097,31,11,48,166,30,19,46,063,30,1*6C
$GPGSV,3,2,11,24,41,220,26,46,33,188,29,25,22,299,25,17,17,067,18,1*60
$GPGSV,3,3,11,03,09,027,19,32,08,313,21,20,03,152,16,1*58
$GLGSV,2,1,07,86,70,052,37,76,62,141,33,87,55,208,34,85,15,037,27,1*7D
$GLGSV,2,2,07,69,10,002,28,78,07,319,,68,06,316,24,1*40
$GAGSV,3,1,10,24,71,110,31,12,60,105,28,10,54,152,29,25,52,298,31,7*75
$GAGSV,3,2,10,11,33,180,23,33,24,041,24,31,19,115,24,03,12,274,10,7*77
$GAGSV,3,3,10,08,11,323,23,02,02,296,17,7*72
$GBGSV,3,1,10,35,76,199,33,26,71,222,32,29,38,057,28,24,36,305,30,1*7C
$GBGSV,3,2,10,44,28,226,25,45,27,152,21,39,12,330,21,12,05,225,15,1*71
$GBGSV,3,3,10,16,03,335,,32,03,027,15,1*75
$GNRMC,004719.000,A,4910.428306,N,12304.398474,W,0.02,329.93,090125,,,D,V*1F
$GNVTG,329.93,T,,M,0.02,N,0.03,K,D*25
$PAIRLOG,Full*51
$GNGGA,004720.000,4910.428192,N,12304.398636,W,2,30,0.53,-2.503,M,-16.817,M,,*67
$GNGLL,4910.428192,N,12304.398636,W,004720.000,A,D*5C
$GNGSA,A,3,12,06,11,19,24,25,17,03,32,,,,0.94,0.53,0.77,1*02
$GNGSA,A,3,86,76,87,85,69,68,,,,,,,0.94,0.53,0.77,2*05
$GNGSA,A,3,24,12,10,25,11,33,31,08,,,,,0.94,0.53,0.77,3*01
$GNGSA,A,3,35,26,29,24,44,45,39,,,,,,0.94,0.53,0.77,4*0B
$GPGSV,3,1,11,12,63,299,32,06,61,097,31,11,48,166,30,19,46,063,30,1*6C
$GPGSV,3,2,11,24,41,220,26,46,33,188,29,25,22,299,25,17,17,067,18,1*60
$GPGSV,3,3,11,03,09,027,19,32,08,313,21,20,03,152,15,1*5B
$GLGSV,2,1,07,86,70,052,37,76,62,141,33,87,55,208,34,85,15,037,27,1*7D
$GLGSV,2,2,07,69,10,002,28,78,07,319,,68,06,316,24,1*40
$GAGSV,3,1,10,24,71,110,31,12,60,105,28,10,54,152,29,25,52,298,31,7*75
$GAGSV,3,2,10,11,33,180,24,33,24,041,24,31,19,115,24,03,12,274,08,7*79
$GAGSV,3,3,10,08,11,323,23,02,02,296,17,7*72
$GBGSV,3,1,10,35,76,199,33,26,71,222,32,29,38,057,28,24,36,305,30,1*7C
$GBGSV,3,2,10,44,28,226,26,45,27,152,21,39,12,330,21,12,05,225,15,1*72
$GBGSV,3,3,10,16,03,335,,32,03,027,15,1*75
$GNRMC,004720.000,A,4910.428192,N,12304.398636,W,0.02,329.93,090125,,,D,V*1E
$GNVTG,329.93,T,,M,0.02,N,0.04,K,D*22
$PAIRLOG,Full*51
$GNGGA,004721.000,4910.428108,N,12304.398816,W,2,30,0.53,-2.736,M,-16.816,M,,*6C
$GNGLL,4910.428108,N,12304.398816,W,004721.000,A,D*52
$GNGSA,A,3,12,06,11,19,24,25,17,03,32,,,,0.94,0.53,0.77,1*02
$GNGSA,A,3,86,76,87,85,69,68,,,,,,,0.94,0.53,0.77,2*05
$GNGSA,A,3,24,12,10,25,11,33,31,08,,,,,0.94,0.53,0.77,3*01
$GNGSA,A,3,35,26,29,24,44,45,39,,,,,,0.94,0.53,0.77,4*0B
$GPGSV,3,1,11,12,63,299,32,06,61,097,31,11,48,166,30,19,46,063,31,1*6D
$GPGSV,3,2,11,24,41,220,26,46,33,188,30,25,22,299,25,17,17,067,18,1*68
$GPGSV,3,3,11,03,09,027,19,32,08,313,21,20,03,152,15,1*5B
$GLGSV,2,1,07,86,70,052,37,76,62,141,34,87,55,208,34,85,15,037,27,1*7A
$GLGSV,2,2,07,69,10,002,29,78,07,319,,68,06,316,24,1*41
$GAGSV,3,1,10,24,71,110,31,12,60,105,28,10,54,152,29,25,52,298,31,7*75
$GAGSV,3,2,10,11,33,180,24,33,24,041,24,31,19,115,24,03,12,274,08,7*79
$GAGSV,3,3,10,08,11,323,23,02,02,296,17,7*72
$GBGSV,3,1,10,35,76,199,33,26,71,222,32,29,38,057,28,24,36,305,30,1*7C
$GBGSV,3,2,10,44,28,226,26,45,27,152,21,39,12,330,21,12,05,225,15,1*72
$GBGSV,3,3,10,16,03,335,,32,03,027,15,1*75
$GNRMC,004721.000,A,4910.428108,N,12304.398816,W,0.02,329.93,090125,,,D,V*10
$GNVTG,329.93,T,,M,0.02,N,0.04,K,D*22
$PAIRLOG,Full*51
$GNGGA,004722.000,4910.428036,N,12304.399044,W,2,31,0.52,-3.038,M,-16.816,M,,*65
$GNGLL,4910.428036,N,12304.399044,W,004722.000,A,D*53
$GNGSA,A,3,12,06,11,19,24,25,17,03,32,,,,0.92,0.52,0.75,1*07
$GNGSA,A,3,86,76,87,85,69,68,,,,,,,0.92,0.52,0.75,2*00
$GNGSA,A,3,24,12,10,25,11,33,31,03,08,,,,0.92,0.52,0.75,3*07
$GNGSA,A,3,35,26,29,24,44,45,39,,,,,,0.92,0.52,0.75,4*0E
$GPGSV,3,1,11,12,63,299,32,06,61,097,31,11,48,166,30,19,46,063,31,1*6D
$GPGSV,3,2,11,24,41,220,26,46,33,188,30,25,22,299,24,17,17,067,18,1*69
$GPGSV,3,3,11,03,09,027,20,32,08,313,21,20,03,152,15,1*51
$GLGSV,2,1,07,86,70,052,37,76,62,141,35,87,55,208,34,85,15,037,27,1*7B
$GLGSV,2,2,07,69,10,002,29,78,07,319,,68,06,316,24,1*41
$GAGSV,3,1,10,24,71,110,31,12,60,105,27,10,54,152,29,25,52,298,31,7*7A
$GAGSV,3,2,10,11,33,180,24,33,24,041,23,31,19,115,24,03,12,274,08,7*7E
$GAGSV,3,3,10,08,11,323,24,02,02,296,17,7*75
$GBGSV,3,1,10,35,76,199,33,26,71,222,32,29,38,057,28,24,36,305,30,1*7C
$GBGSV,3,2,10,44,28,226,26,45,27,152,21,39,12,330,21,12,05,225,15,1*72
$GBGSV,3,3,10,16,03,335,,32,03,027,15,1*75
$GNRMC,004722.000,A,4910.428036,N,12304.399044,W,0.02,329.93,090125,,,D,V*11
$GNVTG,329.93,T,,M,0.02,N,0.04,K,D*22
$PAIRLOG,Full*51
$GNGGA,004723.000,4910.427898,N,12304.399338,W,2,30,0.53,-3.446,M,-16.816,M,,*62
$GNGLL,4910.427898,N,12304.399338,W,004723.000,A,D*59
$GNGSA,A,3,12,06,11,19,24,25,17,03,32,,,,0.94,0.53,0.77,1*02
$GNGSA,A,3,86,76,87,85,69,68,,,,,,,0.94,0.53,0.77,2*05
$GNGSA,A,3,24,12,10,25,11,33,31,08,,,,,0.94,0.53,0.77,3*01
$GNGSA,A,3,35,26,29,24,44,45,39,,,,,,0.94,0.53,0.77,4*0B
$GPGSV,3,1,11,12,63,299,32,06,61,097,32,11,48,166,30,19,46,063,32,1*6D
$GPGSV,3,2,11,24,41,220,27,46,33,188,30,25,22,299,26,17,17,067,18,1*6A
$GPGSV,3,3,11,03,09,027,21,32,08,313,22,20,03,152,15,1*53
$GLGSV,2,1,07,86,70,052,37,76,62,141,35,87,55,208,34,85,15,037,26,1*7A
$GLGSV,2,2,07,69,10,002,28,78,07,319,,68,06,316,24,1*40
$GAGSV,3,1,10,24,71,110,31,12,60,105,27,10,54,152,29,25,52,298,31,7*7A
$GAGSV,3,2,10,11,33,180,24,33,24,041,23,31,19,115,24,03,12,274,08,7*7E
$GAGSV,3,3,10,08,11,323,24,02,02,296,17,7*75
$GBGSV,3,1,10,35,76,199,34,26,71,222,33,29,38,057,28,24,36,305,30,1*7A
$GBGSV,3,2,10,44,28,226,26,45,27,152,21,39,12,330,21,12,05,225,15,1*72
$GBGSV,3,3,10,16,03,335,,32,03,027,16,1*76
$GNRMC,004723.000,A,4910.427898,N,12304.399338,W,0.03,329.93,090125,,,D,V*1A
$GNVTG,329.93,T,,M,0.03,N,0.05,K,D*22
$PAIRLOG,Full*51
$GNGGA,004724.000,4910.427856,N,12304.399476,W,2,30,0.53,-3.726,M,-16.816,M,,*6F
$GNGLL,4910.427856,N,12304.399476,W,004724.000,A,D*51
$GNGSA,A,3,12,06,11,19,24,25,17,03,32,,,,0.94,0.53,0.77,1*02
$GNGSA,A,3,86,76,87,85,69,68,,,,,,,0.94,0.53,0.77,2*05
$GNGSA,A,3,24,12,10,25,11,33,31,08,,,,,0.94,0.53,0.77,3*01
$GNGSA,A,3,35,26,29,24,44,45,39,,,,,,0.94,0.53,0.77,4*0B
$GPGSV,3,1,11,12,63,299,33,06,61,097,32,11,48,166,30,19,46,063,32,1*6C
$GPGSV,3,2,11,24,41,220,27,46,33,188,30,25,22,299,25,17,17,067,18,1*69
$GPGSV,3,3,11,03,09,027,22,32,08,313,22,20,03,152,15,1*50
$GLGSV,2,1,07,86,70,052,36,76,62,141,35,87,55,208,34,85,15,037,26,1*7B
$GLGSV,2,2,07,69,10,002,29,78,07,319,,68,06,316,24,1*41
$GAGSV,3,1,10,24,71,110,31,12,60,105,28,10,54,152,29,25,52,298,31,7*75
$GAGSV,3,2,10,11,33,180,24,33,24,041,23,31,19,115,24,03,12,274,08,7*7E
$GAGSV,3,3,10,08,11,323,24,02,02,296,17,7*75
$GBGSV,3,1,10,35,76,199,34,26,71,222,33,29,38,057,29,24,36,305,30,1*7B
$GBGSV,3,2,10,44,28,226,26,45,27,152,21,39,12,330,21,12,05,225,15,1*72
$GBGSV,3,3,10,16,03,335,,32,03,027,16,1*76
$GNRMC,004724.000,A,4910.427856,N,12304.399476,W,0.03,329.93,090125,,,D,V*12
$GNVTG,329.93,T,,M,0.03,N,0.05,K,D*22
$PAIRLOG,Full*51
$GNGGA,004725.000,4910.427790,N,12304.399626,W,2,30,0.53,-3.860,M,-16.817,M,,*60
$GNGLL,4910.427790,N,12304.399626,W,004725.000,A,D*52
$GNGSA,A,3,12,06,11,19,24,25,17,03,32,,,,0.94,0.53,0.77,1*02
$GNGSA,A,3,86,76,87,85,69,68,,,,,,,0.94,0.53,0.77,2*05
$GNGSA,A,3,24,12,10,25,11,33,31,08,,,,,0.94,0.53,0.77,3*01
$GNGSA,A,3,35,26,29,24,44,45,39,,,,,,0.94,0.53,0.77,4*0B
$GPGSV,3,1,11,12,63,299,33,06,61,097,33,11,48,166,30,19,46,063,32,1*6D
$GPGSV,3,2,11,24,41,220,27,46,33,188,30,25,22,299,25,17,17,067,18,1*69
$GPGSV,3,3,11,03,09,027,22,32,08,313,23,20,03,152,15,1*51
$GLGSV,2,1,07,86,70,052,36,76,62,141,35,87,55,208,34,85,15,037,27,1*7A
$GLGSV,2,2,07,69,10,002,29,78,07,319,,68,06,316,24,1*41
$GAGSV,3,1,10,24,71,110,32,12,60,105,28,10,54,152,29,25,52,298,31,7*76
$GAGSV,3,2,10,11,33,180,24,33,24,041,23,31,19,115,24,03,12,274,08,7*7E
$GAGSV,3,3,10,08,11,323,24,02,02,296,17,7*75
$GBGSV,3,1,10,35,76,199,34,26,71,222,34,29,38,057,30,24,36,305,31,1*75
$GBGSV,3,2,10,44,28,226,26,45,27,152,22,39,12,330,22,12,05,225,15,1*72
$GBGSV,3,3,10,16,03,335,,32,03,027,16,1*76
$GNRMC,004725.000,A,4910.427790,N,12304.399626,W,0.02,329.93,090125,,,D,V*10
$GNVTG,329.93,T,,M,0.02,N,0.04,K,D*22
$PAIRLOG,Full*51
$GNGGA,004726.000,4910.427772,N,12304.399674,W,2,30,0.53,-3.915,M,-16.817,M,,*6B
$GNGLL,4910.427772,N,12304.399674,W,004726.000,A,D*5A
$GNGSA,A,3,12,06,11,19,24,25,17,03,32,,,,0.94,0.53,0.77,1*02
$GNGSA,A,3,86,76,87,85,69,68,,,,,,,0.94,0.53,0.77,2*05
$GNGSA,A,3,24,12,10,25,11,33,31,08,,,,,0.94,0.53,0.77,3*01
$GNGSA,A,3,35,26,29,24,44,45,39,,,,,,0.94,0.53,0.77,4*0B
$GPGSV,3,1,11,12,63,299,33,06,61,097,33,11,48,166,30,19,46,063,31,1*6E
$GPGSV,3,2,11,24,41,220,26,46,33,188,30,25,22,299,25,17,17,067,18,1*68
$GPGSV,3,3,11,03,09,027,21,32,08,313,22,20,03,152,15,1*53
$GLGSV,2,1,07,86,70,052,36,76,62,141,35,87,55,208,34,85,15,037,27,1*7A
$GLGSV,2,2,07,69,10,002,29,78,07,319,,68,06,316,24,1*41
$GAGSV,3,1,10,24,71,110,32,12,60,105,28,10,54,152,29,25,52,298,31,7*76
$GAGSV,3,2,10,11,33,180,24,33,24,041,23,31,19,115,24,03,12,274,08,7*7E
$GAGSV,3,3,10,08,11,323,24,02,02,296,17,7*75
$GBGSV,3,1,10,35,76,199,34,26,71,222,33,29,38,057,30,24,36,305,31,1*72
$GBGSV,3,2,10,44,28,226,25,45,27,152,21,39,12,330,21,12,05,225,15,1*71
$GBGSV,3,3,10,16,03,335,,32,03,027,16,1*76
$GNRMC,004726.000,A,4910.427772,N,12304.399674,W,0.02,329.93,090125,,,D,V*18
$GNVTG,329.93,T,,M,0.02,N,0.03,K,D*25
$PAIRLOG,Full*51
$GNGGA,004727.000,4910.427688,N,12304.399650,W,2,30,0.53,-3.935,M,-16.816,M,,*6B
$GNGLL,4910.427688,N,12304.399650,W,004727.000,A,D*59
$GNGSA,A,3,12,06,11,19,24,25,17,03,32,,,,0.94,0.53,0.77,1*02
$GNGSA,A,3,86,76,87,85,69,68,,,,,,,0.94,0.53,0.77,2*05
$GNGSA,A,3,24,12,10,25,11,33,31,08,,,,,0.94,0.53,0.77,3*01
$GNGSA,A,3,35,26,29,24,44,45,39,,,,,,0.94,0.53,0.77,4*0B
$GPGSV,3,1,11,12,63,299,33,06,61,097,33,11,48,166,30,19,46,063,31,1*6E
$GPGSV,3,2,11,24,41,220,27,46,33,188,30,25,22,299,26,17,17,067,18,1*6A
$GPGSV,3,3,11,03,09,027,22,32,08,313,22,20,03,152,15,1*50
$GLGSV,2,1,07,86,70,052,36,76,62,141,35,87,55,208,34,85,15,037,27,1*7A
$GLGSV,2,2,07,69,10,002,29,78,07,319,,68,06,316,24,1*41
$GAGSV,3,1,10,24,71,110,33,12,60,105,28,10,54,152,30,25,52,298,31,7*7F
$GAGSV,3,2,10,11,33,180,24,33,24,041,24,31,19,115,24,03,12,274,08,7*79
$GAGSV,3,3,10,08,11,323,24,02,02,296,17,7*75
$GBGSV,3,1,10,35,76,199,34,26,71,222,32,29,38,057,30,24,36,305,30,1*72
$GBGSV,3,2,10,44,28,226,24,45,27,152,20,39,12,330,20,12,05,225,15,1*70
$GBGSV,3,3,10,16,03,335,,32,03,027,16,1*76
$GNRMC,004727.000,A,4910.427688,N,12304.399650,W,0.02,329.93,090125,,,D,V*1B
$GNVTG,329.93,T,,M,0.02,N,0.03,K,D*25
$PAIRLOG,Full*51
$GNGGA,004728.000,4910.427640,N,12304.399572,W,2,31,0.52,-4.014,M,-16.816,M,,*6E
$GNGLL,4910.427640,N,12304.399572,W,004728.000,A,D*51
$GNGSA,A,3,12,06,11,19,24,25,17,03,32,,,,0.92,0.52,0.75,1*07
$GNGSA,A,3,86,76,87,85,69,68,,,,,,,0.92,0.52,0.75,2*00
$GNGSA,A,3,24,12,10,25,11,33,31,03,08,,,,0.92,0.52,0.75,3*07
$GNGSA,A,3,35,26,29,24,44,45,39,,,,,,0.92,0.52,0.75,4*0E
$GPGSV,3,1,11,12,63,299,33,06,61,097,33,11,48,166,30,19,46,063,31,1*6E
$GPGSV,3,2,11,24,41,220,28,46,33,188,30,25,22,299,25,17,17,067,18,1*66
$GPGSV,3,3,11,03,09,027,22,32,08,313,24,20,03,152,17,1*54
$GLGSV,2,1,07,86,70,052,36,76,62,141,35,87,55,208,34,85,15,037,27,1*7A
$GLGSV,2,2,07,69,10,002,29,78,07,319,,68,06,316,24,1*41
$GAGSV,3,1,10,24,71,110,33,12,60,105,28,10,54,152,30,25,52,298,31,7*7F
$GAGSV,3,2,10,11,33,180,25,33,24,041,24,31,19,115,25,03,12,274,09,7*78
$GAGSV,3,3,10,08,11,323,24,02,02,296,17,7*75
$GBGSV,3,1,10,35,76,199,33,26,71,222,32,29,38,057,30,24,36,305,30,1*75
$GBGSV,3,2,10,44,28,226,24,45,27,152,20,39,12,330,20,12,05,225,14,1*71
$GBGSV,3,3,10,16,03,335,,32,03,027,16,1*76
$GNRMC,004728.000,A,4910.427640,N,12304.399572,W,0.02,329.93,090125,,,D,V*13
$GNVTG,329.93,T,,M,0.02,N,0.03,K,D*25
$PAIRLOG,Full*51
$GNGGA,004729.000,4910.427544,N,12304.399584,W,2,31,0.52,-4.100,M,-16.816,M,,*65
$GNGLL,4910.427544,N,12304.399584,W,004729.000,A,D*5E
$GNGSA,A,3,12,06,11,19,24,25,17,03,32,,,,0.92,0.52,0.75,1*07
$GNGSA,A,3,86,76,87,85,69,68,,,,,,,0.92,0.52,0.75,2*00
$GNGSA,A,3,24,12,10,25,11,33,31,03,08,,,,0.92,0.52,0.75,3*07
$GNGSA,A,3,35,26,29,24,44,45,39,,,,,,0.92,0.52,0.75,4*0E
$GPGSV,3,1,11,12,63,299,34,06,61,097,34,11,48,166,31,19,46,063,32,1*6C
$GPGSV,3,2,11,24,41,220,28,46,33,188,30,25,22,299,27,17,17,067,18,1*64
$GPGSV,3,3,11,03,09,027,22,32,08,313,24,20,03,152,17,1*54
$GLGSV,2,1,07,86,70,052,36,76,62,141,35,87,55,208,34,85,15,037,27,1*7A
$GLGSV,2,2,07,69,10,002,29,78,07,319,,68,06,316,24,1*41
$GAGSV,3,1,10,24,71,110,33,12,60,105,28,10,54,152,31,25,52,298,32,7*7D
$GAGSV,3,2,10,11,33,180,25,33,24,041,25,31,19,115,25,03,12,274,09,7*79
$GAGSV,3,3,10,08,11,323,24,02,02,296,17,7*75
$GBGSV,3,1,10,35,76,199,33,26,71,222,32,29,38,057,30,24,36,305,30,1*75
$GBGSV,3,2,10,44,28,226,25,45,27,152,20,39,12,330,20,12,05,225,14,1*70
$GBGSV,3,3,10,16,03,335,,32,03,027,16,1*76
$GNRMC,004729.000,A,4910.427544,N,12304.399584,W,0.01,329.93,090125,,,D,V*1F
$GNVTG,329.93,T,,M,0.01,N,0.03,K,D*26
$PAIRLOG,Full*51
$GNGGA,004730.000,4910.427472,N,12304.399578,W,2,31,0.52,-4.204,M,-16.816,M,,*6D
$GNGLL,4910.427472,N,12304.399578,W,004730.000,A,D*51
$GNGSA,A,3,12,06,11,19,24,25,17,03,32,,,,0.92,0.52,0.75,1*07
$GNGSA,A,3,86,76,87,85,69,68,,,,,,,0.92,0.52,0.75,2*00
$GNGSA,A,3,24,12,10,25,11,33,31,03,08,,,,0.92,0.52,0.75,3*07
$GNGSA,A,3,35,26,29,24,44,45,39,,,,,,0.92,0.52,0.75,4*0E
$GPGSV,3,1,11,12,63,299,34,06,61,097,34,11,48,166,31,19,46,063,32,1*6C
$GPGSV,3,2,11,24,41,220,28,46,33,188,31,25,22,299,27,17,17,067,19,1*64
$GPGSV,3,3,11,03,09,027,22,32,08,313,25,20,03,152,16,1*54
$GLGSV,2,1,07,86,70,052,37,76,62,141,35,87,55,208,34,85,15,037,27,1*7B
$GLGSV,2,2,07,69,10,002,29,78,07,319,,68,06,316,24,1*41
$GAGSV,3,1,10,24,71,110,33,12,60,105,28,10,54,152,31,25,52,298,32,7*7D
$GAGSV,3,2,10,11,33,180,25,33,24,041,26,31,19,115,25,03,12,274,09,7*7A
$GAGSV,3,3,10,08,11,323,24,02,02,296,17,7*75
$GBGSV,3,1,10,35,76,199,33,26,71,222,32,29,38,057,30,24,36,305,30,1*75
$GBGSV,3,2,10,44,28,226,25,45,27,152,20,39,12,330,20,12,05,225,14,1*70
$GBGSV,3,3,10,16,03,335,,32,03,027,16,1*76
$GNRMC,004730.000,A,4910.427472,N,12304.399578,W,0.01,329.93,090125,,,D,V*10
$GNVTG,329.93,T,,M,0.01,N,0.03,K,D*26
$PAIRLOG,Full*51
$GNGGA,004731.000,4910.427400,N,12304.399614,W,2,31,0.52,-4.406,M,-16.817,M,,*65
$GNGLL,4910.427400,N,12304.399614,W,004731.000,A,D*5C
$GNGSA,A,3,12,06,11,19,24,25,17,03,32,,,,0.92,0.52,0.75,1*07
$GNGSA,A,3,86,76,87,85,69,68,,,,,,,0.92,0.52,0.75,2*00
$GNGSA,A,3,24,12,10,25,11,33,31,03,08,,,,0.92,0.52,0.75,3*07
$GNGSA,A,3,35,26,29,24,44,45,39,,,,,,0.92,0.52,0.75,4*0E
$GPGSV,3,1,11,12,63,299,34,06,61,097,34,11,48,166,31,19,46,063,33,1*6D
$GPGSV,3,2,11,24,41,220,28,46,33,188,31,25,22,299,27,17,17,067,19,1*64
$GPGSV,3,3,11,03,09,027,23,32,08,313,24,20,03,152,15,1*57
$GLGSV,2,1,07,86,70,052,37,76,62,141,35,87,55,208,34,85,15,037,27,1*7B
$GLGSV,2,2,07,69,10,002,28,78,07,319,,68,06,316,24,1*40
$GAGSV,3,1,10,24,71,110,33,12,60,105,29,10,54,152,31,25,52,298,32,7*7C
$GAGSV,3,2,10,11,33,180,25,33,24,041,26,31,19,115,25,03,12,274,09,7*7A
$GAGSV,3,3,10,08,11,323,24,02,02,296,17,7*75
$GBGSV,3,1,10,35,76,199,33,26,71,222,32,29,38,057,29,24,36,305,30,1*7D
$GBGSV,3,2,10,44,28,226,25,45,27,152,20,39,12,330,20,12,05,225,14,1*70
$GBGSV,3,3,10,16,03,335,,32,03,027,16,1*76
$GNRMC,004731.000,A,4910.427400,N,12304.399614,W,0.01,329.93,090125,,,D,V*1D
$GNVTG,329.93,T,,M,0.01,N,0.03,K,D*26
$PAIRLOG,Full*51
$GNGGA,004732.000,4910.427352,N,12304.399668,W,2,31,0.52,-4.564,M,-16.816,M,,*69
$GNGLL,4910.427352,N,12304.399668,W,004732.000,A,D*54
$GNGSA,A,3,12,06,11,19,24,25,17,03,32,,,,0.92,0.52,0.75,1*07
$GNGSA,A,3,86,76,87,85,69,68,,,,,,,0.92,0.52,0.75,2*00
$GNGSA,A,3,24,12,10,25,11,33,31,03,08,,,,0.92,0.52,0.75,3*07
$GNGSA,A,3,35,26,29,24,44,45,39,,,,,,0.92,0.52,0.75,4*0E
$GPGSV,3,1,11,12,63,299,34,06,61,097,34,11,48,166,31,19,46,063,33,1*6D
$GPGSV,3,2,11,24,41,220,28,46,33,188,31,25,22,299,26,17,17,067,19,1*65
$GPGSV,3,3,11,03,09,027,23,32,08,313,24,20,03,152,16,1*54
$GLGSV,2,1,07,86,70,052,37,76,62,141,35,87,55,208,34,85,15,037,27,1*7B
$GLGSV,2,2,07,69,10,002,28,78,07,319,,68,06,316,24,1*40
$GAGSV,3,1,10,24,71,110,33,12,60,105,29,10,54,152,31,25,52,298,32,7*7C
$GAGSV,3,2,10,11,33,180,25,33,24,041,26,31,19,115,25,03,12,274,09,7*7A
$GAGSV,3,3,10,08,11,323,24,02,02,296,17,7*75
$GBGSV,3,1,10,35,76,199,33,26,71,222,32,29,38,057,29,24,36,305,30,1*7D
$GBGSV,3,2,10,44,28,226,25,45,27,152,20,39,12,330,20,12,05,225,14,1*70
$GBGSV,3,3,10,16,03,335,,32,03,027,16,1*76
$GNRMC,004732.000,A,4910.427352,N,12304.399668,W,0.01,329.93,090125,,,D,V*15
$GNVTG,329.93,T,,M,0.01,N,0.02,K,D*27
$PAIRLOG,Full*51
$GNGGA,004733.000,4910.427382,N,12304.399614,W,2,31,0.52,-4.684,M,-16.816,M,,*63
$GNGLL,4910.427382,N,12304.399614,W,004733.000,A,D*53
$GNGSA,A,3,12,06,11,19,24,25,17,03,32,,,,0.92,0.52,0.75,1*07
$GNGSA,A,3,86,76,87,85,69,68,,,,,,,0.92,0.52,0.75,2*00
$GNGSA,A,3,24,12,10,25,11,33,31,03,08,,,,0.92,0.52,0.75,3*07
$GNGSA,A,3,35,26,29,24,44,45,39,,,,,,0.92,0.52,0.75,4*0E
$GPGSV,3,1,11,12,63,299,34,06,61,097,34,11,48,166,31,19,46,063,33,1*6D
$GPGSV,3,2,11,24,41,220,28,46,33,188,31,25,22,299,26,17,17,067,19,1*65
$GPGSV,3,3,11,03,09,027,23,32,08,313,23,20,03,152,16,1*53
$GLGSV,2,1,07,86,70,052,37,76,62,141,35,87,55,208,34,85,15,037,27,1*7B
$GLGSV,2,2,07,69,10,002,28,78,07,319,,68,06,316,24,1*40
$GAGSV,3,1,10,24,71,110,33,12,60,105,29,10,54,152,31,25,52,298,32,7*7C
$GAGSV,3,2,10,11,33,180,25,33,24,041,26,31,19,115,25,03,12,274,09,7*7A
$GAGSV,3,3,10,08,11,323,24,02,02,296,17,7*75
$GBGSV,3,1,10,35,76,199,33,26,71,222,32,29,38,057,29,24,36,305,30,1*7D
$GBGSV,3,2,10,44,28,226,25,45,27,152,20,39,12,330,20,12,05,225,14,1*70
$GBGSV,3,3,10,16,03,335,,32,03,027,16,1*76
$GNRMC,004733.000,A,4910.427382,N,12304.399614,W,0.02,329.93,090125,,,D,V*11
$GNVTG,329.93,T,,M,0.02,N,0.03,K,D*25
$PAIRLOG,Full*51
$GNGGA,004734.000,4910.427376,N,12304.399638,W,2,31,0.52,-4.903,M,-16.816,M,,*61
$GNGLL,4910.427376,N,12304.399638,W,004734.000,A,D*51
$GNGSA,A,3,12,06,11,19,24,25,17,03,32,,,,0.92,0.52,0.75,1*07
$GNGSA,A,3,86,76,87,85,69,68,,,,,,,0.92,0.52,0.75,2*00
$GNGSA,A,3,24,12,10,25,11,33,31,03,08,,,,0.92,0.52,0.75,3*07
$GNGSA,A,3,35,26,29,24,44,45,39,,,,,,0.92,0.52,0.75,4*0E
$GPGSV,3,1,11,12,63,299,34,06,61,097,34,11,48,166,31,19,46,063,33,1*6D
$GPGSV,3,2,11,24,41,220,28,46,33,188,31,25,22,299,26,17,17,067,19,1*65
$GPGSV,3,3,11,03,09,027,23,32,08,313,24,20,03,152,16,1*54
$GLGSV,2,1,07,86,70,052,37,76,62,141,35,87,55,208,34,85,15,037,27,1*7B
$GLGSV,2,2,07,69,10,002,28,78,07,319,,68,06,316,24,1*40
$GAGSV,3,1,10,24,71,110,33,12,60,105,29,10,54,152,31,25,52,298,32,7*7C
$GAGSV,3,2,10,11,33,180,25,33,24,041,26,31,19,115,25,03,12,274,09,7*7A
$GAGSV,3,3,10,08,11,323,24,02,02,296,17,7*75
$GBGSV,3,1,10,35,76,199,33,26,71,222,32,29,38,057,29,24,36,305,30,1*7D
$GBGSV,3,2,10,44,28,226,25,45,27,152,20,39,12,330,20,12,05,225,14,1*70
$GBGSV,3,3,10,16,03,335,,32,03,027,16,1*76
$GNRMC,004734.000,A,4910.427376,N,12304.399638,W,0.02,329.93,090125,,,D,V*13
$GNVTG,329.93,T,,M,0.02,N,0.03,K,D*25
$PAIRLOG,Full*51
$GNGGA,004735.000,4910.427340,N,12304.399800,W,2,31,0.52,-5.109,M,-16.816,M,,*63
$GNGLL,4910.427340,N,12304.399800,W,004735.000,A,D*50
$GNGSA,A,3,12,06,11,19,24,25,17,03,32,,,,0.92,0.52,0.75,1*07
$GNGSA,A,3,86,76,87,85,69,68,,,,,,,0.92,0.52,0.75,2*00
$GNGSA,A,3,24,12,10,25,11,33,31,03,08,,,,0.92,0.52,0.75,3*07
$GNGSA,A,3,35,26,29,24,44,45,39,,,,,,0.92,0.52,0.75,4*0E
$GPGSV,3,1,11,12,63,299,34,06,61,097,34,11,48,166,31,19,46,063,33,1*6D
$GPGSV,3,2,11,24,41,220,28,46,33,188,31,25,22,299,26,17,17,067,19,1*65
$GPGSV,3,3,11,03,09,027,23,32,08,313,24,20,03,152,16,1*54
$GLGSV,2,1,07,86,70,052,37,76,62,141,35,87,55,208,34,85,15,037,27,1*7B
$GLGSV,2,2,07,69,10,002,28,78,07,319,,68,06,316,24,1*40
$GAGSV,3,1,10,24,71,110,33,12,60,105,29,10,54,152,31,25,52,298,32,7*7C
$GAGSV,3,2,10,11,33,180,25,33,24,041,26,31,19,115,25,03,12,274,09,7*7A
$GAGSV,3,3,10,08,11,323,24,02,02,296,17,7*75
$GBGSV,3,1,10,35,76,199,33,26,71,222,32,29,38,057,29,24,36,305,30,1*7D
$GBGSV,3,2,10,44,28,226,25,45,27,152,20,39,12,330,19,12,05,225,14,1*7A
$GBGSV,3,3,10,16,03,335,,32,03,027,16,1*76
$GNRMC,004735.000,A,4910.427340,N,12304.399800,W,0.02,329.93,090125,,,D,V*12
$GNVTG,329.93,T,,M,0.02,N,0.04,K,D*22
$PAIRLOG,Full*51
$GNGGA,004736.000,4910.427298,N,12304.399932,W,2,30,0.53,-5.246,M,-16.816,M,,*6C
$GNGLL,4910.427298,N,12304.399932,W,004736.000,A,D*57
$GNGSA,A,3,12,06,11,19,24,25,17,03,32,,,,0.94,0.53,0.77,1*02
$GNGSA,A,3,86,76,87,85,69,68,,,,,,,0.94,0.53,0.77,2*05
$GNGSA,A,3,24,12,10,25,11,33,31,08,,,,,0.94,0.53,0.77,3*01
$GNGSA,A,3,35,26,29,24,44,45,39,,,,,,0.94,0.53,0.77,4*0B
$GPGSV,3,1,11,12,63,299,34,06,61,097,34,11,48,166,31,19,46,063,33,1*6D
$GPGSV,3,2,11,24,41,220,28,46,33,188,31,25,23,299,26,17,17,067,18,1*65
$GPGSV,3,3,11,03,09,027,23,32,08,313,24,20,03,152,17,1*55
$GLGSV,2,1,07,86,70,052,37,76,62,141,35,87,55,208,34,85,15,037,27,1*7B
$GLGSV,2,2,07,69,10,002,28,78,07,319,,68,06,316,24,1*40
$GAGSV,3,1,10,24,71,110,33,12,60,105,29,10,54,152,31,25,52,298,32,7*7C
$GAGSV,3,2,10,11,33,180,25,33,24,041,26,31,19,115,25,03,12,274,08,7*7B
$GAGSV,3,3,10,08,11,323,24,02,02,296,17,7*75
$GBGSV,3,1,10,35,76,199,33,26,71,222,32,29,38,057,29,24,36,305,30,1*7D
$GBGSV,3,2,10,44,28,226,25,45,27,152,20,39,12,330,19,12,05,225,14,1*7A
$GBGSV,3,3,10,16,03,335,,32,03,027,16,1*76
$GNRMC,004736.000,A,4910.427298,N,12304.399932,W,0.02,329.93,090125,,,D,V*15
$GNVTG,329.93,T,,M,0.02,N,0.04,K,D*22
$PAIRLOG,Full*51
$GNGGA,004737.000,4910.427262,N,12304.399968,W,2,30,0.53,-5.453,M,-16.816,M,,*65
$GNGLL,4910.427262,N,12304.399968,W,004737.000,A,D*5C
$GNGSA,A,3,12,06,11,19,24,25,17,03,32,,,,0.94,0.53,0.77,1*02
$GNGSA,A,3,86,76,87,85,69,68,,,,,,,0.94,0.53,0.77,2*05
$GNGSA,A,3,24,12,10,25,11,33,31,08,,,,,0.94,0.53,0.77,3*01
$GNGSA,A,3,35,26,29,24,44,45,39,,,,,,0.94,0.53,0.77,4*0B
$GPGSV,3,1,11,12,63,299,34,06,61,097,35,11,48,166,31,19,46,063,33,1*6C
$GPGSV,3,2,11,24,41,220,28,46,33,188,32,25,23,299,26,17,17,067,18,1*66
$GPGSV,3,3,11,03,09,027,23,32,08,313,24,20,03,152,17,1*55
$GLGSV,2,1,07,86,70,052,36,76,62,141,35,87,55,208,34,85,15,037,27,1*7A
$GLGSV,2,2,07,69,10,002,28,78,07,319,,68,06,316,24,1*40
$GAGSV,3,1,10,24,71,110,33,12,60,105,29,10,54,152,31,25,52,298,33,7*7D
$GAGSV,3,2,10,11,33,180,25,33,24,041,26,31,19,115,26,03,12,274,08,7*78
$GAGSV,3,3,10,08,11,323,24,02,02,296,17,7*75
$GBGSV,3,1,10,35,76,199,33,26,71,222,32,29,38,057,29,24,36,305,30,1*7D
$GBGSV,3,2,10,44,28,226,25,45,27,152,20,39,12,330,19,12,05,225,14,1*7A
$GBGSV,3,3,10,16,03,335,,32,03,027,16,1*76
$GNRMC,004737.000,A,4910.427262,N,12304.399968,W,0.02,329.93,090125,,,D,V*1E
$GNVTG,329.93,T,,M,0.02,N,0.03,K,D*25
$PAIRLOG,Full*51
$GNGGA,004738.000,4910.427256,N,12304.399986,W,2,30,0.53,-5.564,M,-16.816,M,,*68
$GNGLL,4910.427256,N,12304.399986,W,004738.000,A,D*54
$GNGSA,A,3,12,06,11,19,24,25,17,03,32,,,,0.94,0.53,0.77,1*02
$GNGSA,A,3,86,76,87,85,69,68,,,,,,,0.94,0.53,0.77,2*05
$GNGSA,A,3,24,12,10,25,11,33,31,08,,,,,0.94,0.53,0.77,3*01
$GNGSA,A,3,35,26,29,24,44,45,39,,,,,,0.94,0.53,0.77,4*0B
$GPGSV,3,1,11,12,63,299,34,06,61,097,35,11,48,166,31,19,46,063,33,1*6C
$GPGSV,3,2,11,24,41,220,28,46,33,188,31,25,23,299,26,17,17,067,18,1*65
$GPGSV,3,3,11,03,09,027,23,32,08,313,23,20,03,152,17,1*52
$GLGSV,2,1,07,86,70,052,36,76,62,141,35,87,55,208,34,85,15,037,27,1*7A
$GLGSV,2,2,07,69,10,002,29,78,07,319,,68,06,316,24,1*41
$GAGSV,3,1,10,24,71,110,33,12,60,105,29,10,54,152,31,25,52,298,33,7*7D
$GAGSV,3,2,10,11,33,180,25,33,24,041,26,31,19,115,25,03,12,274,08,7*7B
$GAGSV,3,3,10,08,11,323,23,02,02,296,17,7*72
$GBGSV,3,1,10,35,76,199,33,26,71,222,32,29,38,057,29,24,36,305,30,1*7D
$GBGSV,3,2,10,44,28,226,25,45,27,152,19,39,12,330,19,12,05,225,14,1*70
$GBGSV,3,3,10,16,03,335,,32,03,027,16,1*76
$GNRMC,004738.000,A,4910.427256,N,12304.399986,W,0.01,329.93,090125,,,D,V*15
$GNVTG,329.93,T,,M,0.01,N,0.02,K,D*27
$PAIRLOG,Full*51
$GNGGA,004739.000,4910.427196,N,12304.399992,W,2,30,0.53,-5.721,M,-16.816,M,,*60
$GNGLL,4910.427196,N,12304.399992,W,004739.000,A,D*5F
$GNGSA,A,3,12,06,11,19,24,25,17,03,32,,,,0.94,0.53,0.77,1*02
$GNGSA,A,3,86,76,87,85,69,68,,,,,,,0.94,0.53,0.77,2*05
$GNGSA,A,3,24,12,10,25,11,33,31,08,,,,,0.94,0.53,0.77,3*01
$GNGSA,A,3,35,26,29,24,44,45,39,,,,,,0.94,0.53,0.77,4*0B
$GPGSV,3,1,11,12,63,299,34,06,61,097,34,11,48,166,30,19,46,063,33,1*6C
$GPGSV,3,2,11,24,41,220,27,46,33,188,31,25,23,299,26,17,17,067,18,1*6A
$GPGSV,3,3,11,03,09,027,22,32,08,313,23,20,03,152,16,1*52
$GLGSV,2,1,07,86,70,052,36,76,62,141,35,87,55,208,34,85,15,037,27,1*7A
$GLGSV,2,2,07,69,10,002,29,78,07,319,,68,06,316,24,1*41
$GAGSV,3,1,10,24,71,110,33,12,60,105,29,10,54,152,31,25,52,298,32,7*7C
$GAGSV,3,2,10,11,33,180,25,33,24,041,26,31,19,115,25,03,12,274,08,7*7B
$GAGSV,3,3,10,08,11,323,23,02,02,296,17,7*72
$GBGSV,3,1,10,35,76,199,33,26,71,222,32,29,38,057,29,24,36,305,30,1*7D
$GBGSV,3,2,10,44,28,226,25,45,27,152,19,39,12,330,19,12,05,225,14,1*70
$GBGSV,3,3,10,16,03,335,,32,03,027,16,1*76
$GNRMC,004739.000,A,4910.427196,N,12304.399992,W,0.01,329.93,090125,,,D,V*1E
$GNVTG,329.93,T,,M,0.01,N,0.02,K,D*27
$PAIRLOG,Full*51
$GNGGA,004740.000,4910.427130,N,12304.399944,W,2,30,0.53,-5.778,M,-16.816,M,,*65
$GNGLL,4910.427130,N,12304.399944,W,004740.000,A,D*56
$GNGSA,A,3,12,06,11,19,24,25,17,03,32,,,,0.94,0.53,0.77,1*02
$GNGSA,A,3,86,76,87,85,69,68,,,,,,,0.94,0.53,0.77,2*05
$GNGSA,A,3,24,12,10,25,11,33,31,08,,,,,0.94,0.53,0.77,3*01
$GNGSA,A,3,35,26,29,24,44,45,39,,,,,,0.94,0.53,0.77,4*0B
$GPGSV,3,1,11,12,63,299,34,06,61,097,34,11,48,166,30,19,46,063,33,1*6C
$GPGSV,3,2,11,24,41,220,27,46,33,188,31,25,23,299,25,17,17,067,18,1*69
$GPGSV,3,3,11,03,09,027,22,32,08,313,23,20,03,152,16,1*52
$GLGSV,2,1,07,86,70,052,36,76,62,141,35,87,55,208,34,85,15,037,27,1*7A
$GLGSV,2,2,07,69,10,002,29,78,07,319,,68,06,316,24,1*41
$GAGSV,3,1,10,24,71,110,33,12,60,105,28,10,54,152,31,25,52,298,32,7*7D
$GAGSV,3,2,10,11,33,180,25,33,24,041,25,31,19,115,25,03,12,274,08,7*78
$GAGSV,3,3,10,08,11,323,23,02,02,296,17,7*72
$GBGSV,3,1,10,35,76,199,34,26,71,222,32,29,38,057,29,24,36,305,30,1*7A
$GBGSV,3,2,10,44,28,226,25,45,27,152,20,39,12,330,19,12,05,225,14,1*7A
$GBGSV,3,3,10,16,03,335,,32,03,027,16,1*76
$GNRMC,004740.000,A,4910.427130,N,12304.399944,W,0.01,329.93,090125,,,D,V*17
$GNVTG,329.93,T,,M,0.01,N,0.01,K,D*24
$PAIRLOG,Full*51
$GNGGA,004741.000,4910.427118,N,12304.399830,W,2,30,0.53,-5.770,M,-16.816,M,,*64
$GNGLL,4910.427118,N,12304.399830,W,004741.000,A,D*5F
$GNGSA,A,3,12,06,11,19,24,25,17,03,32,,,,0.94,0.53,0.77,1*02
$GNGSA,A,3,86,76,87,85,69,68,,,,,,,0.94,0.53,0.77,2*05
$GNGSA,A,3,24,12,10,25,11,33,31,08,,,,,0.94,0.53,0.77,3*01
$GNGSA,A,3,35,26,29,24,44,45,39,,,,,,0.94,0.53,0.77,4*0B
$GPGSV,3,1,11,12,63,299,34,06,61,097,34,11,48,166,30,19,46,063,33,1*6C
$GPGSV,3,2,11,24,41,220,27,46,33,188,31,25,23,299,25,17,17,067,18,1*69
$GPGSV,3,3,11,03,09,027,22,32,08,313,22,20,03,152,16,1*53
$GLGSV,2,1,07,86,70,052,36,76,62,141,35,87,55,208,34,85,15,037,27,1*7A
$GLGSV,2,2,07,69,10,002,29,78,07,319,,68,06,316,24,1*41
$GAGSV,3,1,10,24,71,110,33,12,60,105,28,10,54,152,31,25,52,298,32,7*7D
$GAGSV,3,2,10,11,33,180,24,33,24,041,25,31,19,115,25,03,12,274,08,7*79
$GAGSV,3,3,10,08,11,323,22,02,02,296,17,7*73
$GBGSV,3,1,10,35,76,199,34,26,71,222,32,29,38,057,29,24,36,305,30,1*7A
$GBGSV,3,2,10,44,28,226,25,45,27,152,20,39,12,330,19,12,05,225,15,1*7B
$GBGSV,3,3,10,16,03,335,,32,03,027,16,1*76
$GNRMC,004741.000,A,4910.427118,N,12304.399830,W,0.01,329.93,090125,,,D,V*1E
$GNVTG,329.93,T,,M,0.01,N,0.01,K,D*24
$PAIRLOG,Full*51
$GNGGA,004742.000,4910.427088,N,12304.399752,W,2,30,0.53,-5.800,M,-16.816,M,,*6C
$GNGLL,4910.427088,N,12304.399752,W,004742.000,A,D*5F
$GNGSA,A,3,12,06,11,19,24,25,17,03,32,,,,0.94,0.53,0.77,1*02
$GNGSA,A,3,86,76,87,85,69,68,,,,,,,0.94,0.53,0.77,2*05
$GNGSA,A,3,24,12,10,25,11,33,31,08,,,,,0.94,0.53,0.77,3*01
$GNGSA,A,3,35,26,29,24,44,45,39,,,,,,0.94,0.53,0.77,4*0B
$GPGSV,3,1,11,12,63,299,33,06,61,097,34,11,48,166,30,19,46,063,32,1*6A
$GPGSV,3,2,11,24,41,220,26,46,33,188,31,25,23,299,25,17,17,067,18,1*68
$GPGSV,3,3,11,03,09,027,23,32,08,313,21,20,03,152,16,1*51
$GLGSV,2,1,07,86,70,052,36,76,62,141,36,87,55,208,34,85,15,037,27,1*79
$GLGSV,2,2,07,69,10,002,29,78,07,319,,68,06,316,24,1*41
$GAGSV,3,1,10,24,71,110,33,12,60,105,28,10,54,152,31,25,52,298,32,7*7D
$GAGSV,3,2,10,11,33,180,24,33,24,041,25,31,19,115,25,03,12,274,08,7*79
$GAGSV,3,3,10,08,11,323,21,02,02,296,17,7*70
$GBGSV,3,1,10,35,76,199,35,26,71,222,32,29,38,057,29,24,36,305,31,1*7A
$GBGSV,3,2,10,44,28,226,26,45,27,152,21,39,12,330,20,12,05,225,16,1*70
$GBGSV,3,3,10,16,03,335,,32,03,027,16,1*76
$GNRMC,004742.000,A,4910.427088,N,12304.399752,W,0.01,329.93,090125,,,D,V*1E
$GNVTG,329.93,T,,M,0.01,N,0.01,K,D*24
$PAIRLOG,Full*51
$GNGGA,004743.000,4910.427070,N,12304.399602,W,2,30,0.53,-5.738,M,-16.816,M,,*6A
$GNGLL,4910.427070,N,12304.399602,W,004743.000,A,D*5D
$GNGSA,A,3,12,06,11,19,24,25,17,03,32,,,,0.94,0.53,0.77,1*02
$GNGSA,A,3,86,76,87,85,69,68,,,,,,,0.94,0.53,0.77,2*05
$GNGSA,A,3,24,12,10,25,11,33,31,08,,,,,0.94,0.53,0.77,3*01
$GNGSA,A,3,35,26,29,24,44,45,39,,,,,,0.94,0.53,0.77,4*0B
$GPGSV,3,1,11,12,63,299,33,06,61,096,34,11,48,166,30,19,45,063,32,1*68
$GPGSV,3,2,11,24,41,220,26,46,33,188,31,25,23,299,24,17,17,067,17,1*66
$GPGSV,3,3,11,03,09,027,20,32,08,313,21,20,03,152,16,1*52
$GLGSV,2,1,07,86,70,051,36,76,61,141,36,87,56,208,34,85,14,037,27,1*7B
$GLGSV,2,2,07,69,10,002,29,78,08,319,,68,06,316,24,1*4E
$GAGSV,3,1,10,24,71,110,33,12,60,104,28,10,54,152,31,25,52,298,32,7*7C
$GAGSV,3,2,10,11,33,180,24,33,24,041,25,31,19,115,25,08,11,323,21,7*79
$GAGSV,3,3,10,03,11,274,08,02,02,296,17,7*73
$GBGSV,3,1,10,35,76,198,35,26,71,222,33,29,38,057,30,24,36,305,32,1*71
$GBGSV,3,2,10,44,29,226,27,45,27,152,22,39,12,330,21,12,06,226,16,1*72
$GBGSV,3,3,10,16,03,335,,32,03,027,16,1*76
$GNRMC,004743.000,A,4910.427070,N,12304.399602,W,0.01,329.93,090125,,,D,V*1C
$GNVTG,329.93,T,,M,0.01,N,0.02,K,D*27
$PAIRLOG,Full*51
$GNGGA,004744.000,4910.426998,N,12304.399374,W,2,30,0.53,-5.624,M,-16.817,M,,*6A
$GNGLL,4910.426998,N,12304.399374,W,004744.000,A,D*50
$GNGSA,A,3,12,06,11,19,24,25,17,03,32,,,,0.94,0.53,0.77,1*02
$GNGSA,A,3,86,76,87,85,69,68,,,,,,,0.94,0.53,0.77,2*05
$GNGSA,A,3,24,12,10,25,11,33,31,08,,,,,0.94,0.53,0.77,3*01
$GNGSA,A,3,35,26,29,24,44,45,39,,,,,,0.94,0.53,0.77,4*0B
$GPGSV,3,1,11,12,63,299,33,06,61,096,34,11,48,166,31,19,45,063,33,1*68
$GPGSV,3,2,11,24,41,220,27,46,33,188,31,25,23,299,25,17,17,067,17,1*66
$GPGSV,3,3,11,03,09,027,21,32,08,313,21,20,03,152,16,1*53
$GLGSV,2,1,07,86,70,051,36,76,61,141,36,87,56,208,34,85,14,037,27,1*7B
$GLGSV,2,2,07,69,10,002,29,78,08,319,,68,06,316,23,1*49
$GAGSV,3,1,10,24,71,110,33,12,60,104,28,10,54,152,31,25,52,298,32,7*7C
$GAGSV,3,2,10,11,33,180,24,33,24,041,26,31,19,115,25,08,11,323,22,7*79
$GAGSV,3,3,10,03,11,274,08,02,02,296,17,7*73
$GBGSV,3,1,10,35,76,198,35,26,71,222,33,29,38,057,30,24,36,305,32,1*71
$GBGSV,3,2,10,44,29,226,27,45,27,152,22,39,12,330,21,12,06,226,16,1*72
$GBGSV,3,3,10,16,03,335,,32,03,027,16,1*76
$GNRMC,004744.000,A,4910.426998,N,12304.399374,W,0.02,329.93,090125,,,D,V*12
$GNVTG,329.93,T,,M,0.02,N,0.03,K,D*25
$PAIRLOG,Full*51
$GNGGA,004745.000,4910.426962,N,12304.399248,W,2,30,0.53,-5.440,M,-16.817,M,,*60
$GNGLL,4910.426962,N,12304.399248,W,004745.000,A,D*5A
$GNGSA,A,3,12,06,11,19,24,25,17,03,32,,,,0.94,0.53,0.77,1*02
$GNGSA,A,3,86,76,87,85,69,68,,,,,,,0.94,0.53,0.77,2*05
$GNGSA,A,3,24,12,10,25,11,33,31,08,,,,,0.94,0.53,0.77,3*01
$GNGSA,A,3,35,26,29,24,44,45,39,,,,,,0.94,0.53,0.77,4*0B
$GPGSV,3,1,11,12,63,299,33,06,61,096,34,11,48,166,31,19,45,063,33,1*68
$GPGSV,3,2,11,24,41,220,27,46,33,188,31,25,23,299,25,17,17,067,17,1*66
$GPGSV,3,3,11,03,09,027,20,32,08,313,21,20,03,152,16,1*52
$GLGSV,2,1,07,86,70,051,36,76,61,141,36,87,56,208,34,85,14,037,27,1*7B
$GLGSV,2,2,07,69,10,002,29,78,08,319,,68,06,316,23,1*49
$GAGSV,3,1,10,24,71,110,32,12,60,104,28,10,54,152,31,25,52,298,32,7*7D
$GAGSV,3,2,10,11,33,180,24,33,24,041,26,31,19,115,25,08,11,323,22,7*79
$GAGSV,3,3,10,03,11,274,08,02,02,296,17,7*73
$GBGSV,3,1,10,35,76,198,34,26,71,222,33,29,38,057,29,24,36,305,31,1*7B
$GBGSV,3,2,10,44,29,226,27,45,27,152,21,39,12,330,21,12,06,226,16,1*71
$GBGSV,3,3,10,16,03,335,,32,03,027,16,1*76
$GNRMC,004745.000,A,4910.426962,N,12304.399248,W,0.02,329.93,090125,,,D,V*18
$GNVTG,329.93,T,,M,0.02,N,0.03,K,D*25
$PAIRLOG,Full*51
$GNGGA,004746.000,4910.426992,N,12304.399020,W,2,30,0.53,-5.266,M,-16.817,M,,*62
$GNGLL,4910.426992,N,12304.399020,W,004746.000,A,D*5A
$GNGSA,A,3,12,06,11,19,24,25,17,03,32,,,,0.94,0.53,0.77,1*02
$GNGSA,A,3,86,76,87,85,69,68,,,,,,,0.94,0.53,0.77,2*05
$GNGSA,A,3,24,12,10,25,11,33,31,08,,,,,0.94,0.53,0.77,3*01
$GNGSA,A,3,35,26,29,24,44,45,39,,,,,,0.94,0.53,0.77,4*0B
$GPGSV,3,1,11,12,63,299,33,06,61,096,34,11,48,166,30,19,45,063,32,1*68
$GPGSV,3,2,11,24,41,220,26,46,33,188,31,25,23,299,25,17,17,067,16,1*66
$GPGSV,3,3,11,03,09,027,20,32,08,313,21,20,03,152,15,1*51
$GLGSV,2,1,07,86,70,051,36,76,61,141,36,87,56,208,34,85,14,037,26,1*7A
$GLGSV,2,2,07,69,10,002,29,78,08,319,,68,06,316,23,1*49
$GAGSV,3,1,10,24,71,110,32,12,60,104,28,10,54,152,31,25,52,298,32,7*7D
$GAGSV,3,2,10,11,33,180,24,33,24,041,25,31,19,115,25,08,11,323,21,7*79
$GAGSV,3,3,10,03,11,274,07,02,02,296,17,7*7C
$GBGSV,3,1,10,35,76,198,34,26,71,222,33,29,38,057,29,24,36,305,31,1*7B
$GBGSV,3,2,10,44,29,226,27,45,27,152,21,39,12,330,21,12,06,226,16,1*71
$GBGSV,3,3,10,16,03,335,,32,03,027,16,1*76
$GNRMC,004746.000,A,4910.426992,N,12304.399020,W,0.03,329.93,090125,,,D,V*19
$GNVTG,329.93,T,,M,0.03,N,0.05,K,D*22
$PAIRLOG,Full*51
$GNGGA,004747.000,4910.427058,N,12304.398828,W,2,30,0.53,-5.020,M,-16.816,M,,*6D
$GNGLL,4910.427058,N,12304.398828,W,004747.000,A,D*54
$GNGSA,A,3,12,06,11,19,24,25,17,03,32,,,,0.94,0.53,0.77,1*02
$GNGSA,A,3,86,76,87,85,69,68,,,,,,,0.94,0.53,0.77,2*05
$GNGSA,A,3,24,12,10,25,11,33,31,08,,,,,0.94,0.53,0.77,3*01
$GNGSA,A,3,35,26,29,24,44,45,39,,,,,,0.94,0.53,0.77,4*0B
$GPGSV,3,1,11,12,63,299,33,06,61,096,34,11,48,166,30,19,45,063,32,1*68
$GPGSV,3,2,11,24,41,220,27,46,33,188,31,25,23,299,25,17,17,067,16,1*67
$GPGSV,3,3,11,03,09,027,21,32,08,313,21,20,03,152,14,1*51
$GLGSV,2,1,07,86,70,051,36,76,61,141,36,87,56,208,34,85,14,037,26,1*7A
$GLGSV,2,2,07,69,10,002,29,78,08,319,,68,06,316,23,1*49
$GAGSV,3,1,10,24,71,110,32,12,60,104,28,10,54,152,30,25,52,298,31,7*7F
$GAGSV,3,2,10,11,33,180,24,33,24,041,25,31,19,115,25,08,11,323,21,7*79
$GAGSV,3,3,10,03,11,274,07,02,02,296,17,7*7C
$GBGSV,3,1,10,35,76,198,34,26,71,222,32,29,38,057,29,24,36,305,31,1*7A
$GBGSV,3,2,10,44,29,226,27,45,27,152,21,39,12,330,21,12,06,226,16,1*71
$GBGSV,3,3,10,16,03,335,,32,03,027,16,1*76
$GNRMC,004747.000,A,4910.427058,N,12304.398828,W,0.04,329.93,090125,,,D,V*10
$GNVTG,329.93,T,,M,0.04,N,0.07,K,D*27
$PAIRLOG,Full*51
$GNGGA,004748.000,4910.427058,N,12304.398624,W,2,30,0.53,-4.887,M,-16.816,M,,*64
$GNGLL,4910.427058,N,12304.398624,W,004748.000,A,D*59
$GNGSA,A,3,12,06,11,19,24,25,17,03,32,,,,0.94,0.53,0.77,1*02
$GNGSA,A,3,86,76,87,85,69,68,,,,,,,0.94,0.53,0.77,2*05
$GNGSA,A,3,24,12,10,25,11,33,31,08,,,,,0.94,0.53,0.77,3*01
$GNGSA,A,3,35,26,29,24,44,45,39,,,,,,0.94,0.53,0.77,4*0B
$GPGSV,3,1,11,12,63,299,33,06,61,096,34,11,48,166,30,19,45,063,32,1*68
$GPGSV,3,2,11,24,41,220,28,46,33,188,31,25,23,299,25,17,17,067,15,1*6B
$GPGSV,3,3,11,03,09,027,22,32,08,313,21,20,03,152,15,1*53
$GLGSV,2,1,07,86,70,051,36,76,61,141,36,87,56,208,34,85,14,037,26,1*7A
$GLGSV,2,2,07,69,10,002,30,78,08,319,,68,06,316,22,1*40
$GAGSV,3,1,10,24,71,110,32,12,60,104,28,10,54,152,30,25,52,298,31,7*7F
$GAGSV,3,2,10,11,33,180,24,33,24,041,25,31,19,115,25,08,11,323,21,7*79
$GAGSV,3,3,10,03,11,274,07,02,02,296,17,7*7C
$GBGSV,3,1,10,35,76,198,34,26,71,222,32,29,38,057,29,24,36,305,31,1*7A
$GBGSV,3,2,10,44,29,226,26,45,27,152,21,39,12,330,21,12,06,226,16,1*70
$GBGSV,3,3,10,16,03,335,,32,03,027,16,1*76
$GNRMC,004748.000,A,4910.427058,N,12304.398624,W,0.04,329.93,090125,,,D,V*1D
$GNVTG,329.93,T,,M,0.04,N,0.07,K,D*27
$PAIRLOG,Full*51
$GNGGA,004749.000,4910.427148,N,12304.398396,W,2,30,0.53,-4.838,M,-16.817,M,,*6C
$GNGLL,4910.427148,N,12304.398396,W,004749.000,A,D*54
$GNGSA,A,3,12,06,11,19,24,25,17,03,32,,,,0.94,0.53,0.77,1*02
$GNGSA,A,3,86,76,87,85,69,68,,,,,,,0.94,0.53,0.77,2*05
$GNGSA,A,3,24,12,10,25,11,33,31,08,,,,,0.94,0.53,0.77,3*01
$GNGSA,A,3,35,26,29,24,44,45,39,,,,,,0.94,0.53,0.77,4*0B
$GPGSV,3,1,11,12,63,299,33,06,61,096,34,11,48,166,30,19,45,063,32,1*68
$GPGSV,3,2,11,24,41,220,28,46,33,188,31,25,23,299,25,17,17,067,14,1*6A
$GPGSV,3,3,11,03,09,027,22,32,08,313,21,20,03,152,16,1*50
$GLGSV,2,1,07,86,70,051,36,76,61,141,36,87,56,208,34,85,14,037,26,1*7A
$GLGSV,2,2,07,69,10,002,30,78,08,319,,68,06,316,22,1*40
$GAGSV,3,1,10,24,71,110,32,12,60,104,28,10,54,152,30,25,52,298,31,7*7F
$GAGSV,3,2,10,11,33,180,24,33,24,041,25,31,19,115,25,08,11,323,21,7*79
$GAGSV,3,3,10,03,11,274,07,02,02,296,17,7*7C
$GBGSV,3,1,10,35,76,198,34,26,71,222,32,29,38,057,29,24,36,305,31,1*7A
$GBGSV,3,2,10,44,29,226,26,45,27,152,21,39,12,330,21,12,06,226,15,1*73
$GBGSV,3,3,10,16,03,335,,32,03,027,16,1*76
$GNRMC,004749.000,A,4910.427148,N,12304.398396,W,0.04,329.93,090125,,,D,V*10
$GNVTG,329.93,T,,M,0.04,N,0.07,K,D*27
$PAIRLOG,Full*51
$GNGGA,004750.000,4910.427208,N,12304.398108,W,2,30,0.53,-4.639,M,-16.816,M,,*68
$GNGLL,4910.427208,N,12304.398108,W,004750.000,A,D*5E
$GNGSA,A,3,12,06,11,19,24,25,17,03,32,,,,0.94,0.53,0.77,1*02
$GNGSA,A,3,86,76,87,85,69,68,,,,,,,0.94,0.53,0.77,2*05
$GNGSA,A,3,24,12,10,25,11,33,31,08,,,,,0.94,0.53,0.77,3*01
$GNGSA,A,3,35,26,29,24,44,45,39,,,,,,0.94,0.53,0.77,4*0B
$GPGSV,3,1,11,12,63,299,34,06,61,096,35,11,48,166,30,19,45,063,33,1*6F
$GPGSV,3,2,11,24,41,220,29,46,33,188,31,25,23,299,26,17,17,067,16,1*6A
$GPGSV,3,3,11,03,09,027,22,32,08,313,22,20,03,152,17,1*52
$GLGSV,2,1,07,86,70,051,36,76,61,141,36,87,56,208,34,85,14,037,26,1*7A
$GLGSV,2,2,07,69,10,002,30,78,08,319,,68,06,316,22,1*40
$GAGSV,3,1,10,24,71,110,32,12,60,104,28,10,54,152,30,25,52,298,31,7*7F
$GAGSV,3,2,10,11,33,180,24,33,24,041,25,31,19,115,25,08,11,323,21,7*79
$GAGSV,3,3,10,03,11,274,07,02,02,296,18,7*73
$GBGSV,3,1,10,35,76,198,34,26,71,222,32,29,38,057,29,24,36,305,31,1*7A
$GBGSV,3,2,10,44,29,226,26,45,27,152,21,39,12,330,20,12,06,226,15,1*72
$GBGSV,3,3,10,16,03,335,,32,03,027,16,1*76
$GNRMC,004750.000,A,4910.427208,N,12304.398108,W,0.04,329.93,090125,,,D,V*1A
$GNVTG,329.93,T,,M,0.04,N,0.08,K,D*28
$PAIRLOG,Full*51
$GNGGA,004751.000,4910.427292,N,12304.397964,W,2,31,0.52,-4.654,M,-16.817,M,,*6D
$GNGLL,4910.427292,N,12304.397964,W,004751.000,A,D*51
$GNGSA,A,3,12,06,11,19,24,25,17,03,32,,,,0.92,0.52,0.75,1*07
$GNGSA,A,3,86,76,87,85,69,68,,,,,,,0.92,0.52,0.75,2*00
$GNGSA,A,3,24,12,10,25,11,33,31,08,03,,,,0.92,0.52,0.75,3*07
$GNGSA,A,3,35,26,29,24,44,45,39,,,,,,0.92,0.52,0.75,4*0E
$GPGSV,3,1,11,12,63,299,34,06,61,096,35,11,48,166,30,19,45,063,34,1*68
$GPGSV,3,2,11,24,41,220,29,46,33,188,31,25,23,299,27,17,17,067,16,1*6B
$GPGSV,3,3,11,03,09,027,22,32,08,313,24,20,03,152,16,1*55
$GLGSV,2,1,07,86,70,051,36,76,61,141,36,87,56,208,34,85,14,037,26,1*7A
$GLGSV,2,2,07,69,10,002,31,78,08,319,,68,06,316,22,1*41
$GAGSV,3,1,10,24,71,110,33,12,60,104,29,10,54,152,31,25,52,298,32,7*7D
$GAGSV,3,2,10,11,33,180,24,33,24,041,25,31,19,115,25,08,11,323,22,7*7A
$GAGSV,3,3,10,03,11,274,08,02,02,296,18,7*7C
$GBGSV,3,1,10,35,76,198,34,26,71,222,32,29,38,057,29,24,36,305,31,1*7A
$GBGSV,3,2,10,44,29,226,26,45,27,152,21,39,12,330,20,12,06,226,15,1*72
$GBGSV,3,3,10,16,03,335,,32,03,027,16,1*76
$GNRMC,004751.000,A,4910.427292,N,12304.397964,W,0.03,329.93,090125,,,D,V*12
$GNVTG,329.93,T,,M,0.03,N,0.06,K,D*21
$PAIRLOG,Full*51
$GNGGA,004752.000,4910.427418,N,12304.397754,W,2,31,0.52,-4.574,M,-16.816,M,,*67
$GNGLL,4910.427418,N,12304.397754,W,004752.000,A,D*5B
$GNGSA,A,3,12,06,11,19,24,25,17,03,32,,,,0.92,0.52,0.75,1*07
$GNGSA,A,3,86,76,87,85,69,68,,,,,,,0.92,0.52,0.75,2*00
$GNGSA,A,3,24,12,10,25,11,33,31,08,03,,,,0.92,0.52,0.75,3*07
$GNGSA,A,3,35,26,29,24,44,45,39,,,,,,0.92,0.52,0.75,4*0E
$GPGSV,3,1,11,12,63,299,35,06,61,096,35,11,48,166,31,19,45,063,34,1*68
$GPGSV,3,2,11,24,41,220,29,46,33,188,31,25,23,299,27,17,17,067,16,1*6B
$GPGSV,3,3,11,03,09,027,22,32,08,313,24,20,03,152,16,1*55
$GLGSV,2,1,07,86,70,051,36,76,61,141,36,87,56,208,34,85,14,037,26,1*7A
$GLGSV,2,2,07,69,10,002,31,78,08,319,,68,06,316,22,1*41
$GAGSV,3,1,10,24,71,110,33,12,60,104,29,10,54,152,31,25,52,298,32,7*7D
$GAGSV,3,2,10,11,33,180,24,33,24,041,26,31,19,115,25,08,11,323,22,7*79
$GAGSV,3,3,10,03,11,274,08,02,02,296,18,7*7C
$GBGSV,3,1,10,35,76,198,35,26,71,222,32,29,38,057,29,24,36,305,31,1*7B
$GBGSV,3,2,10,44,29,226,26,45,27,152,21,39,12,330,20,12,06,226,15,1*72
$GBGSV,3,3,10,16,03,335,,32,03,027,17,1*77
$GNRMC,004752.000,A,4910.427418,N,12304.397754,W,0.03,329.93,090125,,,D,V*18
$GNVTG,329.93,T,,M,0.03,N,0.06,K,D*21
$PAIRLOG,Full*51
$GNGGA,004753.000,4910.427466,N,12304.397574,W,2,31,0.52,-4.352,M,-16.817,M,,*6C
$GNGLL,4910.427466,N,12304.397574,W,004753.000,A,D*53
$GNGSA,A,3,12,06,11,19,24,25,17,03,32,,,,0.92,0.52,0.75,1*07
$GNGSA,A,3,86,76,87,85,69,68,,,,,,,0.92,0.52,0.75,2*00
$GNGSA,A,3,24,12,10,25,11,33,31,08,03,,,,0.92,0.52,0.75,3*07
$GNGSA,A,3,35,26,29,24,44,45,39,,,,,,0.92,0.52,0.75,4*0E
$GPGSV,3,1,11,12,63,299,35,06,61,096,36,11,48,166,31,19,45,063,34,1*6B
$GPGSV,3,2,11,24,41,220,29,46,33,188,31,25,23,299,28,17,17,067,15,1*67
$GPGSV,3,3,11,03,09,027,23,32,08,313,25,20,03,152,16,1*55
$GLGSV,2,1,07,86,70,051,36,76,61,141,37,87,56,208,34,85,14,037,26,1*7B
$GLGSV,2,2,07,69,10,002,31,78,08,319,,68,06,316,22,1*41
$GAGSV,3,1,10,24,71,110,33,12,60,104,29,10,54,152,31,25,52,298,32,7*7D
$GAGSV,3,2,10,11,33,180,24,33,24,041,26,31,19,115,25,08,11,323,22,7*79
$GAGSV,3,3,10,03,11,274,09,02,02,296,18,7*7D
$GBGSV,3,1,10,35,76,198,35,26,71,222,32,29,38,057,29,24,36,305,31,1*7B
$GBGSV,3,2,10,44,29,226,26,45,27,152,22,39,12,330,20,12,06,226,14,1*70
$GBGSV,3,3,10,16,03,335,,32,03,027,17,1*77
$GNRMC,004753.000,A,4910.427466,N,12304.397574,W,0.03,329.93,090125,,,D,V*10
$GNVTG,329.93,T,,M,0.03,N,0.06,K,D*21
$PAIRLOG,Full*51
