$GNGGA,185540.000,4910.425504,N,12304.401702,W,2,32,0.47,16.700,M,-16.816,M,,*73
$GNGLL,4910.425504,N,12304.401702,W,185540.000,A,D*57
$GNGSA,A,3,09,04,07,16,26,20,30,03,11,27,06,,0.74,0.47,0.58,1*04
$GNGSA,A,3,68,69,79,67,,,,,,,,,0.74,0.47,0.58,2*01
$GNGSA,A,3,09,06,31,04,05,24,34,15,36,,,,0.74,0.47,0.58,3*02
$GNGSA,A,3,23,32,37,20,25,38,19,41,,,,,0.74,0.47,0.58,4*0E
$GPGSV,4,1,14,09,85,303,37,04,62,111,32,07,52,253,31,16,44,068,31,1*69
$GPGSV,4,2,14,48,33,182,29,26,19,046,24,20,18,320,25,30,16,250,24,1*6B
$GPGSV,4,3,14,03,14,174,25,11,12,298,25,27,11,106,26,06,07,261,21,1*63
$GPGSV,4,4,14,08,02,136,,31,01,067,,1*6D
$GLGSV,2,1,07,78,75,061,,68,69,128,32,69,54,321,27,79,45,207,28,1*76
$GLGSV,2,2,07,67,18,136,22,85,09,320,18,86,07,011,,1*46
$GAGSV,3,1,09,09,87,014,30,06,64,108,28,31,54,137,27,04,37,111,23,7*7C
$GAGSV,3,2,09,05,33,295,24,24,18,187,19,34,17,291,23,15,08,340,19,7*76
$GAGSV,3,3,09,36,07,243,12,7*4E
$GBGSV,3,1,12,23,62,069,37,32,59,165,37,37,57,210,36,20,54,299,38,1*78
$GBGSV,3,2,12,25,12,052,28,38,10,334,27,19,08,315,26,41,08,144,28,1*73
$GBGSV,3,3,12,46,06,224,,08,03,341,20,12,02,026,,44,01,003,,1*7D
$GNRMC,185540.000,A,4910.425504,N,12304.401702,W,0.02,0.00,051224,,,D,V*18
$GNVTG,0.00,T,,M,0.02,N,0.04,K,D*20
$GNGGA,185541.000,4910.425462,N,12304.401666,W,2,32,0.47,16.694,M,-16.817,M,,*7D
$GNGLL,4910.425462,N,12304.401666,W,185541.000,A,D*54
$GNGSA,A,3,09,04,07,16,26,20,30,03,11,27,06,,0.74,0.47,0.58,1*04
$GNGSA,A,3,68,69,79,67,,,,,,,,,0.74,0.47,0.58,2*01
$GNGSA,A,3,09,06,31,04,05,24,34,15,36,,,,0.74,0.47,0.58,3*02
$GNGSA,A,3,23,32,37,20,25,38,19,41,,,,,0.74,0.47,0.58,4*0E
$GPGSV,4,1,14,09,85,303,37,04,62,111,32,07,52,253,31,16,44,068,31,1*69
$GPGSV,4,2,14,48,33,182,29,26,19,046,25,20,18,320,24,30,16,250,24,1*6B
$GPGSV,4,3,14,03,14,174,24,11,12,298,25,27,11,106,26,06,07,261,20,1*63
$GPGSV,4,4,14,08,02,136,,31,01,067,,1*6D
$GLGSV,2,1,06,78,75,061,,68,69,128,32,69,54,321,27,79,45,207,28,1*77
$GLGSV,2,2,06,67,18,136,22,85,09,320,18,1*7E
$GAGSV,3,1,09,09,87,014,30,06,64,108,28,31,54,137,27,04,37,111,23,7*7C
$GAGSV,3,2,09,05,33,295,24,24,18,187,19,34,17,291,23,15,08,340,19,7*76
$GAGSV,3,3,09,36,07,243,11,7*4D
$GBGSV,3,1,12,23,62,069,37,32,59,165,36,37,57,210,35,20,54,299,38,1*7A
$GBGSV,3,2,12,25,12,052,28,38,10,334,27,19,08,315,26,41,08,144,28,1*73
$GBGSV,3,3,12,46,06,224,,08,03,341,20,12,02,026,,44,01,003,,1*7D
$GNRMC,185541.000,A,4910.425462,N,12304.401666,W,0.02,0.00,051224,,,D,V*1B
$GNVTG,0.00,T,,M,0.02,N,0.04,K,D*20
$GNGGA,185542.000,4910.425414,N,12304.401546,W,2,32,0.47,16.643,M,-16.816,M,,*75
$GNGLL,4910.425414,N,12304.401546,W,185542.000,A,D*57
$GNGSA,A,3,09,04,07,16,26,20,30,03,11,27,06,,0.74,0.47,0.58,1*04
$GNGSA,A,3,68,69,79,67,,,,,,,,,0.74,0.47,0.58,2*01
$GNGSA,A,3,09,06,31,04,05,24,34,15,36,,,,0.74,0.47,0.58,3*02
$GNGSA,A,3,23,32,37,20,25,38,19,41,,,,,0.74,0.47,0.58,4*0E
$GPGSV,4,1,14,09,85,303,37,04,62,111,32,07,52,253,31,16,44,068,31,1*69
$GPGSV,4,2,14,48,33,182,29,26,19,046,24,20,18,320,25,30,16,250,25,1*6A
$GPGSV,4,3,14,03,14,174,25,11,12,298,26,27,11,106,27,06,07,261,21,1*61
$GPGSV,4,4,14,08,02,136,,31,01,067,,1*6D
$GLGSV,2,1,07,78,75,061,,68,69,128,32,69,54,321,28,79,45,207,28,1*79
$GLGSV,2,2,07,67,18,136,22,85,09,320,18,86,07,011,,1*46
$GAGSV,3,1,09,09,87,014,30,06,64,108,28,31,54,137,27,04,37,111,23,7*7C
$GAGSV,3,2,09,05,33,295,24,24,18,187,19,34,17,291,23,15,08,340,19,7*76
$GAGSV,3,3,09,36,07,243,10,7*4C
$GBGSV,3,1,12,23,62,069,37,32,59,165,36,37,57,210,35,20,54,299,38,1*7A
$GBGSV,3,2,12,25,12,052,28,38,10,334,26,19,08,315,26,41,08,144,28,1*72
$GBGSV,3,3,12,46,06,224,,08,03,341,20,12,02,026,,44,01,003,,1*7D
$GNRMC,185542.000,A,4910.425414,N,12304.401546,W,0.02,0.00,051224,,,D,V*18
$GNVTG,0.00,T,,M,0.02,N,0.03,K,D*27
$GNGGA,185543.000,4910.425462,N,12304.401570,W,2,32,0.47,16.658,M,-16.816,M,,*7A
$GNGLL,4910.425462,N,12304.401570,W,185543.000,A,D*52
$GNGSA,A,3,09,04,07,16,26,20,30,03,11,27,06,,0.74,0.47,0.58,1*04
$GNGSA,A,3,68,69,79,67,,,,,,,,,0.74,0.47,0.58,2*01
$GNGSA,A,3,09,06,31,04,05,24,34,15,36,,,,0.74,0.47,0.58,3*02
$GNGSA,A,3,23,32,37,20,25,38,19,41,,,,,0.74,0.47,0.58,4*0E
$GPGSV,4,1,14,09,85,303,37,04,62,111,32,07,52,253,31,16,44,068,31,1*69
$GPGSV,4,2,14,48,33,182,29,26,19,046,24,20,18,320,25,30,16,250,24,1*6B
$GPGSV,4,3,14,03,14,174,25,11,12,298,26,27,11,106,27,06,07,261,20,1*60
$GPGSV,4,4,14,08,02,136,,31,01,067,,1*6D
$GLGSV,2,1,07,78,75,061,,68,69,128,32,69,54,321,28,79,45,207,28,1*79
$GLGSV,2,2,07,67,18,136,22,85,09,320,18,86,07,011,,1*46
$GAGSV,3,1,09,09,87,014,30,06,64,108,28,31,54,137,27,04,37,111,23,7*7C
$GAGSV,3,2,09,05,33,295,24,24,18,187,19,34,17,291,23,15,08,340,19,7*76
$GAGSV,3,3,09,36,07,243,10,7*4C
$GBGSV,3,1,12,23,62,069,37,32,59,165,36,37,57,210,35,20,54,299,38,1*7A
$GBGSV,3,2,12,25,12,052,28,38,10,334,26,19,08,315,26,41,08,144,28,1*72
$GBGSV,3,3,12,46,06,224,,08,03,341,20,12,02,026,,44,01,003,,1*7D
$GNRMC,185543.000,A,4910.425462,N,12304.401570,W,0.02,0.00,051224,,,D,V*1D
$GNVTG,0.00,T,,M,0.02,N,0.04,K,D*20
$GNGGA,185544.000,4910.425498,N,12304.401474,W,2,32,0.47,16.692,M,-16.816,M,,*7B
$GNGLL,4910.425498,N,12304.401474,W,185544.000,A,D*55
$GNGSA,A,3,09,04,07,16,26,20,30,03,11,27,06,,0.74,0.47,0.58,1*04
$GNGSA,A,3,68,69,79,67,,,,,,,,,0.74,0.47,0.58,2*01
$GNGSA,A,3,09,06,31,04,05,24,34,15,36,,,,0.74,0.47,0.58,3*02
