$GNGGA,185540.000,4910.424928,N,12304.398318,W,2,31,0.49,-3.683,M,-16.816,M,,*66
$GNGLL,4910.424928,N,12304.398318,W,185540.000,A,D*5C
$GNGSA,A,3,09,04,07,16,26,20,30,03,11,27,06,,0.76,0.49,0.58,1*08
$GNGSA,A,3,78,68,69,79,67,85,86,,,,,,0.76,0.49,0.58,2*01
$GNGSA,A,3,09,06,31,04,05,34,,,,,,,0.76,0.49,0.58,3*09
$GNGSA,A,3,23,32,37,20,25,38,41,,,,,,0.76,0.49,0.58,4*0A
$GPGSV,4,1,13,09,85,303,35,04,62,111,32,07,52,252,32,16,44,068,32,1*6D
$GPGSV,4,2,13,44,33,171,29,26,19,046,25,20,18,320,22,30,16,250,24,1*6A
$GPGSV,4,3,13,03,14,174,23,11,12,298,26,27,11,107,24,06,08,261,18,1*67
$GPGSV,4,4,13,08,02,136,,1*58
$GLGSV,2,1,07,78,76,062,28,68,70,127,37,69,54,321,40,79,45,207,39,1*7F
$GLGSV,2,2,07,67,19,136,28,85,09,321,23,86,07,011,26,1*40
$GAGSV,3,1,09,09,87,027,30,06,63,109,28,31,55,136,28,04,37,111,22,7*74
$GAGSV,3,2,09,05,34,296,23,24,19,187,20,34,16,290,22,15,08,339,19,7*71
$GAGSV,3,3,09,36,06,242,,7*4D
$GBGSV,4,1,13,23,63,069,35,32,60,165,34,37,57,210,33,20,54,300,35,1*7D
$GBGSV,4,2,13,58,43,231,,25,12,052,25,38,10,334,26,41,08,144,25,1*7D
$GBGSV,4,3,13,31,08,341,,19,08,315,23,46,05,224,,08,03,341,18,1*7E
$GBGSV,4,4,13,12,02,026,,1*41
$GNRMC,185540.000,A,4910.424928,N,12304.398318,W,0.01,81.54,051224,,,D,V*28
$GNVTG,81.54,T,,M,0.01,N,0.02,K,D*1D
$PAIRLOG,Full*51
$GNGGA,185541.000,4910.424940,N,12304.398366,W,2,31,0.49,-3.424,M,-16.816,M,,*6F
$GNGLL,4910.424940,N,12304.398366,W,185541.000,A,D*5A
$GNGSA,A,3,09,04,07,16,26,20,30,03,11,27,06,,0.76,0.49,0.58,1*08
$GNGSA,A,3,78,68,69,79,67,85,86,,,,,,0.76,0.49,0.58,2*01
$GNGSA,A,3,09,06,31,04,05,34,,,,,,,0.76,0.49,0.58,3*09
$GNGSA,A,3,23,32,37,20,25,38,41,,,,,,0.76,0.49,0.58,4*0A
$GPGSV,4,1,13,09,85,303,34,04,62,111,31,07,52,252,31,16,44,068,31,1*6F
$GPGSV,4,2,13,44,33,171,28,26,19,046,24,20,18,320,22,30,16,250,23,1*6D
$GPGSV,4,3,13,03,14,174,22,11,12,298,26,27,11,107,23,06,08,261,18,1*61
$GPGSV,4,4,13,08,02,136,,1*58
$GLGSV,2,1,07,78,76,062,28,68,70,127,37,69,54,321,40,79,45,207,39,1*7F
$GLGSV,2,2,07,67,18,136,28,85,09,321,23,86,07,011,26,1*41
$GAGSV,3,1,09,09,87,027,30,06,63,109,27,31,55,136,27,04,37,111,22,7*74
$GAGSV,3,2,09,05,34,296,23,24,19,187,20,34,16,290,22,15,08,339,19,7*71
$GAGSV,3,3,09,36,06,242,,7*4D
$GBGSV,4,1,13,23,63,069,34,32,60,165,33,37,57,210,33,20,54,300,35,1*7B
$GBGSV,4,2,13,58,43,231,,25,12,052,25,38,10,334,25,41,08,144,23,1*78
$GBGSV,4,3,13,31,08,341,,19,08,315,23,46,05,224,,08,03,341,18,1*7E
$GBGSV,4,4,13,12,02,026,,1*41
$GNRMC,185541.000,A,4910.424940,N,12304.398366,W,0.01,81.54,051224,,,D,V*2E
$GNVTG,81.54,T,,M,0.01,N,0.02,K,D*1D
$PAIRLOG,Full*51
$GNGGA,185542.000,4910.424952,N,12304.398384,W,2,31,0.49,-3.099,M,-16.816,M,,*61
$GNGLL,4910.424952,N,12304.398384,W,185542.000,A,D*56
$GNGSA,A,3,09,04,07,16,26,20,30,03,11,27,06,,0.76,0.49,0.58,1*08
$GNGSA,A,3,78,68,69,79,67,85,86,,,,,,0.76,0.49,0.58,2*01
$GNGSA,A,3,09,06,31,04,05,34,,,,,,,0.76,0.49,0.58,3*09
$GNGSA,A,3,23,32,37,20,25,38,41,,,,,,0.76,0.49,0.58,4*0A
$GPGSV,4,1,13,09,85,303,34,04,62,111,31,07,52,252,31,16,44,068,31,1*6F
$GPGSV,4,2,13,44,33,171,28,26,19,046,24,20,18,320,21,30,16,250,23,1*6E
$GPGSV,4,3,13,03,14,174,21,11,12,298,26,27,11,107,24,06,08,261,18,1*65
$GPGSV,4,4,13,08,02,136,,1*58
$GLGSV,2,1,07,78,76,062,28,68,68,130,36,69,54,321,40,79,45,207,39,1*71
$GLGSV,2,2,07,67,18,136,28,85,09,321,23,86,07,011,26,1*41
$GAGSV,3,1,09,09,87,027,30,06,63,109,27,31,55,136,27,04,37,111,22,7*74
$GAGSV,3,2,09,05,34,296,23,24,19,187,20,34,16,290,22,15,08,339,19,7*71
$GAGSV,3,3,09,36,06,242,,7*4D
$GBGSV,4,1,13,23,63,069,34,32,60,165,33,37,57,210,33,20,54,300,35,1*7B
$GBGSV,4,2,13,58,43,231,,25,12,052,25,38,10,334,25,41,08,144,25,1*7E
$GBGSV,4,3,13,31,08,341,,19,08,315,23,46,05,224,,08,03,341,18,1*7E
$GBGSV,4,4,13,12,02,026,,1*41
$GNRMC,185542.000,A,4910.424952,N,12304.398384,W,0.01,81.54,051224,,,D,V*22
$GNVTG,81.54,T,,M,0.01,N,0.01,K,D*1E
$PAIRLOG,Full*51
$GNGGA,185543.000,4910.424988,N,12304.398384,W,2,31,0.49,-2.865,M,-16.816,M,,*6D
$GNGLL,4910.424988,N,12304.398384,W,185543.000,A,D*50
$GNGSA,A,3,09,04,07,16,26,20,30,03,11,27,06,,0.76,0.49,0.58,1*08
$GNGSA,A,3,78,68,69,79,67,85,86,,,,,,0.76,0.49,0.58,2*01
$GNGSA,A,3,09,06,31,04,05,34,,,,,,,0.76,0.49,0.58,3*09
$GNGSA,A,3,23,32,37,20,25,38,41,,,,,,0.76,0.49,0.58,4*0A
$GPGSV,4,1,13,09,85,303,34,04,62,111,31,07,52,252,31,16,44,068,31,1*6F
$GPGSV,4,2,13,44,33,171,29,26,19,046,26,20,18,320,21,30,16,250,24,1*6A
$GPGSV,4,3,13,03,14,174,21,11,12,298,27,27,11,107,24,06,08,261,18,1*64
$GPGSV,4,4,13,08,02,136,,1*58
$GLGSV,2,1,07,78,76,062,28,68,68,130,36,69,55,321,40,79,45,207,39,1*70
$GLGSV,2,2,07,67,18,136,29,85,09,321,23,86,07,011,26,1*40
$GAGSV,3,1,09,09,87,027,30,06,63,109,28,31,55,136,27,04,37,111,22,7*7B
$GAGSV,3,2,09,05,34,296,23,24,19,187,21,34,16,290,22,15,08,339,19,7*70
$GAGSV,3,3,09,36,06,242,,7*4D
$GBGSV,4,1,13,23,63,069,34,32,60,165,33,37,57,210,33,20,54,300,35,1*7B
$GBGSV,4,2,13,58,43,231,,25,12,052,25,38,10,334,25,41,08,144,25,1*7E
$GBGSV,4,3,13,31,08,341,,19,08,315,23,46,05,224,,08,03,341,18,1*7E
$GBGSV,4,4,13,12,02,026,,1*41
$GNRMC,185543.000,A,4910.424988,N,12304.398384,W,0.01,81.54,051224,,,D,V*24
$GNVTG,81.54,T,,M,0.01,N,0.01,K,D*1E
$PAIRLOG,Full*51
$GNGGA,185544.000,4910.425006,N,12304.398420,W,2,31,0.49,-2.499,M,-16.816,M,,*62
$GNGLL,4910.425006,N,12304.398420,W,185544.000,A,D*50
$GNGSA,A,3,09,04,07,16,26,20,30,03,11,27,06,,0.76,0.49,0.58,1*08
$GNGSA,A,3,78,68,69,79,67,85,86,,,,,,0.76,0.49,0.58,2*01
$GNGSA,A,3,09,06,31,04,05,34,,,,,,,0.76,0.49,0.58,3*09
