4,13,21,05,027,18,1*5C
$GLGSV,2,1,07,73,69,071,26,83,57,080,,74,53,316,,82,27,032,,1*7B
$GLGSV,2,2,07,84,27,169,,72,22,275,19,80,16,105,24,1*48
$GAGSV,3,1,10,25,78,047,26,02,42,276,24,10,36,086,22,08,34,287,19,7*7E
$GAGSV,3,2,10,11,32,119,19,12,30,058,18,03,29,226,19,24,27,084,20,7*7C
$GAGSV,3,3,10,07,08,334,15,36,07,162,17,7*7C
$GBGSV,3,1,11,36,85,295,38,30,58,144,37,27,41,060,35,46,39,117,,1*7D
$GBGSV,3,2,11,45,32,297,34,57,24,059,,29,17,195,31,21,12,297,30,1*79
$GBGSV,3,3,11,42,05,344,28,28,05,035,23,22,04,250,24,1*41
$GNRMC,005413.000,A,4910.427268,N,12304.398900,W,0.03,342.49,061224,,,D,V*18
$GNVTG,342.49,T,,M,0.03,N,0.05,K,D*28
$GNGGA,005414.000,4910.427298,N,12304.398924,W,2,30,0.47,10.294,M,-16.817,M,,*7A
$GNGLL,4910.427298,N,12304.398924,W,005414.000,A,D*53
$GNGSA,A,3,17,22,19,14,24,13,15,02,06,30,12,21,0.79,0.47,0.64,1*02
$GNGSA,A,3,73,72,80,,,,,,,,,,0.79,0.47,0.64,2*04
$GNGSA,A,3,25,02,10,08,12,03,24,,,,,,0.79,0.47,0.64,3*06
$GNGSA,A,3,36,30,27,45,29,21,42,28,,,,,0.79,0.47,0.64,4*0D
$GPGSV,4,1,13,17,71,082,31,22,67,070,29,19,65,189,29,14,44,085,29,1*65
$GPGSV,4,2,13,24,40,302,27,46,33,188,27,13,24,212,25,15,21,249,26,1*6E
$GPGSV,4,3,13,02,18,040,24,06,14,157,21,30,12,143,20,12,10,272,14,1*6F
$GPGSV,4,4,13,21,05,027,21,1*56
$GLGSV,2,1,07,73,69,071,26,83,57,080,,74,53,316,,82,27,032,,1*7B
$GLGSV,2,2,07,84,27,169,,72,22,275,19,80,16,105,24,1*48
$GAGSV,3,1,10,25,78,047,26,02,42,276,24,10,36,086,23,08,34,287,19,7*7F
$GAGSV,3,2,10,11,32,119,19,12,30,058,18,03,29,226,19,24,27,084,20,7*7C
$GAGSV,3,3,10,07,08,334,15,36,07,162,17,7*7C
$GBGSV,3,1,11,36,85,295,38,30,58,144,37,27,41,060,35,46,39,117,,1*7D
$GBGSV,3,2,11,45,32,297,34,57,24,059,,29,17,195,31,21,12,297,31,1*78
$GBGSV,3,3,11,42,05,344,28,28,05,035,23,22,03,249,24,1*4E
$GNRMC,005414.000,A,4910.427298,N,12304.398924,W,0.03,342.49,061224,,,D,V*16
$GNVTG,342.49,T,,M,0.03,N,0.05,K,D*28
$GNGGA,005415.000,4910.427322,N,12304.398960,W,2,30,0.47,10.473,M,-16.817,M,,*74
$GNGLL,4910.427322,N,12304.398960,W,005415.000,A,D*52
$GNGSA,A,3,17,22,19,14,24,13,15,02,06,30,12,21,0.79,0.47,0.64,1*02
$GNGSA,A,3,73,72,80,,,,,,,,,,0.79,0.47,0.64,2*04
$GNGSA,A,3,25,02,10,08,12,03,24,,,,,,0.79,0.47,0.64,3*06
$GNGSA,A,3,36,30,27,45,29,21,42,28,,,,,0.79,0.47,0.64,4*0D
$GPGSV,4,1,13,17,71,082,31,22,67,070,29,19,65,189,29,14,44,085,28,1*64
$GPGSV,4,2,13,24,40,302,26,46,33,188,27,13,24,212,23,15,21,249,25,1*6A
$GPGSV,4,3,13,02,18,040,22,06,14,157,21,30,12,143,20,12,10,272,14,1*69
$GPGSV,4,4,13,21,05,027,20,1*57
$GLGSV,2,1,07,73,69,071,27,83,57,080,,74,53,316,,82,27,032,,1*7A
$GLGSV,2,2,07,84,27,169,,72,22,275,19,80,16,105,24,1*48
$GAGSV,3,1,10,25,78,047,25,02,42,276,23,10,36,086,22,08,34,287,19,7*7A
$GAGSV,3,2,10,11,32,119,19,12,30,058,18,03,29,226,19,24,27,084,19,7*76
$GAGSV,3,3,10,07,08,334,14,36,07,162,17,7*7D
$GBGSV,3,1,11,36,85,295,38,30,58,144,37,27,41,060,35,46,39,117,,1*7D
$GBGSV,3,2,11,45,32,297,34,57,24,059,,29,17,195,30,21,12,297,31,1*79
$GBGSV,3,3,11,42,05,344,28,28,05,035,23,22,03,249,24,1*4E
$GNRMC,005415.000,A,4910.427322,N,12304.398960,W,0.03,342.49,061224,,,D,V*17
$GNVTG,342.49,T,,M,0.03,N,0.05,K,D*28
$GNGGA,005416.000,4910.427316,N,12304.399026,W,2,30,0.47,10.660,M,-16.816,M,,*7B
$GNGLL,4910.427316,N,12304.399026,W,005416.000,A,D*5C
$GNGSA,A,3,17,22,19,14,24,13,15,02,06,30,12,21,0.79,0.47,0.64,1*02
$GNGSA,A,3,73,72,80,,,,,,,,,,0.79,0.47,0.64,2*04
$GNGSA,A,3,25,02,10,08,12,03,24,,,,,,0.79,0.47,0.64,3*06
$GNGSA,A,3,36,30,27,45,29,21,42,28,,,,,0.79,0.47,0.64,4*0D
$GPGSV,4,1,13,17,71,082,31,22,67,070,29,19,65,189,29,14,44,085,28,1*64
$GPGSV,4,2,13,24,40,302,26,46,33,188,27,13,24,212,25,15,21,249,25,1*6C
$GPGSV,4,3,13,02,18,040,24,06,14,157,21,30,12,143,20,12,10,272,15,1*6E
$GPGSV,4,4,13,21,05,027,20,1*57
$GLGSV,2,1,07,73,69,071,26,83,57,080,,74,53,316,,82,27,032,,1*7B
$GLGSV,2,2,07,84,27,169,,72,22,275,20,80,16,105,24,1*42
$GAGSV,3,1,10,25,78,047,25,02,42,276,23,10,36,086,22,08,34,287,19,7*7A
$GAGSV,3,2,10,11,32,119,19,12,30,058,18,03,29,226,19,24,27,084,19,7*76
$GAGSV,3,3,10,07,08,334,14,36,07,162,16,7*7C
$GBGSV,3,1,11,36,85,295,37,30,58,144,37,27,41,060,35,46,39,117,,1*72
$GBGSV,3,2,11,45,32,297,34,57,24,059,,29,17,195,30,21,12,297,31,1*79
$GBGSV,3,3,11,42,05,344,28,28,05,035,23,22,03,249,24,1*4E
$GNRMC,005416.000,A,4910.427316,N,12304.399026,W,0.02,342.49,061224,,,D,V*18
$GNVTG,342.49,T,,M,0.02,N,0.04,K,D*28
$GNGGA,005417.000,4910.427280,N,12304.399110,W,2,30,0.47,10.977,M,-16.816,M,,*79
$GNGLL,4910.427280,N,12304.399110,W,005417.000,A,D*57
$GNGSA,A,3,17,22,19,14,24,13,15,02,06,30,12,21,0.79,0.47,0.64,1*02
$GNGSA,A,3,73,72,80,,,,,,,,,,0.79,0.47,0.64,2*04
$GNGSA,A,3,25,02,10,08,12,03,24,,,,,,0.79,0.47,0.64,3*06
$GNGSA,A,3,36,30,27,45,29,21,42,28,,,,,0.79,0.47,0.64,4*0D
$GPGSV,4,1,13,17,71,082,32,22,67,070,30,19,65,189,29,14,44,085,29,1*6E
$GPGSV,4,2,13,24,40,302,27,46,33,188,27,13,24,212,25,15,21,249,25,1*6D
$GPGSV,4,3,13,02,18,040,24,06,14,157,21,30,12,143,21,12,10,272,15,1*6F
$GPGSV,4,4,13,21,05,027,21,1*56
$GLGSV,2,1,07,73,69,071,26,83,57,080,,74,53,316,,82,27,032,,1*7B
$GLGSV,2,2,07,84,27,169,,72,22,275,20,80,16,105,24,1*42
$GAGSV,3,1,10,25,78,047,26,02,42,276,23,10,36,086,23,08,34,287,19,7*78
$GAGSV,3,2,10,11,32,119,19,12,30,058,18,03,29,226,20,24,27,084,19,7*7C
$GAGSV,3,3,10,07,08,334,15,36,07,162,16,7*7D
$GBGSV,3,1,11,36,85,295,37,30,58,144,37,27,41,060,35,46,39,117,,1*72
$GBGSV,3,2,11,45,32,297,34,57,24,059,,29,17,195,30,21,12,297,31,1*79
$GBGSV,3,3,11,42,05,344,28,28,05,035,23,22,03,249,24,1*4E
$GNRMC,005417.000,A,4910.427280,N,12304.399110,W,0.02,342.49,061224,,,D,V*13
$GNVTG,342.49,T,,M,0.02,N,0.04,K,D*28
$GNGGA,005418.000,4910.427334,N,12304.398984,W,2,30,0.47,11.225,M,-16.816,M,,*71
$GNGLL,4910.427334,N,12304.398984,W,005418.000,A,D*52
$GNGSA,A,3,17,22,19,14,24,13,15,02,06,30,12,21,0.79,0.47,0.64,1*02
$GNGSA,A,3,73,72,80,,,,,,,,,,0.79,0.47,0.64,2*04
$GNGSA,A,3,25,02,10,08,12,03,24,,,,,,0.79,0.47,0.64,3*06
$GNGSA,A,3,36,30,27,45,29,21,42,28,,,,,0.79,0.47,0.64,4*0D
$GPGSV,4,1,13,17,71,082,32,22,67,070,30,19,65,189,29,14,44,085,29,1*6E
$GPGSV,4,2,13,24,40,302,27,46,33,188,27,13,24,212,25,15,21,249,25,1*6D
$GPGSV,4,3,13,02,18,040,23,06,14,157,21,30,12,143,22,12,10,272,14,1*6A
$GPGSV,4,4,13,21,05,027,21,1*56
$GLGSV,2,1,07,73,69,071,26,83,57,080,,74,53,316,,82,27,032,,1*7B
$GLGSV,2,2,07,84,27,169,,72,22,275,19,80,16,105,24,1*48
$GAGSV,3,1,10,25,78,047,26,02,42,276,23,10,36,086,22,08,34,287,19,7*79
$GAGSV,3,2,10,11,32,119,19,12,30,058,18,03,29,226,20,24,27,084,19,7*7C
$GAGSV,3,3,10,07,08,334,15,36,07,162,16,7*7D
$GBGSV,3,1,11,36,85,295,37,30,58,144,37,27,41,060,35,46,39,117,,1*72
$GBGSV,3,2,11,45,32,297,34,57,24,059,,29,17,195,30,21,12,297,31,1*79
$GBGSV,3,3,11,42,05,344,27,28,05,035,23,22,03,249,24,1*41
$GNRMC,005418.000,A,4910.427334,N,12304.398984,W,0.03,342.49,061224,,,D,V*17
$GNVTG,342.49,T,,M,0.03,N,0.05,K,D*28
$GNGGA,005419.000,4910.427394,N,12304.398930,W,2,30,0.47,11.416,M,-16.816,M,,*73
$GNGLL,4910.427394,N,12304.398930,W,005419.000,A,D*56
$GNGSA,A,3,17,22,19,14,24,13,15,02,06,30,12,21,0.79,0.47,0.64,1*02
$GNGSA,A,3,73,72,80,,,,,,,,,,0.79,0.47,0.64,2*04
$GNGSA,A,3,25,02,10,08,12,03,24,,,,,,0.79,0.47,0.64,3*06
$GNGSA,A,3,36,30,27,45,29,21,42,28,,,,,0.79,0.47,0.64,4*0D
$GPGSV,4,1,13,17,71,082,32,22,67,070,30,19,65,189,29,14,44,085,29,1*6E
$GPGSV,4,2,13,24,40,302,27,46,33,188,27,13,24,212,25,15,21,249,25,1*6D
$GPGSV,4,3,13,02,18,040,23,06,14,157,21,30,12,143,20,12,10,272,14,1*68
$GPGSV,4,4,13,21,05,027,21,1*56
$GLGSV,2,1,07,73,69,071,26,83,57,080,,74,53,316,,82,27,032,,1*7B
$GLGSV,2,2,07,84,27,169,,72,22,275,19,80,16,105,24,1*48
$GAGSV,3,1,10,25,78,047,26,02,42,276,23,10,36,086,22,08,34,287,19,7*79
$GAGSV,3,2,10,11,32,119,19,12,30,058,18,03,29,226,20,24,27,084,19,7*7C
$GAGSV,3,3,10,07,08,334,14,36,07,162,16,7*7C
$GBGSV,3,1,11,36,85,295,37,30,58,144,37,27,41,059,35,46,39,117,,1*78
$GBGSV,3,2,11,45,32,297,34,57,24,059,,29,17,195,30,21,12,297,31,1*79
$GBGSV,3,3,11,42,05,344,27,28,05,035,23,22,03,249,24,1*41
$GNRMC,005419.000,A,4910.427394,N,12304.398930,W,0.04,342.49,061224,,,D,V*14
$GNVTG,342.49,T,,M,0.04,N,0.07,K,D*2D
$GNGGA,005420.000,4910.427406,N,12304.398942,W,2,30,0.47,11.687,M,-16.817,M,,*7B
$GNGLL,4910.427406,N,12304.398942,W,005420.000,A,D*55
$GNGSA,A,3,17,22,19,14,24,13,15,02,06,30,12,21,0.79,0.47,0.64,1*02
$GNGSA,A,3,73,72,80,,,,,,,,,,0.79,0.47,0.64,2*04
$GNGSA,A,3,25,02,10,08,12,03,24,,,,,,0.79,0.47,0.64,3*06
$GNGSA,A,3,36,30,27,45,29,21,42,28,,,,,0.79,0.47,0.64,4*0D
$GPGSV,4,1,13,17,71,082,32,22,67,070,31,19,65,189,29,14,44,085,29,1*6F
$GPGSV,4,2,13,24,40,302,28,46,33,188,27,13,24,212,26,15,21,249,25,1*61
$GPGSV,4,3,13,02,18,040,24,06,14,157,21,30,12,143,22,12,10,272,13,1*6A
$GPGSV,4,4,13,21,05,027,21,1*56
$GLGSV,2,1,07,73,69,071,26,83,57,080,,74,53,316,,82,27,032,,1*7B
$GLGSV,2,2,07,84,27,169,,72,22,275,19,80,16,105,24,1*48
$GAGSV,3,1,10,25,78,047,26,02,42,276,23,10,36,086,23,08,34,287,19,7*78
$GAGSV,3,2,10,11,32,119,19,12,30,058,18,03,29,226,21,24,27,084,20,7*77
$GAGSV,3,3,10,07,08,334,13,36,07,162,16,7*7B
$GBGSV,3,1,11,36,85,295,37,30,58,144,37,27,41,059,35,46,39,117,,1*78
$GBGSV,3,2,11,45,32,297,34,57,24,059,,29,17,195,30,21,12,297,31,1*79
$GBGSV,3,3,11,42,05,344,27,28,04,035,23,22,03,249,24,1*40
$GNRMC,005420.000,A,4910.427406,N,12304.398942,W,0.03,342.49,061224,,,D,V*10
$GNVTG,342.49,T,,M,0.03,N,0.06,K,D*2B
$GNGGA,005421.000,4910.427448,N,12304.398990,W,2,29,0.48,11.969,M,-16.816,M,,*76
$GNGLL,4910.427448,N,12304.398990,W,005421.000,A,D*51
$GNGSA,A,3,17,22,19,14,24,13,15,02,06,30,12,21,0.83,0.48,0.67,1*0B
$GNGSA,A,3,73,72,80,,,,,,,,,,0.83,0.48,0.67,2*0D
$GNGSA,A,3,25,02,10,08,12,03,24,,,,,,0.83,0.48,0.67,3*0F
$GNGSA,A,3,36,30,27,45,29,21,42,,,,,,0.83,0.48,0.67,4*0E
$GPGSV,4,1,13,17,71,082,32,22,67,070,31,19,65,189,29,14,44,085,29,1*6F
$GPGSV,4,2,13,24,40,302,28,46,33,188,27,13,24,212,27,15,21,249,25,1*60
$GPGSV,4,3,13,02,18,040,25,06,14,157,22,30,12,143,21,12,10,272,14,1*6C
$GPGSV,4,4,13,21,05,027,22,1*55
$GLGSV,2,1,07,73,69,071,26,83,57,080,,74,53,316,,82,27,032,,1*7B
$GLGSV,2,2,07,84,27,169,,72,22,275,19,80,16,105,24,1*48
$GAGSV,3,1,10,25,78,047,26,02,42,276,24,10,36,086,23,08,34,287,20,7*75
$GAGSV,3,2,10,11,32,119,19,12,30,058,18,03,29,226,22,24,27,084,20,7*74
$GAGSV,3,3,10,07,08,334,13,36,07,162,17,7*7A
$GBGSV,3,1,11,36,85,295,37,30,58,144,37,27,41,059,35,46,39,117,,1*78
$GBGSV,3,2,11,45,32,297,34,57,24,059,,29,18,195,30,21,12,297,31,1*76
$GBGSV,3,3,11,42,05,344,27,28,04,035,23,22,03,249,24,1*40
$GNRMC,005421.000,A,4910.427448,N,12304.398990,W,0.03,342.49,061224,,,D,V*14
$GNVTG,342.49,T,,M,0.03,N,0.05,K,D*28
$GNGGA,005422.000,4910.427496,N,12304.399020,W,2,29,0.48,12.244,M,-16.816,M,,*72
$GNGLL,4910.427496,N,12304.399020,W,005422.000,A,D*52
$GNGSA,A,3,17,22,19,14,24,13,15,02,06,30,12,21,0.83,0.48,0.67,1*0B
$GNGSA,A,3,73,72,80,,,,,,,,,,0.83,0.48,0.67,2*0D
$GNGSA,A,3,25,02,10,08,12,03,24,,,,,,0.83,0.48,0.67,3*0F
$GNGSA,A,3,36,30,27,45,29,21,42,,,,,,0.83,0.48,0.67,4*0E
$GPGSV,4,1,13,17,71,082,32,22,67,070,31,19,65,189,29,14,44,085,28,1*6E
$GPGSV,4,2,13,24,40,302,28,46,33,188,27,13,24,212,27,15,21,249,25,1*60
$GPGSV,4,3,13,02,18,040,24,06,14,157,22,30,12,143,21,12,10,272,16,1*6F
$GPGSV,4,4,13,21,05,027,20,1*57
$GLGSV,2,1,07,73,69,071,26,83,57,080,,74,53,316,,82,27,032,,1*7B
$GLGSV,2,2,07,84,27,169,,72,22,275,19,80,16,105,24,1*48
$GAGSV,3,1,10,25,78,047,26,02,42,276,24,10,36,086,23,08,34,287,20,7*75
$GAGSV,3,2,10,11,32,119,19,12,30,058,18,03,29,226,21,24,27,084,20,7*77
$GAGSV,3,3,10,07,08,334,13,36,07,162,17,7*7A
$GBGSV,3,1,11,36,85,295,38,30,59,143,37,27,41,059,35,46,39,117,,1*71
$GBGSV,3,2,11,45,32,297,34,57,24,059,,29,18,195,30,21,12,297,31,1*76
$GBGSV,3,3,11,42,05,344,27,28,04,035,24,22,03,249,24,1*47
$GNRMC,005422.000,A,4910.427496,N,12304.399020,W,0.02,342.49,061224,,,D,V*16
$GNVTG,342.49,T,,M,0.02,N,0.04,K,D*28
$GNGGA,005423.000,4910.427544,N,12304.399104,W,2,29,0.48,12.532,M,-16.817,M,,*7D
