$GNGGA,193441.000,4910.426320,N,12304.402836,W,2,27,0.61,11.672,M,-16.816,M,,*7F
$GNGLL,4910.426320,N,12304.402836,W,193441.000,A,D*58
$GNGSA,A,3,09,07,04,16,30,20,27,08,05,,,,0.96,0.61,0.75,1*0F
$GNGSA,A,3,69,79,68,,,,,,,,,,0.96,0.61,0.75,2*07
$GNGSA,A,3,09,31,06,05,24,04,15,34,,,,,0.96,0.61,0.75,3*00
$GNGSA,A,3,37,20,23,32,19,38,34,,,,,,0.96,0.61,0.75,4*0C
$GPGSV,3,1,12,09,75,141,36,07,68,270,34,04,44,125,29,44,33,171,28,1*60
$GPGSV,3,2,12,16,32,051,29,30,31,260,27,20,27,306,27,27,22,091,23,1*64
$GPGSV,3,3,12,08,15,125,24,05,07,331,16,11,05,283,,26,04,043,16,1*63
$GLGSV,2,1,07,69,77,309,26,79,68,222,28,78,54,042,,68,47,149,26,1*78
$GLGSV,2,2,07,80,14,222,21,70,12,324,,86,09,353,,1*40
$GAGSV,2,1,08,09,76,124,29,31,64,111,29,06,50,123,26,05,47,300,26,7*70
$GAGSV,2,2,08,24,34,188,26,04,24,122,23,15,09,327,21,34,08,279,12,7*75
$GBGSV,4,1,14,37,75,214,38,20,65,273,38,23,47,061,34,32,41,167,35,1*70
$GBGSV,4,2,14,19,23,315,31,46,20,232,,38,15,332,26,08,10,342,19,1*77
$GBGSV,4,3,14,34,05,038,24,11,03,060,13,12,03,012,18,43,02,080,,1*7B
$GBGSV,4,4,14,13,02,346,,04,01,262,,1*71
$GNRMC,193441.000,A,4910.426320,N,12304.402836,W,0.02,0.00,051224,,,D,V*17
$GNVTG,0.00,T,,M,0.02,N,0.04,K,D*20
$GNGGA,193442.000,4910.426422,N,12304.402962,W,2,27,0.61,11.805,M,-16.816,M,,*77
$GNGLL,4910.426422,N,12304.402962,W,193442.000,A,D*5E
$GNGSA,A,3,09,07,04,16,30,20,27,08,05,,,,0.96,0.61,0.75,1*0F
$GNGSA,A,3,69,79,68,,,,,,,,,,0.96,0.61,0.75,2*07
$GNGSA,A,3,09,31,06,05,24,04,15,34,,,,,0.96,0.61,0.75,3*00
$GNGSA,A,3,37,20,23,32,19,38,34,,,,,,0.96,0.61,0.75,4*0C
$GPGSV,3,1,12,09,75,141,36,07,68,270,34,04,44,125,29,44,33,171,28,1*60
$GPGSV,3,2,12,16,32,051,29,30,31,260,27,20,27,306,27,27,22,091,23,1*64
$GPGSV,3,3,12,08,15,125,25,05,07,331,16,11,05,283,,26,04,043,16,1*62
$GLGSV,2,1,07,69,77,309,26,79,68,222,28,78,54,042,,68,47,149,26,1*78
$GLGSV,2,2,07,80,14,222,21,70,12,324,,86,09,353,,1*40
$GAGSV,2,1,08,09,76,124,29,31,64,111,29,06,50,123,26,05,47,300,26,7*70
$GAGSV,2,2,08,24,34,188,26,04,24,122,23,15,09,327,21,34,08,279,12,7*75
$GBGSV,4,1,14,37,75,214,38,20,65,273,38,23,47,061,35,32,41,167,35,1*71
$GBGSV,4,2,14,19,23,315,31,46,20,232,,38,15,332,26,08,10,342,19,1*77
$GBGSV,4,3,14,34,05,038,24,11,03,060,13,12,03,012,17,43,02,080,,1*74
$GBGSV,4,4,14,13,02,346,,04,01,262,,1*71
$GNRMC,193442.000,A,4910.426422,N,12304.402962,W,0.02,0.00,051224,,,D,V*11
$GNVTG,0.00,T,,M,0.02,N,0.04,K,D*20
$GNGGA,193443.000,4910.426512,N,12304.403052,W,2,27,0.61,11.940,M,-16.816,M,,*7F
$GNGLL,4910.426512,N,12304.403052,W,193443.000,A,D*56
$GNGSA,A,3,09,07,04,16,30,20,27,08,05,,,,0.96,0.61,0.75,1*0F
$GNGSA,A,3,69,79,68,,,,,,,,,,0.96,0.61,0.75,2*07
$GNGSA,A,3,09,31,06,05,24,04,15,34,,,,,0.96,0.61,0.75,3*00
$GNGSA,A,3,37,20,23,32,19,38,34,,,,,,0.96,0.61,0.75,4*0C
$GPGSV,3,1,12,09,75,141,36,07,68,270,34,04,44,125,29,44,33,171,28,1*60
$GPGSV,3,2,12,16,32,051,29,30,31,260,27,20,27,306,27,27,22,091,23,1*64
$GPGSV,3,3,12,08,15,125,25,05,07,331,16,11,05,283,,26,04,043,16,1*62
$GLGSV,2,1,07,69,77,309,26,79,68,222,28,78,54,042,,68,47,149,25,1*7B
$GLGSV,2,2,07,80,14,222,21,70,12,324,,86,09,353,,1*40
$GAGSV,2,1,08,09,76,124,29,31,64,111,29,06,50,123,26,05,47,300,26,7*70
$GAGSV,2,2,08,24,34,188,26,04,24,122,23,15,09,327,21,34,08,279,12,7*75
$GBGSV,4,1,13,37,75,214,38,20,65,273,38,23,47,061,35,32,41,167,35,1*76
$GBGSV,4,2,13,19,23,315,31,38,15,332,26,08,10,342,19,34,05,038,24,1*7C
$GBGSV,4,3,13,11,03,060,13,12,03,012,17,43,02,080,,13,02,346,,1*7D
$GBGSV,4,4,13,04,01,262,,1*47
$GNRMC,193443.000,A,4910.426512,N,12304.403052,W,0.02,0.00,051224,,,D,V*19
$GNVTG,0.00,T,,M,0.02,N,0.04,K,D*20
$GNGGA,193444.000,4910.426638,N,12304.403172,W,2,27,0.61,12.051,M,-16.817,M,,*7B
$GNGLL,4910.426638,N,12304.403172,W,193444.000,A,D*59
$GNGSA,A,3,09,07,04,16,30,20,27,08,05,,,,0.96,0.61,0.75,1*0F
$GNGSA,A,3,69,79,68,,,,,,,,,,0.96,0.61,0.75,2*07
$GNGSA,A,3,09,31,06,05,24,04,15,34,,,,,0.96,0.61,0.75,3*00
$GNGSA,A,3,37,20,23,32,19,38,34,,,,,,0.96,0.61,0.75,4*0C
$GPGSV,3,1,12,09,75,141,36,07,68,270,34,04,44,125,29,44,33,171,28,1*60
$GPGSV,3,2,12,16,32,051,30,30,31,260,27,20,27,306,27,27,22,091,23,1*6C
$GPGSV,3,3,12,08,15,125,25,05,07,331,16,11,05,283,,26,04,043,16,1*62
$GLGSV,2,1,06,69,77,309,26,79,68,222,28,68,47,149,25,80,14,222,21,1*7E
$GLGSV,2,2,06,70,12,324,,86,09,353,,1*7D
$GAGSV,2,1,08,09,76,124,29,31,64,111,29,06,50,123,26,05,47,300,26,7*70
$GAGSV,2,2,08,24,34,188,26,04,24,122,23,15,09,327,21,34,08,279,12,7*75
$GBGSV,4,1,14,37,75,214,38,20,65,273,38,23,47,061,35,32,41,167,35,1*71
$GBGSV,4,2,14,19,23,315,32,46,20,232,,38,15,332,26,08,10,342,20,1*7E
$GBGSV,4,3,14,34,05,038,24,11,03,060,13,12,03,012,17,43,02,080,,1*74
$GBGSV,4,4,14,13,02,346,,04,01,262,,1*71
$GNRMC,193444.000,A,4910.426638,N,12304.403172,W,0.02,0.00,051224,,,D,V*16
$GNVTG,0.00,T,,M,0.02,N,0.04,K,D*20
$GNGGA,193445.000,4910.426752,N,12304.403220,W,2,27,0.61,12.188,M,-16.817,M,,*76
$GNGLL,4910.426752,N,12304.403220,W,193445.000,A,D*51
$GNGSA,A,3,09,07,04,16,30,20,27,08,05,,,,0.96,0.61,0.75,1*0F
$GNGSA,A,3,69,79,68,,,,,,,,,,0.96,0.61,0.75,2*07
$GNGSA,A,3,09,31,06,05,24,04,15,34,,,,,0.96,0.61,0.75,3*00
$GNGSA,A,3,37,20,23,32,19,38,34,,,,,,0.96,0.61,0.75,4*0C
$GPGSV,3,1,12,09,75,141,36,07,68,270,34,04,44,125,29,44,33,171,28,1*60
$GPGSV,3,2,12,16,32,051,30,30,31,260,27,20,27,306,27,27,22,091,24,1*6B
$GPGSV,3,3,12,08,15,125,25,05,07,331,16,11,05,283,,26,04,043,16,1*62
$GLGSV,2,1,07,69,77,309,26,79,68,222,28,78,54,042,,68,47,149,25,1*7B
$GLGSV,2,2,07,80,14,222,22,70,12,324,,86,09,353,,1*43
$GAGSV,2,1,08,09,76,124,29,31,64,111,29,06,50,123,26,05,47,300,27,7*71
$GAGSV,2,2,08,24,34,188,26,04,24,122,23,15,09,327,21,34,08,279,12,7*75
$GBGSV,4,1,14,37,75,214,38,20,65,273,38,23,47,061,35,32,41,167,35,1*71
$GBGSV,4,2,14,19,23,315,32,46,20,232,,38,15,332,26,08,10,342,20,1*7E
$GBGSV,4,3,14,34,05,038,25,11,03,060,13,12,03,012,17,43,02,080,,1*75
$GBGSV,4,4,14,13,02,346,,04,01,262,,1*71
$GNRMC,193445.000,A,4910.426752,N,12304.403220,W,0.02,0.00,051224,,,D,V*1E
$GNVTG,0.00,T,,M,0.02,N,0.04,K,D*20
$GNGGA,193446.000,4910.426866,N,12304.403268,W,2,27,0.61,12.431,M,-16.816,M,,*77
$GNGLL,4910.426866,N,12304.403268,W,193446.000,A,D*56
$GNGSA,A,3,09,07,04,16,30,20,27,08,05,,,,0.96,0.61,0.75,1*0F
$GNGSA,A,3,69,79,68,,,,,,,,,,0.96,0.61,0.75,2*07
$GNGSA,A,3,09,31,06,05,24,04,15,34,,,,,0.96,0.61,0.75,3*00
$GNGSA,A,3,37,20,23,32,19,38,34,,,,,,0.96,0.61,0.75,4*0C
$GPGSV,3,1,12,09,75,141,36,07,68,270,34,04,44,125,30,44,33,171,28,1*68
$GPGSV,3,2,12,16,32,051,30,30,31,260,28,20,27,306,28,27,22,091,24,1*6B
$GPGSV,3,3,12,08,15,125,27,05,07,331,17,11,05,283,,26,04,043,16,1*61
$GLGSV,2,1,07,69,77,309,26,79,68,222,28,78,54,042,,68,47,149,25,1*7B
$GLGSV,2,2,07,80,14,222,22,70,12,324,,86,09,353,,1*43
$GAGSV,2,1,08,09,76,124,29,31,64,111,29,06,50,123,27,05,47,300,27,7*70
$GAGSV,2,2,08,24,34,188,27,04,24,122,23,15,09,327,21,34,08,279,12,7*74
$GBGSV,4,1,14,37,75,214,38,20,65,273,39,23,47,061,35,32,41,167,35,1*70
$GBGSV,4,2,14,19,23,315,33,46,20,232,,38,15,332,27,08,10,342,21,1*7F
$GBGSV,4,3,14,34,05,038,24,11,03,060,13,12,03,012,17,43,02,080,,1*74
$GBGSV,4,4,14,13,02,346,,04,01,262,,1*71
$GNRMC,193446.000,A,4910.426866,N,12304.403268,W,0.02,0.00,051224,,,D,V*19
$GNVTG,0.00,T,,M,0.02,N,0.03,K,D*27
$GNGGA,193447.000,4910.427004,N,12304.403256,W,2,27,0.61,12.616,M,-16.816,M,,*71
$GNGLL,4910.427004,N,12304.403256,W,193447.000,A,D*57
$GNGSA,A,3,09,07,04,16,30,20,27,08,05,,,,0.96,0.61,0.75,1*0F
$GNGSA,A,3,69,79,68,,,,,,,,,,0.96,0.61,0.75,2*07
$GNGSA,A,3,09,31,06,05,24,04,15,34,,,,,0.96,0.61,0.75,3*00
$GNGSA,A,3,37,20,23,32,19,38,34,,,,,,0.96,0.61,0.75,4*0C
$GPGSV,3,1,12,09,75,141,36,07,68,270,34,04,44,125,30,44,33,171,28,1*68
$GPGSV,3,2,12,16,32,051,30,30,31,260,28,20,27,306,28,27,22,091,24,1*6B
$GPGSV,3,3,12,08,15,125,25,05,07,331,18,11,05,283,,26,04,043,16,1*6C
$GLGSV,2,1,06,69,77,309,26,79,68,222,28,68,47,149,25,80,14,222,22,1*7D
$GLGSV,2,2,06,70,12,324,,86,09,353,,1*7D
$GAGSV,2,1,08,09,76,124,29,31,64,111,29,06,50,123,27,05,47,300,27,7*70
$GAGSV,2,2,08,24,34,188,27,04,24,122,24,15,09,327,21,34,08,279,13,7*72
$GBGSV,4,1,14,37,75,214,38,20,65,273,39,23,47,061,35,32,41,167,35,1*70
$GBGSV,4,2,14,19,23,315,33,46,20,232,,38,15,332,27,08,10,342,21,1*7F
$GBGSV,4,3,14,34,05,038,25,11,03,060,13,12,03,012,17,43,02,080,,1*75
$GBGSV,4,4,14,13,02,346,,04,01,262,,1*71
$GNRMC,193447.000,A,4910.427004,N,12304.403256,W,0.02,0.00,051224,,,D,V*18
$GNVTG,0.00,T,,M,0.02,N,0.03,K,D*27
$GNGGA,193448.000,4910.427160,N,12304.403112,W,2,27,0.61,12.767,M,-16.816,M,,*79
$GNGLL,4910.427160,N,12304.403112,W,193448.000,A,D*58
$GNGSA,A,3,09,07,04,16,30,20,27,08,05,,,,0.96,0.61,0.75,1*0F
$GNGSA,A,3,69,79,68,,,,,,,,,,0.96,0.61,0.75,2*07
$GNGSA,A,3,09,31,06,05,24,04,15,34,,,,,0.96,0.61,0.75,3*00
$GNGSA,A,3,37,20,23,32,19,38,34,,,,,,0.96,0.61,0.75,4*0C
$GPGSV,3,1,12,09,75,141,36,07,68,270,34,04,44,125,30,44,33,171,28,1*68
$GPGSV,3,2,12,16,32,051,30,30,31,260,28,20,27,306,28,27,22,091,24,1*6B
$GPGSV,3,3,12,08,15,125,25,05,07,331,18,11,05,283,,26,04,043,16,1*6C
$GLGSV,2,1,07,69,77,309,26,79,68,222,28,78,54,042,,68,47,149,25,1*7B
$GLGSV,2,2,07,80,14,222,22,70,12,324,,86,09,353,,1*43
$GAGSV,2,1,08,09,76,124,29,31,64,111,29,06,50,123,27,05,47,300,27,7*70
$GAGSV,2,2,08,24,34,188,26,04,24,122,24,15,09,327,21,34,08,279,13,7*73
$GBGSV,4,1,14,37,75,214,38,20,65,273,39,23,47,061,35,32,41,167,35,1*70
$GBGSV,4,2,14,19,23,315,33,46,20,232,,38,15,332,27,08,10,342,21,1*7F
$GBGSV,4,3,14,34,05,038,25,11,03,060,13,12,03,012,17,43,02,080,,1*75
$GBGSV,4,4,14,13,02,346,,04,01,262,,1*71
$GNRMC,193448.000,A,4910.427160,N,12304.403112,W,0.02,0.00,051224,,,D,V*17
$GNVTG,0.00,T,,M,0.02,N,0.04,K,D*20
$GNGGA,193449.000,4910.427334,N,12304.402998,W,2,27,0.61,12.938,M,-16.816,M,,*74
$GNGLL,4910.427334,N,12304.402998,W,193449.000,A,D*51
$GNGSA,A,3,09,07,04,16,30,20,27,08,05,,,,0.96,0.61,0.75,1*0F
$GNGSA,A,3,69,79,68,,,,,,,,,,0.96,0.61,0.75,2*07
$GNGSA,A,3,09,31,06,05,24,04,15,34,,,,,0.96,0.61,0.75,3*00
$GNGSA,A,3,37,20,23,32,19,38,34,,,,,,0.96,0.61,0.75,4*0C
$GPGSV,3,1,12,09,75,141,36,07,68,270,34,04,44,125,30,44,33,171,28,1*68
$GPGSV,3,2,12,16,32,051,30,30,31,260,28,20,27,306,28,27,22,091,25,1*6A
$GPGSV,3,3,12,08,15,125,25,05,07,331,19,26,04,043,16,11,04,283,,1*6C
$GLGSV,2,1,06,69,77,309,26,79,68,222,28,68,47,149,25,80,14,222,22,1*7D
$GLGSV,2,2,06,70,12,324,,86,09,353,,1*7D
$GAGSV,2,1,08,09,76,124,29,31,64,111,29,06,50,123,27,05,47,300,27,7*70
$GAGSV,2,2,08,24,34,188,26,04,24,122,24,15,09,327,21,34,08,279,13,7*73
$GBGSV,4,1,14,37,75,214,38,20,65,273,39,23,47,061,35,32,41,167,35,1*70
$GBGSV,4,2,14,19,23,315,33,46,20,232,,38,15,332,27,08,10,342,21,1*7F
$GBGSV,4,3,14,34,05,038,24,11,03,060,13,12,03,012,17,43,02,080,,1*74
$GBGSV,4,4,14,13,02,346,,04,01,262,,1*71
$GNRMC,193449.000,A,4910.427334,N,12304.402998,W,0.03,0.00,051224,,,D,V*1F
$GNVTG,0.00,T,,M,0.03,N,0.05,K,D*20
$GNGGA,193450.000,4910.427490,N,12304.402968,W,2,27,0.61,13.162,M,-16.816,M,,*7C
$GNGLL,4910.427490,N,12304.402968,W,193450.000,A,D*5F
$GNGSA,A,3,09,07,04,16,30,20,27,08,05,,,,0.96,0.61,0.75,1*0F
$GNGSA,A,3,69,79,68,,,,,,,,,,0.96,0.61,0.75,2*07
$GNGSA,A,3,09,31,06,05,24,04,15,34,,,,,0.96,0.61,0.75,3*00
$GNGSA,A,3,37,20,23,32,19,38,34,,,,,,0.96,0.61,0.75,4*0C
$GPGSV,3,1,12,09,75,141,36,07,68,270,34,04,44,125,30,44,33,171,28,1*68
$GPGSV,3,2,12,16,32,051,30,30,31,260,28,20,27,306,28,27,22,091,24,1*6B
$GPGSV,3,3,12,08,15,125,25,05,07,331,19,26,04,043,16,11,04,283,,1*6C
$GLGSV,2,1,07,69,77,309,26,79,68,222,28,78,54,042,,68,47,149,25,1*7B
$GLGSV,2,2,07,80,14,222,22,70,12,324,,86,09,353,,1*43
$GAGSV,2,1,08,09,76,124,29,31,64,111,29,06,50,123,27,05,47,300,27,7*70
$GAGSV,2,2,08,24,34,188,26,04,24,122,24,15,09,327,21,34,08,279,13,7*73
$GBGSV,4,1,14,37,75,214,38,20,65,273,39,23,47,061,35,32,41,167,35,1*70
$GBGSV,4,2,14,19,23,315,32,46,20,232,,38,15,332,27,08,10,342,21,1*7E
$GBGSV,4,3,14,34,05,038,23,11,03,060,13,12,03,012,17,43,02,080,,1*73
$GBGSV,4,4,14,13,02,346,,04,01,262,,1*71
$GNRMC,193450.000,A,4910.427490,N,12304.402968,W,0.03,0.00,051224,,,D,V*11
$GNVTG,0.00,T,,M,0.03,N,0.05,K,D*20
$GNGGA,193451.000,4910.427640,N,12304.402920,W,2,27,0.61,13.287,M,-16.817,M,,*77
$GNGLL,4910.427640,N,12304.402920,W,193451.000,A,D*5D
$GNGSA,A,3,09,07,04,16,30,20,27,08,05,,,,0.96,0.61,0.75,1*0F
$GNGSA,A,3,69,79,68,,,,,,,,,,0.96,0.61,0.75,2*07
$GNGSA,A,3,09,31,06,05,24,04,15,34,,,,,0.96,0.61,0.75,3*00
$GNGSA,A,3,37,20,23,32,19,38,34,,,,,,0.96,0.61,0.75,4*0C
$GPGSV,3,1,12,09,75,141,36,07,68,270,34,04,44,125,30,44,33,171,28,1*68
$GPGSV,3,2,12,16,32,051,30,30,31,260,28,20,27,306,28,27,22,091,23,1*6C
$GPGSV,3,3,12,08,15,125,25,05,07,331,19,26,04,043,16,11,04,283,,1*6C
$GLGSV,2,1,06,69,77,309,26,79,68,222,28,68,47,149,25,80,14,222,22,1*7D
$GLGSV,2,2,06,70,12,324,,86,09,353,,1*7D
$GAGSV,2,1,08,09,76,124,29,31,64,111,29,06,50,123,27,05,47,300,27,7*70
$GAGSV,2,2,08,24,34,188,26,04,24,122,24,15,09,327,21,34,08,279,12,7*72
$GBGSV,4,1,14,37,75,214,38,20,65,273,39,23,47,061,35,32,41,167,35,1*70
$GBGSV,4,2,14,19,23,315,32,46,20,232,,38,15,332,27,08,10,342,21,1*7E
$GBGSV,4,3,14,34,05,038,23,11,03,060,13,12,03,012,17,43,02,080,,1*73
$GBGSV,4,4,14,13,02,346,,04,01,262,,1*71
$GNRMC,193451.000,A,4910.427640,N,12304.402920,W,0.03,0.00,051224,,,D,V*13
$GNVTG,0.00,T,,M,0.03,N,0.06,K,D*23
$GNGGA,193452.000,4910.427766,N,12304.402872,W,2,27,0.61,13.355,M,-16.816,M,,*78
$GNGLL,4910.427766,N,12304.402872,W,193452.000,A,D*5D
$GNGSA,A,3,09,07,04,16,30,20,27,08,05,,,,0.96,0.61,0.75,1*0F
$GNGSA,A,3,69,79,68,,,,,,,,,,0.96,0.61,0.75,2*07
$GNGSA,A,3,09,31,06,05,24,04,15,34,,,,,0.96,0.61,0.75,3*00
$GNGSA,A,3,37,20,23,32,19,38,34,,,,,,0.96,0.61,0.75,4*0C
$GPGSV,3,1,12,09,75,141,36,07,68,270,34,04,44,125,30,44,33,171,28,1*68
$GPGSV,3,2,12,16,32,051,30,30,31,260,28,20,27,306,28,27,22,091,24,1*6B
$GPGSV,3,3,12,08,15,125,25,05,07,331,19,11,04,283,,26,04,043,16,1*6C
$GLGSV,2,1,07,69,77,309,26,79,68,222,28,78,54,042,,68,47,149,25,1*7B
$GLGSV,2,2,07,80,14,222,22,70,12,324,,86,09,353,,1*43
$GAGSV,2,1,08,09,76,124,29,31,64,111,29,06,50,123,27,05,47,300,27,7*70
$GAGSV,2,2,08,24,34,188,26,04,24,122,24,15,09,327,21,34,08,279,12,7*72
$GBGSV,4,1,13,37,75,214,38,20,65,273,39,23,47,061,35,32,41,167,35,1*77
$GBGSV,4,2,13,19,23,315,32,46,20,232,,38,15,332,27,08,10,342,21,1*79
$GBGSV,4,3,13,34,05,038,23,11,03,060,14,12,03,012,17,13,02,346,,1*7F
$GBGSV,4,4,13,43,02,080,,1*49
$GNRMC,193452.000,A,4910.427766,N,12304.402872,W,0.03,0.00,051224,,,D,V*13
$GNVTG,0.00,T,,M,0.03,N,0.06,K,D*23
$GNGGA,193453.000,4910.427802,N,12304.402830,W,2,27,0.61,13.520,M,-16.816,M,,*76
$GNGLL,4910.427802,N,12304.402830,W,193453.000,A,D*57
$GNGSA,A,3,09,07,04,16,30,20,27,08,05,,,,0.96,0.61,0.75,1*0F
$GNGSA,A,3,69,79,68,,,,,,,,,,0.96,0.61,0.75,2*07
$GNGSA,A,3,09,31,06,05,24,04,15,34,,,,,0.96,0.61,0.75,3*00
$GNGSA,A,3,37,20,23,32,19,38,34,,,,,,0.96,0.61,0.75,4*0C
$GPGSV,3,1,12,09,75,141,36,07,68,270,34,04,44,125,30,44,33,171,28,1*68
$GPGSV,3,2,12,16,32,051,30,30,31,260,27,20,27,306,27,27,22,091,24,1*6B
$GPGSV,3,3,12,08,15,125,24,05,07,331,19,26,04,043,16,11,04,283,,1*6D
$GLGSV,2,1,06,69,77,309,26,79,68,222,28,68,47,149,25,80,14,222,22,1*7D
$GLGSV,2,2,06,70,12,324,,86,09,353,,1*7D
$GAGSV,2,1,08,09,76,124,29,31,64,111,29,06,50,123,27,05,47,300,27,7*70
$GAGSV,2,2,08,24,34,188,26,04,24,122,23,15,09,327,20,34,08,279,12,7*74
$GBGSV,4,1,14,37,75,214,38,20,65,273,39,23,47,061,35,32,41,167,35,1*70
$GBGSV,4,2,14,19,23,315,31,46,20,232,,38,15,332,27,08,10,342,21,1*7D
$GBGSV,4,3,14,34,05,038,23,11,03,060,14,12,03,012,17,43,02,080,,1*74
$GBGSV,4,4,14,13,02,346,,04,01,262,,1*71
$GNRMC,193453.000,A,4910.427802,N,12304.402830,W,0.03,0.00,051224,,,D,V*19
$GNVTG,0.00,T,,M,0.03,N,0.05,K,D*20
$GNGGA,193454.000,4910.427898,N,12304.402806,W,2,27,0.61,13.688,M,-16.816,M,,*76
$GNGLL,4910.427898,N,12304.402806,W,193454.000,A,D*56
$GNGSA,A,3,09,07,04,16,30,20,27,08,05,,,,0.96,0.61,0.75,1*0F
$GNGSA,A,3,69,79,68,,,,,,,,,,0.96,0.61,0.75,2*07
$GNGSA,A,3,09,31,06,05,24,04,15,34,,,,,0.96,0.61,0.75,3*00
$GNGSA,A,3,37,20,23,32,19,38,34,,,,,,0.96,0.61,0.75,4*0C
$GPGSV,3,1,12,09,75,141,35,07,68,270,34,04,44,125,30,44,33,171,28,1*6B
$GPGSV,3,2,12,16,32,051,30,30,31,260,27,20,27,306,27,27,22,091,24,1*6B
$GPGSV,3,3,12,08,15,125,23,05,07,331,18,26,04,043,16,11,04,283,,1*6B
$GLGSV,2,1,07,69,77,309,26,79,68,222,28,78,54,042,,68,47,149,26,1*78
$GLGSV,2,2,07,80,14,222,22,70,12,324,,86,09,353,,1*43
$GAGSV,2,1,08,09,76,124,28,31,64,111,29,06,50,123,26,05,47,300,26,7*71
$GAGSV,2,2,08,24,34,188,26,04,24,122,23,15,09,327,19,34,08,279,12,7*7E
$GBGSV,4,1,14,37,75,214,38,20,65,273,39,23,47,061,35,32,41,167,34,1*71
$GBGSV,4,2,14,19,23,315,31,46,20,232,,38,15,332,27,08,10,342,21,1*7D
$GBGSV,4,3,14,34,05,038,23,11,03,060,14,12,03,012,17,43,02,080,,1*74
$GBGSV,4,4,14,13,02,346,,04,01,262,,1*71
$GNRMC,193454.000,A,4910.427898,N,12304.402806,W,0.02,0.00,051224,,,D,V*19
$GNVTG,0.00,T,,M,0.02,N,0.04,K,D*20
$GNGGA,193455.000,4910.427958,N,12304.402740,W,2,27,0.61,13.843,M,-16.816,M,,*7E
$GNGLL,4910.427958,N,12304.402740,W,193455.000,A,D*57
$GNGSA,A,3,09,07,04,16,30,20,27,08,05,,,,0.96,0.61,0.75,1*0F
$GNGSA,A,3,69,79,68,,,,,,,,,,0.96,0.61,0.75,2*07
$GNGSA,A,3,09,31,06,05,24,04,15,34,,,,,0.96,0.61,0.75,3*00
$GNGSA,A,3,37,20,23,32,19,38,34,,,,,,0.96,0.61,0.75,4*0C
$GPGSV,3,1,12,09,75,141,35,07,68,270,34,04,44,125,30,44,33,171,28,1*6B
$GPGSV,3,2,12,16,32,051,30,30,31,260,27,20,27,306,28,27,22,091,24,1*64
$GPGSV,3,3,12,08,15,125,24,05,07,331,19,26,04,043,16,11,04,283,,1*6D
$GLGSV,2,1,07,69,77,309,26,79,68,222,28,78,54,042,,68,47,149,26,1*78
$GLGSV,2,2,07,80,14,222,22,70,12,324,,86,09,353,,1*43
$GAGSV,2,1,08,09,76,124,28,31,64,111,29,06,50,123,26,05,47,300,26,7*71
$GAGSV,2,2,08,24,34,188,25,04,24,122,23,15,09,327,19,34,08,279,12,7*7D
$GBGSV,4,1,14,37,75,214,38,20,65,273,39,23,47,061,35,32,41,167,34,1*71
$GBGSV,4,2,14,19,23,315,31,46,20,232,,38,15,332,27,08,10,342,21,1*7D
$GBGSV,4,3,14,34,05,038,23,11,03,060,14,12,03,012,17,43,02,080,,1*74
$GBGSV,4,4,14,13,02,346,,04,01,262,,1*71
$GNRMC,193455.000,A,4910.427958,N,12304.402740,W,0.02,0.00,051224,,,D,V*18
$GNVTG,0.00,T,,M,0.02,N,0.04,K,D*20
$GNGGA,193456.000,4910.428054,N,12304.402668,W,2,27,0.61,13.980,M,-16.816,M,,*72
$GNGLL,4910.428054,N,12304.402668,W,193456.000,A,D*55
$GNGSA,A,3,09,07,04,16,30,20,27,08,05,,,,0.96,0.61,0.75,1*0F
$GNGSA,A,3,69,79,68,,,,,,,,,,0.96,0.61,0.75,2*07
$GNGSA,A,3,09,31,06,05,24,04,15,34,,,,,0.96,0.61,0.75,3*00
$GNGSA,A,3,37,20,23,32,19,38,34,,,,,,0.96,0.61,0.75,4*0C
$GPGSV,3,1,12,09,75,141,35,07,68,270,34,04,44,125,30,44,33,171,28,1*6B
$GPGSV,3,2,12,16,32,051,30,30,31,260,27,20,27,306,28,27,22,091,24,1*64
$GPGSV,3,3,12,08,15,125,24,05,07,331,20,26,04,043,15,11,04,283,,1*64
$GLGSV,2,1,06,69,77,309,26,79,68,222,29,68,47,149,26,80,14,222,22,1*7F
$GLGSV,2,2,06,70,12,324,,86,09,353,,1*7D
$GAGSV,2,1,08,09,76,124,28,31,64,111,29,06,50,123,26,05,47,300,26,7*71
$GAGSV,2,2,08,24,34,188,25,04,24,122,23,15,09,327,19,34,08,279,12,7*7D
$GBGSV,4,1,14,37,75,214,38,20,65,273,39,23,47,061,35,32,41,167,34,1*71
$GBGSV,4,2,14,19,23,315,31,46,20,232,,38,15,332,27,08,10,342,21,1*7D
$GBGSV,4,3,14,34,05,038,23,11,03,060,14,12,03,012,17,43,02,080,,1*74
$GBGSV,4,4,14,13,02,346,,04,01,262,,1*71
$GNRMC,193456.000,A,4910.428054,N,12304.402668,W,0.02,0.00,051224,,,D,V*1A
$GNVTG,0.00,T,,M,0.02,N,0.03,K,D*27
$GNGGA,193457.000,4910.428114,N,12304.402596,W,2,27,0.61,14.085,M,-16.816,M,,*7F
$GNGLL,4910.428114,N,12304.402596,W,193457.000,A,D*53
$GNGSA,A,3,09,07,04,16,30,20,27,08,05,,,,0.96,0.61,0.75,1*0F
$GNGSA,A,3,69,79,68,,,,,,,,,,0.96,0.61,0.75,2*07
$GNGSA,A,3,09,31,06,05,24,04,15,34,,,,,0.96,0.61,0.75,3*00
$GNGSA,A,3,37,20,23,32,19,38,34,,,,,,0.96,0.61,0.75,4*0C
$GPGSV,3,1,12,09,75,141,35,07,68,270,34,04,44,125,30,44,33,171,28,1*6B
$GPGSV,3,2,12,16,32,051,30,30,31,260,27,20,27,306,28,27,22,091,24,1*64
$GPGSV,3,3,12,08,15,125,25,05,07,331,20,26,04,043,15,11,04,283,,1*65
$GLGSV,2,1,07,69,77,309,26,79,68,222,29,78,54,042,,68,47,149,26,1*79
$GLGSV,2,2,07,80,14,222,22,70,12,324,,86,09,353,,1*43
$GAGSV,2,1,08,09,76,124,28,31,64,111,29,06,50,123,27,05,47,300,26,7*70
$GAGSV,2,2,08,24,34,188,25,04,24,122,23,15,09,327,19,34,08,279,12,7*7D
$GBGSV,4,1,14,37,75,214,38,20,65,273,39,23,47,061,35,32,41,167,34,1*71
$GBGSV,4,2,14,19,23,315,31,46,20,232,,38,15,332,27,08,10,342,21,1*7D
$GBGSV,4,3,14,34,05,038,23,11,03,060,14,12,03,012,17,43,02,080,,1*74
$GBGSV,4,4,14,13,02,346,,04,01,262,,1*71
$GNRMC,193457.000,A,4910.428114,N,12304.402596,W,0.02,0.00,051224,,,D,V*1C
$GNVTG,0.00,T,,M,0.02,N,0.03,K,D*27
$GNGGA,193458.000,4910.428216,N,12304.402500,W,2,27,0.61,14.117,M,-16.816,M,,*74
$GNGLL,4910.428216,N,12304.402500,W,193458.000,A,D*52
$GNGSA,A,3,09,07,04,16,30,20,27,08,05,,,,0.96,0.61,0.75,1*0F
$GNGSA,A,3,69,79,68,,,,,,,,,,0.96,0.61,0.75,2*07
$GNGSA,A,3,09,31,06,05,24,04,15,34,,,,,0.96,0.61,0.75,3*00
$GNGSA,A,3,37,20,23,32,19,38,34,,,,,,0.96,0.61,0.75,4*0C
$GPGSV,3,1,12,09,75,141,35,07,68,270,34,04,44,125,30,44,33,171,28,1*6B
$GPGSV,3,2,12,16,32,051,30,30,31,260,27,20,27,306,28,27,22,091,25,1*65
$GPGSV,3,3,12,08,15,125,24,05,07,331,20,11,04,283,,26,04,043,16,1*67
$GLGSV,2,1,07,69,77,309,26,79,68,222,29,78,54,042,,68,47,149,26,1*79
$GLGSV,2,2,07,80,14,222,22,70,12,324,,86,09,353,,1*43
$GAGSV,2,1,08,09,76,124,28,31,64,111,29,06,50,123,27,05,47,300,26,7*70
$GAGSV,2,2,08,24,34,188,25,04,24,122,23,15,09,327,19,34,08,279,12,7*7D
$GBGSV,4,1,13,37,75,214,38,20,65,273,39,23,47,061,35,32,41,167,34,1*76
$GBGSV,4,2,13,19,23,315,31,46,20,232,,38,15,332,27,08,10,342,21,1*7A
$GBGSV,4,3,13,34,05,038,24,11,03,060,14,12,03,012,17,13,02,346,,1*78
$GBGSV,4,4,13,43,02,080,,1*49
$GNRMC,193458.000,A,4910.428216,N,12304.402500,W,0.02,0.00,051224,,,D,V*1D
$GNVTG,0.00,T,,M,0.02,N,0.04,K,D*20
$GNGGA,193459.000,4910.428294,N,12304.402404,W,2,27,0.61,14.189,M,-16.816,M,,*7D
$GNGLL,4910.428294,N,12304.402404,W,193459.000,A,D*5C
$GNGSA,A,3,09,07,04,16,30,20,27,08,05,,,,0.96,0.61,0.75,1*0F
$GNGSA,A,3,69,79,68,,,,,,,,,,0.96,0.61,0.75,2*07
$GNGSA,A,3,09,31,06,05,24,04,15,34,,,,,0.96,0.61,0.75,3*00
$GNGSA,A,3,37,20,23,32,19,38,34,,,,,,0.96,0.61,0.75,4*0C
$GPGSV,3,1,12,09,75,141,35,07,68,270,34,04,44,125,30,44,33,171,28,1*6B
$GPGSV,3,2,12,16,32,051,30,30,31,260,27,20,27,306,28,27,22,091,26,1*66
$GPGSV,3,3,12,08,15,125,25,05,07,331,20,26,04,043,15,11,04,283,,1*65
$GLGSV,2,1,07,69,77,309,26,79,68,222,29,78,54,042,,68,47,149,26,1*79
$GLGSV,2,2,07,80,14,222,22,70,12,324,,86,09,353,,1*43
$GAGSV,2,1,08,09,76,124,28,31,64,111,29,06,50,123,27,05,47,300,26,7*70
$GAGSV,2,2,08,24,34,188,25,04,24,122,23,15,09,327,19,34,08,279,12,7*7D
$GBGSV,4,1,14,37,75,214,38,20,65,273,39,23,47,061,35,32,41,167,34,1*71
$GBGSV,4,2,14,19,23,315,31,46,20,232,,38,15,332,27,08,10,342,21,1*7D
$GBGSV,4,3,14,34,05,038,24,11,03,060,14,12,03,012,17,43,02,080,,1*73
$GBGSV,4,4,14,13,02,346,,04,01,262,,1*71
$GNRMC,193459.000,A,4910.428294,N,12304.402404,W,0.03,0.00,051224,,,D,V*12
$GNVTG,0.00,T,,M,0.03,N,0.05,K,D*20
$GNGGA,193500.000,4910.428318,N,12304.402308,W,2,27,0.61,14.177,M,-16.816,M,,*7F
$GNGLL,4910.428318,N,12304.402308,W,193500.000,A,D*5F
$GNGSA,A,3,09,07,04,16,30,20,27,08,05,,,,0.96,0.61,0.75,1*0F
$GNGSA,A,3,69,79,68,,,,,,,,,,0.96,0.61,0.75,2*07
$GNGSA,A,3,09,31,06,05,24,04,15,34,,,,,0.96,0.61,0.75,3*00
$GNGSA,A,3,37,20,23,32,19,38,34,,,,,,0.96,0.61,0.75,4*0C
$GPGSV,3,1,12,09,75,141,35,07,68,270,34,04,44,125,29,44,33,171,28,1*63
$GPGSV,3,2,12,16,32,051,30,30,31,260,27,20,27,306,27,27,22,091,26,1*69
$GPGSV,3,3,12,08,15,125,23,05,07,331,20,26,04,043,14,11,04,283,,1*62
$GLGSV,2,1,07,69,77,309,26,79,68,222,29,78,54,042,,68,47,149,26,1*79
$GLGSV,2,2,07,80,14,222,22,70,12,324,,86,09,353,,1*43
$GAGSV,2,1,08,09,76,124,28,31,64,111,29,06,50,123,27,05,47,300,26,7*70
$GAGSV,2,2,08,24,34,188,25,04,24,122,23,15,09,327,19,34,08,279,12,7*7D
$GBGSV,4,1,14,37,75,214,38,20,65,273,39,23,47,061,35,32,41,167,34,1*71
$GBGSV,4,2,14,19,23,315,31,46,20,232,,38,15,332,27,08,10,342,21,1*7D
$GBGSV,4,3,14,34,05,038,25,11,03,060,14,12,03,012,17,43,02,080,,1*72
$GBGSV,4,4,14,13,02,346,,04,01,262,,1*71
$GNRMC,193500.000,A,4910.428318,N,12304.402308,W,0.03,0.00,051224,,,D,V*11
$GNVTG,0.00,T,,M,0.03,N,0.05,K,D*20
$GNGGA,193501.000,4910.428372,N,12304.402344,W,2,26,0.65,14.171,M,-16.817,M,,*78
$GNGLL,4910.428372,N,12304.402344,W,193501.000,A,D*5A
$GNGSA,A,3,09,07,04,16,30,20,27,08,05,,,,1.04,0.65,0.81,1*0A
$GNGSA,A,3,69,79,68,,,,,,,,,,1.04,0.65,0.81,2*02
$GNGSA,A,3,09,31,06,05,24,04,15,,,,,,1.04,0.65,0.81,3*02
$GNGSA,A,3,37,20,23,32,19,38,34,,,,,,1.04,0.65,0.81,4*09
$GPGSV,3,1,12,09,75,141,34,07,68,270,34,04,44,125,29,44,33,171,28,1*62
$GPGSV,3,2,12,16,32,051,29,30,31,260,27,20,27,306,27,27,22,091,25,1*62
$GPGSV,3,3,12,08,15,125,24,05,07,331,20,26,04,043,15,11,04,283,,1*64
$GLGSV,2,1,07,69,77,309,25,79,68,222,29,78,54,042,,68,47,149,26,1*7A
$GLGSV,2,2,07,80,14,222,22,70,12,324,,86,09,353,,1*43
$GAGSV,2,1,08,09,76,124,28,31,64,111,28,06,50,123,27,05,47,300,26,7*71
$GAGSV,2,2,08,24,34,188,24,04,24,122,23,15,09,327,19,34,08,279,11,7*7F
$GBGSV,4,1,14,37,75,214,38,20,65,273,39,23,47,061,35,32,41,167,34,1*71
$GBGSV,4,2,14,19,23,315,31,46,20,232,,38,15,332,27,08,10,342,21,1*7D
$GBGSV,4,3,14,34,05,038,25,11,03,060,14,12,03,012,17,43,02,080,,1*72
$GBGSV,4,4,14,13,02,346,,04,01,262,,1*71
$GNRMC,193501.000,A,4910.428372,N,12304.402344,W,0.03,0.00,051224,,,D,V*14
$GNVTG,0.00,T,,M,0.03,N,0.05,K,D*20
$GNGGA,193502.000,4910.428402,N,12304.402332,W,2,27,0.61,14.236,M,-16.816,M,,*7E
$GNGLL,4910.428402,N,12304.402332,W,193502.000,A,D*58
$GNGSA,A,3,09,07,04,16,30,20,27,08,05,,,,0.96,0.61,0.75,1*0F
$GNGSA,A,3,69,79,68,,,,,,,,,,0.96,0.61,0.75,2*07
$GNGSA,A,3,09,31,06,05,24,04,15,34,,,,,0.96,0.61,0.75,3*00
$GNGSA,A,3,37,20,23,32,19,38,34,,,,,,0.96,0.61,0.75,4*0C
$GPGSV,3,1,12,09,75,141,34,07,68,270,34,04,44,125,28,44,33,171,28,1*63
$GPGSV,3,2,12,16,32,051,29,30,31,260,27,20,27,306,27,27,22,091,25,1*62
$GPGSV,3,3,12,08,15,125,24,05,07,331,20,26,04,043,13,11,04,283,,1*62
$GLGSV,2,1,07,69,77,309,27,79,68,222,29,78,54,042,,68,47,149,27,1*79
$GLGSV,2,2,07,80,14,222,22,70,12,324,,86,09,353,,1*43
$GAGSV,2,1,08,09,76,124,28,31,64,111,28,06,50,123,27,05,47,300,26,7*71
$GAGSV,2,2,08,24,34,188,24,04,24,122,23,15,09,327,19,34,08,279,10,7*7E
$GBGSV,4,1,14,37,75,214,38,20,65,273,39,23,47,061,35,32,41,167,34,1*71
$GBGSV,4,2,14,19,23,315,31,46,20,232,,38,15,332,27,08,10,342,21,1*7D
$GBGSV,4,3,14,34,05,038,25,11,03,060,14,12,03,012,18,43,02,080,,1*7D
$GBGSV,4,4,14,13,02,346,,04,01,262,,1*71
$GNRMC,193502.000,A,4910.428402,N,12304.402332,W,0.02,0.00,051224,,,D,V*17
$GNVTG,0.00,T,,M,0.02,N,0.04,K,D*20
$GNGGA,193503.000,4910.428468,N,12304.402248,W,2,27,0.61,14.126,M,-16.816,M,,*7D
$GNGLL,4910.428468,N,12304.402248,W,193503.000,A,D*59
$GNGSA,A,3,09,07,04,16,30,20,27,08,05,,,,0.96,0.61,0.75,1*0F
$GNGSA,A,3,69,79,68,,,,,,,,,,0.96,0.61,0.75,2*07
$GNGSA,A,3,09,31,06,05,24,04,15,34,,,,,0.96,0.61,0.75,3*00
$GNGSA,A,3,37,20,23,32,19,38,34,,,,,,0.96,0.61,0.75,4*0C
$GPGSV,3,1,12,09,75,141,34,07,68,270,34,04,44,125,28,44,33,171,28,1*63
$GPGSV,3,2,12,16,32,051,29,30,31,260,27,20,27,306,27,27,22,091,27,1*60
$GPGSV,3,3,12,08,15,125,25,05,07,331,20,26,04,043,13,11,04,283,,1*63
$GLGSV,2,1,07,69,77,309,27,79,68,222,29,78,54,042,,68,47,149,27,1*79
$GLGSV,2,2,07,80,14,222,22,70,12,324,,86,09,353,,1*43
$GAGSV,2,1,08,09,76,124,28,31,64,111,28,06,50,123,27,05,47,300,26,7*71
$GAGSV,2,2,08,24,34,188,24,04,24,122,23,15,09,327,19,34,08,279,10,7*7E
$GBGSV,4,1,14,37,75,214,38,20,65,273,39,23,47,061,35,32,41,167,34,1*71
$GBGSV,4,2,14,19,23,315,31,46,20,232,,38,15,332,27,08,10,342,21,1*7D
$GBGSV,4,3,14,34,05,038,25,11,03,060,14,12,03,012,18,43,02,080,,1*7D
$GBGSV,4,4,14,13,02,346,,04,01,262,,1*71
$GNRMC,193503.000,A,4910.428468,N,12304.402248,W,0.02,0.00,051224,,,D,V*16
$GNVTG,0.00,T,,M,0.02,N,0.04,K,D*20
$GNGGA,193504.000,4910.428564,N,12304.402128,W,2,26,0.65,14.031,M,-16.816,M,,*70
$GNGLL,4910.428564,N,12304.402128,W,193504.000,A,D*56
$GNGSA,A,3,09,07,04,16,30,20,27,08,05,,,,1.04,0.65,0.81,1*0A
$GNGSA,A,3,69,79,68,,,,,,,,,,1.04,0.65,0.81,2*02
$GNGSA,A,3,09,31,06,05,24,04,15,,,,,,1.04,0.65,0.81,3*02
$GNGSA,A,3,37,20,23,32,19,38,34,,,,,,1.04,0.65,0.81,4*09
$GPGSV,3,1,12,09,75,141,34,07,68,270,34,04,44,125,28,44,33,171,28,1*63
$GPGSV,3,2,12,16,32,051,29,30,31,260,27,20,27,306,27,27,22,091,27,1*60
$GPGSV,3,3,12,08,15,125,26,05,07,331,20,26,04,043,16,11,04,283,,1*65
$GLGSV,2,1,06,69,77,309,26,79,68,222,29,68,47,149,27,80,14,222,23,1*7F
$GLGSV,2,2,06,70,12,324,,86,09,353,,1*7D
$GAGSV,2,1,08,09,76,124,29,31,64,111,28,06,50,123,27,05,47,300,27,7*71
$GAGSV,2,2,08,24,34,188,24,04,24,122,23,15,09,327,19,34,08,279,09,7*76
$GBGSV,4,1,14,37,75,214,38,20,65,273,39,23,47,061,35,32,41,167,34,1*71
$GBGSV,4,2,14,19,23,315,31,46,20,232,,38,15,332,27,08,10,342,21,1*7D
$GBGSV,4,3,14,34,05,038,25,11,03,060,14,12,03,012,18,43,02,080,,1*7D
$GBGSV,4,4,14,13,02,346,,04,01,262,,1*71
$GNRMC,193504.000,A,4910.428564,N,12304.402128,W,0.03,0.00,051224,,,D,V*18
$GNVTG,0.00,T,,M,0.03,N,0.05,K,D*20
$GNGGA,193505.000,4910.428666,N,12304.401948,W,2,26,0.65,13.904,M,-16.816,M,,*75
$GNGLL,4910.428666,N,12304.401948,W,193505.000,A,D*5B
$GNGSA,A,3,09,07,04,16,30,20,27,08,05,,,,1.04,0.65,0.81,1*0A
$GNGSA,A,3,69,79,68,,,,,,,,,,1.04,0.65,0.81,2*02
$GNGSA,A,3,09,31,06,05,24,04,15,,,,,,1.04,0.65,0.81,3*02
$GNGSA,A,3,37,20,23,32,19,38,34,,,,,,1.04,0.65,0.81,4*09
$GPGSV,3,1,12,09,75,141,34,07,68,270,34,04,44,125,28,44,33,171,28,1*63
$GPGSV,3,2,12,16,32,051,29,30,31,260,27,20,27,306,26,27,22,091,27,1*61
$GPGSV,3,3,12,08,15,125,26,05,07,331,21,26,04,043,14,11,04,283,,1*66
$GLGSV,2,1,06,69,77,309,25,79,68,222,29,68,47,149,27,80,14,222,23,1*7C
$GLGSV,2,2,06,70,12,324,,86,09,353,,1*7D
$GAGSV,2,1,08,09,76,124,29,31,64,111,29,06,50,123,27,05,47,300,26,7*71
$GAGSV,2,2,08,24,34,188,25,04,24,122,23,15,09,327,19,34,08,279,09,7*77
$GBGSV,4,1,14,37,75,214,38,20,65,273,39,23,47,061,35,32,41,167,34,1*71
$GBGSV,4,2,14,19,23,315,31,46,20,232,,38,15,332,27,08,10,342,20,1*7C
$GBGSV,4,3,14,34,05,038,25,11,03,060,14,12,03,012,18,43,02,080,,1*7D
$GBGSV,4,4,14,13,02,346,,04,01,262,,1*71
$GNRMC,193505.000,A,4910.428666,N,12304.401948,W,0.03,0.00,051224,,,D,V*15
$GNVTG,0.00,T,,M,0.03,N,0.05,K,D*20
$GNGGA,193506.000,4910.428714,N,12304.401828,W,2,26,0.65,13.814,M,-16.817,M,,*74
$GNGLL,4910.428714,N,12304.401828,W,193506.000,A,D*5B
$GNGSA,A,3,09,07,04,16,30,20,27,08,05,,,,1.04,0.65,0.81,1*0A
$GNGSA,A,3,69,79,68,,,,,,,,,,1.04,0.65,0.81,2*02
$GNGSA,A,3,09,31,06,05,24,04,15,,,,,,1.04,0.65,0.81,3*02
$GNGSA,A,3,37,20,23,32,19,38,34,,,,,,1.04,0.65,0.81,4*09
$GPGSV,3,1,12,09,75,141,34,07,68,270,34,04,44,125,28,44,33,171,28,1*63
$GPGSV,3,2,12,16,32,051,29,30,31,260,27,20,27,306,26,27,22,091,28,1*6E
$GPGSV,3,3,12,08,15,125,25,05,07,331,21,26,04,043,15,11,04,283,,1*64
$GLGSV,2,1,07,69,77,309,25,79,68,222,29,78,54,042,,68,47,149,27,1*7B
$GLGSV,2,2,07,80,14,222,23,70,12,324,,86,09,353,,1*42
$GAGSV,2,1,08,09,76,124,29,31,64,111,29,06,50,123,27,05,47,300,27,7*70
$GAGSV,2,2,08,24,34,188,25,04,24,122,23,15,09,327,19,34,08,279,08,7*76
$GBGSV,4,1,14,37,75,214,38,20,65,273,39,23,47,061,35,32,41,167,34,1*71
$GBGSV,4,2,14,19,23,315,31,46,20,232,,38,15,332,27,08,10,342,20,1*7C
$GBGSV,4,3,14,34,05,038,25,11,03,060,14,12,03,012,18,43,02,080,,1*7D
$GBGSV,4,4,14,13,02,346,,04,01,262,,1*71
$GNRMC,193506.000,A,4910.428714,N,12304.401828,W,0.02,0.00,051224,,,D,V*14
$GNVTG,0.00,T,,M,0.02,N,0.04,K,D*20
$GNGGA,193507.000,4910.428792,N,12304.401834,W,2,27,0.61,13.828,M,-16.816,M,,*7D
$GNGLL,4910.428792,N,12304.401834,W,193507.000,A,D*59
$GNGSA,A,3,09,07,04,16,30,20,27,08,05,,,,0.96,0.61,0.75,1*0F
$GNGSA,A,3,69,79,68,,,,,,,,,,0.96,0.61,0.75,2*07
$GNGSA,A,3,09,31,06,05,24,04,15,34,,,,,0.96,0.61,0.75,3*00
$GNGSA,A,3,37,20,23,32,19,38,34,,,,,,0.96,0.61,0.75,4*0C
$GPGSV,3,1,12,09,75,141,34,07,68,270,34,04,44,125,28,44,33,171,28,1*63
$GPGSV,3,2,12,16,32,051,29,30,31,260,27,20,27,306,26,27,22,091,26,1*60
$GPGSV,3,3,12,08,15,125,24,05,07,331,21,26,04,043,15,11,04,283,,1*65
$GLGSV,2,1,07,69,77,309,25,79,68,222,29,78,54,042,,68,47,149,27,1*7B
$GLGSV,2,2,07,80,14,222,23,70,12,324,,86,09,353,,1*42
$GAGSV,2,1,08,09,76,124,29,31,64,111,29,06,50,123,27,05,47,300,26,7*71
$GAGSV,2,2,08,24,34,188,25,04,24,122,23,15,09,327,19,34,08,279,08,7*76
$GBGSV,4,1,14,37,75,214,38,20,65,273,39,23,47,061,35,32,41,167,34,1*71
$GBGSV,4,2,14,19,23,315,31,46,20,232,,38,15,332,27,08,10,342,20,1*7C
$GBGSV,4,3,14,34,05,038,25,11,03,060,14,12,03,012,18,43,02,080,,1*7D
$GBGSV,4,4,14,13,02,346,,04,01,262,,1*71
$GNRMC,193507.000,A,4910.428792,N,12304.401834,W,0.02,0.00,051224,,,D,V*16
$GNVTG,0.00,T,,M,0.02,N,0.04,K,D*20
$GNGGA,193508.000,4910.428870,N,12304.401858,W,2,27,0.61,13.822,M,-16.817,M,,*70
$GNGLL,4910.428870,N,12304.401858,W,193508.000,A,D*5F
$GNGSA,A,3,09,07,04,16,30,20,27,08,05,,,,0.96,0.61,0.75,1*0F
$GNGSA,A,3,69,79,68,,,,,,,,,,0.96,0.61,0.75,2*07
$GNGSA,A,3,09,31,06,05,24,04,15,34,,,,,0.96,0.61,0.75,3*00
$GNGSA,A,3,37,20,23,32,19,38,34,,,,,,0.96,0.61,0.75,4*0C
$GPGSV,3,1,12,09,75,141,34,07,68,270,34,04,44,125,28,44,33,171,28,1*63
$GPGSV,3,2,12,16,32,051,29,30,31,260,28,20,27,306,27,27,22,091,27,1*6F
$GPGSV,3,3,12,08,15,125,25,05,07,331,21,11,04,283,,26,04,043,16,1*67
$GLGSV,2,1,06,69,77,309,25,79,68,222,29,78,54,042,,68,47,149,27,1*7A
$GLGSV,2,2,06,80,14,222,23,70,12,324,,1*71
$GAGSV,2,1,08,09,76,124,29,31,64,111,29,06,50,123,27,05,47,300,26,7*71
$GAGSV,2,2,08,24,34,188,25,04,24,122,24,15,09,327,19,34,08,279,09,7*70
$GBGSV,4,1,14,37,75,214,38,20,65,273,39,23,47,061,35,32,41,167,34,1*71
$GBGSV,4,2,14,19,23,315,31,46,20,232,,38,15,332,27,08,10,342,21,1*7D
$GBGSV,4,3,14,34,05,038,25,11,03,060,14,12,03,012,18,43,02,080,,1*7D
$GBGSV,4,4,14,13,02,346,,04,01,262,,1*71
$GNRMC,193508.000,A,4910.428870,N,12304.401858,W,0.02,0.00,051224,,,D,V*10
$GNVTG,0.00,T,,M,0.02,N,0.03,K,D*27
$GNGGA,193509.000,4910.428918,N,12304.401930,W,2,27,0.61,13.806,M,-16.816,M,,*76
$GNGLL,4910.428918,N,12304.401930,W,193509.000,A,D*5E
$GNGSA,A,3,09,07,04,16,30,20,27,08,05,,,,0.96,0.61,0.75,1*0F
$GNGSA,A,3,69,79,68,,,,,,,,,,0.96,0.61,0.75,2*07
$GNGSA,A,3,09,31,06,05,24,04,15,34,,,,,0.96,0.61,0.75,3*00
$GNGSA,A,3,37,20,23,32,19,38,34,,,,,,0.96,0.61,0.75,4*0C
$GPGSV,3,1,12,09,75,141,34,07,68,270,34,04,44,125,28,44,33,171,28,1*63
$GPGSV,3,2,12,16,32,051,28,30,31,260,25,20,27,306,25,27,22,091,27,1*61
$GPGSV,3,3,12,08,15,125,25,05,07,331,21,26,04,043,16,11,04,283,,1*67
$GLGSV,2,1,07,69,77,309,26,79,68,222,29,78,54,042,,68,47,149,27,1*78
$GLGSV,2,2,07,80,14,222,23,70,12,324,,86,09,353,,1*42
$GAGSV,2,1,08,09,76,124,29,31,64,111,29,06,50,123,27,05,47,300,26,7*71
$GAGSV,2,2,08,24,34,188,25,04,24,122,24,15,09,327,19,34,08,279,09,7*70
$GBGSV,4,1,14,37,75,214,38,20,65,273,39,23,47,061,35,32,41,167,34,1*71
$GBGSV,4,2,14,19,23,315,31,46,20,232,,38,15,332,27,08,10,342,21,1*7D
$GBGSV,4,3,14,34,05,038,25,11,03,060,14,12,03,012,18,43,02,080,,1*7D
$GBGSV,4,4,14,13,02,346,,04,01,262,,1*71
$GNRMC,193509.000,A,4910.428918,N,12304.401930,W,0.02,0.00,051224,,,D,V*11
$GNVTG,0.00,T,,M,0.02,N,0.04,K,D*20
$GNGGA,193510.000,4910.428990,N,12304.401840,W,2,26,0.65,13.634,M,-16.816,M,,*72
$GNGLL,4910.428990,N,12304.401840,W,193510.000,A,D*50
$GNGSA,A,3,09,07,04,16,30,20,27,08,05,,,,1.04,0.65,0.81,1*0A
$GNGSA,A,3,69,79,68,,,,,,,,,,1.04,0.65,0.81,2*02
$GNGSA,A,3,09,31,06,05,24,04,15,,,,,,1.04,0.65,0.81,3*02
$GNGSA,A,3,37,20,23,32,19,38,34,,,,,,1.04,0.65,0.81,4*09
$GPGSV,3,1,12,09,75,141,34,07,68,270,34,04,44,125,27,44,33,171,27,1*63
$GPGSV,3,2,12,16,32,051,28,30,31,260,25,20,27,306,25,27,22,091,27,1*61
$GPGSV,3,3,12,08,16,125,25,05,07,331,21,26,04,043,15,11,04,283,,1*67
$GLGSV,2,1,06,69,77,308,26,79,68,223,29,68,47,149,27,80,14,222,23,1*7F
$GLGSV,2,2,06,70,12,324,,86,09,352,,1*7C
$GAGSV,2,1,08,09,76,124,29,31,64,110,28,06,50,123,27,05,47,300,26,7*71
$GAGSV,2,2,08,24,34,188,24,04,24,122,24,15,09,327,19,34,08,279,09,7*71
$GBGSV,4,1,14,37,75,214,38,20,65,273,39,23,47,061,36,32,41,167,34,1*72
$GBGSV,4,2,14,19,23,315,31,46,20,232,,38,16,332,27,08,10,341,21,1*7D
$GBGSV,4,3,14,34,05,038,26,11,03,060,13,12,03,012,19,43,02,080,,1*78
$GBGSV,4,4,14,13,02,346,,04,01,262,,1*71
$GNRMC,193510.000,A,4910.428990,N,12304.401840,W,0.02,0.00,051224,,,D,V*1F
$GNVTG,0.00,T,,M,0.02,N,0.04,K,D*20
$GNGGA,193511.000,4910.429026,N,12304.401906,W,2,26,0.65,13.634,M,-16.816,M,,*75
