$GNGGA,000941.000,4910.427520,N,12304.404216,W,2,28,0.54,3.522,M,-16.816,M,,*4C
$GNGLL,4910.427520,N,12304.404216,W,000941.000,A,D*57
$GNGSA,A,3,19,24,06,12,17,11,14,03,32,,,,0.92,0.54,0.75,1*03
$GNGSA,A,3,84,75,73,85,,,,,,,,,0.92,0.54,0.75,2*0D
$GNGSA,A,3,21,13,15,27,04,06,,,,,,,0.92,0.54,0.75,3*09
$GNGSA,A,3,25,34,12,11,44,23,24,43,39,,,,0.92,0.54,0.75,4*05
$GPGSV,3,1,11,19,67,062,30,24,55,246,31,06,51,134,31,12,42,292,30,1*65
$GPGSV,3,2,11,17,35,060,27,46,33,188,28,25,27,300,,11,26,172,22,1*6E
$GPGSV,3,3,11,14,11,108,25,03,10,046,22,32,08,331,22,1*57
$GLGSV,2,1,07,74,79,098,18,84,75,140,22,75,41,317,29,73,32,128,27,1*70
$GLGSV,2,2,07,85,27,199,23,83,27,034,16,66,13,340,19,1*44
$GAGSV,3,1,10,21,79,314,32,13,45,144,30,15,43,064,29,27,43,101,27,7*76
$GAGSV,3,2,10,04,19,300,24,19,15,243,18,06,12,325,19,26,08,184,21,7*71
$GAGSV,3,3,10,34,05,027,18,09,04,345,16,7*74
$GBGSV,3,1,11,25,78,230,35,34,72,172,33,12,66,076,31,11,48,200,30,1*70
$GBGSV,3,2,11,44,42,057,29,23,33,304,27,24,33,141,29,43,28,214,27,1*7D
$GBGSV,3,3,11,39,06,330,20,20,03,346,18,48,01,005,,1*49
$GNRMC,000941.000,A,4910.427520,N,12304.404216,W,0.01,87.58,070125,,,D,V*28
$GNVTG,87.58,T,,M,0.01,N,0.03,K,D*16
$GNGGA,000942.000,4910.427586,N,12304.404186,W,2,28,0.54,3.444,M,-16.816,M,,*48
$GNGLL,4910.427586,N,12304.404186,W,000942.000,A,D*52
$GNGSA,A,3,19,24,06,12,17,11,14,03,32,,,,0.92,0.54,0.75,1*03
$GNGSA,A,3,84,75,73,85,,,,,,,,,0.92,0.54,0.75,2*0D
$GNGSA,A,3,21,13,15,27,04,06,,,,,,,0.92,0.54,0.75,3*09
$GNGSA,A,3,25,34,12,11,44,23,24,43,39,,,,0.92,0.54,0.75,4*05
$GPGSV,3,1,11,19,67,062,29,24,55,246,30,06,51,134,31,12,42,292,30,1*6C
$GPGSV,3,2,11,17,35,060,26,46,33,188,28,25,27,300,,11,26,172,21,1*6C
$GPGSV,3,3,11,14,11,108,25,03,10,046,21,32,08,331,21,1*57
$GLGSV,2,1,07,74,79,098,18,84,75,140,22,75,41,317,29,73,32,128,27,1*70
$GLGSV,2,2,07,85,27,199,24,83,27,034,17,66,13,340,20,1*48
$GAGSV,3,1,10,21,79,314,32,13,45,144,30,15,43,064,29,27,43,101,26,7*77
$GAGSV,3,2,10,04,19,300,24,19,15,243,17,06,12,325,19,26,08,184,21,7*7E
$GAGSV,3,3,10,34,05,027,18,09,04,345,15,7*77
$GBGSV,3,1,11,25,78,230,35,34,72,172,33,12,66,076,31,11,48,200,30,1*70
$GBGSV,3,2,11,44,42,057,29,23,33,304,27,24,33,141,29,43,28,214,27,1*7D
$GBGSV,3,3,11,39,06,330,20,20,03,346,18,48,01,005,,1*49
$GNRMC,000942.000,A,4910.427586,N,12304.404186,W,0.01,87.58,070125,,,D,V*2D
$GNVTG,87.58,T,,M,0.01,N,0.02,K,D*17
$GNGGA,000943.000,4910.427694,N,12304.404174,W,2,28,0.54,3.454,M,-16.816,M,,*45
$GNGLL,4910.427694,N,12304.404174,W,000943.000,A,D*5E
$GNGSA,A,3,19,24,06,12,17,11,14,03,32,,,,0.92,0.54,0.75,1*03
$GNGSA,A,3,84,75,73,85,,,,,,,,,0.92,0.54,0.75,2*0D
$GNGSA,A,3,21,13,15,27,04,06,,,,,,,0.92,0.54,0.75,3*09
$GNGSA,A,3,25,34,12,11,44,23,24,43,39,,,,0.92,0.54,0.75,4*05
$GPGSV,3,1,11,19,67,062,29,24,55,246,30,06,51,134,30,12,42,292,29,1*65
$GPGSV,3,2,11,17,35,060,26,46,33,188,27,25,27,300,,11,26,172,20,1*62
$GPGSV,3,3,11,14,11,108,24,03,10,046,21,32,08,331,20,1*57
$GLGSV,2,1,07,74,79,098,18,84,75,140,22,75,41,317,29,73,32,128,27,1*70
$GLGSV,2,2,07,85,27,199,24,83,27,034,17,66,13,340,20,1*48
$GAGSV,3,1,10,21,79,314,31,13,45,144,30,15,43,064,29,27,43,101,26,7*74
$GAGSV,3,2,10,04,19,300,24,19,15,243,17,06,12,325,19,26,08,184,21,7*7E
$GAGSV,3,3,10,34,05,027,18,09,04,345,15,7*77
$GBGSV,3,1,11,25,78,230,35,34,72,172,33,12,66,076,31,11,48,200,30,1*70
$GBGSV,3,2,11,44,42,057,29,23,33,304,27,24,33,141,29,43,28,214,27,1*7D
$GBGSV,3,3,11,39,06,330,20,20,03,346,18,48,01,005,,1*49
$GNRMC,000943.000,A,4910.427694,N,12304.404174,W,0.01,87.58,070125,,,D,V*21
$GNVTG,87.58,T,,M,0.01,N,0.02,K,D*17
$GNGGA,000944.000,4910.427796,N,12304.404132,W,2,28,0.54,3.607,M,-16.816,M,,*47
$GNGLL,4910.427796,N,12304.404132,W,000944.000,A,D*58
$GNGSA,A,3,19,24,06,12,17,11,14,03,32,,,,0.92,0.54,0.75,1*03
$GNGSA,A,3,84,75,73,85,,,,,,,,,0.92,0.54,0.75,2*0D
$GNGSA,A,3,21,13,15,27,04,06,,,,,,,0.92,0.54,0.75,3*09
$GNGSA,A,3,25,34,12,11,44,23,24,43,39,,,,0.92,0.54,0.75,4*05
$GPGSV,3,1,11,19,67,062,29,24,55,246,30,06,51,134,30,12,42,292,29,1*65
$GPGSV,3,2,11,17,35,060,26,46,33,188,27,25,27,300,,11,26,172,19,1*68
$GPGSV,3,3,11,14,11,108,24,03,10,046,21,32,08,331,20,1*57
$GLGSV,2,1,07,74,79,098,18,84,75,140,22,75,41,317,29,73,32,128,28,1*7F
$GLGSV,2,2,07,85,27,199,25,83,27,034,17,66,13,340,20,1*49
$GAGSV,3,1,10,21,79,314,31,13,45,144,30,15,43,064,29,27,43,101,26,7*74
$GAGSV,3,2,10,04,19,300,24,19,14,243,16,06,12,325,19,26,08,184,21,7*7E
$GAGSV,3,3,10,34,05,027,18,09,04,345,15,7*77
$GBGSV,3,1,11,25,78,230,35,34,72,172,33,12,66,076,31,11,48,200,30,1*70
$GBGSV,3,2,11,44,42,057,29,23,33,304,27,24,33,141,29,43,28,214,27,1*7D
$GBGSV,3,3,11,39,06,330,19,20,03,346,18,48,01,005,,1*43
$GNRMC,000944.000,A,4910.427796,N,12304.404132,W,0.02,87.58,070125,,,D,V*24
$GNVTG,87.58,T,,M,0.02,N,0.03,K,D*15
$GNGGA,000945.000,4910.427868,N,12304.404012,W,2,28,0.54,3.461,M,-16.816,M,,*49
$GNGLL,4910.427868,N,12304.404012,W,000945.000,A,D*54
$GNGSA,A,3,19,24,06,12,17,11,14,03,32,,,,0.92,0.54,0.75,1*03
$GNGSA,A,3,84,75,73,85,,,,,,,,,0.92,0.54,0.75,2*0D
$GNGSA,A,3,21,13,15,27,04,06,,,,,,,0.92,0.54,0.75,3*09
$GNGSA,A,3,25,34,12,11,44,23,24,43,39,,,,0.92,0.54,0.75,4*05
$GPGSV,3,1,11,19,67,062,29,24,55,246,30,06,51,134,30,12,42,292,29,1*65
$GPGSV,3,2,11,17,35,060,26,46,33,188,27,25,27,300,,11,26,172,18,1*69
$GPGSV,3,3,11,14,11,108,24,03,10,046,21,32,08,331,20,1*57
$GLGSV,2,1,07,74,79,098,18,84,75,140,22,75,41,317,29,73,32,128,28,1*7F
$GLGSV,2,2,07,85,27,199,25,83,27,034,17,66,13,340,20,1*49
$GAGSV,3,1,10,21,79,314,31,13,45,144,30,15,43,064,29,27,43,101,26,7*74
$GAGSV,3,2,10,04,19,300,24,19,14,243,16,06,12,325,19,26,08,184,21,7*7E
$GAGSV,3,3,10,34,05,027,18,09,04,345,15,7*77
$GBGSV,3,1,11,25,78,230,35,34,72,172,33,12,66,076,31,11,48,200,30,1*70
$GBGSV,3,2,11,44,42,057,29,23,33,304,27,24,33,141,29,43,28,214,27,1*7D
$GBGSV,3,3,11,39,06,330,19,20,03,346,18,48,01,005,,1*43
$GNRMC,000945.000,A,4910.427868,N,12304.404012,W,0.02,87.58,070125,,,D,V*28
$GNVTG,87.58,T,,M,0.02,N,0.04,K,D*12
$GNGGA,000946.000,4910.427970,N,12304.403868,W,2,28,0.54,3.252,M,-16.817,M,,*47
$GNGLL,4910.427970,N,12304.403868,W,000946.000,A,D*5D
$GNGSA,A,3,19,24,06,12,17,11,14,03,32,,,,0.92,0.54,0.75,1*03
$GNGSA,A,3,84,75,73,85,,,,,,,,,0.92,0.54,0.75,2*0D
$GNGSA,A,3,21,13,15,27,04,06,,,,,,,0.92,0.54,0.75,3*09
$GNGSA,A,3,25,34,12,11,44,23,24,43,39,,,,0.92,0.54,0.75,4*05
$GPGSV,3,1,11,19,67,062,29,24,55,246,30,06,51,134,30,12,42,292,29,1*65
$GPGSV,3,2,11,17,35,060,26,46,33,188,27,25,27,300,,11,26,172,19,1*68
$GPGSV,3,3,11,14,11,108,24,03,10,046,21,32,08,331,20,1*57
$GLGSV,2,1,07,74,79,098,18,84,75,140,22,75,41,317,29,73,32,128,28,1*7F
$GLGSV,2,2,07,85,27,199,25,83,27,034,17,66,13,340,20,1*49
$GAGSV,3,1,10,21,79,315,31,13,45,144,30,15,43,064,29,27,43,101,26,7*75
$GAGSV,3,2,10,04,19,300,25,19,14,243,16,06,12,325,19,26,08,184,21,7*7F
$GAGSV,3,3,10,34,05,027,18,09,04,345,15,7*77
$GBGSV,3,1,11,25,78,230,35,34,72,172,33,12,66,076,31,11,48,200,30,1*70
$GBGSV,3,2,11,44,42,057,29,23,33,304,27,24,33,141,30,43,28,214,27,1*75
$GBGSV,3,3,11,39,06,330,19,20,03,346,18,48,01,005,,1*43
$GNRMC,000946.000,A,4910.427970,N,12304.403868,W,0.03,87.58,070125,,,D,V*20
$GNVTG,87.58,T,,M,0.03,N,0.05,K,D*12
$GNGGA,000947.000,4910.428018,N,12304.403742,W,2,28,0.54,3.118,M,-16.816,M,,*45
$GNGLL,4910.428018,N,12304.403742,W,000947.000,A,D*53
$GNGSA,A,3,19,24,06,12,17,11,14,03,32,,,,0.92,0.54,0.75,1*03
$GNGSA,A,3,84,75,73,85,,,,,,,,,0.92,0.54,0.75,2*0D
$GNGSA,A,3,21,13,15,27,04,06,,,,,,,0.92,0.54,0.75,3*09
$GNGSA,A,3,25,34,12,11,44,23,24,43,39,,,,0.92,0.54,0.75,4*05
$GPGSV,3,1,11,19,67,062,29,24,55,246,30,06,51,134,30,12,42,292,29,1*65
$GPGSV,3,2,11,17,35,060,26,46,33,188,27,25,27,300,,11,26,172,19,1*68
$GPGSV,3,3,11,14,11,108,24,03,10,046,21,32,08,331,20,1*57
$GLGSV,2,1,07,74,79,098,18,84,75,140,22,75,41,317,29,73,32,128,28,1*7F
$GLGSV,2,2,07,85,27,199,25,83,27,034,17,66,13,340,20,1*49
$GAGSV,3,1,10,21,79,315,31,13,45,144,30,15,43,064,29,27,43,101,26,7*75
$GAGSV,3,2,10,04,19,300,25,19,14,243,16,06,12,325,19,26,08,184,21,7*7F
$GAGSV,3,3,10,34,05,027,18,09,04,345,15,7*77
$GBGSV,3,1,11,25,78,230,35,34,72,172,33,12,66,076,31,11,48,200,30,1*70
$GBGSV,3,2,11,44,42,057,29,23,33,304,27,24,33,141,30,43,28,214,27,1*75
$GBGSV,3,3,11,39,06,330,19,20,03,346,19,48,01,005,,1*42
$GNRMC,000947.000,A,4910.428018,N,12304.403742,W,0.03,87.58,070125,,,D,V*2E
$GNVTG,87.58,T,,M,0.03,N,0.06,K,D*11
$GNGGA,000948.000,4910.428030,N,12304.403628,W,2,28,0.54,3.022,M,-16.816,M,,*45
$GNGLL,4910.428030,N,12304.403628,W,000948.000,A,D*5B
$GNGSA,A,3,19,24,06,12,17,11,14,03,32,,,,0.92,0.54,0.75,1*03
$GNGSA,A,3,84,75,73,85,,,,,,,,,0.92,0.54,0.75,2*0D
$GNGSA,A,3,21,13,15,27,04,06,,,,,,,0.92,0.54,0.75,3*09
$GNGSA,A,3,25,34,12,11,44,23,24,43,39,,,,0.92,0.54,0.75,4*05
$GPGSV,3,1,11,19,67,062,29,24,55,246,30,06,51,134,30,12,42,292,29,1*65
$GPGSV,3,2,11,17,35,060,27,46,33,188,27,25,27,300,,11,26,172,19,1*69
$GPGSV,3,3,11,14,11,108,25,03,10,046,21,32,08,331,20,1*56
$GLGSV,2,1,07,74,79,098,18,84,75,140,21,75,41,317,28,73,32,128,28,1*7D
$GLGSV,2,2,07,85,27,199,25,83,27,034,17,66,13,340,20,1*49
$GAGSV,3,1,10,21,79,315,31,13,45,144,30,15,43,064,29,27,43,101,26,7*75
$GAGSV,3,2,10,04,19,300,25,19,14,243,16,06,12,325,19,26,08,184,21,7*7F
$GAGSV,3,3,10,34,05,027,18,09,04,345,15,7*77
$GBGSV,3,1,11,25,78,230,35,34,72,172,33,12,66,076,31,11,48,200,30,1*70
$GBGSV,3,2,11,44,42,057,29,23,33,304,27,24,33,141,30,43,28,214,27,1*75
$GBGSV,3,3,11,39,06,330,19,20,03,346,19,48,01,005,,1*42
$GNRMC,000948.000,A,4910.428030,N,12304.403628,W,0.03,87.58,070125,,,D,V*26
$GNVTG,87.58,T,,M,0.03,N,0.05,K,D*12
$GNGGA,000949.000,4910.428054,N,12304.403580,W,2,28,0.54,2.858,M,-16.816,M,,*43
$GNGLL,4910.428054,N,12304.403580,W,000949.000,A,D*59
$GNGSA,A,3,19,24,06,12,17,11,14,03,32,,,,0.92,0.54,0.75,1*03
$GNGSA,A,3,84,75,73,85,,,,,,,,,0.92,0.54,0.75,2*0D
$GNGSA,A,3,21,13,15,27,04,06,,,,,,,0.92,0.54,0.75,3*09
$GNGSA,A,3,25,34,12,11,44,23,24,43,39,,,,0.92,0.54,0.75,4*05
$GPGSV,3,1,11,19,67,062,29,24,55,246,30,06,51,134,30,12,42,292,29,1*65
$GPGSV,3,2,11,17,35,060,27,46,33,188,27,25,27,300,,11,26,172,19,1*69
$GPGSV,3,3,11,14,11,108,25,03,10,046,21,32,08,331,20,1*56
$GLGSV,2,1,07,74,79,098,18,84,75,140,21,75,41,317,28,73,32,128,27,1*72
$GLGSV,2,2,07,85,27,199,24,83,27,034,16,66,13,340,20,1*49
$GAGSV,3,1,10,21,79,315,31,13,45,144,30,15,43,064,29,27,43,101,26,7*75
$GAGSV,3,2,10,04,19,300,25,19,14,243,16,06,12,325,19,26,08,184,21,7*7F
$GAGSV,3,3,10,34,05,027,18,09,04,345,15,7*77
$GBGSV,3,1,11,25,78,230,35,34,72,172,33,12,66,076,31,11,48,200,30,1*70
$GBGSV,3,2,11,44,42,057,29,23,33,304,27,24,33,141,30,43,28,214,27,1*75
$GBGSV,3,3,11,39,06,330,19,20,03,346,18,48,01,005,,1*43
$GNRMC,000949.000,A,4910.428054,N,12304.403580,W,0.02,87.58,070125,,,D,V*25
$GNVTG,87.58,T,,M,0.02,N,0.04,K,D*12
$GNGGA,000950.000,4910.428060,N,12304.403436,W,2,28,0.54,2.642,M,-16.816,M,,*45
$GNGLL,4910.428060,N,12304.403436,W,000950.000,A,D*5A
$GNGSA,A,3,19,24,06,12,17,11,14,03,32,,,,0.92,0.54,0.75,1*03
$GNGSA,A,3,84,75,73,85,,,,,,,,,0.92,0.54,0.75,2*0D
$GNGSA,A,3,21,13,15,27,04,06,,,,,,,0.92,0.54,0.75,3*09
$GNGSA,A,3,25,34,12,11,44,23,24,43,39,,,,0.92,0.54,0.75,4*05
$GPGSV,3,1,11,19,67,062,30,24,55,246,31,06,51,134,30,12,42,292,30,1*64
$GPGSV,3,2,11,17,35,060,28,46,33,188,27,25,27,300,,11,26,172,20,1*6C
$GPGSV,3,3,11,14,11,108,27,03,10,046,21,32,08,331,20,1*54
$GLGSV,2,1,07,74,79,098,18,84,75,140,22,75,41,317,28,73,32,128,27,1*71
$GLGSV,2,2,07,85,27,199,24,83,27,034,16,66,13,340,20,1*49
$GAGSV,3,1,10,21,79,315,31,13,45,144,30,15,43,064,29,27,43,101,26,7*75
$GAGSV,3,2,10,04,19,300,25,19,14,243,17,06,12,325,19,26,08,184,21,7*7E
$GAGSV,3,3,10,34,05,027,18,09,04,345,15,7*77
$GBGSV,3,1,11,25,78,230,35,34,72,172,34,12,66,076,31,11,48,200,30,1*77
$GBGSV,3,2,11,44,42,057,29,23,33,304,28,24,33,141,31,43,28,214,27,1*7B
$GBGSV,3,3,11,39,06,330,19,20,03,346,18,48,01,005,,1*43
$GNRMC,000950.000,A,4910.428060,N,12304.403436,W,0.02,87.58,070125,,,D,V*26
$GNVTG,87.58,T,,M,0.02,N,0.03,K,D*15
$GNGGA,000951.000,4910.428084,N,12304.403238,W,2,28,0.54,2.463,M,-16.817,M,,*46
$GNGLL,4910.428084,N,12304.403238,W,000951.000,A,D*59
$GNGSA,A,3,19,24,06,12,17,11,14,03,32,,,,0.92,0.54,0.75,1*03
$GNGSA,A,3,84,75,73,85,,,,,,,,,0.92,0.54,0.75,2*0D
$GNGSA,A,3,21,13,15,27,04,06,,,,,,,0.92,0.54,0.75,3*09
$GNGSA,A,3,25,34,12,11,44,23,24,43,39,,,,0.92,0.54,0.75,4*05
$GPGSV,3,1,11,19,67,062,30,24,55,246,31,06,51,134,30,12,42,292,30,1*64
$GPGSV,3,2,11,17,35,060,28,46,33,188,28,25,27,300,,11,26,172,21,1*62
$GPGSV,3,3,11,14,11,108,27,03,10,046,21,32,08,331,20,1*54
$GLGSV,2,1,07,74,79,098,18,84,75,140,22,75,41,317,28,73,32,128,27,1*71
$GLGSV,2,2,07,85,27,199,25,83,27,034,16,66,13,340,20,1*48
$GAGSV,3,1,10,21,79,315,32,13,45,144,30,15,43,064,29,27,43,101,26,7*76
$GAGSV,3,2,10,04,19,300,25,19,14,243,17,06,12,325,19,26,08,184,21,7*7E
$GAGSV,3,3,10,34,05,027,18,09,04,345,16,7*74
$GBGSV,3,1,11,25,78,230,35,34,72,172,34,12,66,076,31,11,48,200,30,1*77
$GBGSV,3,2,11,44,42,057,29,23,33,304,27,24,33,141,31,43,28,214,27,1*74
$GBGSV,3,3,11,39,06,330,19,20,03,346,18,48,01,005,,1*43
$GNRMC,000951.000,A,4910.428084,N,12304.403238,W,0.02,87.58,070125,,,D,V*25
$GNVTG,87.58,T,,M,0.02,N,0.03,K,D*15
$GNGGA,000952.000,4910.428030,N,12304.403100,W,2,28,0.54,2.297,M,-16.817,M,,*4F
$GNGLL,4910.428030,N,12304.403100,W,000952.000,A,D*5D
$GNGSA,A,3,19,24,06,12,17,11,14,03,32,,,,0.92,0.54,0.75,1*03
$GNGSA,A,3,84,75,73,85,,,,,,,,,0.92,0.54,0.75,2*0D
$GNGSA,A,3,21,13,15,27,04,06,,,,,,,0.92,0.54,0.75,3*09
$GNGSA,A,3,25,34,12,11,44,23,24,43,39,,,,0.92,0.54,0.75,4*05
$GPGSV,3,1,11,19,67,062,30,24,55,246,31,06,51,134,30,12,42,292,30,1*64
$GPGSV,3,2,11,17,35,060,28,46,33,188,28,25,27,300,,11,26,172,21,1*62
$GPGSV,3,3,11,14,11,108,26,03,10,046,21,32,08,331,20,1*55
$GLGSV,2,1,07,74,79,098,18,84,75,140,22,75,41,317,28,73,32,128,27,1*71
$GLGSV,2,2,07,85,27,199,25,83,27,034,16,66,13,340,20,1*48
$GAGSV,3,1,10,21,79,315,32,13,45,144,30,15,43,064,29,27,43,101,26,7*76
$GAGSV,3,2,10,04,19,300,25,19,14,243,17,06,12,325,19,26,08,184,21,7*7E
$GAGSV,3,3,10,34,05,027,18,09,04,345,15,7*77
$GBGSV,3,1,11,25,78,230,35,34,72,172,34,12,66,076,31,11,48,200,30,1*77
$GBGSV,3,2,11,44,42,057,29,23,33,304,27,24,33,141,31,43,28,214,27,1*74
$GBGSV,3,3,11,39,06,330,19,20,03,346,18,48,01,005,,1*43
$GNRMC,000952.000,A,4910.428030,N,12304.403100,W,0.02,87.58,070125,,,D,V*21
$GNVTG,87.58,T,,M,0.02,N,0.04,K,D*12
$GNGGA,000953.000,4910.427934,N,12304.402902,W,2,28,0.54,2.103,M,-16.816,M,,*48
$GNGLL,4910.427934,N,12304.402902,W,000953.000,A,D*55
$GNGSA,A,3,19,24,06,12,17,11,14,03,32,,,,0.92,0.54,0.75,1*03
$GNGSA,A,3,84,75,73,85,,,,,,,,,0.92,0.54,0.75,2*0D
$GNGSA,A,3,21,13,15,27,04,06,,,,,,,0.92,0.54,0.75,3*09
$GNGSA,A,3,25,34,12,11,44,23,24,43,39,,,,0.92,0.54,0.75,4*05
$GPGSV,3,1,11,19,67,062,31,24,55,246,31,06,51,134,31,12,42,292,31,1*65
$GPGSV,3,2,11,17,35,060,28,46,33,188,29,25,27,300,,11,26,172,22,1*60
$GPGSV,3,3,11,14,11,108,29,03,10,046,21,32,08,331,20,1*5A
$GLGSV,2,1,07,74,79,098,19,84,75,140,22,75,41,317,28,73,32,128,27,1*70
$GLGSV,2,2,07,85,27,199,25,83,27,034,15,66,13,340,20,1*4B
$GAGSV,3,1,10,21,79,315,32,13,45,144,30,15,43,064,29,27,43,101,26,7*76
$GAGSV,3,2,10,04,19,300,26,19,14,243,17,06,12,325,19,26,08,184,21,7*7D
$GAGSV,3,3,10,34,05,027,18,09,04,345,15,7*77
$GBGSV,3,1,11,25,78,230,35,34,72,172,34,12,66,076,31,11,48,200,30,1*77
$GBGSV,3,2,11,44,42,057,29,23,33,304,27,24,33,141,31,43,28,214,27,1*74
$GBGSV,3,3,11,39,06,330,19,20,03,346,18,48,01,005,,1*43
$GNRMC,000953.000,A,4910.427934,N,12304.402902,W,0.02,87.58,070125,,,D,V*29
$GNVTG,87.58,T,,M,0.02,N,0.04,K,D*12
$GNGGA,000954.000,4910.427850,N,12304.402692,W,2,28,0.54,1.919,M,-16.816,M,,*4A
$GNGLL,4910.427850,N,12304.402692,W,000954.000,A,D*57
$GNGSA,A,3,19,24,06,12,17,11,14,03,32,,,,0.92,0.54,0.75,1*03
$GNGSA,A,3,84,75,73,85,,,,,,,,,0.92,0.54,0.75,2*0D
$GNGSA,A,3,21,13,15,27,04,06,,,,,,,0.92,0.54,0.75,3*09
$GNGSA,A,3,25,34,12,11,44,23,24,43,39,,,,0.92,0.54,0.75,4*05
$GPGSV,3,1,11,19,67,062,31,24,55,246,31,06,51,134,31,12,42,292,31,1*65
$GPGSV,3,2,11,17,35,060,29,46,33,188,29,25,27,300,,11,26,172,22,1*61
$GPGSV,3,3,11,14,11,108,27,03,10,046,21,32,08,331,20,1*54
$GLGSV,2,1,07,74,79,098,19,84,75,140,22,75,41,317,29,73,32,128,27,1*71
$GLGSV,2,2,07,85,27,199,25,83,27,034,15,66,13,340,21,1*4A
$GAGSV,3,1,10,21,79,315,32,13,45,144,30,15,43,064,29,27,43,101,26,7*76
$GAGSV,3,2,10,04,19,300,26,19,14,243,17,06,12,325,19,26,08,184,21,7*7D
$GAGSV,3,3,10,34,05,027,18,09,04,345,15,7*77
$GBGSV,3,1,11,25,78,230,35,34,72,172,34,12,66,076,31,11,48,200,30,1*77
$GBGSV,3,2,11,44,42,057,29,23,33,304,27,24,33,141,31,43,28,214,27,1*74
$GBGSV,3,3,11,39,06,330,19,20,03,346,19,48,01,005,,1*42
$GNRMC,000954.000,A,4910.427850,N,12304.402692,W,0.03,87.58,070125,,,D,V*2A
$GNVTG,87.58,T,,M,0.03,N,0.06,K,D*11
$GNGGA,000955.000,4910.427820,N,12304.402452,W,2,28,0.54,1.796,M,-16.816,M,,*4B
$GNGLL,4910.427820,N,12304.402452,W,000955.000,A,D*5F
$GNGSA,A,3,19,24,06,12,17,11,14,03,32,,,,0.92,0.54,0.75,1*03
$GNGSA,A,3,84,75,73,85,,,,,,,,,0.92,0.54,0.75,2*0D
$GNGSA,A,3,21,13,15,27,04,06,,,,,,,0.92,0.54,0.75,3*09
$GNGSA,A,3,25,34,12,11,44,23,24,43,39,,,,0.92,0.54,0.75,4*05
$GPGSV,3,1,11,19,67,062,31,24,55,246,31,06,51,134,31,12,42,292,31,1*65
$GPGSV,3,2,11,17,35,060,29,46,33,188,29,25,27,300,,11,26,172,22,1*61
$GPGSV,3,3,11,14,11,108,27,03,10,046,21,32,08,331,20,1*54
$GLGSV,2,1,07,74,79,098,19,84,75,140,22,75,41,317,29,73,32,128,27,1*71
$GLGSV,2,2,07,85,27,199,25,83,27,034,15,66,13,340,21,1*4A
$GAGSV,3,1,10,21,79,315,32,13,45,144,30,15,43,064,29,27,43,101,26,7*76
$GAGSV,3,2,10,04,19,300,26,19,14,243,17,06,12,325,19,26,08,184,21,7*7D
$GAGSV,3,3,10,34,05,027,18,09,04,345,15,7*77
$GBGSV,3,1,11,25,78,230,36,34,72,172,34,12,66,076,32,11,48,200,30,1*77
$GBGSV,3,2,11,44,42,057,29,23,33,304,27,24,33,141,31,43,28,214,27,1*74
$GBGSV,3,3,11,39,06,330,19,20,03,346,19,48,01,005,,1*42
$GNRMC,000955.000,A,4910.427820,N,12304.402452,W,0.03,87.58,070125,,,D,V*22
$GNVTG,87.58,T,,M,0.03,N,0.06,K,D*11
$GNGGA,000956.000,4910.427796,N,12304.402278,W,2,28,0.54,1.707,M,-16.817,M,,*4D
$GNGLL,4910.427796,N,12304.402278,W,000956.000,A,D*50
$GNGSA,A,3,19,24,06,12,17,11,14,03,32,,,,0.92,0.54,0.75,1*03
$GNGSA,A,3,84,75,73,85,,,,,,,,,0.92,0.54,0.75,2*0D
$GNGSA,A,3,21,13,15,27,04,06,,,,,,,0.92,0.54,0.75,3*09
$GNGSA,A,3,25,34,12,11,44,23,24,43,39,,,,0.92,0.54,0.75,4*05
$GPGSV,3,1,11,19,67,062,31,24,55,246,31,06,51,134,31,12,42,292,31,1*65
$GPGSV,3,2,11,17,35,060,29,46,33,188,29,25,27,300,,11,26,172,22,1*61
$GPGSV,3,3,11,14,11,108,27,03,10,046,21,32,08,331,20,1*54
$GLGSV,2,1,07,74,79,098,19,84,75,140,22,75,41,317,29,73,32,128,27,1*71
$GLGSV,2,2,07,85,27,199,25,83,27,034,15,66,13,340,21,1*4A
$GAGSV,3,1,10,21,79,315,32,13,45,144,30,15,43,064,28,27,43,101,26,7*77
$GAGSV,3,2,10,04,19,300,26,19,14,243,16,06,12,325,19,26,08,184,21,7*7C
$GAGSV,3,3,10,34,05,027,18,09,04,345,16,7*74
$GBGSV,3,1,11,25,78,230,36,34,72,172,35,12,66,076,32,11,48,200,31,1*77
$GBGSV,3,2,11,44,42,057,29,23,33,304,28,24,33,141,31,43,28,214,27,1*7B
$GBGSV,3,3,11,39,06,330,19,20,03,346,19,48,01,005,,1*42
$GNRMC,000956.000,A,4910.427796,N,12304.402278,W,0.03,87.58,070125,,,D,V*2D
$GNVTG,87.58,T,,M,0.03,N,0.06,K,D*11
$GNGGA,000957.000,4910.427682,N,12304.401960,W,2,28,0.54,1.671,M,-16.817,M,,*49
$GNGLL,4910.427682,N,12304.401960,W,000957.000,A,D*54
$GNGSA,A,3,19,24,06,12,17,11,14,03,32,,,,0.92,0.54,0.75,1*03
$GNGSA,A,3,84,75,73,85,,,,,,,,,0.92,0.54,0.75,2*0D
$GNGSA,A,3,21,13,15,27,04,06,,,,,,,0.92,0.54,0.75,3*09
$GNGSA,A,3,25,34,12,11,44,23,24,43,39,,,,0.92,0.54,0.75,4*05
$GPGSV,3,1,11,19,67,062,32,24,55,246,32,06,51,134,32,12,42,292,32,1*65
$GPGSV,3,2,11,17,35,060,30,46,33,188,30,25,27,300,,11,26,172,23,1*60
$GPGSV,3,3,11,14,11,108,28,03,10,046,22,32,08,331,21,1*59
$GLGSV,2,1,07,74,79,098,18,84,75,140,22,75,41,317,30,73,32,128,28,1*77
$GLGSV,2,2,07,85,27,199,26,83,27,034,15,66,13,340,22,1*4A
$GAGSV,3,1,10,21,79,315,33,13,45,144,30,15,43,064,29,27,43,101,27,7*76
$GAGSV,3,2,10,04,19,300,27,19,14,243,17,06,12,325,19,26,08,184,21,7*7C
$GAGSV,3,3,10,34,05,027,18,09,04,345,16,7*74
$GBGSV,3,1,11,25,78,230,36,34,72,172,35,12,66,076,32,11,48,200,31,1*77
$GBGSV,3,2,11,44,42,057,29,23,33,304,28,24,33,141,31,43,28,214,27,1*7B
$GBGSV,3,3,11,39,06,330,19,20,03,346,19,48,01,005,,1*42
$GNRMC,000957.000,A,4910.427682,N,12304.401960,W,0.03,87.58,070125,,,D,V*29
$GNVTG,87.58,T,,M,0.03,N,0.06,K,D*11
$GNGGA,000958.000,4910.427574,N,12304.401630,W,2,28,0.54,1.629,M,-16.816,M,,*4A
$GNGLL,4910.427574,N,12304.401630,W,000958.000,A,D*5B
$GNGSA,A,3,19,24,06,12,17,11,14,03,32,,,,0.92,0.54,0.75,1*03
$GNGSA,A,3,84,75,73,85,,,,,,,,,0.92,0.54,0.75,2*0D
$GNGSA,A,3,21,13,15,27,04,06,,,,,,,0.92,0.54,0.75,3*09
$GNGSA,A,3,25,34,12,11,44,23,24,43,39,,,,0.92,0.54,0.75,4*05
$GPGSV,3,1,11,19,67,062,32,24,55,246,33,06,51,134,32,12,42,292,33,1*65
$GPGSV,3,2,11,17,35,060,31,46,33,188,30,25,27,300,,11,26,172,24,1*66
$GPGSV,3,3,11,14,11,108,28,03,10,046,23,32,08,331,21,1*58
$GLGSV,2,1,07,74,79,098,18,84,75,140,22,75,41,317,30,73,32,128,28,1*77
$GLGSV,2,2,07,85,27,199,26,83,27,034,16,66,13,340,22,1*49
$GAGSV,3,1,10,21,79,315,33,13,45,144,30,15,43,064,29,27,43,101,28,7*79
$GAGSV,3,2,10,04,19,300,27,19,14,243,17,06,12,325,19,26,08,184,21,7*7C
$GAGSV,3,3,10,34,05,027,18,09,04,345,17,7*75
$GBGSV,3,1,11,25,78,230,36,34,72,172,35,12,66,076,32,11,48,200,31,1*77
$GBGSV,3,2,11,44,42,057,29,23,33,304,28,24,33,141,31,43,28,214,27,1*7B
$GBGSV,3,3,11,39,06,330,19,20,03,346,19,48,01,005,,1*42
$GNRMC,000958.000,A,4910.427574,N,12304.401630,W,0.04,87.58,070125,,,D,V*21
$GNVTG,87.58,T,,M,0.04,N,0.08,K,D*18
$GNGGA,000959.000,4910.427478,N,12304.401348,W,2,28,0.54,1.493,M,-16.816,M,,*4F
$GNGLL,4910.427478,N,12304.401348,W,000959.000,A,D*5D
$GNGSA,A,3,19,24,06,12,17,11,14,03,32,,,,0.92,0.54,0.75,1*03
$GNGSA,A,3,84,75,73,85,,,,,,,,,0.92,0.54,0.75,2*0D
$GNGSA,A,3,21,13,15,27,04,06,,,,,,,0.92,0.54,0.75,3*09
$GNGSA,A,3,25,34,12,11,44,23,24,43,39,,,,0.92,0.54,0.75,4*05
$GPGSV,3,1,11,19,67,062,33,24,55,246,33,06,51,134,33,12,42,292,33,1*65
$GPGSV,3,2,11,17,35,060,32,46,33,188,31,25,27,300,,11,26,172,24,1*64
$GPGSV,3,3,11,14,11,108,28,03,10,046,23,32,08,331,21,1*58
$GLGSV,2,1,07,74,79,098,18,84,75,140,21,75,41,317,30,73,32,128,28,1*74
$GLGSV,2,2,07,85,27,199,26,83,27,034,16,66,13,340,22,1*49
$GAGSV,3,1,10,21,79,315,33,13,45,144,30,15,43,064,29,27,43,101,28,7*79
$GAGSV,3,2,10,04,19,300,27,19,14,243,17,06,12,325,19,26,08,184,21,7*7C
$GAGSV,3,3,10,34,05,027,18,09,04,345,17,7*75
$GBGSV,3,1,11,25,78,230,36,34,72,172,35,12,66,076,32,11,48,200,31,1*77
$GBGSV,3,2,11,44,42,057,29,23,33,304,28,24,33,141,31,43,28,214,28,1*74
$GBGSV,3,3,11,39,06,330,19,20,03,346,19,48,01,005,,1*42
$GNRMC,000959.000,A,4910.427478,N,12304.401348,W,0.04,87.58,070125,,,D,V*27
$GNVTG,87.58,T,,M,0.04,N,0.08,K,D*18
$GNGGA,001000.000,4910.427394,N,12304.401174,W,2,28,0.54,1.339,M,-16.816,M,,*44
$GNGLL,4910.427394,N,12304.401174,W,001000.000,A,D*51
$GNGSA,A,3,19,24,06,12,17,11,14,03,32,,,,0.92,0.54,0.75,1*03
$GNGSA,A,3,84,75,73,85,,,,,,,,,0.92,0.54,0.75,2*0D
$GNGSA,A,3,21,13,15,27,04,06,,,,,,,0.92,0.54,0.75,3*09
$GNGSA,A,3,25,34,12,11,44,23,24,43,39,,,,0.92,0.54,0.75,4*05
$GPGSV,3,1,11,19,67,062,33,24,55,246,33,06,51,134,33,12,42,292,33,1*65
$GPGSV,3,2,11,17,35,060,33,46,33,188,31,25,27,300,,11,26,172,25,1*64
$GPGSV,3,3,11,14,11,108,28,03,10,046,23,32,08,331,21,1*58
$GLGSV,2,1,07,74,79,098,18,84,75,140,21,75,41,317,30,73,32,128,28,1*74
$GLGSV,2,2,07,85,27,199,26,83,27,034,16,66,13,340,22,1*49
$GAGSV,3,1,10,21,79,315,33,13,45,144,30,15,43,064,29,27,43,101,28,7*79
$GAGSV,3,2,10,04,19,300,27,19,14,243,18,06,12,325,19,26,08,184,21,7*73
$GAGSV,3,3,10,34,05,027,19,09,04,345,17,7*74
$GBGSV,3,1,11,25,78,230,36,34,72,172,35,12,66,076,32,11,48,200,31,1*77
$GBGSV,3,2,11,44,42,057,29,23,33,304,28,24,33,141,31,43,28,214,28,1*74
$GBGSV,3,3,11,39,06,330,19,20,03,346,20,48,01,005,,1*48
$GNRMC,001000.000,A,4910.427394,N,12304.401174,W,0.04,87.58,070125,,,D,V*2B
$GNVTG,87.58,T,,M,0.04,N,0.08,K,D*18
$GNGGA,001001.000,4910.427322,N,12304.400994,W,2,28,0.54,1.157,M,-16.816,M,,*45
$GNGLL,4910.427322,N,12304.400994,W,001001.000,A,D*5A
$GNGSA,A,3,19,24,06,12,17,11,14,03,32,,,,0.92,0.54,0.75,1*03
$GNGSA,A,3,84,75,73,85,,,,,,,,,0.92,0.54,0.75,2*0D
$GNGSA,A,3,21,13,15,27,04,06,,,,,,,0.92,0.54,0.75,3*09
$GNGSA,A,3,25,34,12,11,44,23,24,43,39,,,,0.92,0.54,0.75,4*05
$GPGSV,3,1,11,19,67,062,33,24,55,246,33,06,51,134,33,12,42,292,33,1*65
$GPGSV,3,2,11,17,35,060,32,46,33,188,30,25,27,300,,11,26,172,25,1*64
$GPGSV,3,3,11,14,11,108,28,03,10,046,23,32,08,331,21,1*58
$GLGSV,2,1,07,74,79,098,18,84,75,140,21,75,41,317,29,73,32,128,28,1*7C
$GLGSV,2,2,07,85,27,199,26,83,27,034,16,66,13,340,22,1*49
$GAGSV,3,1,10,21,79,315,33,13,45,144,30,15,43,064,29,27,43,101,28,7*79
$GAGSV,3,2,10,04,19,300,27,19,14,243,18,06,12,325,19,26,08,184,20,7*72
$GAGSV,3,3,10,34,05,027,19,09,04,345,17,7*74
$GBGSV,3,1,11,25,78,230,36,34,72,172,34,12,66,076,32,11,48,200,30,1*77
$GBGSV,3,2,11,44,42,057,29,23,33,304,27,24,33,141,31,43,28,214,27,1*74
$GBGSV,3,3,11,39,06,330,19,20,03,346,20,48,01,005,,1*48
$GNRMC,001001.000,A,4910.427322,N,12304.400994,W,0.04,87.58,070125,,,D,V*20
$GNVTG,87.58,T,,M,0.04,N,0.07,K,D*17
$GNGGA,001002.000,4910.427262,N,12304.400814,W,2,28,0.54,1.047,M,-16.817,M,,*4B
$GNGLL,4910.427262,N,12304.400814,W,001002.000,A,D*55
$GNGSA,A,3,19,24,06,12,17,11,14,03,32,,,,0.92,0.54,0.75,1*03
$GNGSA,A,3,84,75,73,85,,,,,,,,,0.92,0.54,0.75,2*0D
$GNGSA,A,3,21,13,15,27,04,06,,,,,,,0.92,0.54,0.75,3*09
$GNGSA,A,3,25,34,12,11,44,23,24,43,39,,,,0.92,0.54,0.75,4*05
$GPGSV,3,1,11,19,67,062,33,24,55,246,34,06,51,134,33,12,42,292,33,1*62
$GPGSV,3,2,11,17,35,060,32,46,33,188,30,25,27,300,,11,26,172,26,1*67
$GPGSV,3,3,11,14,11,108,28,03,10,046,23,32,08,331,21,1*58
$GLGSV,2,1,07,74,79,098,18,84,75,140,21,75,41,317,28,73,32,128,27,1*72
$GLGSV,2,2,07,85,27,199,25,83,27,034,16,66,13,340,22,1*4A
$GAGSV,3,1,10,21,79,315,33,13,45,144,30,15,43,064,29,27,43,101,29,7*78
$GAGSV,3,2,10,04,19,300,27,19,14,243,18,06,12,325,19,26,08,184,21,7*73
$GAGSV,3,3,10,34,05,027,19,09,04,345,17,7*74
$GBGSV,3,1,11,25,78,230,36,34,72,172,34,12,66,076,32,11,48,200,29,1*7F
$GBGSV,3,2,11,44,42,057,29,23,33,304,27,24,33,141,31,43,28,214,27,1*74
$GBGSV,3,3,11,39,06,330,19,20,03,346,20,48,01,005,,1*48
$GNRMC,001002.000,A,4910.427262,N,12304.400814,W,0.03,87.58,070125,,,D,V*28
$GNVTG,87.58,T,,M,0.03,N,0.06,K,D*11
$GNGGA,001003.000,4910.427100,N,12304.400670,W,2,28,0.54,0.835,M,-16.817,M,,*4D
$GNGLL,4910.427100,N,12304.400670,W,001003.000,A,D*5F
$GNGSA,A,3,19,24,06,12,17,11,14,03,32,,,,0.92,0.54,0.75,1*03
$GNGSA,A,3,84,75,73,85,,,,,,,,,0.92,0.54,0.75,2*0D
$GNGSA,A,3,21,13,15,27,04,06,,,,,,,0.92,0.54,0.75,3*09
$GNGSA,A,3,25,34,12,11,44,23,24,43,39,,,,0.92,0.54,0.75,4*05
$GPGSV,3,1,11,19,67,062,33,24,55,246,34,06,51,134,33,12,42,292,33,1*62
$GPGSV,3,2,11,17,35,060,32,46,33,188,30,25,27,300,,11,26,172,26,1*67
$GPGSV,3,3,11,14,11,108,28,03,10,046,23,32,08,331,21,1*58
$GLGSV,2,1,07,74,79,098,18,84,75,140,21,75,41,317,28,73,32,128,27,1*72
$GLGSV,2,2,07,85,27,199,25,83,27,034,16,66,13,339,22,1*44
$GAGSV,3,1,10,21,79,315,33,13,45,144,30,15,43,064,30,27,43,101,29,7*70
$GAGSV,3,2,10,04,19,300,27,19,14,243,18,06,12,325,19,26,08,184,21,7*73
$GAGSV,3,3,10,34,05,027,19,09,04,345,16,7*75
$GBGSV,3,1,11,25,78,230,36,34,72,172,34,12,66,076,32,11,48,200,29,1*7F
$GBGSV,3,2,11,44,42,057,29,23,33,304,27,24,33,141,31,43,28,214,27,1*74
$GBGSV,3,3,11,39,06,330,19,20,03,346,20,48,01,005,,1*48
$GNRMC,001003.000,A,4910.427100,N,12304.400670,W,0.03,87.58,070125,,,D,V*22
$GNVTG,87.58,T,,M,0.03,N,0.06,K,D*11
$GNGGA,001004.000,4910.427028,N,12304.400628,W,2,28,0.54,0.743,M,-16.816,M,,*43
$GNGLL,4910.427028,N,12304.400628,W,001004.000,A,D*5E
$GNGSA,A,3,19,24,06,12,17,11,14,03,32,,,,0.92,0.54,0.75,1*03
$GNGSA,A,3,84,75,73,85,,,,,,,,,0.92,0.54,0.75,2*0D
$GNGSA,A,3,21,13,15,27,04,06,,,,,,,0.92,0.54,0.75,3*09
$GNGSA,A,3,25,34,12,11,44,23,24,43,39,,,,0.92,0.54,0.75,4*05
$GPGSV,3,1,11,19,67,062,33,24,55,246,34,06,51,134,33,12,42,292,33,1*62
$GPGSV,3,2,11,17,35,060,32,46,33,188,31,25,27,300,,11,26,172,27,1*67
$GPGSV,3,3,11,14,11,108,28,03,10,046,23,32,08,331,21,1*58
$GLGSV,2,1,07,74,79,098,19,84,75,140,21,75,41,317,28,73,32,128,27,1*73
$GLGSV,2,2,07,85,27,199,25,83,27,034,16,66,13,339,23,1*45
$GAGSV,3,1,10,21,79,315,33,13,45,144,30,15,43,064,30,27,43,101,29,7*70
$GAGSV,3,2,10,04,19,300,27,19,14,243,18,06,12,325,19,26,08,184,21,7*73
$GAGSV,3,3,10,34,05,027,19,09,04,345,16,7*75
$GBGSV,3,1,11,25,78,230,36,34,72,172,34,12,66,076,32,11,48,200,29,1*7F
$GBGSV,3,2,11,44,42,057,29,23,33,304,27,24,33,141,31,43,28,214,27,1*74
$GBGSV,3,3,11,39,06,330,19,20,03,346,20,48,01,005,,1*48
$GNRMC,001004.000,A,4910.427028,N,12304.400628,W,0.03,87.58,070125,,,D,V*23
$GNVTG,87.58,T,,M,0.03,N,0.05,K,D*12
$GNGGA,001005.000,4910.426890,N,12304.400688,W,2,28,0.54,0.762,M,-16.816,M,,*41
$GNGLL,4910.426890,N,12304.400688,W,001005.000,A,D*5F
$GNGSA,A,3,19,24,06,12,17,11,14,03,32,,,,0.92,0.54,0.75,1*03
$GNGSA,A,3,84,75,73,85,,,,,,,,,0.92,0.54,0.75,2*0D
$GNGSA,A,3,21,13,15,27,04,06,,,,,,,0.92,0.54,0.75,3*09
$GNGSA,A,3,25,34,12,11,44,23,24,43,39,,,,0.92,0.54,0.75,4*05
$GPGSV,3,1,11,19,67,062,33,24,55,246,34,06,51,134,33,12,42,292,33,1*62
$GPGSV,3,2,11,17,35,060,32,46,33,188,31,25,27,300,,11,26,172,27,1*67
$GPGSV,3,3,11,14,11,108,29,03,10,046,23,32,08,331,21,1*59
$GLGSV,2,1,07,74,79,098,19,84,75,140,21,75,41,317,28,73,32,128,27,1*73
$GLGSV,2,2,07,85,27,199,25,83,27,034,15,66,13,339,23,1*46
$GAGSV,3,1,10,21,79,315,33,13,45,144,30,15,43,064,30,27,43,101,29,7*70
$GAGSV,3,2,10,04,19,300,27,19,14,243,18,06,12,325,20,26,08,184,21,7*79
$GAGSV,3,3,10,34,05,027,19,09,04,345,16,7*75
$GBGSV,3,1,11,25,78,230,36,34,72,172,34,12,66,076,32,11,48,200,29,1*7F
$GBGSV,3,2,11,44,42,057,29,23,33,304,27,24,33,141,31,43,28,214,27,1*74
$GBGSV,3,3,11,39,06,330,19,20,03,346,20,48,01,005,,1*48
$GNRMC,001005.000,A,4910.426890,N,12304.400688,W,0.03,87.58,070125,,,D,V*22
$GNVTG,87.58,T,,M,0.03,N,0.05,K,D*12
$GNGGA,001006.000,4910.426722,N,12304.400808,W,2,28,0.54,0.827,M,-16.816,M,,*4C
$GNGLL,4910.426722,N,12304.400808,W,001006.000,A,D*5C
$GNGSA,A,3,19,24,06,12,17,11,14,03,32,,,,0.92,0.54,0.75,1*03
$GNGSA,A,3,84,75,73,85,,,,,,,,,0.92,0.54,0.75,2*0D
$GNGSA,A,3,21,13,15,27,04,06,,,,,,,0.92,0.54,0.75,3*09
$GNGSA,A,3,25,34,12,11,44,23,24,43,39,,,,0.92,0.54,0.75,4*05
$GPGSV,3,1,11,19,67,062,34,24,55,246,34,06,51,134,33,12,42,292,33,1*65
$GPGSV,3,2,11,17,35,060,32,46,33,188,31,25,27,300,,11,26,172,27,1*67
$GPGSV,3,3,11,14,11,108,29,03,10,046,23,32,08,331,21,1*59
$GLGSV,2,1,07,74,79,098,19,84,75,140,21,75,41,317,28,73,32,128,27,1*73
$GLGSV,2,2,07,85,27,199,25,83,27,034,15,66,13,339,23,1*46
$GAGSV,3,1,10,21,79,315,33,13,45,144,31,15,43,064,30,27,43,101,29,7*71
$GAGSV,3,2,10,04,19,300,27,19,14,243,18,06,12,325,20,26,08,184,21,7*79
$GAGSV,3,3,10,34,05,027,19,09,04,345,16,7*75
$GBGSV,3,1,11,25,78,230,36,34,72,172,34,12,66,076,32,11,48,200,29,1*7F
$GBGSV,3,2,11,44,42,057,29,23,33,304,27,24,33,141,31,43,28,214,27,1*74
$GBGSV,3,3,11,39,06,330,19,20,03,346,19,48,01,005,,1*42
$GNRMC,001006.000,A,4910.426722,N,12304.400808,W,0.03,87.58,070125,,,D,V*21
$GNVTG,87.58,T,,M,0.03,N,0.05,K,D*12
$GNGGA,001007.000,4910.426572,N,12304.400826,W,2,28,0.54,0.936,M,-16.816,M,,*47
$GNGLL,4910.426572,N,12304.400826,W,001007.000,A,D*56
$GNGSA,A,3,19,24,06,12,17,11,14,03,32,,,,0.92,0.54,0.75,1*03
$GNGSA,A,3,84,75,73,85,,,,,,,,,0.92,0.54,0.75,2*0D
$GNGSA,A,3,21,13,15,27,04,06,,,,,,,0.92,0.54,0.75,3*09
$GNGSA,A,3,25,34,12,11,44,23,24,43,39,,,,0.92,0.54,0.75,4*05
$GPGSV,3,1,11,19,67,062,34,24,55,246,34,06,51,134,33,12,42,292,33,1*65
$GPGSV,3,2,11,17,35,060,32,46,33,188,31,25,27,300,,11,26,172,27,1*67
$GPGSV,3,3,11,14,11,108,29,03,10,046,23,32,08,331,21,1*59
$GLGSV,2,1,07,74,79,098,19,84,75,140,21,75,41,317,28,73,32,128,26,1*72
$GLGSV,2,2,07,85,27,199,25,83,27,034,15,66,13,339,23,1*46
$GAGSV,3,1,10,21,79,315,33,13,45,144,31,15,43,064,30,27,43,101,29,7*71
$GAGSV,3,2,10,04,19,300,27,19,14,243,18,06,12,325,20,26,08,184,21,7*79
$GAGSV,3,3,10,34,05,027,19,09,04,345,16,7*75
$GBGSV,3,1,11,25,78,230,35,34,72,172,34,12,66,076,32,11,48,200,29,1*7C
$GBGSV,3,2,11,44,42,057,29,23,33,304,26,24,33,141,30,43,28,214,27,1*74
$GBGSV,3,3,11,39,06,330,19,20,03,346,18,48,01,005,,1*43
$GNRMC,001007.000,A,4910.426572,N,12304.400826,W,0.02,87.58,070125,,,D,V*2A
$GNVTG,87.58,T,,M,0.02,N,0.04,K,D*12
$GNGGA,001008.000,4910.426446,N,12304.400850,W,2,28,0.54,1.101,M,-16.817,M,,*43
$GNGLL,4910.426446,N,12304.400850,W,001008.000,A,D*5E
$GNGSA,A,3,19,24,06,12,17,11,14,03,32,,,,0.92,0.54,0.75,1*03
$GNGSA,A,3,84,75,73,85,,,,,,,,,0.92,0.54,0.75,2*0D
$GNGSA,A,3,21,13,15,27,04,06,,,,,,,0.92,0.54,0.75,3*09
$GNGSA,A,3,25,34,12,11,44,23,24,43,39,,,,0.92,0.54,0.75,4*05
$GPGSV,3,1,11,19,67,062,34,24,55,246,34,06,51,134,33,12,42,292,33,1*65
$GPGSV,3,2,11,17,35,060,32,46,33,188,31,25,27,300,,11,26,172,27,1*67
$GPGSV,3,3,11,14,11,108,29,03,10,046,23,32,08,331,21,1*59
$GLGSV,2,1,07,74,79,098,18,84,75,140,21,75,41,317,28,73,32,128,26,1*73
$GLGSV,2,2,07,85,27,199,25,83,27,034,15,66,13,339,23,1*46
$GAGSV,3,1,10,21,79,315,33,13,45,144,31,15,43,064,30,27,43,101,29,7*71
$GAGSV,3,2,10,04,19,300,27,19,14,243,18,06,12,325,20,26,08,184,21,7*79
$GAGSV,3,3,10,34,05,027,19,09,04,345,16,7*75
$GBGSV,3,1,11,25,78,230,35,34,72,172,34,12,66,076,32,11,48,200,29,1*7C
$GBGSV,3,2,11,44,42,057,29,23,33,304,26,24,33,141,30,43,28,214,27,1*74
$GBGSV,3,3,11,39,06,330,18,20,03,346,18,48,01,005,,1*42
$GNRMC,001008.000,A,4910.426446,N,12304.400850,W,0.02,87.58,070125,,,D,V*22
$GNVTG,87.58,T,,M,0.02,N,0.04,K,D*12
$GNGGA,001009.000,4910.426314,N,12304.400856,W,2,28,0.54,1.253,M,-16.816,M,,*41
$GNGLL,4910.426314,N,12304.400856,W,001009.000,A,D*59
$GNGSA,A,3,19,24,06,12,17,11,14,03,32,,,,0.92,0.54,0.75,1*03
$GNGSA,A,3,84,75,73,85,,,,,,,,,0.92,0.54,0.75,2*0D
$GNGSA,A,3,21,13,15,27,04,06,,,,,,,0.92,0.54,0.75,3*09
$GNGSA,A,3,25,34,12,11,44,23,24,43,39,,,,0.92,0.54,0.75,4*05
$GPGSV,3,1,11,19,67,062,34,24,55,246,34,06,51,134,33,12,42,292,33,1*65
$GPGSV,3,2,11,17,35,060,32,46,33,188,31,25,27,300,,11,26,172,28,1*68
$GPGSV,3,3,11,14,11,108,29,03,10,046,23,32,08,331,21,1*59
$GLGSV,2,1,07,74,79,098,18,84,75,140,21,75,41,317,28,73,32,128,26,1*73
$GLGSV,2,2,07,85,27,199,24,83,27,034,15,66,13,339,23,1*47
$GAGSV,3,1,10,21,79,315,33,13,45,144,31,15,43,064,30,27,43,101,29,7*71
$GAGSV,3,2,10,04,19,300,27,19,14,243,18,06,12,325,20,26,08,184,21,7*79
$GAGSV,3,3,10,34,05,027,19,09,04,345,17,7*74
$GBGSV,3,1,11,25,78,230,35,34,72,172,34,12,66,076,32,11,48,200,29,1*7C
$GBGSV,3,2,11,44,42,057,29,23,33,304,26,24,33,141,30,43,28,214,27,1*74
$GBGSV,3,3,11,39,06,330,18,20,03,346,18,48,01,005,,1*42
$GNRMC,001009.000,A,4910.426314,N,12304.400856,W,0.03,87.58,070125,,,D,V*24
$GNVTG,87.58,T,,M,0.03,N,0.05,K,D*12
$GNGGA,001010.000,4910.426284,N,12304.400820,W,2,28,0.54,1.423,M,-16.816,M,,*41
$GNGLL,4910.426284,N,12304.400820,W,001010.000,A,D*58
$GNGSA,A,3,19,24,06,12,17,11,14,03,32,,,,0.92,0.54,0.75,1*03
$GNGSA,A,3,84,75,73,85,,,,,,,,,0.92,0.54,0.75,2*0D
$GNGSA,A,3,21,13,15,27,04,06,,,,,,,0.92,0.54,0.75,3*09
$GNGSA,A,3,25,34,12,11,44,23,24,43,39,,,,0.92,0.54,0.75,4*05
$GPGSV,3,1,11,19,67,062,34,24,55,246,34,06,51,134,33,12,42,292,33,1*65
$GPGSV,3,2,11,17,35,060,32,46,33,188,31,25,27,300,,11,26,172,28,1*68
$GPGSV,3,3,11,14,11,108,28,03,10,046,23,32,08,331,21,1*58
