$GNGGA,192555.000,4910.425192,N,12304.400856,W,2,25,0.63,8.198,M,-16.817,M,,*4C
$GNGLL,4910.425192,N,12304.400856,W,192555.000,A,D*51
$GNGSA,A,3,09,07,04,16,30,20,27,08,26,,,,1.03,0.63,0.81,1*0A
$GNGSA,A,3,69,79,68,,,,,,,,,,1.03,0.63,0.81,2*03
$GNGSA,A,3,09,31,06,05,24,04,15,,,,,,1.03,0.63,0.81,3*03
$GNGSA,A,3,37,20,23,32,19,38,,,,,,,1.03,0.63,0.81,4*0F
$GPGSV,4,1,13,09,80,140,34,07,64,264,31,04,49,122,28,16,36,055,28,1*6D
$GPGSV,4,2,13,46,33,188,28,30,27,257,25,20,25,310,28,27,19,096,25,1*60
$GPGSV,4,3,13,08,12,128,19,26,08,043,21,11,07,287,,05,03,333,20,1*6C
$GPGSV,4,4,13,03,02,173,,1*52
$GLGSV,2,1,07,69,72,317,27,79,63,218,29,78,59,043,,68,52,145,29,1*7B
$GLGSV,2,2,07,86,10,357,,80,10,220,21,70,07,323,,1*49
$GAGSV,2,1,08,09,79,118,28,31,63,119,27,06,54,120,26,05,43,299,26,7*72
$GAGSV,2,2,08,24,30,188,22,04,27,119,22,34,10,282,,15,10,330,19,7*74
$GBGSV,4,1,13,37,70,213,37,20,63,281,38,23,51,061,35,32,46,166,36,1*72
$GBGSV,4,2,13,19,20,315,29,46,16,229,,38,14,333,28,08,08,342,19,1*72
$GBGSV,4,3,13,34,04,042,23,12,03,015,21,11,01,063,,25,01,055,,1*72
$GBGSV,4,4,13,04,01,262,,1*47
$GNRMC,192555.000,A,4910.425192,N,12304.400856,W,0.03,0.00,051224,,,D,V*1F
$GNVTG,0.00,T,,M,0.03,N,0.05,K,D*20
$GNGGA,192556.000,4910.425144,N,12304.400766,W,2,25,0.63,8.131,M,-16.816,M,,*4A
$GNGLL,4910.425144,N,12304.400766,W,192556.000,A,D*55
$GNGSA,A,3,09,07,04,16,30,20,27,08,26,,,,1.03,0.63,0.81,1*0A
$GNGSA,A,3,69,79,68,,,,,,,,,,1.03,0.63,0.81,2*03
$GNGSA,A,3,09,31,06,05,24,04,15,,,,,,1.03,0.63,0.81,3*03
$GNGSA,A,3,37,20,23,32,19,38,,,,,,,1.03,0.63,0.81,4*0F
$GPGSV,4,1,13,09,80,140,34,07,64,264,32,04,49,122,28,16,36,055,28,1*6E
$GPGSV,4,2,13,46,33,188,28,30,27,257,25,20,25,310,28,27,19,096,25,1*60
$GPGSV,4,3,13,08,12,128,19,26,08,043,21,11,07,287,,05,03,333,20,1*6C
$GPGSV,4,4,13,03,02,173,,1*52
$GLGSV,2,1,07,69,72,317,27,79,63,218,29,78,59,043,,68,52,145,29,1*7B
$GLGSV,2,2,07,86,10,357,,80,10,220,22,70,07,323,,1*4A
$GAGSV,2,1,08,09,79,118,28,31,63,119,27,06,54,120,26,05,43,299,26,7*72
$GAGSV,2,2,08,24,30,188,23,04,27,119,22,34,10,282,,15,10,330,19,7*75
$GBGSV,4,1,13,37,70,213,37,20,63,281,38,23,51,061,35,32,45,166,36,1*71
$GBGSV,4,2,13,19,20,315,28,46,16,229,,38,14,333,28,08,08,342,19,1*73
$GBGSV,4,3,13,34,04,042,23,12,03,015,21,11,01,063,,25,01,055,,1*72
$GBGSV,4,4,13,04,01,262,,1*47
$GNRMC,192556.000,A,4910.425144,N,12304.400766,W,0.02,0.00,051224,,,D,V*1A
$GNVTG,0.00,T,,M,0.02,N,0.04,K,D*20
$GNGGA,192557.000,4910.425054,N,12304.400748,W,2,25,0.63,8.133,M,-16.816,M,,*45
$GNGLL,4910.425054,N,12304.400748,W,192557.000,A,D*58
$GNGSA,A,3,09,07,04,16,30,20,27,08,26,,,,1.03,0.63,0.81,1*0A
$GNGSA,A,3,69,79,68,,,,,,,,,,1.03,0.63,0.81,2*03
$GNGSA,A,3,09,31,06,05,24,04,15,,,,,,1.03,0.63,0.81,3*03
$GNGSA,A,3,37,20,23,32,19,38,,,,,,,1.03,0.63,0.81,4*0F
$GPGSV,4,1,13,09,80,140,34,07,64,264,32,04,49,122,28,16,36,055,28,1*6E
$GPGSV,4,2,13,46,33,188,28,30,27,257,26,20,25,310,28,27,19,096,25,1*63
$GPGSV,4,3,13,08,12,128,19,26,08,043,21,11,07,287,,05,03,333,20,1*6C
$GPGSV,4,4,13,03,02,173,,1*52
$GLGSV,2,1,07,69,72,317,27,79,63,218,29,78,59,043,,68,52,145,29,1*7B
$GLGSV,2,2,07,86,10,357,,80,10,220,22,70,07,323,,1*4A
$GAGSV,2,1,08,09,79,118,28,31,63,119,27,06,54,120,26,05,43,299,26,7*72
$GAGSV,2,2,08,24,30,188,23,04,27,119,22,34,10,282,,15,10,330,19,7*75
$GBGSV,4,1,13,37,70,213,37,20,63,281,38,23,51,061,34,32,45,166,36,1*70
$GBGSV,4,2,13,19,20,315,28,46,16,229,,38,14,333,27,08,08,342,19,1*7C
$GBGSV,4,3,13,34,04,042,22,12,03,015,21,11,01,063,,25,01,055,,1*73
$GBGSV,4,4,13,04,01,262,,1*47
$GNRMC,192557.000,A,4910.425054,N,12304.400748,W,0.03,0.00,051224,,,D,V*16
$GNVTG,0.00,T,,M,0.03,N,0.05,K,D*20
$GNGGA,192558.000,4910.425138,N,12304.400766,W,2,25,0.63,8.132,M,-16.817,M,,*4D
$GNGLL,4910.425138,N,12304.400766,W,192558.000,A,D*50
$GNGSA,A,3,09,07,04,16,30,20,27,08,26,,,,1.03,0.63,0.81,1*0A
$GNGSA,A,3,69,79,68,,,,,,,,,,1.03,0.63,0.81,2*03
$GNGSA,A,3,09,31,06,05,24,04,15,,,,,,1.03,0.63,0.81,3*03
$GNGSA,A,3,37,20,23,32,19,38,,,,,,,1.03,0.63,0.81,4*0F
$GPGSV,4,1,13,09,80,140,34,07,64,264,32,04,49,122,28,16,36,055,28,1*6E
$GPGSV,4,2,13,46,33,188,28,30,27,257,25,20,25,310,28,27,19,096,25,1*60
$GPGSV,4,3,13,08,12,128,19,26,08,043,21,11,07,287,,05,03,333,20,1*6C
$GPGSV,4,4,13,03,02,173,,1*52
$GLGSV,2,1,07,69,72,317,27,79,63,218,29,78,59,043,,68,52,145,29,1*7B
$GLGSV,2,2,07,86,10,357,,80,10,220,22,70,07,323,,1*4A
$GAGSV,2,1,08,09,79,118,28,31,63,119,27,06,54,120,26,05,43,299,26,7*72
$GAGSV,2,2,08,24,30,188,23,04,27,119,22,34,10,282,,15,10,330,19,7*75
$GBGSV,4,1,13,37,70,213,37,20,63,281,38,23,51,061,34,32,45,166,36,1*70
$GBGSV,4,2,13,19,20,315,28,46,16,229,,38,14,333,27,08,08,342,19,1*7C
$GBGSV,4,3,13,34,04,041,22,12,03,015,21,11,01,063,,25,01,055,,1*70
$GBGSV,4,4,13,04,01,262,,1*47
$GNRMC,192558.000,A,4910.425138,N,12304.400766,W,0.02,0.00,051224,,,D,V*1F
$GNVTG,0.00,T,,M,0.02,N,0.03,K,D*27
$GNGGA,192559.000,4910.425066,N,12304.400748,W,2,25,0.63,8.133,M,-16.817,M,,*4B
$GNGLL,4910.425066,N,12304.400748,W,192559.000,A,D*57
$GNGSA,A,3,09,07,04,16,30,20,27,08,26,,,,1.03,0.63,0.81,1*0A
$GNGSA,A,3,69,79,68,,,,,,,,,,1.03,0.63,0.81,2*03
$GNGSA,A,3,09,31,06,05,24,04,15,,,,,,1.03,0.63,0.81,3*03
$GNGSA,A,3,37,20,23,32,19,38,,,,,,,1.03,0.63,0.81,4*0F
$GPGSV,4,1,13,09,80,140,35,07,64,264,32,04,49,122,28,16,36,055,28,1*6F
$GPGSV,4,2,13,46,33,188,28,30,27,257,26,20,25,310,28,27,19,096,27,1*61
$GPGSV,4,3,13,08,12,128,19,26,08,043,21,11,07,287,,05,03,333,20,1*6C
$GPGSV,4,4,13,03,02,173,,1*52
$GLGSV,2,1,07,69,72,317,27,79,63,218,29,78,59,043,,68,52,145,29,1*7B
$GLGSV,2,2,07,86,10,357,,80,10,220,22,70,07,323,,1*4A
$GAGSV,2,1,08,09,79,118,29,31,63,119,27,06,54,120,27,05,43,299,26,7*72
$GAGSV,2,2,08,24,30,188,23,04,27,119,22,34,10,282,,15,10,330,19,7*75
$GBGSV,4,1,13,37,70,213,37,20,63,281,38,23,51,061,34,32,45,166,36,1*70
$GBGSV,4,2,13,19,20,315,28,46,16,229,,38,14,333,27,08,08,342,19,1*7C
$GBGSV,4,3,13,34,04,041,22,12,03,015,21,11,01,063,,25,01,055,,1*70
$GBGSV,4,4,13,04,01,262,,1*47
$GNRMC,192559.000,A,4910.425066,N,12304.400748,W,0.04,0.00,051224,,,D,V*1E
$GNVTG,0.00,T,,M,0.04,N,0.07,K,D*25
$GNGGA,192600.000,4910.425066,N,12304.400742,W,2,25,0.63,8.131,M,-16.816,M,,*4D
