$GNGGA,001910.000,4910.427142,N,12304.402692,W,2,30,0.49,8.184,M,-16.817,M,,*40
$GNGLL,4910.427142,N,12304.402692,W,001910.000,A,D*5C
$GNGSA,A,3,22,17,14,19,13,15,30,24,02,21,,,0.90,0.49,0.75,1*0E
$GNGSA,A,3,73,72,80,71,,,,,,,,,0.90,0.49,0.75,2*0B
$GNGSA,A,3,25,03,24,08,02,10,12,05,33,,,,0.90,0.49,0.75,3*0A
$GNGSA,A,3,36,27,30,45,28,21,22,,,,,,0.90,0.49,0.75,4*09
$GPGSV,4,1,13,22,80,036,36,17,72,134,37,14,58,074,35,19,49,192,35,1*6E
$GPGSV,4,2,13,13,38,221,34,46,33,188,32,15,30,263,32,30,27,138,31,1*62
$GPGSV,4,3,13,24,25,307,29,02,24,052,29,21,14,035,27,10,02,346,22,1*60
$GPGSV,4,4,13,06,01,162,,1*54
$GLGSV,2,1,07,73,73,007,23,83,50,113,,82,40,048,,74,37,301,,1*70
$GLGSV,2,2,07,72,30,294,24,80,30,091,25,71,19,241,21,1*4E
$GAGSV,3,1,10,25,82,325,32,03,41,236,29,24,38,075,28,08,33,302,31,7*7C
$GAGSV,3,2,10,02,31,266,26,10,28,099,25,12,28,072,24,11,20,128,20,7*78
$GAGSV,3,3,10,05,12,189,21,33,08,021,22,7*7C
$GBGSV,3,1,12,36,71,299,40,46,51,106,,27,47,077,38,30,45,157,37,1*7B
$GBGSV,3,2,12,57,21,073,,45,21,292,31,28,15,039,31,21,15,310,32,1*7A
$GBGSV,3,3,12,22,14,259,33,08,04,308,22,13,04,318,27,29,04,194,28,1*79
$GNRMC,001910.000,A,4910.427142,N,12304.402692,W,0.01,342.49,061224,,,D,V*1B
$GNVTG,342.49,T,,M,0.01,N,0.02,K,D*2D
$GNGGA,001911.000,4910.427100,N,12304.402572,W,2,30,0.49,8.144,M,-16.816,M,,*47
$GNGLL,4910.427100,N,12304.402572,W,001911.000,A,D*56
$GNGSA,A,3,22,17,14,19,13,15,30,24,02,21,,,0.90,0.49,0.75,1*0E
$GNGSA,A,3,73,72,80,71,,,,,,,,,0.90,0.49,0.75,2*0B
$GNGSA,A,3,25,03,24,08,02,10,12,05,33,,,,0.90,0.49,0.75,3*0A
$GNGSA,A,3,36,27,30,45,28,21,22,,,,,,0.90,0.49,0.75,4*09
$GPGSV,4,1,13,22,79,041,36,17,72,134,37,14,58,074,35,19,49,192,35,1*68
$GPGSV,4,2,13,13,38,221,34,46,33,188,31,15,30,263,32,30,27,138,31,1*61
$GPGSV,4,3,13,24,25,307,29,02,24,052,29,21,14,035,27,10,02,346,21,1*63
$GPGSV,4,4,13,06,01,162,,1*54
$GLGSV,2,1,07,73,73,007,24,83,50,113,,82,40,048,,74,37,301,,1*77
$GLGSV,2,2,07,72,30,294,23,80,30,091,26,71,19,241,21,1*4A
$GAGSV,3,1,10,25,82,325,32,03,41,236,28,24,38,075,28,08,33,302,31,7*7D
$GAGSV,3,2,10,02,31,266,26,10,28,099,25,12,28,072,24,11,20,128,19,7*72
$GAGSV,3,3,10,05,12,189,21,33,08,021,22,7*7C
$GBGSV,3,1,12,36,71,299,40,46,51,106,,27,47,077,38,30,45,157,37,1*7B
$GBGSV,3,2,12,57,21,073,,45,21,292,31,28,15,039,31,21,15,310,32,1*7A
$GBGSV,3,3,12,22,14,259,33,08,04,308,22,13,04,318,27,29,04,194,28,1*79
$GNRMC,001911.000,A,4910.427100,N,12304.402572,W,0.01,342.49,061224,,,D,V*11
$GNVTG,342.49,T,,M,0.01,N,0.03,K,D*2C
$GNGGA,001912.000,4910.427100,N,12304.402386,W,2,30,0.49,8.046,M,-16.816,M,,*4A
$GNGLL,4910.427100,N,12304.402386,W,001912.000,A,D*58
$GNGSA,A,3,22,17,14,19,13,15,30,24,02,21,,,0.90,0.49,0.75,1*0E
$GNGSA,A,3,73,72,80,71,,,,,,,,,0.90,0.49,0.75,2*0B
$GNGSA,A,3,25,03,24,08,02,10,12,05,33,,,,0.90,0.49,0.75,3*0A
$GNGSA,A,3,36,27,30,45,28,21,22,,,,,,0.90,0.49,0.75,4*09
$GPGSV,4,1,13,22,79,041,36,17,72,134,37,14,58,074,35,19,49,192,35,1*68
$GPGSV,4,2,13,13,38,221,34,46,33,188,31,15,30,263,32,30,27,138,31,1*61
$GPGSV,4,3,13,24,25,307,29,02,24,052,29,21,14,035,27,10,02,346,21,1*63
$GPGSV,4,4,13,06,01,162,,1*54
$GLGSV,2,1,07,73,73,007,25,83,50,113,,82,40,048,,74,37,301,,1*76
$GLGSV,2,2,07,72,30,294,23,80,30,091,26,71,19,241,22,1*49
$GAGSV,3,1,10,25,82,325,32,03,41,236,28,24,38,075,28,08,33,302,31,7*7D
$GAGSV,3,2,10,02,31,266,26,10,28,099,25,12,28,072,24,11,20,128,19,7*72
$GAGSV,3,3,10,05,12,189,21,33,08,021,22,7*7C
$GBGSV,3,1,12,36,71,299,40,46,51,106,,27,47,077,38,30,45,157,37,1*7B
$GBGSV,3,2,12,57,21,073,,45,21,292,31,28,15,039,31,21,15,310,32,1*7A
$GBGSV,3,3,12,22,14,259,33,08,04,308,22,13,04,318,27,29,04,194,28,1*79
$GNRMC,001912.000,A,4910.427100,N,12304.402386,W,0.02,342.49,061224,,,D,V*1C
$GNVTG,342.49,T,,M,0.02,N,0.04,K,D*28
$GNGGA,001913.000,4910.427112,N,12304.402278,W,2,30,0.49,7.886,M,-16.816,M,,*43
$GNGLL,4910.427112,N,12304.402278,W,001913.000,A,D*5A
$GNGSA,A,3,22,17,14,19,13,15,30,24,02,21,,,0.90,0.49,0.75,1*0E
$GNGSA,A,3,73,72,80,71,,,,,,,,,0.90,0.49,0.75,2*0B
$GNGSA,A,3,25,03,24,08,02,10,12,05,33,,,,0.90,0.49,0.75,3*0A
$GNGSA,A,3,36,27,30,45,28,21,22,,,,,,0.90,0.49,0.75,4*09
$GPGSV,4,1,13,22,79,041,36,17,72,134,37,14,58,074,35,19,49,192,35,1*68
$GPGSV,4,2,13,13,38,221,34,46,33,188,31,15,30,263,32,30,27,138,31,1*61
$GPGSV,4,3,13,24,26,307,29,02,24,052,29,21,14,035,27,10,02,346,20,1*61
$GPGSV,4,4,13,06,01,162,,1*54
$GLGSV,2,1,07,73,73,007,25,83,50,113,,82,40,048,,74,37,301,,1*76
$GLGSV,2,2,07,72,30,294,23,80,30,091,26,71,19,241,22,1*49
$GAGSV,3,1,10,25,82,325,32,03,41,236,28,24,38,075,28,08,33,302,31,7*7D
$GAGSV,3,2,10,02,31,266,26,10,28,099,25,12,28,072,24,11,20,128,19,7*72
$GAGSV,3,3,10,05,12,189,21,33,08,021,22,7*7C
$GBGSV,3,1,12,36,71,299,40,46,51,106,,27,47,077,38,30,45,157,38,1*74
$GBGSV,3,2,12,57,21,073,,45,21,292,31,28,15,039,31,21,15,310,32,1*7A
$GBGSV,3,3,12,22,14,259,33,08,04,308,22,13,04,318,27,29,04,194,28,1*79
$GNRMC,001913.000,A,4910.427112,N,12304.402278,W,0.02,342.49,061224,,,D,V*1E
$GNVTG,342.49,T,,M,0.02,N,0.04,K,D*28
$GNGGA,001914.000,4910.427100,N,12304.402272,W,2,30,0.49,7.807,M,-16.816,M,,*44
$GNGLL,4910.427100,N,12304.402272,W,001914.000,A,D*54
$GNGSA,A,3,22,17,14,19,13,15,30,24,02,21,,,0.90,0.49,0.75,1*0E
$GNGSA,A,3,73,72,80,71,,,,,,,,,0.90,0.49,0.75,2*0B
$GNGSA,A,3,25,03,24,08,02,10,12,05,33,,,,0.90,0.49,0.75,3*0A
$GNGSA,A,3,36,27,30,45,28,21,22,,,,,,0.90,0.49,0.75,4*09
$GPGSV,4,1,13,22,79,041,36,17,72,134,37,14,58,074,35,19,49,192,35,1*68
$GPGSV,4,2,13,13,38,221,34,46,33,188,31,15,30,263,32,30,27,138,31,1*61
$GPGSV,4,3,13,24,26,307,29,02,24,052,29,21,14,035,27,10,02,346,20,1*61
$GPGSV,4,4,13,06,01,162,,1*54
$GLGSV,2,1,07,73,73,007,25,83,50,113,,82,40,048,,74,37,301,,1*76
$GLGSV,2,2,07,72,30,294,23,80,30,091,26,71,19,241,21,1*4A
$GAGSV,3,1,10,25,82,325,32,03,41,236,28,24,38,075,28,08,33,302,31,7*7D
$GAGSV,3,2,10,02,31,266,26,10,28,099,25,12,28,072,24,11,20,128,19,7*72
$GAGSV,3,3,10,05,12,189,21,33,08,021,22,7*7C
$GBGSV,3,1,12,36,71,299,40,46,51,106,,27,47,077,38,30,45,157,38,1*74
$GBGSV,3,2,12,57,21,073,,45,21,292,31,28,15,039,31,21,15,310,32,1*7A
$GBGSV,3,3,12,22,14,259,34,08,04,308,22,13,04,318,27,29,04,194,28,1*7E
$GNRMC,001914.000,A,4910.427100,N,12304.402272,W,0.02,342.49,061224,,,D,V*10
$GNVTG,342.49,T,,M,0.02,N,0.03,K,D*2F
$GNGGA,001915.000,4910.427130,N,12304.402212,W,2,30,0.49,7.680,M,-16.817,M,,*40
$GNGLL,4910.427130,N,12304.402212,W,001915.000,A,D*50
$GNGSA,A,3,22,17,14,19,13,15,30,24,02,21,,,0.90,0.49,0.75,1*0E
$GNGSA,A,3,73,72,80,71,,,,,,,,,0.90,0.49,0.75,2*0B
$GNGSA,A,3,25,03,24,08,02,10,12,05,33,,,,0.90,0.49,0.75,3*0A
$GNGSA,A,3,36,27,30,45,28,21,22,,,,,,0.90,0.49,0.75,4*09
$GPGSV,4,1,13,22,79,041,36,17,72,134,37,14,58,074,35,19,49,192,35,1*68
$GPGSV,4,2,13,13,38,221,34,46,33,188,31,15,30,263,32,30,27,138,31,1*61
$GPGSV,4,3,13,24,26,307,29,02,24,052,29,21,14,035,27,10,02,346,20,1*61
$GPGSV,4,4,13,06,01,162,,1*54
$GLGSV,2,1,07,73,73,007,24,83,50,113,,82,40,048,,74,37,301,,1*77
$GLGSV,2,2,07,72,30,294,22,80,30,091,25,71,19,241,21,1*48
$GAGSV,3,1,10,25,82,325,32,03,41,236,28,24,38,075,28,08,33,302,31,7*7D
$GAGSV,3,2,10,02,31,266,26,10,28,099,25,12,28,072,24,11,20,128,19,7*72
$GAGSV,3,3,10,05,12,189,21,33,08,021,22,7*7C
$GBGSV,3,1,12,36,71,299,40,46,51,106,,27,47,077,38,30,45,157,38,1*74
$GBGSV,3,2,12,57,21,073,,45,21,292,31,28,15,039,31,21,15,310,32,1*7A
$GBGSV,3,3,12,22,14,259,34,08,04,308,22,13,04,318,27,29,04,194,28,1*7E
$GNRMC,001915.000,A,4910.427130,N,12304.402212,W,0.01,342.49,061224,,,D,V*17
$GNVTG,342.49,T,,M,0.01,N,0.03,K,D*2C
$GNGGA,001916.000,4910.427142,N,12304.402158,W,2,30,0.49,7.569,M,-16.817,M,,*4F
$GNGLL,4910.427142,N,12304.402158,W,001916.000,A,D*5B
$GNGSA,A,3,22,17,14,19,13,15,30,24,02,21,,,0.90,0.49,0.75,1*0E
$GNGSA,A,3,73,72,80,71,,,,,,,,,0.90,0.49,0.75,2*0B
$GNGSA,A,3,25,03,24,08,02,10,12,05,33,,,,0.90,0.49,0.75,3*0A
$GNGSA,A,3,36,27,30,45,28,21,22,,,,,,0.90,0.49,0.75,4*09
$GPGSV,4,1,13,22,79,041,36,17,72,134,37,14,58,074,35,19,49,192,35,1*68
$GPGSV,4,2,13,13,38,221,34,46,33,188,31,15,30,263,31,30,27,138,31,1*62
$GPGSV,4,3,13,24,26,307,29,02,24,052,29,21,14,035,27,10,02,346,20,1*61
$GPGSV,4,4,13,06,01,162,,1*54
$GLGSV,2,1,06,73,73,007,24,83,50,113,,74,37,301,,72,30,294,22,1*7D
$GLGSV,2,2,06,80,30,091,26,71,19,241,21,1*73
$GAGSV,3,1,10,25,82,325,32,03,41,236,28,24,38,075,28,08,33,302,31,7*7D
$GAGSV,3,2,10,02,31,266,26,10,28,099,25,12,28,072,24,11,20,128,19,7*72
$GAGSV,3,3,10,05,12,189,21,33,08,021,22,7*7C
$GBGSV,3,1,12,36,71,299,40,46,51,106,,27,47,077,38,30,45,157,38,1*74
$GBGSV,3,2,12,57,21,073,,45,21,292,31,28,15,039,31,21,15,310,32,1*7A
$GBGSV,3,3,12,22,14,259,34,13,04,318,27,29,04,194,28,08,04,308,22,1*7E
$GNRMC,001916.000,A,4910.427142,N,12304.402158,W,0.01,342.49,061224,,,D,V*1C
$GNVTG,342.49,T,,M,0.01,N,0.02,K,D*2D
$GNGGA,001917.000,4910.427184,N,12304.402128,W,2,30,0.49,7.431,M,-16.817,M,,*4F
$GNGLL,4910.427184,N,12304.402128,W,001917.000,A,D*57
$GNGSA,A,3,22,17,14,19,13,15,30,24,02,21,,,0.90,0.49,0.75,1*0E
$GNGSA,A,3,73,72,80,71,,,,,,,,,0.90,0.49,0.75,2*0B
$GNGSA,A,3,25,03,24,08,02,10,12,05,33,,,,0.90,0.49,0.75,3*0A
$GNGSA,A,3,36,27,30,45,28,21,22,,,,,,0.90,0.49,0.75,4*09
$GPGSV,4,1,13,22,79,041,36,17,72,134,37,14,58,074,35,19,49,192,35,1*68
$GPGSV,4,2,13,13,38,221,34,46,33,188,31,15,30,263,31,30,27,138,31,1*62
$GPGSV,4,3,13,24,26,307,30,02,24,052,29,21,14,035,27,10,02,346,21,1*68
$GPGSV,4,4,13,06,01,162,,1*54
$GLGSV,2,1,07,73,73,007,24,83,50,113,,82,40,048,,74,37,301,,1*77
$GLGSV,2,2,07,72,30,294,21,80,30,091,25,71,19,241,21,1*4B
$GAGSV,3,1,10,25,82,325,32,03,41,236,28,24,38,075,28,08,33,302,31,7*7D
$GAGSV,3,2,10,02,31,266,26,10,28,099,25,12,28,072,24,11,20,128,19,7*72
$GAGSV,3,3,10,05,12,189,21,33,08,021,22,7*7C
$GBGSV,3,1,12,36,71,299,40,46,51,106,,27,47,077,38,30,45,157,38,1*74
$GBGSV,3,2,12,57,21,073,,45,21,292,31,28,15,039,31,21,15,310,32,1*7A
$GBGSV,3,3,12,22,14,259,34,08,04,308,22,13,04,318,27,29,04,194,28,1*7E
$GNRMC,001917.000,A,4910.427184,N,12304.402128,W,0.02,342.49,061224,,,D,V*13
$GNVTG,342.49,T,,M,0.02,N,0.03,K,D*2F
$GNGGA,001918.000,4910.427172,N,12304.402152,W,2,30,0.49,7.411,M,-16.817,M,,*46
$GNGLL,4910.427172,N,12304.402152,W,001918.000,A,D*5C
$GNGSA,A,3,22,17,14,19,13,15,30,24,02,21,,,0.90,0.49,0.75,1*0E
$GNGSA,A,3,73,72,80,71,,,,,,,,,0.90,0.49,0.75,2*0B
$GNGSA,A,3,25,03,24,08,02,10,12,05,33,,,,0.90,0.49,0.75,3*0A
$GNGSA,A,3,36,27,30,45,28,21,22,,,,,,0.90,0.49,0.75,4*09
$GPGSV,4,1,13,22,79,041,36,17,72,134,37,14,58,074,35,19,49,192,35,1*68
$GPGSV,4,2,13,13,38,221,34,46,33,188,31,15,30,263,31,30,27,138,31,1*62
$GPGSV,4,3,13,24,26,307,30,02,24,052,29,21,14,035,27,10,02,346,22,1*6B
$GPGSV,4,4,13,06,01,162,,1*54
$GLGSV,2,1,07,73,73,007,24,83,50,113,,82,40,048,,74,37,301,,1*77
$GLGSV,2,2,07,72,30,294,21,80,30,091,25,71,19,241,21,1*4B
$GAGSV,3,1,10,25,82,325,32,03,41,236,28,24,38,075,28,08,33,302,31,7*7D
$GAGSV,3,2,10,02,31,266,26,10,28,099,25,12,28,072,24,11,20,128,19,7*72
$GAGSV,3,3,10,05,12,189,21,33,08,021,22,7*7C
$GBGSV,3,1,12,36,71,299,40,46,51,106,,27,47,077,38,30,45,157,38,1*74
$GBGSV,3,2,12,57,21,073,,45,21,292,31,28,15,039,31,21,15,310,32,1*7A
$GBGSV,3,3,12,22,14,259,34,08,04,308,22,13,04,318,27,29,04,194,28,1*7E
$GNRMC,001918.000,A,4910.427172,N,12304.402152,W,0.02,342.49,061224,,,D,V*18
$GNVTG,342.49,T,,M,0.02,N,0.03,K,D*2F
$GNGGA,001919.000,4910.427142,N,12304.402158,W,2,30,0.49,7.382,M,-16.817,M,,*43
$GNGLL,4910.427142,N,12304.402158,W,001919.000,A,D*54
$GNGSA,A,3,22,17,14,19,13,15,30,24,02,21,,,0.90,0.49,0.75,1*0E
$GNGSA,A,3,73,72,80,71,,,,,,,,,0.90,0.49,0.75,2*0B
$GNGSA,A,3,25,03,24,08,02,10,12,05,33,,,,0.90,0.49,0.75,3*0A
$GNGSA,A,3,36,27,30,45,28,21,22,,,,,,0.90,0.49,0.75,4*09
$GPGSV,4,1,13,22,79,041,36,17,72,134,37,14,58,074,35,19,49,192,35,1*68
$GPGSV,4,2,13,13,38,221,34,46,33,188,31,15,30,263,31,30,26,139,31,1*62
$GPGSV,4,3,13,24,26,307,30,02,24,052,29,21,14,035,28,10,02,346,22,1*64
$GPGSV,4,4,13,06,01,162,,1*54
$GLGSV,2,1,07,73,73,007,24,83,50,113,,82,40,048,,74,37,301,,1*77
$GLGSV,2,2,07,72,30,294,21,80,30,091,25,71,19,241,21,1*4B
$GAGSV,3,1,10,25,82,325,32,03,41,236,28,24,38,075,28,08,33,302,31,7*7D
$GAGSV,3,2,10,02,31,266,26,10,28,099,25,12,28,072,24,11,20,128,19,7*72
$GAGSV,3,3,10,05,12,189,22,33,08,021,22,7*7F
$GBGSV,3,1,12,36,71,299,40,46,51,106,,27,47,077,38,30,45,157,38,1*74
$GBGSV,3,2,12,57,21,073,,45,21,292,31,28,15,039,31,21,15,310,32,1*7A
$GBGSV,3,3,12,22,14,259,34,08,04,308,22,13,04,318,27,29,04,194,28,1*7E
$GNRMC,001919.000,A,4910.427142,N,12304.402158,W,0.02,342.49,061224,,,D,V*10
$GNVTG,342.49,T,,M,0.02,N,0.03,K,D*2F
$GNGGA,001920.000,4910.427118,N,12304.402176,W,2,30,0.49,7.276,M,-16.816,M,,*41
$GNGLL,4910.427118,N,12304.402176,W,001920.000,A,D*5D
$GNGSA,A,3,22,17,14,19,13,15,30,24,02,21,,,0.90,0.49,0.75,1*0E
$GNGSA,A,3,73,72,80,71,,,,,,,,,0.90,0.49,0.75,2*0B
$GNGSA,A,3,25,03,24,08,02,10,12,05,33,,,,0.90,0.49,0.75,3*0A
$GNGSA,A,3,36,27,30,45,28,21,22,,,,,,0.90,0.49,0.75,4*09
$GPGSV,4,1,13,22,79,041,36,17,72,134,37,14,58,074,35,19,49,192,35,1*68
$GPGSV,4,2,13,13,38,221,34,46,33,188,32,15,30,263,31,30,26,139,31,1*61
$GPGSV,4,3,13,24,26,307,30,02,24,052,29,21,14,035,28,10,02,346,22,1*64
$GPGSV,4,4,13,06,01,162,,1*54
$GLGSV,2,1,07,73,73,007,25,83,50,113,,82,40,048,,74,37,301,,1*76
$GLGSV,2,2,07,72,30,294,21,80,30,091,25,71,19,241,22,1*48
$GAGSV,3,1,10,25,82,325,32,03,41,236,28,24,38,075,28,08,33,302,31,7*7D
$GAGSV,3,2,10,02,31,266,26,10,28,099,25,12,28,072,24,11,20,128,19,7*72
$GAGSV,3,3,10,05,12,189,22,33,08,021,22,7*7F
$GBGSV,3,1,12,36,71,299,40,46,51,106,,27,47,077,38,30,45,157,38,1*74
$GBGSV,3,2,12,57,21,073,,45,21,292,31,28,15,039,31,21,15,310,32,1*7A
$GBGSV,3,3,12,22,14,259,34,08,04,308,22,13,04,318,27,29,04,194,28,1*7E
$GNRMC,001920.000,A,4910.427118,N,12304.402176,W,0.02,342.49,061224,,,D,V*19
$GNVTG,342.49,T,,M,0.02,N,0.03,K,D*2F
$GNGGA,001921.000,4910.427118,N,12304.402170,W,2,30,0.49,7.173,M,-16.816,M,,*40
$GNGLL,4910.427118,N,12304.402170,W,001921.000,A,D*5A
$GNGSA,A,3,22,17,14,19,13,15,30,24,02,21,,,0.90,0.49,0.75,1*0E
$GNGSA,A,3,73,72,80,71,,,,,,,,,0.90,0.49,0.75,2*0B
$GNGSA,A,3,25,03,24,08,02,10,12,05,33,,,,0.90,0.49,0.75,3*0A
$GNGSA,A,3,36,27,30,45,28,21,22,,,,,,0.90,0.49,0.75,4*09
$GPGSV,4,1,13,22,79,041,36,17,72,134,37,14,58,074,35,19,49,192,35,1*68
$GPGSV,4,2,13,13,38,221,34,46,33,188,32,15,30,263,31,30,26,139,31,1*61
$GPGSV,4,3,13,24,26,307,30,02,24,052,29,21,14,035,28,10,02,346,23,1*65
$GPGSV,4,4,13,06,01,162,,1*54
$GLGSV,2,1,07,73,73,007,25,83,50,113,,82,40,048,,74,37,301,,1*76
$GLGSV,2,2,07,72,30,294,22,80,30,091,25,71,19,241,22,1*4B
$GAGSV,3,1,10,25,82,325,32,03,41,236,28,24,38,075,28,08,33,302,31,7*7D
$GAGSV,3,2,10,02,31,266,26,10,28,099,25,12,28,072,24,11,20,128,19,7*72
$GAGSV,3,3,10,05,12,189,22,33,08,021,23,7*7E
$GBGSV,3,1,12,36,71,299,40,46,51,106,,27,47,077,38,30,45,157,38,1*74
$GBGSV,3,2,12,57,21,073,,45,21,292,31,28,15,039,31,21,15,310,32,1*7A
$GBGSV,3,3,12,22,14,259,34,08,04,308,22,13,04,318,28,29,04,194,28,1*71
$GNRMC,001921.000,A,4910.427118,N,12304.402170,W,0.01,342.49,061224,,,D,V*1D
$GNVTG,342.49,T,,M,0.01,N,0.02,K,D*2D
$GNGGA,001922.000,4910.427118,N,12304.402182,W,2,30,0.49,7.021,M,-16.817,M,,*49
$GNGLL,4910.427118,N,12304.402182,W,001922.000,A,D*54
$GNGSA,A,3,22,17,14,19,13,15,30,24,02,21,,,0.90,0.49,0.75,1*0E
$GNGSA,A,3,73,72,80,71,,,,,,,,,0.90,0.49,0.75,2*0B
$GNGSA,A,3,25,03,24,08,02,10,12,05,33,,,,0.90,0.49,0.75,3*0A
$GNGSA,A,3,36,27,30,45,28,21,22,,,,,,0.90,0.49,0.75,4*09
$GPGSV,4,1,13,22,79,041,36,17,72,134,37,14,58,074,35,19,49,192,35,1*68
$GPGSV,4,2,13,13,38,221,34,46,33,188,31,15,30,263,31,30,26,139,31,1*62
$GPGSV,4,3,13,24,26,307,30,02,24,052,29,21,14,035,28,10,02,346,23,1*65
$GPGSV,4,4,13,06,01,162,,1*54
$GLGSV,2,1,07,73,73,007,24,83,50,113,,82,40,048,,74,37,301,,1*77
$GLGSV,2,2,07,72,30,294,21,80,30,091,25,71,19,241,22,1*48
$GAGSV,3,1,10,25,82,325,32,03,41,236,28,24,38,075,28,08,33,302,31,7*7D
$GAGSV,3,2,10,02,31,266,26,10,28,099,25,12,28,072,24,11,20,128,20,7*78
$GAGSV,3,3,10,05,12,189,21,33,08,021,23,7*7D
$GBGSV,3,1,12,36,71,299,40,46,51,106,,27,47,077,38,30,45,157,38,1*74
$GBGSV,3,2,12,57,21,073,,45,21,292,31,28,15,039,32,21,15,310,32,1*79
$GBGSV,3,3,12,22,14,259,34,08,04,308,23,13,04,318,28,29,04,194,28,1*70
$GNRMC,001922.000,A,4910.427118,N,12304.402182,W,0.01,342.49,061224,,,D,V*13
$GNVTG,342.49,T,,M,0.01,N,0.02,K,D*2D
$GNGGA,001923.000,4910.427082,N,12304.402092,W,2,30,0.49,6.705,M,-16.816,M,,*4B
$GNGLL,4910.427082,N,12304.402092,W,001923.000,A,D*57
$GNGSA,A,3,22,17,14,19,13,15,30,24,02,21,,,0.90,0.49,0.75,1*0E
$GNGSA,A,3,73,72,80,71,,,,,,,,,0.90,0.49,0.75,2*0B
$GNGSA,A,3,25,03,24,08,02,10,12,05,33,,,,0.90,0.49,0.75,3*0A
$GNGSA,A,3,36,27,30,45,28,21,22,,,,,,0.90,0.49,0.75,4*09
$GPGSV,4,1,13,22,79,041,36,17,72,134,37,14,58,074,35,19,49,192,35,1*68
$GPGSV,4,2,13,13,38,221,34,46,33,188,31,15,30,263,31,30,26,139,31,1*62
$GPGSV,4,3,13,24,26,307,30,02,24,052,29,21,14,035,28,10,02,346,23,1*65
$GPGSV,4,4,13,06,01,162,,1*54
$GLGSV,2,1,07,73,73,007,24,83,50,113,,82,40,048,,74,37,301,,1*77
$GLGSV,2,2,07,72,30,294,21,80,30,091,25,71,19,241,22,1*48
$GAGSV,3,1,10,25,82,325,32,03,41,236,28,24,38,075,28,08,33,302,31,7*7D
$GAGSV,3,2,10,02,31,266,26,10,28,099,25,12,28,072,24,11,20,128,20,7*78
$GAGSV,3,3,10,05,12,189,21,33,08,021,23,7*7D
$GBGSV,3,1,12,36,71,299,40,46,51,106,,27,47,077,38,30,45,157,38,1*74
$GBGSV,3,2,12,57,21,073,,45,21,292,31,28,15,039,32,21,15,310,32,1*79
$GBGSV,3,3,12,22,14,259,34,08,04,308,23,13,04,318,28,29,04,194,28,1*70
$GNRMC,001923.000,A,4910.427082,N,12304.402092,W,0.01,342.49,061224,,,D,V*10
$GNVTG,342.49,T,,M,0.01,N,0.02,K,D*2D
$GNGGA,001924.000,4910.427034,N,12304.402068,W,2,30,0.49,6.524,M,-16.817,M,,*44
$GNGLL,4910.427034,N,12304.402068,W,001924.000,A,D*58
$GNGSA,A,3,22,17,14,19,13,15,30,24,02,21,,,0.90,0.49,0.75,1*0E
$GNGSA,A,3,73,72,80,71,,,,,,,,,0.90,0.49,0.75,2*0B
$GNGSA,A,3,25,03,24,08,02,10,12,05,33,,,,0.90,0.49,0.75,3*0A
$GNGSA,A,3,36,27,30,45,28,21,22,,,,,,0.90,0.49,0.75,4*09
$GPGSV,4,1,13,22,79,041,36,17,72,134,37,14,58,074,35,19,49,192,35,1*68
$GPGSV,4,2,13,13,38,221,34,46,33,188,31,15,30,263,31,30,26,139,31,1*62
$GPGSV,4,3,13,24,26,307,30,02,24,052,29,21,14,035,28,10,02,346,23,1*65
$GPGSV,4,4,13,06,01,162,,1*54
$GLGSV,2,1,07,73,73,007,24,83,50,113,,82,40,048,,74,37,301,,1*77
$GLGSV,2,2,07,72,30,294,21,80,30,091,25,71,19,241,21,1*4B
$GAGSV,3,1,10,25,82,325,32,03,41,236,28,24,38,075,28,08,33,302,30,7*7C
$GAGSV,3,2,10,02,31,266,26,10,28,099,25,12,28,072,24,11,20,128,20,7*78
$GAGSV,3,3,10,05,12,189,21,33,08,021,23,7*7D
$GBGSV,3,1,12,36,71,299,40,46,51,106,,27,47,077,38,30,45,157,38,1*74
$GBGSV,3,2,12,57,21,073,,45,21,292,31,28,15,039,32,21,15,310,32,1*79
$GBGSV,3,3,12,22,14,259,34,08,04,308,23,13,04,318,28,29,04,194,28,1*70
$GNRMC,001924.000,A,4910.427034,N,12304.402068,W,0.01,342.49,061224,,,D,V*1F
$GNVTG,342.49,T,,M,0.01,N,0.03,K,D*2C
$GNGGA,001925.000,4910.426968,N,12304.402116,W,2,30,0.49,6.455,M,-16.816,M,,*4A
$GNGLL,4910.426968,N,12304.402116,W,001925.000,A,D*50
$GNGSA,A,3,22,17,14,19,13,15,30,24,02,21,,,0.90,0.49,0.75,1*0E
$GNGSA,A,3,73,72,80,71,,,,,,,,,0.90,0.49,0.75,2*0B
$GNGSA,A,3,25,03,24,08,02,10,12,05,33,,,,0.90,0.49,0.75,3*0A
$GNGSA,A,3,36,27,30,45,28,21,22,,,,,,0.90,0.49,0.75,4*09
$GPGSV,4,1,13,22,79,041,36,17,72,134,37,14,58,074,35,19,49,192,35,1*68
$GPGSV,4,2,13,13,38,221,34,46,33,188,31,15,30,263,31,30,26,139,31,1*62
$GPGSV,4,3,13,24,26,307,30,02,24,052,29,21,14,035,27,10,02,346,23,1*6A
$GPGSV,4,4,13,06,01,162,,1*54
$GLGSV,2,1,07,73,73,007,24,83,50,113,,82,40,048,,74,37,301,,1*77
$GLGSV,2,2,07,72,30,294,22,80,30,091,25,71,19,241,22,1*4B
$GAGSV,3,1,10,25,82,325,32,03,41,236,28,24,38,075,28,08,33,302,30,7*7C
$GAGSV,3,2,10,02,31,266,26,10,28,099,25,12,28,072,24,11,20,128,20,7*78
$GAGSV,3,3,10,05,12,189,21,33,08,021,23,7*7D
$GBGSV,3,1,12,36,71,299,40,46,51,106,,27,47,077,38,30,45,157,38,1*74
$GBGSV,3,2,12,57,21,073,,45,21,292,31,28,15,039,32,21,15,310,32,1*79
$GBGSV,3,3,12,22,14,259,34,08,04,308,23,13,04,318,28,29,04,194,28,1*70
$GNRMC,001925.000,A,4910.426968,N,12304.402116,W,0.02,342.49,061224,,,D,V*14
$GNVTG,342.49,T,,M,0.02,N,0.03,K,D*2F
$GNGGA,001926.000,4910.426956,N,12304.402092,W,2,30,0.49,6.393,M,-16.817,M,,*45
$GNGLL,4910.426956,N,12304.402092,W,001926.000,A,D*53
$GNGSA,A,3,22,17,14,19,13,15,30,24,02,21,,,0.90,0.49,0.75,1*0E
$GNGSA,A,3,73,72,80,71,,,,,,,,,0.90,0.49,0.75,2*0B
$GNGSA,A,3,25,03,24,08,02,10,12,05,33,,,,0.90,0.49,0.75,3*0A
$GNGSA,A,3,36,27,30,45,28,21,22,,,,,,0.90,0.49,0.75,4*09
$GPGSV,4,1,13,22,79,041,36,17,72,134,37,14,58,074,34,19,49,192,35,1*69
$GPGSV,4,2,13,13,38,221,34,46,33,188,31,15,30,263,31,30,26,139,31,1*62
$GPGSV,4,3,13,24,26,307,30,02,24,052,29,21,14,035,27,10,02,346,23,1*6A
$GPGSV,4,4,13,06,01,162,,1*54
$GLGSV,2,1,07,73,73,007,24,83,50,113,,82,40,048,,74,37,301,,1*77
$GLGSV,2,2,07,72,30,294,22,80,30,091,25,71,19,241,22,1*4B
$GAGSV,3,1,10,25,82,325,32,03,41,236,28,24,38,075,28,08,33,302,30,7*7C
$GAGSV,3,2,10,02,31,266,26,10,28,099,25,12,28,072,24,11,20,128,20,7*78
$GAGSV,3,3,10,05,12,189,21,33,08,021,23,7*7D
$GBGSV,3,1,12,36,71,299,40,46,51,106,,27,47,077,38,30,45,157,38,1*74
$GBGSV,3,2,12,57,21,073,,45,21,292,31,28,15,039,32,21,15,310,32,1*79
$GBGSV,3,3,12,22,14,259,34,08,04,308,23,13,04,318,28,29,04,194,28,1*70
$GNRMC,001926.000,A,4910.426956,N,12304.402092,W,0.02,342.49,061224,,,D,V*17
$GNVTG,342.49,T,,M,0.02,N,0.03,K,D*2F
$GNGGA,001927.000,4910.426920,N,12304.402044,W,2,30,0.49,6.358,M,-16.816,M,,*48
$GNGLL,4910.426920,N,12304.402044,W,001927.000,A,D*58
$GNGSA,A,3,22,17,14,19,13,15,30,24,02,21,,,0.90,0.49,0.75,1*0E
$GNGSA,A,3,73,72,80,71,,,,,,,,,0.90,0.49,0.75,2*0B
$GNGSA,A,3,25,03,24,08,02,10,12,05,33,,,,0.90,0.49,0.75,3*0A
$GNGSA,A,3,36,27,30,45,28,21,22,,,,,,0.90,0.49,0.75,4*09
$GPGSV,4,1,13,22,79,041,36,17,72,134,37,14,58,074,34,19,49,192,35,1*69
$GPGSV,4,2,13,13,38,221,34,46,33,188,31,15,30,263,31,30,26,139,31,1*62
$GPGSV,4,3,13,24,26,307,30,02,24,052,29,21,14,035,27,10,02,346,22,1*6B
$GPGSV,4,4,13,06,01,162,,1*54
$GLGSV,2,1,07,73,73,007,24,83,50,113,,82,40,048,,74,37,301,,1*77
$GLGSV,2,2,07,72,30,294,22,80,30,091,25,71,19,241,22,1*4B
$GAGSV,3,1,10,25,82,325,32,03,41,236,28,24,38,075,28,08,33,302,30,7*7C
$GAGSV,3,2,10,02,31,266,26,10,28,099,25,12,28,072,24,11,20,128,20,7*78
$GAGSV,3,3,10,05,12,189,21,33,08,021,23,7*7D
$GBGSV,3,1,12,36,71,299,40,46,51,106,,27,47,077,38,30,45,157,38,1*74
$GBGSV,3,2,12,57,21,073,,45,21,292,31,28,15,039,32,21,15,310,33,1*78
$GBGSV,3,3,12,22,14,259,34,08,04,308,23,13,04,318,28,29,04,194,28,1*70
$GNRMC,001927.000,A,4910.426920,N,12304.402044,W,0.02,342.49,061224,,,D,V*1C
$GNVTG,342.49,T,,M,0.02,N,0.03,K,D*2F
$PAIR010,0,1,2343,433185*34
$GNGGA,001928.000,4910.426908,N,12304.401954,W,2,30,0.49,6.376,M,-16.816,M,,*4A
$GNGLL,4910.426908,N,12304.401954,W,001928.000,A,D*56
$GNGSA,A,3,22,17,14,19,13,15,30,24,02,21,,,0.90,0.49,0.75,1*0E
$GNGSA,A,3,73,72,80,71,,,,,,,,,0.90,0.49,0.75,2*0B
$GNGSA,A,3,25,03,24,08,02,10,12,05,33,,,,0.90,0.49,0.75,3*0A
$GNGSA,A,3,36,27,30,45,28,21,22,,,,,,0.90,0.49,0.75,4*09
$GPGSV,4,1,13,22,79,041,36,17,72,134,37,14,58,074,34,19,49,192,35,1*69
$GPGSV,4,2,13,13,38,221,34,46,33,188,31,15,30,263,31,30,26,139,31,1*62
$GPGSV,4,3,13,24,26,307,30,02,24,052,29,21,14,035,27,10,02,346,22,1*6B
$GPGSV,4,4,13,06,01,162,,1*54
$GLGSV,2,1,07,73,73,007,24,83,50,113,,82,40,048,,74,37,301,,1*77
$GLGSV,2,2,07,72,30,294,22,80,30,091,25,71,19,241,23,1*4A
$GAGSV,3,1,10,25,82,325,32,03,41,236,28,24,38,075,28,08,33,302,30,7*7C
$GAGSV,3,2,10,02,31,266,26,10,28,099,26,12,28,072,24,11,20,128,20,7*7B
$GAGSV,3,3,10,05,12,189,21,33,08,021,23,7*7D
$GBGSV,3,1,12,36,71,299,40,46,51,106,,27,47,077,38,30,45,157,38,1*74
$GBGSV,3,2,12,57,21,073,,45,21,292,31,28,15,039,32,21,15,310,33,1*78
$GBGSV,3,3,12,22,14,259,34,08,04,308,23,13,04,318,28,29,04,194,28,1*70
$GNRMC,001928.000,A,4910.426908,N,12304.401954,W,0.01,342.49,061224,,,D,V*11
$GNVTG,342.49,T,,M,0.01,N,0.02,K,D*2D
$GNGGA,001929.000,4910.426866,N,12304.401960,W,2,30,0.49,6.468,M,-16.816,M,,*4D
$GNGLL,4910.426866,N,12304.401960,W,001929.000,A,D*59
$GNGSA,A,3,22,17,14,19,13,15,30,24,02,21,,,0.90,0.49,0.75,1*0E
$GNGSA,A,3,73,72,80,71,,,,,,,,,0.90,0.49,0.75,2*0B
$GNGSA,A,3,25,03,24,08,02,10,12,05,33,,,,0.90,0.49,0.75,3*0A
$GNGSA,A,3,36,27,30,45,28,21,22,,,,,,0.90,0.49,0.75,4*09
$GPGSV,4,1,13,22,79,041,36,17,72,134,37,14,58,074,34,19,49,192,35,1*69
$GPGSV,4,2,13,13,38,221,34,46,33,188,31,15,30,263,31,30,26,139,31,1*62
$GPGSV,4,3,13,24,26,307,30,02,24,052,29,21,14,035,27,10,02,346,21,1*68
$GPGSV,4,4,13,06,01,162,,1*54
$GLGSV,2,1,07,73,73,007,24,83,50,113,,82,40,048,,74,37,301,,1*77
$GLGSV,2,2,07,72,30,294,22,80,30,091,25,71,19,241,23,1*4A
$GAGSV,3,1,10,25,82,325,32,03,41,236,28,24,38,075,27,08,33,302,30,7*73
$GAGSV,3,2,10,02,31,266,26,10,28,099,26,12,28,072,24,11,20,128,20,7*7B
$GAGSV,3,3,10,05,12,189,21,33,08,021,23,7*7D
$GBGSV,3,1,12,36,71,299,40,46,51,106,,27,47,077,38,30,45,157,39,1*75
$GBGSV,3,2,12,57,21,073,,45,21,292,31,28,15,039,32,21,15,310,33,1*78
$GBGSV,3,3,12,22,14,259,34,08,04,308,23,13,04,318,28,29,04,194,28,1*70
$GNRMC,001929.000,A,4910.426866,N,12304.401960,W,0.01,342.49,061224,,,D,V*1E
$GNVTG,342.49,T,,M,0.01,N,0.02,K,D*2D
$GNGGA,001930.000,4910.426848,N,12304.401948,W,2,30,0.49,6.544,M,-16.817,M,,*4D
$GNGLL,4910.426848,N,12304.401948,W,001930.000,A,D*57
$GNGSA,A,3,22,17,14,19,13,15,30,24,02,21,,,0.90,0.49,0.75,1*0E
$GNGSA,A,3,73,72,80,71,,,,,,,,,0.90,0.49,0.75,2*0B
$GNGSA,A,3,25,03,24,08,02,10,12,05,33,,,,0.90,0.49,0.75,3*0A
$GNGSA,A,3,36,27,30,45,28,21,22,,,,,,0.90,0.49,0.75,4*09
$GPGSV,4,1,13,22,79,041,36,17,72,134,37,14,58,074,34,19,49,192,35,1*69
$GPGSV,4,2,13,13,38,221,34,46,33,188,31,15,30,263,31,30,26,139,31,1*62
$GPGSV,4,3,13,24,26,307,30,02,24,052,29,21,14,035,27,10,02,346,20,1*69
$GPGSV,4,4,13,06,01,162,,1*54
$GLGSV,2,1,07,73,73,007,24,83,50,113,,82,40,048,,74,37,301,,1*77
$GLGSV,2,2,07,72,30,294,22,80,30,091,24,71,19,241,23,1*4B
$GAGSV,3,1,10,25,82,325,32,03,41,236,29,24,38,075,27,08,33,302,30,7*72
$GAGSV,3,2,10,02,32,267,26,10,28,099,26,12,28,072,25,11,20,128,20,7*78
$GAGSV,3,3,10,05,12,189,21,33,08,021,23,7*7D
$GBGSV,3,1,12,36,71,299,40,46,51,106,,27,47,077,38,30,45,157,39,1*75
$GBGSV,3,2,12,57,21,073,,45,21,292,31,28,15,039,32,21,15,310,33,1*78
$GBGSV,3,3,12,22,14,259,34,08,04,308,23,13,04,318,28,29,04,194,28,1*70
$GNRMC,001930.000,A,4910.426848,N,12304.401948,W,0.01,342.49,061224,,,D,V*10
$GNVTG,342.49,T,,M,0.01,N,0.02,K,D*2D
$GNGGA,001931.000,4910.426806,N,12304.401918,W,2,30,0.49,6.575,M,-16.816,M,,*40
$GNGLL,4910.426806,N,12304.401918,W,001931.000,A,D*59
$GNGSA,A,3,22,17,14,19,13,15,30,24,02,21,,,0.90,0.49,0.75,1*0E
$GNGSA,A,3,73,72,80,71,,,,,,,,,0.90,0.49,0.75,2*0B
$GNGSA,A,3,25,03,24,08,02,10,12,05,33,,,,0.90,0.49,0.75,3*0A
$GNGSA,A,3,36,27,30,45,28,21,22,,,,,,0.90,0.49,0.75,4*09
$GPGSV,4,1,13,22,79,041,36,17,72,134,37,14,58,074,34,19,49,192,35,1*69
$GPGSV,4,2,13,13,38,221,34,46,33,188,31,15,30,263,31,30,26,139,31,1*62
$GPGSV,4,3,13,24,26,307,30,02,24,052,29,21,14,035,26,10,02,346,20,1*68
$GPGSV,4,4,13,06,01,162,,1*54
$GLGSV,2,1,07,73,73,007,24,83,50,113,,82,40,048,,74,37,301,,1*77
$GLGSV,2,2,07,72,30,294,22,80,30,091,24,71,19,241,24,1*4C
$GAGSV,3,1,10,25,82,325,32,03,40,235,28,24,38,075,27,08,33,302,30,7*71
$GAGSV,3,2,10,02,32,267,26,10,28,099,26,12,28,072,25,11,20,128,20,7*78
$GAGSV,3,3,10,05,12,189,21,33,08,021,23,7*7D
$GBGSV,3,1,12,36,71,299,40,46,51,106,,27,47,077,38,30,45,157,39,1*75
$GBGSV,3,2,12,57,21,073,,45,21,292,31,28,15,039,32,21,15,310,33,1*78
$GBGSV,3,3,12,22,14,259,34,08,04,308,23,13,04,318,29,29,04,194,28,1*71
$GNRMC,001931.000,A,4910.426806,N,12304.401918,W,0.01,342.49,061224,,,D,V*1E
$GNVTG,342.49,T,,M,0.01,N,0.01,K,D*2E
$GNGGA,001932.000,4910.426764,N,12304.401948,W,2,30,0.49,6.703,M,-16.816,M,,*4E
$GNGLL,4910.426764,N,12304.401948,W,001932.000,A,D*54
$GNGSA,A,3,22,17,14,19,13,15,30,24,02,21,,,0.90,0.49,0.75,1*0E
$GNGSA,A,3,73,72,80,71,,,,,,,,,0.90,0.49,0.75,2*0B
$GNGSA,A,3,25,03,24,08,02,10,12,05,33,,,,0.90,0.49,0.75,3*0A
$GNGSA,A,3,36,27,30,45,28,21,22,,,,,,0.90,0.49,0.75,4*09
$GPGSV,4,1,13,22,79,041,36,17,72,134,37,14,58,074,34,19,49,192,35,1*69
$GPGSV,4,2,13,13,38,221,34,46,33,188,32,15,30,263,31,30,26,139,31,1*61
$GPGSV,4,3,13,24,26,307,30,02,24,052,30,21,14,035,27,10,02,346,20,1*61
$GPGSV,4,4,13,06,01,162,,1*54
$GLGSV,2,1,07,73,73,007,25,83,50,113,,82,40,048,,74,37,301,,1*76
$GLGSV,2,2,07,72,30,294,22,80,30,091,24,71,19,241,24,1*4C
$GAGSV,3,1,10,25,82,325,32,03,40,235,28,24,38,075,27,08,33,302,30,7*71
$GAGSV,3,2,10,02,32,267,26,10,28,099,26,12,28,072,25,11,20,128,20,7*78
$GAGSV,3,3,10,05,12,189,21,33,08,021,23,7*7D
$GBGSV,3,1,12,36,71,299,40,46,51,106,,27,47,077,37,30,45,157,39,1*7A
$GBGSV,3,2,12,57,21,073,,45,21,292,31,28,15,039,32,21,15,310,32,1*79
$GBGSV,3,3,12,22,14,259,34,08,04,308,23,13,04,318,28,29,04,194,28,1*70
$GNRMC,001932.000,A,4910.426764,N,12304.401948,W,0.01,342.49,061224,,,D,V*13
$GNVTG,342.49,T,,M,0.01,N,0.01,K,D*2E
$GNGGA,001933.000,4910.426782,N,12304.401906,W,2,30,0.49,6.829,M,-16.816,M,,*4A
$GNGLL,4910.426782,N,12304.401906,W,001933.000,A,D*57
$GNGSA,A,3,22,17,14,19,13,15,30,24,02,21,,,0.90,0.49,0.75,1*0E
$GNGSA,A,3,73,72,80,71,,,,,,,,,0.90,0.49,0.75,2*0B
$GNGSA,A,3,25,03,24,08,02,10,12,05,33,,,,0.90,0.49,0.75,3*0A
$GNGSA,A,3,36,27,30,45,28,21,22,,,,,,0.90,0.49,0.75,4*09
$GPGSV,4,1,13,22,79,041,36,17,72,134,37,14,58,074,34,19,49,192,35,1*69
$GPGSV,4,2,13,13,38,221,34,46,33,188,32,15,30,263,31,30,26,139,31,1*61
$GPGSV,4,3,13,24,26,307,30,02,24,052,30,21,14,035,27,10,02,346,20,1*61
$GPGSV,4,4,13,06,01,162,,1*54
$GLGSV,2,1,07,73,73,007,25,83,50,113,,82,40,048,,74,37,301,,1*76
$GLGSV,2,2,07,72,30,294,22,80,30,091,24,71,19,241,24,1*4C
$GAGSV,3,1,10,25,82,325,32,03,40,235,29,24,38,075,27,08,33,302,30,7*70
$GAGSV,3,2,10,02,32,267,26,10,28,099,27,12,28,072,25,11,20,128,20,7*79
$GAGSV,3,3,10,05,11,188,21,33,08,021,23,7*7F
$GBGSV,3,1,12,36,71,299,40,46,51,106,,27,47,077,37,30,45,157,39,1*7A
$GBGSV,3,2,12,57,21,073,,45,21,292,31,28,15,039,32,21,15,310,32,1*79
$GBGSV,3,3,12,22,14,259,34,08,04,308,22,13,04,318,28,29,04,194,28,1*71
$GNRMC,001933.000,A,4910.426782,N,12304.401906,W,0.01,342.49,061224,,,D,V*10
$GNVTG,342.49,T,,M,0.01,N,0.01,K,D*2E
$GNGGA,001934.000,4910.426788,N,12304.401900,W,2,30,0.49,6.938,M,-16.817,M,,*41
$GNGLL,4910.426788,N,12304.401900,W,001934.000,A,D*5C
$GNGSA,A,3,22,17,14,19,13,15,30,24,02,21,,,0.90,0.49,0.75,1*0E
$GNGSA,A,3,73,72,80,71,,,,,,,,,0.90,0.49,0.75,2*0B
$GNGSA,A,3,25,03,24,08,02,10,12,05,33,,,,0.90,0.49,0.75,3*0A
$GNGSA,A,3,36,27,30,45,28,21,22,,,,,,0.90,0.49,0.75,4*09
$GPGSV,4,1,13,22,79,041,36,17,72,134,37,14,58,074,34,19,49,192,35,1*69
$GPGSV,4,2,13,13,38,221,34,46,33,188,31,15,30,263,30,30,26,139,30,1*62
$GPGSV,4,3,13,24,26,307,29,02,24,052,30,21,14,035,26,10,02,346,20,1*68
$GPGSV,4,4,13,06,01,162,,1*54
$GLGSV,2,1,07,73,73,007,26,83,50,113,,82,40,048,,74,37,301,,1*75
$GLGSV,2,2,07,72,30,294,22,80,30,091,25,71,19,241,24,1*4D
$GAGSV,3,1,10,25,82,325,32,03,40,235,28,24,38,075,26,08,33,302,29,7*78
$GAGSV,3,2,10,02,32,267,26,10,28,099,26,12,28,072,25,11,20,128,20,7*78
$GAGSV,3,3,10,05,11,188,21,33,08,021,23,7*7F
$GBGSV,3,1,12,36,71,299,40,46,51,106,,27,47,077,37,30,45,157,39,1*7A
$GBGSV,3,2,12,57,21,073,,45,21,292,31,28,15,039,32,21,15,310,32,1*79
$GBGSV,3,3,12,22,14,259,34,08,04,308,22,13,04,318,28,29,04,194,28,1*71
$GNRMC,001934.000,A,4910.426788,N,12304.401900,W,0.01,342.49,061224,,,D,V*1B
$GNVTG,342.49,T,,M,0.01,N,0.01,K,D*2E
$GNGGA,001935.000,4910.426728,N,12304.401858,W,2,30,0.49,6.860,M,-16.816,M,,*4B
$GNGLL,4910.426728,N,12304.401858,W,001935.000,A,D*5B
$GNGSA,A,3,22,17,14,19,13,15,30,24,02,21,,,0.90,0.49,0.75,1*0E
$GNGSA,A,3,73,72,80,71,,,,,,,,,0.90,0.49,0.75,2*0B
$GNGSA,A,3,25,03,24,08,02,10,12,05,33,,,,0.90,0.49,0.75,3*0A
$GNGSA,A,3,36,27,30,45,28,21,22,,,,,,0.90,0.49,0.75,4*09
$GPGSV,4,1,13,22,79,041,36,17,72,134,38,14,58,074,35,19,49,192,36,1*64
$GPGSV,4,2,13,13,38,221,34,46,33,188,31,15,30,263,31,30,26,139,31,1*62
$GPGSV,4,3,13,24,26,307,29,02,24,052,31,21,14,035,27,10,02,346,24,1*6C
$GPGSV,4,4,13,06,01,162,,1*54
$GLGSV,2,1,07,73,73,007,26,83,50,113,,82,40,048,,74,37,301,,1*75
$GLGSV,2,2,07,72,30,294,22,80,30,091,25,71,19,241,24,1*4D
$GAGSV,3,1,10,25,82,325,32,03,40,235,28,24,38,075,27,08,33,302,30,7*71
$GAGSV,3,2,10,02,32,267,27,10,28,099,26,12,28,072,25,11,20,128,21,7*78
$GAGSV,3,3,10,05,11,188,21,33,08,021,23,7*7F
$GBGSV,3,1,12,36,71,299,40,46,51,106,,27,47,077,37,30,45,157,39,1*7A
$GBGSV,3,2,12,57,21,073,,45,21,292,31,28,15,039,33,21,15,310,33,1*79
$GBGSV,3,3,12,22,14,259,34,08,04,308,22,13,04,318,28,29,04,194,28,1*71
$GNRMC,001935.000,A,4910.426728,N,12304.401858,W,0.01,342.49,061224,,,D,V*1C
$GNVTG,342.49,T,,M,0.01,N,0.01,K,D*2E
$GNGGA,001936.000,4910.426722,N,12304.401846,W,2,30,0.49,6.706,M,-16.816,M,,*42
$GNGLL,4910.426722,N,12304.401846,W,001936.000,A,D*5D
$GNGSA,A,3,22,17,14,19,13,15,30,24,02,21,,,0.90,0.49,0.75,1*0E
$GNGSA,A,3,73,72,80,71,,,,,,,,,0.90,0.49,0.75,2*0B
$GNGSA,A,3,25,03,24,08,02,10,12,05,33,,,,0.90,0.49,0.75,3*0A
$GNGSA,A,3,36,27,30,45,28,21,22,,,,,,0.90,0.49,0.75,4*09
$GPGSV,4,1,13,22,79,041,36,17,72,134,38,14,58,074,35,19,49,192,36,1*64
$GPGSV,4,2,13,13,38,221,34,46,33,188,31,15,30,263,30,30,26,139,31,1*63
$GPGSV,4,3,13,24,26,307,29,02,24,052,31,21,14,035,27,10,02,346,23,1*6B
$GPGSV,4,4,13,06,01,162,,1*54
$GLGSV,2,1,07,73,73,007,27,83,50,113,,82,40,048,,74,37,301,,1*74
$GLGSV,2,2,07,72,30,294,21,80,30,091,26,71,19,241,24,1*4D
$GAGSV,3,1,10,25,82,325,32,03,40,235,28,24,38,075,26,08,33,301,30,7*73
$GAGSV,3,2,10,02,32,267,27,10,28,099,26,12,28,072,25,11,20,128,21,7*78
$GAGSV,3,3,10,05,11,188,21,33,08,021,22,7*7E
$GBGSV,3,1,12,36,71,299,40,46,51,106,,27,47,077,37,30,45,157,39,1*7A
$GBGSV,3,2,12,57,21,073,,45,21,292,31,28,15,039,33,21,15,310,33,1*79
$GBGSV,3,3,12,22,14,259,34,08,04,308,21,13,04,318,28,29,04,194,28,1*72
$GNRMC,001936.000,A,4910.426722,N,12304.401846,W,0.01,342.49,061224,,,D,V*1A
$GNVTG,342.49,T,,M,0.01,N,0.02,K,D*2D
$GNGGA,001937.000,4910.426806,N,12304.401858,W,2,30,0.49,6.655,M,-16.816,M,,*42
$GNGLL,4910.426806,N,12304.401858,W,001937.000,A,D*5A
$GNGSA,A,3,22,17,14,19,13,15,30,24,02,21,,,0.90,0.49,0.75,1*0E
$GNGSA,A,3,73,72,80,71,,,,,,,,,0.90,0.49,0.75,2*0B
$GNGSA,A,3,25,03,24,08,02,10,12,05,33,,,,0.90,0.49,0.75,3*0A
$GNGSA,A,3,36,27,30,45,28,21,22,,,,,,0.90,0.49,0.75,4*09
$GPGSV,4,1,13,22,79,041,36,17,72,134,37,14,58,074,35,19,49,192,35,1*68
$GPGSV,4,2,13,13,38,221,34,46,33,188,31,15,30,263,30,30,26,139,30,1*62
$GPGSV,4,3,13,24,26,307,29,02,24,052,31,21,14,035,26,10,02,346,22,1*6B
$GPGSV,4,4,13,06,01,162,,1*54
$GLGSV,2,1,07,73,73,007,28,83,50,113,,82,40,048,,74,37,301,,1*7B
$GLGSV,2,2,07,72,30,294,21,80,30,091,26,71,19,241,24,1*4D
$GAGSV,3,1,10,25,82,325,31,03,40,235,28,24,38,075,26,08,33,301,30,7*70
$GAGSV,3,2,10,02,32,267,27,10,28,099,26,12,28,072,25,11,20,128,21,7*78
$GAGSV,3,3,10,05,11,188,21,33,08,021,22,7*7E
$GBGSV,3,1,12,36,71,299,40,46,51,106,,27,47,077,37,30,45,157,39,1*7A
$GBGSV,3,2,12,57,21,073,,45,21,292,32,28,15,039,33,21,15,310,33,1*7A
$GBGSV,3,3,12,22,14,259,34,08,04,308,21,13,04,318,28,29,04,194,28,1*72
$GNRMC,001937.000,A,4910.426806,N,12304.401858,W,0.01,342.49,061224,,,D,V*1D
$GNVTG,342.49,T,,M,0.01,N,0.03,K,D*2C
$GNGGA,001938.000,4910.426872,N,12304.401798,W,2,30,0.49,6.698,M,-16.816,M,,*4C
$GNGLL,4910.426872,N,12304.401798,W,001938.000,A,D*55
$GNGSA,A,3,22,17,14,19,13,15,30,24,02,21,,,0.90,0.49,0.75,1*0E
$GNGSA,A,3,73,72,80,71,,,,,,,,,0.90,0.49,0.75,2*0B
$GNGSA,A,3,25,03,24,08,02,10,12,05,33,,,,0.90,0.49,0.75,3*0A
$GNGSA,A,3,36,27,30,45,28,21,22,,,,,,0.90,0.49,0.75,4*09
$GPGSV,4,1,13,22,79,041,36,17,72,134,37,14,58,074,35,19,49,192,35,1*68
$GPGSV,4,2,13,13,38,221,34,46,33,188,31,15,30,263,30,30,26,139,30,1*62
$GPGSV,4,3,13,24,26,307,29,02,24,052,31,21,14,035,26,10,02,346,22,1*6B
$GPGSV,4,4,13,06,01,162,,1*54
$GLGSV,2,1,07,73,73,007,27,83,50,113,,82,40,048,,74,37,301,,1*74
$GLGSV,2,2,07,72,30,294,21,80,30,091,25,71,19,241,24,1*4E
$GAGSV,3,1,10,25,82,325,31,03,40,235,28,24,38,075,26,08,33,301,30,7*70
$GAGSV,3,2,10,02,32,267,27,10,29,099,26,12,28,072,25,11,20,128,20,7*78
$GAGSV,3,3,10,05,11,188,21,33,08,021,21,7*7D
$GBGSV,3,1,12,36,71,299,41,46,51,106,,27,47,077,38,30,45,157,39,1*74
$GBGSV,3,2,12,57,21,073,,45,21,292,33,28,15,039,33,21,15,310,34,1*7C
$GBGSV,3,3,12,22,14,259,34,08,04,308,22,13,04,318,28,29,04,194,29,1*70
$GNRMC,001938.000,A,4910.426872,N,12304.401798,W,0.02,342.49,061224,,,D,V*11
$GNVTG,342.49,T,,M,0.02,N,0.04,K,D*28
$GNGGA,001939.000,4910.426872,N,12304.401714,W,2,30,0.49,6.823,M,-16.816,M,,*47
$GNGLL,4910.426872,N,12304.401714,W,001939.000,A,D*50
$GNGSA,A,3,22,17,14,19,13,15,30,24,02,21,,,0.90,0.49,0.75,1*0E
$GNGSA,A,3,73,72,80,71,,,,,,,,,0.90,0.49,0.75,2*0B
$GNGSA,A,3,25,03,24,08,02,10,12,05,33,,,,0.90,0.49,0.75,3*0A
$GNGSA,A,3,36,27,30,45,28,21,22,,,,,,0.90,0.49,0.75,4*09
$GPGSV,4,1,13,22,79,041,36,17,72,134,37,14,58,074,35,19,49,192,35,1*68
$GPGSV,4,2,13,13,38,221,34,46,33,188,31,15,30,263,30,30,26,139,30,1*62
$GPGSV,4,3,13,24,26,307,29,02,24,052,31,21,14,035,26,10,02,346,23,1*6A
$GPGSV,4,4,13,06,01,162,,1*54
$GLGSV,2,1,07,73,73,007,27,83,50,113,,82,40,048,,74,37,301,,1*74
$GLGSV,2,2,07,72,30,294,22,80,30,091,25,71,19,241,24,1*4D
$GAGSV,3,1,10,25,82,325,31,03,40,235,28,24,38,075,26,08,33,301,30,7*70
$GAGSV,3,2,10,02,32,267,27,10,29,099,26,12,28,072,24,11,21,127,20,7*77
$GAGSV,3,3,10,05,11,188,21,33,08,021,22,7*7E
$GBGSV,3,1,12,36,71,299,41,46,51,106,,27,47,077,38,30,45,157,39,1*74
$GBGSV,3,2,12,57,21,073,,45,21,292,33,28,15,039,33,21,15,310,34,1*7C
$GBGSV,3,3,12,22,14,259,34,08,04,308,22,13,04,318,28,29,04,194,29,1*70
$GNRMC,001939.000,A,4910.426872,N,12304.401714,W,0.02,342.49,061224,,,D,V*14
$GNVTG,342.49,T,,M,0.02,N,0.04,K,D*28
$GNGGA,001940.000,4910.426872,N,12304.401618,W,2,30,0.49,6.949,M,-16.817,M,,*48
