$GNGGA,192918.000,4910.425048,N,12304.402830,W,2,25,0.65,8.859,M,-16.816,M,,*4E
$GNGLL,4910.425048,N,12304.402830,W,192918.000,A,D*50
$GNGSA,A,3,09,07,04,16,30,20,27,08,26,,,,1.04,0.65,0.82,1*08
$GNGSA,A,3,69,79,68,,,,,,,,,,1.04,0.65,0.82,2*01
$GNGSA,A,3,09,31,06,05,24,04,15,,,,,,1.04,0.65,0.82,3*01
$GNGSA,A,3,37,20,23,32,19,38,,,,,,,1.04,0.65,0.82,4*0D
$GPGSV,3,1,12,09,79,140,35,07,65,266,33,04,48,123,28,16,35,054,29,1*6E
$GPGSV,3,2,12,30,28,258,25,20,26,309,25,27,20,095,20,08,13,127,21,1*68
$GPGSV,3,3,12,26,07,043,19,11,06,286,,05,04,332,18,03,01,173,,1*6C
$GLGSV,3,1,09,69,73,315,27,79,64,219,30,78,58,042,,68,51,146,27,1*77
$GLGSV,3,2,09,80,11,220,17,86,09,356,,70,09,323,,87,06,040,19,1*70
$GLGSV,3,3,09,67,03,144,,1*42
$GAGSV,2,1,08,09,78,120,29,31,63,116,28,06,53,121,27,05,44,299,25,7*7A
$GAGSV,2,2,08,24,31,188,22,04,26,120,19,15,10,329,21,34,09,281,,7*7E
$GBGSV,4,1,14,37,73,214,38,20,64,279,38,23,50,061,35,32,44,167,35,1*7F
$GBGSV,4,2,14,19,21,315,27,46,18,230,,38,15,333,28,08,09,342,20,1*76
$GBGSV,4,3,14,34,04,040,25,12,03,014,,11,02,062,,13,01,346,,1*75
$GBGSV,4,4,14,43,01,082,,04,01,262,,1*7C
$GNRMC,192918.000,A,4910.425048,N,12304.402830,W,0.02,0.00,051224,,,D,V*1F
$GNVTG,0.00,T,,M,0.02,N,0.04,K,D*20
$GNGGA,192919.000,4910.425156,N,12304.402830,W,2,25,0.65,9.158,M,-16.817,M,,*49
$GNGLL,4910.425156,N,12304.402830,W,192919.000,A,D*5F
$GNGSA,A,3,09,07,04,16,30,20,27,08,26,,,,1.04,0.65,0.82,1*08
$GNGSA,A,3,69,79,68,,,,,,,,,,1.04,0.65,0.82,2*01
$GNGSA,A,3,09,31,06,05,24,04,15,,,,,,1.04,0.65,0.82,3*01
$GNGSA,A,3,37,20,23,32,19,38,,,,,,,1.04,0.65,0.82,4*0D
$GPGSV,4,1,13,09,79,140,35,07,65,266,33,04,48,123,28,16,35,054,29,1*68
$GPGSV,4,2,13,30,28,258,27,20,26,309,26,27,20,095,20,08,13,127,21,1*6F
$GPGSV,4,3,13,26,07,043,20,11,06,286,,05,04,332,18,03,01,173,,1*60
$GPGSV,4,4,13,47,,,,1*65
$GLGSV,3,1,09,69,73,315,27,79,64,219,30,78,58,042,,68,51,146,28,1*78
$GLGSV,3,2,09,80,11,220,17,86,09,356,,70,09,323,,87,06,040,19,1*70
$GLGSV,3,3,09,67,03,144,,1*42
$GAGSV,2,1,08,09,78,120,29,31,63,116,28,06,53,121,27,05,44,299,25,7*7A
$GAGSV,2,2,08,24,31,188,22,04,26,120,19,15,10,329,21,34,09,281,,7*7E
$GBGSV,4,1,14,37,73,214,38,20,64,279,38,23,50,061,35,32,44,167,35,1*7F
$GBGSV,4,2,14,19,21,315,27,46,18,230,,38,15,333,28,08,09,342,20,1*76
$GBGSV,4,3,14,34,04,040,,12,03,014,,11,02,062,,13,01,346,,1*72
$GBGSV,4,4,14,43,01,082,,04,01,262,,1*7C
$GNRMC,192919.000,A,4910.425156,N,12304.402830,W,0.02,0.00,051224,,,D,V*10
$GNVTG,0.00,T,,M,0.02,N,0.04,K,D*20
$GNGGA,192920.000,4910.425222,N,12304.402872,W,2,25,0.65,9.367,M,-16.816,M,,*4A
$GNGLL,4910.425222,N,12304.402872,W,192920.000,A,D*53
$GNGSA,A,3,09,07,04,16,30,20,27,08,26,,,,1.04,0.65,0.82,1*08
$GNGSA,A,3,69,79,68,,,,,,,,,,1.04,0.65,0.82,2*01
$GNGSA,A,3,09,31,06,05,24,04,15,,,,,,1.04,0.65,0.82,3*01
$GNGSA,A,3,37,20,23,32,19,38,,,,,,,1.04,0.65,0.82,4*0D
$GPGSV,4,1,13,09,79,140,35,07,65,266,33,04,48,123,28,16,35,054,29,1*68
$GPGSV,4,2,13,30,28,258,25,20,26,309,25,27,20,095,20,08,13,127,21,1*6E
$GPGSV,4,3,13,26,07,043,20,11,06,286,,05,04,332,18,03,01,173,,1*60
$GPGSV,4,4,13,47,,,,1*65
$GLGSV,3,1,09,69,73,315,27,79,64,219,30,78,58,042,,68,51,146,28,1*78
$GLGSV,3,2,09,80,11,220,17,86,09,356,,70,09,323,,87,06,040,19,1*70
$GLGSV,3,3,09,67,03,144,,1*42
$GAGSV,2,1,08,09,78,120,29,31,63,116,28,06,53,121,27,05,44,299,25,7*7A
$GAGSV,2,2,08,24,31,188,22,04,26,120,19,15,10,329,21,34,09,281,,7*7E
$GBGSV,4,1,14,37,73,214,38,20,64,279,38,23,50,061,35,32,44,167,35,1*7F
$GBGSV,4,2,14,19,21,315,27,46,18,230,,38,15,333,28,08,09,342,20,1*76
$GBGSV,4,3,14,34,04,040,,12,03,014,,11,02,062,,13,01,346,,1*72
$GBGSV,4,4,14,43,01,082,,04,01,262,,1*7C
$GNRMC,192920.000,A,4910.425222,N,12304.402872,W,0.02,0.00,051224,,,D,V*1C
$GNVTG,0.00,T,,M,0.02,N,0.03,K,D*27
$GNGGA,192921.000,4910.425360,N,12304.402794,W,2,25,0.65,9.767,M,-16.816,M,,*4F
$GNGLL,4910.425360,N,12304.402794,W,192921.000,A,D*52
$GNGSA,A,3,09,07,04,16,30,20,27,08,26,,,,1.04,0.65,0.82,1*08
$GNGSA,A,3,69,79,68,,,,,,,,,,1.04,0.65,0.82,2*01
$GNGSA,A,3,09,31,06,05,24,04,15,,,,,,1.04,0.65,0.82,3*01
$GNGSA,A,3,37,20,23,32,19,38,,,,,,,1.04,0.65,0.82,4*0D
$GPGSV,3,1,11,09,79,140,35,07,65,266,33,04,48,123,28,16,35,054,29,1*6D
$GPGSV,3,2,11,30,28,258,27,20,26,309,27,27,20,095,20,08,13,127,21,1*6B
$GPGSV,3,3,11,26,07,043,20,05,04,332,18,47,,,,1*6B
$GLGSV,2,1,08,69,73,315,27,79,64,219,29,78,58,042,,68,51,146,28,1*70
$GLGSV,2,2,08,80,11,220,16,70,09,323,,87,06,040,19,67,03,144,,1*75
$GAGSV,2,1,07,09,78,120,30,31,63,116,28,06,53,121,27,05,44,299,25,7*7D
$GAGSV,2,2,07,24,31,188,23,04,26,120,19,15,10,329,21,7*45
$GBGSV,2,1,07,37,73,214,38,20,64,279,38,23,50,061,35,32,44,167,35,1*7B
$GBGSV,2,2,07,19,21,315,27,38,15,333,28,08,09,342,20,1*48
$GNRMC,192921.000,A,4910.425360,N,12304.402794,W,0.03,0.00,051224,,,D,V*1C
$GNVTG,0.00,T,,M,0.03,N,0.05,K,D*20
$GNGGA,192922.000,4910.425534,N,12304.402830,W,2,25,0.65,10.163,M,-16.817,M,,*71
$GNGLL,4910.425534,N,12304.402830,W,192922.000,A,D*57
$GNGSA,A,3,09,07,04,16,30,20,27,08,26,,,,1.04,0.65,0.82,1*08
$GNGSA,A,3,69,79,68,,,,,,,,,,1.04,0.65,0.82,2*01
$GNGSA,A,3,09,31,06,05,24,04,15,,,,,,1.04,0.65,0.82,3*01
$GNGSA,A,3,37,20,23,32,19,38,,,,,,,1.04,0.65,0.82,4*0D
$GPGSV,3,1,11,09,79,140,35,07,65,266,33,04,48,123,29,16,35,054,29,1*6C
$GPGSV,3,2,11,30,28,258,27,20,26,309,26,27,20,095,20,08,13,127,21,1*6A
$GPGSV,3,3,11,26,07,043,20,05,04,332,18,47,,,,1*6B
$GLGSV,3,1,09,69,73,315,27,79,64,219,29,78,58,042,,68,51,146,28,1*70
$GLGSV,3,2,09,80,11,220,16,70,09,323,,86,09,356,,87,06,040,19,1*71
$GLGSV,3,3,09,67,03,144,,1*42
$GAGSV,2,1,07,09,78,120,30,31,63,116,28,06,53,121,27,05,44,299,25,7*7D
$GAGSV,2,2,07,24,31,188,23,04,26,120,19,15,10,329,21,7*45
$GBGSV,2,1,07,37,73,214,38,20,64,279,38,23,50,061,35,32,44,167,35,1*7B
$GBGSV,2,2,07,19,21,315,27,38,15,333,28,08,09,342,20,1*48
$GNRMC,192922.000,A,4910.425534,N,12304.402830,W,0.03,0.00,051224,,,D,V*19
$GNVTG,0.00,T,,M,0.03,N,0.05,K,D*20
$GNGGA,192923.000,4910.425678,N,12304.402878,W,2,25,0.65,10.538,M,-16.816,M,,*7C
$GNGLL,4910.425678,N,12304.402878,W,192923.000,A,D*51
$GNGSA,A,3,09,07,04,16,30,20,27,08,26,,,,1.04,0.65,0.82,1*08
$GNGSA,A,3,69,79,68,,,,,,,,,,1.04,0.65,0.82,2*01
$GNGSA,A,3,09,31,06,05,24,04,15,,,,,,1.04,0.65,0.82,3*01
$GNGSA,A,3,37,20,23,32,19,38,,,,,,,1.04,0.65,0.82,4*0D
$GPGSV,3,1,11,09,79,140,35,07,65,266,33,04,47,124,29,16,35,054,29,1*64
$GPGSV,3,2,11,30,28,258,27,20,26,309,26,27,20,095,18,08,13,127,21,1*61
$GPGSV,3,3,11,26,07,043,20,05,04,332,18,47,,,,1*6B
$GLGSV,3,1,09,69,73,315,27,79,64,219,29,78,58,042,,68,51,146,27,1*7F
$GLGSV,3,2,09,80,11,220,16,70,09,323,,86,09,356,,87,06,040,19,1*71
$GLGSV,3,3,09,67,03,144,,1*42
$GAGSV,2,1,07,09,78,120,30,31,63,116,28,06,53,121,27,05,44,299,25,7*7D
$GAGSV,2,2,07,24,31,188,23,04,26,120,19,15,10,329,21,7*45
$GBGSV,2,1,07,37,73,214,38,20,64,279,38,23,50,061,35,32,44,167,35,1*7B
$GBGSV,2,2,07,19,21,315,27,38,15,333,28,08,09,342,20,1*48
$GNRMC,192923.000,A,4910.425678,N,12304.402878,W,0.03,0.00,051224,,,D,V*1F
$GNVTG,0.00,T,,M,0.03,N,0.05,K,D*20
$GNGGA,192924.000,4910.425828,N,12304.402974,W,2,25,0.65,10.803,M,-16.817,M,,*79
$GNGLL,4910.425828,N,12304.402974,W,192924.000,A,D*50
$GNGSA,A,3,09,07,04,16,30,20,27,08,26,,,,1.04,0.65,0.82,1*08
$GNGSA,A,3,69,79,68,,,,,,,,,,1.04,0.65,0.82,2*01
$GNGSA,A,3,09,31,06,05,24,04,15,,,,,,1.04,0.65,0.82,3*01
$GNGSA,A,3,37,20,23,32,19,38,,,,,,,1.04,0.65,0.82,4*0D
$GPGSV,3,1,11,09,79,140,35,07,65,266,33,04,47,124,29,16,35,054,29,1*64
$GPGSV,3,2,11,30,28,258,27,20,26,309,26,27,20,095,19,08,13,127,22,1*63
$GPGSV,3,3,11,26,07,043,20,11,06,286,,05,05,332,18,1*53
$GLGSV,3,1,09,69,73,315,27,79,64,219,29,78,58,042,,68,51,146,27,1*7F
$GLGSV,3,2,09,80,11,220,16,70,09,323,,86,09,356,,87,06,040,19,1*71
$GLGSV,3,3,09,67,03,144,,1*42
$GAGSV,2,1,08,09,78,120,30,31,63,116,28,06,53,121,27,05,44,299,25,7*72
$GAGSV,2,2,08,24,31,188,24,04,26,120,20,15,10,329,20,34,09,281,,7*73
$GBGSV,4,1,15,37,73,214,38,20,64,279,38,23,50,061,35,32,44,167,35,1*7E
$GBGSV,4,2,15,19,21,315,27,46,18,230,,38,15,333,28,08,09,342,20,1*77
$GBGSV,4,3,15,34,04,040,,12,03,014,,11,02,062,,13,01,346,,1*73
$GBGSV,4,4,15,43,01,082,,04,01,262,,25,01,055,,1*4B
$GNRMC,192924.000,A,4910.425828,N,12304.402974,W,0.03,0.00,051224,,,D,V*1E
$GNVTG,0.00,T,,M,0.03,N,0.05,K,D*20
$GNGGA,192925.000,4910.425960,N,12304.402986,W,2,26,0.63,11.127,M,-16.817,M,,*73
$GNGLL,4910.425960,N,12304.402986,W,192925.000,A,D*51
$GNGSA,A,3,09,07,04,16,30,20,27,08,26,05,,,1.01,0.63,0.79,1*0A
$GNGSA,A,3,69,79,68,,,,,,,,,,1.01,0.63,0.79,2*06
$GNGSA,A,3,09,31,06,05,24,04,15,,,,,,1.01,0.63,0.79,3*06
$GNGSA,A,3,37,20,23,32,19,38,,,,,,,1.01,0.63,0.79,4*0A
$GPGSV,3,1,11,09,79,140,35,07,65,266,33,04,47,124,29,16,35,054,29,1*64
$GPGSV,3,2,11,48,33,182,,30,28,258,27,20,26,309,26,27,20,095,19,1*6A
$GPGSV,3,3,11,08,13,127,22,26,07,043,20,05,05,332,19,1*56
$GLGSV,3,1,09,69,73,315,27,79,64,219,29,78,58,042,,68,51,146,28,1*70
$GLGSV,3,2,09,80,11,220,16,70,09,323,,86,09,356,,87,06,040,19,1*71
$GLGSV,3,3,09,67,03,144,,1*42
$GAGSV,2,1,07,09,78,120,30,31,63,116,28,06,53,121,27,05,44,299,25,7*7D
$GAGSV,2,2,07,24,31,188,24,04,26,120,20,15,10,329,20,7*49
$GBGSV,2,1,07,37,73,214,38,20,64,279,38,23,50,061,35,32,44,167,35,1*7B
$GBGSV,2,2,07,19,21,315,28,38,15,333,28,08,09,342,20,1*47
$GNRMC,192925.000,A,4910.425960,N,12304.402986,W,0.03,0.00,051224,,,D,V*1F
$GNVTG,0.00,T,,M,0.03,N,0.05,K,D*20
$GNGGA,192926.000,4910.426110,N,12304.403004,W,2,26,0.63,11.568,M,-16.816,M,,*70
$GNGLL,4910.426110,N,12304.403004,W,192926.000,A,D*5C
$GNGSA,A,3,09,07,04,16,30,20,27,08,26,05,,,1.01,0.63,0.79,1*0A
$GNGSA,A,3,69,79,68,,,,,,,,,,1.01,0.63,0.79,2*06
$GNGSA,A,3,09,31,06,05,24,04,15,,,,,,1.01,0.63,0.79,3*06
$GNGSA,A,3,37,20,23,32,19,38,,,,,,,1.01,0.63,0.79,4*0A
$GPGSV,3,1,11,09,79,140,35,07,66,267,33,04,47,124,29,16,35,054,29,1*66
$GPGSV,3,2,11,48,33,182,,30,28,258,27,20,26,309,26,27,20,095,17,1*64
$GPGSV,3,3,11,08,13,127,23,26,07,043,20,05,05,332,19,1*57
$GLGSV,3,1,09,69,73,315,26,79,64,219,29,78,58,042,,68,51,146,28,1*71
$GLGSV,3,2,09,80,11,220,16,70,09,323,,86,09,356,,87,06,040,19,1*71
$GLGSV,3,3,09,67,03,144,,1*42
$GAGSV,2,1,07,09,78,120,30,31,63,116,28,06,53,121,27,05,44,299,25,7*7D
$GAGSV,2,2,07,24,31,188,24,04,26,120,20,15,10,329,20,7*49
$GBGSV,2,1,07,37,73,214,38,20,64,279,38,23,50,061,35,32,44,167,35,1*7B
$GBGSV,2,2,07,19,21,315,28,38,15,333,28,08,09,342,20,1*47
$GNRMC,192926.000,A,4910.426110,N,12304.403004,W,0.02,0.00,051224,,,D,V*13
$GNVTG,0.00,T,,M,0.02,N,0.04,K,D*20
$GNGGA,192927.000,4910.426272,N,12304.403082,W,2,26,0.63,11.928,M,-16.817,M,,*71
$GNGLL,4910.426272,N,12304.403082,W,192927.000,A,D*54
$GNGSA,A,3,09,07,04,16,30,20,27,08,26,05,,,1.01,0.63,0.79,1*0A
$GNGSA,A,3,69,79,68,,,,,,,,,,1.01,0.63,0.79,2*06
$GNGSA,A,3,09,31,06,05,24,04,15,,,,,,1.01,0.63,0.79,3*06
$GNGSA,A,3,37,20,23,32,19,38,,,,,,,1.01,0.63,0.79,4*0A
$GPGSV,3,1,12,09,79,140,35,07,66,267,33,04,47,124,29,16,35,054,29,1*65
$GPGSV,3,2,12,48,33,182,,30,28,258,27,20,26,309,26,27,20,095,20,1*63
$GPGSV,3,3,12,08,14,126,23,26,07,043,20,11,06,286,,05,05,332,20,1*62
$GLGSV,3,1,09,69,73,315,27,79,64,219,29,78,58,042,,68,51,146,28,1*70
$GLGSV,3,2,09,80,11,220,16,86,09,356,,70,09,323,,87,06,040,19,1*71
$GLGSV,3,3,09,67,03,144,,1*42
$GAGSV,2,1,08,09,78,120,30,31,63,116,28,06,53,121,27,05,44,299,25,7*72
$GAGSV,2,2,08,24,31,188,24,04,26,120,20,15,10,329,20,34,09,281,,7*73
$GBGSV,4,1,15,37,73,214,38,20,64,279,38,23,50,061,35,32,44,167,36,1*7D
$GBGSV,4,2,15,19,21,315,28,46,18,230,,38,15,333,29,08,09,342,20,1*79
$GBGSV,4,3,15,34,04,040,,12,03,014,,11,02,062,,13,01,346,,1*73
$GBGSV,4,4,15,43,01,082,,04,01,262,,25,01,055,,1*4B
$GNRMC,192927.000,A,4910.426272,N,12304.403082,W,0.02,0.00,051224,,,D,V*1B
$GNVTG,0.00,T,,M,0.02,N,0.04,K,D*20
$GNGGA,192928.000,4910.426410,N,12304.403136,W,2,26,0.63,12.260,M,-16.816,M,,*77
$GNGLL,4910.426410,N,12304.403136,W,192928.000,A,D*57
$GNGSA,A,3,09,07,04,16,30,20,27,08,26,05,,,1.01,0.63,0.79,1*0A
$GNGSA,A,3,69,79,68,,,,,,,,,,1.01,0.63,0.79,2*06
$GNGSA,A,3,09,31,06,05,24,04,15,,,,,,1.01,0.63,0.79,3*06
$GNGSA,A,3,37,20,23,32,19,38,,,,,,,1.01,0.63,0.79,4*0A
$GPGSV,3,1,12,09,78,141,35,07,66,267,33,04,47,124,30,16,35,054,29,1*6D
$GPGSV,3,2,12,48,33,182,,30,28,258,28,20,26,309,27,27,20,095,20,1*6D
$GPGSV,3,3,12,08,14,126,23,26,07,043,20,11,06,286,,05,05,332,20,1*62
$GLGSV,3,1,09,69,73,315,27,79,64,219,29,78,58,042,,68,51,146,27,1*7F
$GLGSV,3,2,09,80,11,220,16,86,09,356,,70,09,323,,87,06,040,18,1*70
$GLGSV,3,3,09,67,03,144,,1*42
$GAGSV,2,1,08,09,78,120,30,31,63,116,28,06,53,121,28,05,44,299,25,7*7D
$GAGSV,2,2,08,24,31,188,24,04,26,120,20,15,10,329,20,34,09,281,,7*73
$GBGSV,4,1,15,37,73,214,39,20,64,279,39,23,50,061,35,32,44,167,36,1*7D
$GBGSV,4,2,15,19,21,315,28,46,18,230,,38,15,333,29,08,09,342,20,1*79
$GBGSV,4,3,15,34,04,040,,12,03,014,,11,02,062,,13,01,346,,1*73
$GBGSV,4,4,15,43,01,082,,04,01,262,,25,01,055,,1*4B
$GNRMC,192928.000,A,4910.426410,N,12304.403136,W,0.02,0.00,051224,,,D,V*18
$GNVTG,0.00,T,,M,0.02,N,0.04,K,D*20
$GNGGA,192929.000,4910.426500,N,12304.403196,W,2,26,0.63,12.440,M,-16.816,M,,*78
$GNGLL,4910.426500,N,12304.403196,W,192929.000,A,D*5C
$GNGSA,A,3,09,07,04,16,30,20,27,08,26,05,,,1.01,0.63,0.79,1*0A
$GNGSA,A,3,69,79,68,,,,,,,,,,1.01,0.63,0.79,2*06
$GNGSA,A,3,09,31,06,05,24,04,15,,,,,,1.01,0.63,0.79,3*06
$GNGSA,A,3,37,20,23,32,19,38,,,,,,,1.01,0.63,0.79,4*0A
$GPGSV,3,1,12,09,78,141,35,07,66,267,33,04,47,124,30,16,35,054,29,1*6D
$GPGSV,3,2,12,48,33,182,,30,28,258,28,20,26,309,27,27,20,095,20,1*6D
$GPGSV,3,3,12,08,14,126,23,26,07,043,20,11,06,286,,05,05,332,19,1*68
$GLGSV,3,1,09,69,73,315,27,79,64,219,29,78,58,042,,68,51,146,27,1*7F
$GLGSV,3,2,09,80,11,220,16,86,09,356,,70,09,323,,87,06,040,18,1*70
$GLGSV,3,3,09,67,03,144,,1*42
$GAGSV,2,1,08,09,78,120,30,31,63,116,28,06,53,121,28,05,44,299,25,7*7D
$GAGSV,2,2,08,24,31,188,24,04,26,120,20,15,10,329,20,34,09,281,,7*73
$GBGSV,4,1,15,37,73,214,39,20,64,279,39,23,50,061,35,32,44,167,36,1*7D
$GBGSV,4,2,15,19,21,315,28,46,18,230,,38,15,333,29,08,09,342,21,1*78
$GBGSV,4,3,15,34,04,040,25,12,03,014,,11,02,062,,13,01,346,,1*74
$GBGSV,4,4,15,43,01,082,,04,01,262,,25,01,055,,1*4B
$GNRMC,192929.000,A,4910.426500,N,12304.403196,W,0.02,0.00,051224,,,D,V*13
$GNVTG,0.00,T,,M,0.02,N,0.04,K,D*20
$GNGGA,192930.000,4910.426620,N,12304.403226,W,2,26,0.63,12.655,M,-16.816,M,,*7F
$GNGLL,4910.426620,N,12304.403226,W,192930.000,A,D*5D
$GNGSA,A,3,09,07,04,16,30,20,27,08,26,05,,,1.01,0.63,0.79,1*0A
$GNGSA,A,3,69,79,68,,,,,,,,,,1.01,0.63,0.79,2*06
$GNGSA,A,3,09,31,06,05,24,04,15,,,,,,1.01,0.63,0.79,3*06
$GNGSA,A,3,37,20,23,32,19,38,,,,,,,1.01,0.63,0.79,4*0A
$GPGSV,3,1,12,09,78,141,35,07,66,267,33,04,47,124,30,16,35,054,29,1*6D
$GPGSV,3,2,12,48,33,182,,30,28,258,28,20,26,309,28,27,20,095,20,1*62
$GPGSV,3,3,12,08,14,126,25,26,07,043,20,11,06,285,,05,05,332,19,1*6D
$GLGSV,3,1,09,69,73,315,27,79,64,219,29,78,58,042,,68,51,146,27,1*7F
$GLGSV,3,2,09,80,11,220,16,86,09,356,,70,09,323,,87,06,040,18,1*70
$GLGSV,3,3,09,67,03,144,,1*42
$GAGSV,2,1,08,09,78,120,30,31,63,116,28,06,53,121,28,05,44,299,25,7*7D
$GAGSV,2,2,08,24,31,188,24,04,26,120,20,15,10,329,20,34,09,281,,7*73
$GBGSV,4,1,15,37,73,214,39,20,64,279,39,23,50,061,35,32,44,167,36,1*7D
$GBGSV,4,2,15,19,21,315,28,46,18,230,,38,15,333,29,08,09,342,21,1*78
$GBGSV,4,3,15,34,04,040,26,12,03,014,,11,02,062,,13,01,346,,1*77
$GBGSV,4,4,15,43,01,082,,04,01,262,,25,01,055,,1*4B
$GNRMC,192930.000,A,4910.426620,N,12304.403226,W,0.02,0.00,051224,,,D,V*12
$GNVTG,0.00,T,,M,0.02,N,0.04,K,D*20
$GNGGA,192931.000,4910.426722,N,12304.403220,W,2,26,0.63,12.827,M,-16.816,M,,*70
$GNGLL,4910.426722,N,12304.403220,W,192931.000,A,D*59
$GNGSA,A,3,09,07,04,16,30,20,27,08,26,05,,,1.01,0.63,0.79,1*0A
$GNGSA,A,3,69,79,68,,,,,,,,,,1.01,0.63,0.79,2*06
$GNGSA,A,3,09,31,06,05,24,04,15,,,,,,1.01,0.63,0.79,3*06
$GNGSA,A,3,37,20,23,32,19,38,,,,,,,1.01,0.63,0.79,4*0A
$GPGSV,3,1,10,09,78,141,35,07,66,267,33,04,47,124,30,16,35,054,29,1*6F
$GPGSV,3,2,10,30,28,258,28,20,26,309,28,27,20,095,20,08,14,126,24,1*69
$GPGSV,3,3,10,26,07,043,20,05,05,332,19,1*69
$GLGSV,3,1,09,69,73,315,27,79,64,219,29,78,58,042,,68,51,146,27,1*7F
$GLGSV,3,2,09,80,11,220,17,70,09,323,,86,09,356,,87,06,040,18,1*71
$GLGSV,3,3,09,67,03,144,,1*42
$GAGSV,2,1,07,09,78,120,30,31,63,116,28,06,53,121,28,05,44,299,25,7*72
$GAGSV,2,2,07,24,31,188,24,04,26,120,20,15,10,329,20,7*49
$GBGSV,2,1,07,37,73,214,39,20,64,279,39,23,50,061,35,32,44,167,36,1*78
$GBGSV,2,2,07,19,21,315,28,38,15,333,29,08,09,342,21,1*47
$GNRMC,192931.000,A,4910.426722,N,12304.403220,W,0.02,0.00,051224,,,D,V*16
$GNVTG,0.00,T,,M,0.02,N,0.04,K,D*20
$GNGGA,192932.000,4910.426770,N,12304.403202,W,2,26,0.63,12.891,M,-16.816,M,,*79
$GNGLL,4910.426770,N,12304.403202,W,192932.000,A,D*5D
$GNGSA,A,3,09,07,04,16,30,20,27,08,26,05,,,1.01,0.63,0.79,1*0A
$GNGSA,A,3,69,79,68,,,,,,,,,,1.01,0.63,0.79,2*06
$GNGSA,A,3,09,31,06,05,24,04,15,,,,,,1.01,0.63,0.79,3*06
$GNGSA,A,3,37,20,23,32,19,38,,,,,,,1.01,0.63,0.79,4*0A
$GPGSV,3,1,11,09,78,141,35,07,66,267,33,04,47,124,30,16,35,054,29,1*6E
$GPGSV,3,2,11,48,33,182,,30,28,258,28,20,26,309,28,27,20,095,20,1*61
$GPGSV,3,3,11,08,14,126,24,26,07,043,20,05,05,332,19,1*56
$GLGSV,3,1,09,69,73,315,27,79,64,219,29,78,58,042,,68,51,146,27,1*7F
$GLGSV,3,2,09,80,11,220,17,70,09,323,,86,09,356,,87,06,040,18,1*71
$GLGSV,3,3,09,67,03,144,,1*42
$GAGSV,2,1,07,09,78,120,30,31,63,116,28,06,53,121,28,05,44,299,25,7*72
$GAGSV,2,2,07,24,31,188,24,04,26,120,20,15,10,329,20,7*49
$GBGSV,2,1,07,37,73,214,39,20,64,279,39,23,50,061,35,32,44,167,36,1*78
$GBGSV,2,2,07,19,21,315,28,38,15,333,29,08,09,342,21,1*47
$GNRMC,192932.000,A,4910.426770,N,12304.403202,W,0.02,0.00,051224,,,D,V*12
$GNVTG,0.00,T,,M,0.02,N,0.03,K,D*27
$GNGGA,192933.000,4910.426854,N,12304.403166,W,2,26,0.63,12.938,M,-16.817,M,,*73
$GNGLL,4910.426854,N,12304.403166,W,192933.000,A,D*54
$GNGSA,A,3,09,07,04,16,30,20,27,08,26,05,,,1.01,0.63,0.79,1*0A
$GNGSA,A,3,69,79,68,,,,,,,,,,1.01,0.63,0.79,2*06
$GNGSA,A,3,09,31,06,05,24,04,15,,,,,,1.01,0.63,0.79,3*06
$GNGSA,A,3,37,20,23,32,19,38,,,,,,,1.01,0.63,0.79,4*0A
$GPGSV,3,1,10,09,78,141,35,07,66,267,33,04,47,124,31,16,35,054,29,1*6E
$GPGSV,3,2,10,30,28,258,28,20,26,309,28,27,20,095,21,08,14,126,25,1*69
$GPGSV,3,3,10,26,07,043,20,05,05,332,19,1*69
$GLGSV,3,1,09,69,73,315,27,79,64,219,29,78,58,042,,68,51,146,27,1*7F
$GLGSV,3,2,09,80,11,220,17,70,09,323,,86,09,356,,87,06,040,18,1*71
$GLGSV,3,3,09,67,03,144,,1*42
$GAGSV,2,1,07,09,78,120,30,31,63,116,28,06,53,121,28,05,44,299,25,7*72
$GAGSV,2,2,07,24,31,188,25,04,26,120,20,15,10,329,20,7*48
$GBGSV,2,1,07,37,73,214,39,20,64,279,39,23,50,061,35,32,44,167,36,1*78
$GBGSV,2,2,07,19,21,315,29,38,15,333,29,08,09,342,21,1*46
$GNRMC,192933.000,A,4910.426854,N,12304.403166,W,0.02,0.00,051224,,,D,V*1B
$GNVTG,0.00,T,,M,0.02,N,0.03,K,D*27
$GNGGA,192934.000,4910.426962,N,12304.403172,W,2,26,0.63,12.993,M,-16.816,M,,*75
$GNGLL,4910.426962,N,12304.403172,W,192934.000,A,D*52
$GNGSA,A,3,09,07,04,16,30,20,27,08,26,05,,,1.01,0.63,0.79,1*0A
$GNGSA,A,3,69,79,68,,,,,,,,,,1.01,0.63,0.79,2*06
$GNGSA,A,3,09,31,06,05,24,04,15,,,,,,1.01,0.63,0.79,3*06
$GNGSA,A,3,37,20,23,32,19,38,,,,,,,1.01,0.63,0.79,4*0A
$GPGSV,3,1,12,09,78,141,35,07,66,267,33,04,47,124,31,16,35,054,29,1*6C
$GPGSV,3,2,12,44,33,171,,30,28,258,28,20,26,309,28,27,20,095,21,1*63
$GPGSV,3,3,12,08,14,126,25,26,07,043,20,11,06,285,,05,05,332,19,1*6D
$GLGSV,3,1,09,69,73,315,27,79,64,219,29,78,58,042,,68,51,146,27,1*7F
$GLGSV,3,2,09,80,11,220,17,86,09,356,,70,09,323,,87,06,040,17,1*7E
$GLGSV,3,3,09,67,03,144,,1*42
$GAGSV,2,1,08,09,78,120,30,31,63,116,29,06,53,121,28,05,44,299,25,7*7C
$GAGSV,2,2,08,24,31,188,25,04,26,120,20,15,10,329,20,34,09,281,,7*72
$GBGSV,4,1,15,37,73,214,39,20,64,279,39,23,50,061,35,32,44,167,36,1*7D
$GBGSV,4,2,15,19,21,315,29,46,18,230,,38,15,333,29,08,09,342,21,1*79
$GBGSV,4,3,15,34,04,040,,12,03,014,,11,02,062,,13,01,346,,1*73
$GBGSV,4,4,15,43,01,082,,04,01,262,,25,01,055,,1*4B
$GNRMC,192934.000,A,4910.426962,N,12304.403172,W,0.02,0.00,051224,,,D,V*1D
$GNVTG,0.00,T,,M,0.02,N,0.03,K,D*27
$GNGGA,192935.000,4910.427064,N,12304.403124,W,2,26,0.63,13.071,M,-16.816,M,,*7D
$GNGLL,4910.427064,N,12304.403124,W,192935.000,A,D*5E
$GNGSA,A,3,09,07,04,16,30,20,27,08,26,05,,,1.01,0.63,0.79,1*0A
$GNGSA,A,3,69,79,68,,,,,,,,,,1.01,0.63,0.79,2*06
$GNGSA,A,3,09,31,06,05,24,04,15,,,,,,1.01,0.63,0.79,3*06
$GNGSA,A,3,37,20,23,32,19,38,,,,,,,1.01,0.63,0.79,4*0A
$GPGSV,3,1,12,09,78,141,35,07,66,267,33,04,47,124,31,16,34,053,29,1*6A
$GPGSV,3,2,12,44,33,171,29,30,28,258,28,20,26,309,28,27,20,095,22,1*6B
$GPGSV,3,3,12,08,14,126,24,26,07,043,20,11,06,285,,05,05,332,19,1*6C
$GLGSV,3,1,09,69,73,315,27,79,64,219,29,78,58,042,,68,51,146,28,1*70
$GLGSV,3,2,09,80,11,220,17,86,09,356,,70,09,323,,87,06,040,17,1*7E
$GLGSV,3,3,09,67,03,144,,1*42
$GAGSV,2,1,08,09,78,120,30,31,63,116,29,06,53,121,28,05,44,299,25,7*7C
$GAGSV,2,2,08,24,31,188,25,04,26,120,20,15,10,329,20,34,09,281,,7*72
$GBGSV,4,1,15,37,73,214,39,20,64,279,39,23,50,061,35,32,44,167,36,1*7D
$GBGSV,4,2,15,19,21,315,29,46,18,230,,38,15,333,29,08,09,342,21,1*79
$GBGSV,4,3,15,34,04,040,25,12,03,014,,11,02,062,,13,01,346,,1*74
$GBGSV,4,4,15,43,01,082,,04,01,262,,25,01,055,,1*4B
$GNRMC,192935.000,A,4910.427064,N,12304.403124,W,0.02,0.00,051224,,,D,V*11
$GNVTG,0.00,T,,M,0.02,N,0.03,K,D*27
$GNGGA,192936.000,4910.427148,N,12304.403070,W,2,26,0.63,13.042,M,-16.816,M,,*71
$GNGLL,4910.427148,N,12304.403070,W,192936.000,A,D*52
$GNGSA,A,3,09,07,04,16,30,20,27,08,26,05,,,1.01,0.63,0.79,1*0A
$GNGSA,A,3,69,79,68,,,,,,,,,,1.01,0.63,0.79,2*06
$GNGSA,A,3,09,31,06,05,24,04,15,,,,,,1.01,0.63,0.79,3*06
$GNGSA,A,3,37,20,23,32,19,38,,,,,,,1.01,0.63,0.79,4*0A
$GPGSV,3,1,12,09,78,141,35,07,66,267,33,04,47,124,31,16,34,053,29,1*6A
$GPGSV,3,2,12,44,33,171,29,30,28,258,28,20,26,309,28,27,20,095,22,1*6B
$GPGSV,3,3,12,08,14,126,25,26,07,043,20,11,06,285,,05,05,332,19,1*6D
$GLGSV,3,1,09,69,73,315,27,79,64,219,29,78,58,042,,68,51,146,28,1*70
$GLGSV,3,2,09,80,11,220,17,86,09,356,,70,09,323,,87,06,040,17,1*7E
$GLGSV,3,3,09,67,03,144,,1*42
$GAGSV,2,1,08,09,78,120,30,31,63,116,29,06,53,121,28,05,44,299,25,7*7C
$GAGSV,2,2,08,24,31,188,25,04,26,120,20,15,10,329,20,34,09,281,,7*72
$GBGSV,4,1,15,37,73,214,39,20,64,279,39,23,50,061,35,32,44,167,36,1*7D
$GBGSV,4,2,15,19,21,315,29,46,18,230,,38,15,333,29,08,09,342,21,1*79
$GBGSV,4,3,15,34,04,040,27,12,03,014,,11,02,062,,13,01,346,,1*76
$GBGSV,4,4,15,43,01,082,,04,01,262,,25,01,055,,1*4B
$GNRMC,192936.000,A,4910.427148,N,12304.403070,W,0.02,0.00,051224,,,D,V*1D
$GNVTG,0.00,T,,M,0.02,N,0.04,K,D*20
$PAIR010,0,1,2343,415794*36
$GNGGA,192937.000,4910.427190,N,12304.403088,W,2,26,0.63,13.032,M,-16.817,M,,*74
$GNGLL,4910.427190,N,12304.403088,W,192937.000,A,D*51
$GNGSA,A,3,09,07,04,16,30,20,27,08,26,05,,,1.01,0.63,0.79,1*0A
$GNGSA,A,3,69,79,68,,,,,,,,,,1.01,0.63,0.79,2*06
$GNGSA,A,3,09,31,06,05,24,04,15,,,,,,1.01,0.63,0.79,3*06
$GNGSA,A,3,37,20,23,32,19,38,,,,,,,1.01,0.63,0.79,4*0A
$GPGSV,3,1,12,09,78,141,35,07,66,267,33,04,47,124,31,16,34,053,29,1*6A
$GPGSV,3,2,12,44,33,171,29,30,28,258,28,20,26,309,28,27,20,095,21,1*68
$GPGSV,3,3,12,08,14,126,25,26,07,043,20,11,06,285,,05,05,332,19,1*6D
$GLGSV,2,1,07,69,73,315,27,79,64,219,29,78,58,042,,68,51,146,28,1*7F
$GLGSV,2,2,07,80,11,220,17,86,09,356,,87,,,17,1*7F
$GAGSV,2,1,08,09,78,120,30,31,63,116,29,06,53,121,28,05,44,299,25,7*7C
$GAGSV,2,2,08,24,31,188,25,04,26,120,20,15,10,329,20,34,09,281,,7*72
$GBGSV,4,1,15,37,73,214,39,20,64,279,39,23,50,061,35,32,44,167,36,1*7D
$GBGSV,4,2,15,19,21,315,29,46,18,230,,38,15,333,29,08,09,342,21,1*79
$GBGSV,4,3,15,34,04,040,26,12,03,014,19,11,02,062,,25,01,055,,1*7B
$GBGSV,4,4,15,43,01,082,,13,01,346,,04,01,262,,1*4F
$GNRMC,192937.000,A,4910.427190,N,12304.403088,W,0.02,0.00,051224,,,D,V*1E
$GNVTG,0.00,T,,M,0.02,N,0.03,K,D*27
$GNGGA,192938.000,4910.427220,N,12304.403142,W,2,26,0.63,13.040,M,-16.816,M,,*70
$GNGLL,4910.427220,N,12304.403142,W,192938.000,A,D*51
$GNGSA,A,3,09,07,04,16,30,20,27,08,26,05,,,1.01,0.63,0.79,1*0A
$GNGSA,A,3,69,79,68,,,,,,,,,,1.01,0.63,0.79,2*06
$GNGSA,A,3,09,31,06,05,24,04,15,,,,,,1.01,0.63,0.79,3*06
$GNGSA,A,3,37,20,23,32,19,38,,,,,,,1.01,0.63,0.79,4*0A
$GPGSV,3,1,12,09,78,141,35,07,66,267,33,04,47,124,31,16,34,053,29,1*6A
$GPGSV,3,2,12,44,33,171,27,30,28,258,28,20,26,309,28,27,20,095,21,1*66
$GPGSV,3,3,12,08,14,126,25,26,07,043,20,11,06,285,,05,05,332,19,1*6D
$GLGSV,2,1,07,69,73,315,27,79,64,219,29,78,58,042,,68,51,146,28,1*7F
$GLGSV,2,2,07,80,11,220,17,70,09,323,,86,09,356,,1*4A
$GAGSV,2,1,08,09,78,120,30,31,63,116,29,06,53,121,28,05,44,299,25,7*7C
$GAGSV,2,2,08,24,31,188,25,04,26,120,20,15,10,329,20,34,09,281,,7*72
$GBGSV,4,1,15,37,73,214,39,20,64,279,39,23,50,061,35,32,44,167,35,1*7E
$GBGSV,4,2,15,19,21,315,29,46,18,230,,38,15,333,29,08,09,342,21,1*79
$GBGSV,4,3,15,34,04,040,27,12,03,014,19,11,02,062,,13,01,346,,1*7E
$GBGSV,4,4,15,43,01,082,,04,01,262,,25,01,055,,1*4B
$GNRMC,192938.000,A,4910.427220,N,12304.403142,W,0.02,0.00,051224,,,D,V*1E
$GNVTG,0.00,T,,M,0.02,N,0.03,K,D*27
$GNGGA,192939.000,4910.427244,N,12304.403130,W,2,26,0.63,13.087,M,-16.817,M,,*7C
$GNGLL,4910.427244,N,12304.403130,W,192939.000,A,D*57
$GNGSA,A,3,09,07,04,16,30,20,27,08,26,05,,,1.01,0.63,0.79,1*0A
$GNGSA,A,3,69,79,68,,,,,,,,,,1.01,0.63,0.79,2*06
$GNGSA,A,3,09,31,06,05,24,04,15,,,,,,1.01,0.63,0.79,3*06
$GNGSA,A,3,37,20,23,32,19,38,,,,,,,1.01,0.63,0.79,4*0A
$GPGSV,3,1,12,09,78,141,35,07,66,267,33,04,47,124,31,16,34,053,29,1*6A
$GPGSV,3,2,12,44,33,171,27,30,28,258,28,20,26,308,27,27,20,095,21,1*68
$GPGSV,3,3,12,08,14,126,25,26,07,043,20,11,06,285,,05,05,332,19,1*6D
$GLGSV,2,1,07,69,73,315,27,79,64,219,29,78,58,042,,68,51,146,28,1*7F
$GLGSV,2,2,07,80,11,220,17,70,09,323,,86,09,356,,1*4A
$GAGSV,2,1,08,09,78,120,30,31,63,116,28,06,53,121,28,05,44,299,25,7*7D
$GAGSV,2,2,08,24,31,188,25,04,26,120,20,15,10,329,20,34,09,281,,7*72
$GBGSV,4,1,15,37,73,214,39,20,64,279,38,23,50,061,34,32,44,167,35,1*7E
$GBGSV,4,2,15,19,21,315,28,46,18,230,,38,15,333,29,08,09,342,20,1*79
$GBGSV,4,3,15,34,04,040,25,12,03,014,19,11,02,062,,13,01,346,,1*7C
$GBGSV,4,4,15,43,01,082,,04,01,262,,25,01,055,,1*4B
$GNRMC,192939.000,A,4910.427244,N,12304.403130,W,0.01,0.00,051224,,,D,V*1B
$GNVTG,0.00,T,,M,0.01,N,0.03,K,D*24
$GNGGA,192940.000,4910.427244,N,12304.403118,W,2,26,0.63,13.050,M,-16.816,M,,*73
$GNGLL,4910.427244,N,12304.403118,W,192940.000,A,D*53
$GNGSA,A,3,09,07,04,16,30,20,27,08,26,05,,,1.01,0.63,0.79,1*0A
$GNGSA,A,3,69,79,68,,,,,,,,,,1.01,0.63,0.79,2*06
$GNGSA,A,3,09,31,06,05,24,04,15,,,,,,1.01,0.63,0.79,3*06
$GNGSA,A,3,37,20,23,32,19,38,,,,,,,1.01,0.63,0.79,4*0A
$GPGSV,3,1,12,09,78,141,35,07,66,267,33,04,47,124,31,16,34,053,29,1*6A
$GPGSV,3,2,12,44,33,171,27,30,28,258,28,20,26,308,27,27,20,095,22,1*6B
$GPGSV,3,3,12,08,14,126,25,26,07,043,20,11,06,285,,05,05,332,19,1*6D
$GLGSV,2,1,07,69,73,315,27,79,64,219,29,78,58,042,,68,51,146,28,1*7F
$GLGSV,2,2,07,80,11,220,17,70,09,323,,86,09,356,,1*4A
$GAGSV,2,1,08,09,78,120,30,31,63,116,28,06,53,121,28,05,44,299,25,7*7D
$GAGSV,2,2,08,24,31,188,25,04,26,120,20,15,10,329,20,34,09,281,,7*72
$GBGSV,4,1,15,37,73,214,39,20,64,279,38,23,50,061,34,32,44,167,35,1*7E
$GBGSV,4,2,15,19,21,315,28,46,18,230,,38,15,333,29,08,09,342,20,1*79
$GBGSV,4,3,15,34,04,040,26,12,03,014,19,11,02,062,,13,01,346,,1*7F
$GBGSV,4,4,15,43,01,082,,04,01,262,,25,01,055,,1*4B
$GNRMC,192940.000,A,4910.427244,N,12304.403118,W,0.01,0.00,051224,,,D,V*1F
$GNVTG,0.00,T,,M,0.01,N,0.02,K,D*25
$GNGGA,192941.000,4910.427286,N,12304.403142,W,2,26,0.63,13.039,M,-16.816,M,,*7C
$GNGLL,4910.427286,N,12304.403142,W,192941.000,A,D*53
$GNGSA,A,3,09,07,04,16,30,20,27,08,26,05,,,1.01,0.63,0.79,1*0A
$GNGSA,A,3,69,79,68,,,,,,,,,,1.01,0.63,0.79,2*06
$GNGSA,A,3,09,31,06,05,24,04,15,,,,,,1.01,0.63,0.79,3*06
$GNGSA,A,3,37,20,23,32,19,38,,,,,,,1.01,0.63,0.79,4*0A
$GPGSV,3,1,12,09,78,141,35,07,66,267,33,04,47,124,31,16,34,053,29,1*6A
$GPGSV,3,2,12,44,33,171,27,30,28,258,28,20,26,308,28,27,20,095,22,1*64
$GPGSV,3,3,12,08,14,126,28,26,07,043,20,11,06,285,,05,05,332,19,1*60
$GLGSV,2,1,07,69,73,315,28,79,64,219,28,78,58,042,,68,51,146,28,1*71
$GLGSV,2,2,07,80,11,220,17,70,09,323,,86,09,356,,1*4A
$GAGSV,2,1,08,09,78,120,30,31,63,116,28,06,53,121,28,05,44,299,25,7*7D
$GAGSV,2,2,08,24,31,188,26,04,26,120,20,15,10,329,20,34,09,281,,7*71
$GBGSV,4,1,15,37,73,214,39,20,64,279,38,23,50,061,34,32,44,167,35,1*7E
$GBGSV,4,2,15,19,21,315,28,46,18,230,,38,15,333,29,08,09,342,20,1*79
$GBGSV,4,3,15,34,04,040,26,12,03,014,20,11,02,062,,13,01,346,,1*75
$GBGSV,4,4,15,43,01,082,,04,01,262,,25,01,055,,1*4B
$GNRMC,192941.000,A,4910.427286,N,12304.403142,W,0.02,0.00,051224,,,D,V*1C
$GNVTG,0.00,T,,M,0.02,N,0.03,K,D*27
$GNGGA,192942.000,4910.427286,N,12304.403106,W,2,26,0.63,13.030,M,-16.816,M,,*76
$GNGLL,4910.427286,N,12304.403106,W,192942.000,A,D*50
$GNGSA,A,3,09,07,04,16,30,20,27,08,26,05,,,1.01,0.63,0.79,1*0A
$GNGSA,A,3,69,79,68,,,,,,,,,,1.01,0.63,0.79,2*06
$GNGSA,A,3,09,31,06,05,24,04,15,,,,,,1.01,0.63,0.79,3*06
$GNGSA,A,3,37,20,23,32,19,38,,,,,,,1.01,0.63,0.79,4*0A
$GPGSV,3,1,12,09,78,141,35,07,66,267,33,04,47,124,31,16,34,053,29,1*6A
$GPGSV,3,2,12,44,33,171,27,30,28,258,27,20,26,308,28,27,20,095,21,1*68
$GPGSV,3,3,12,08,14,126,25,26,07,043,20,11,06,285,,05,05,332,18,1*6C
$GLGSV,2,1,07,69,73,315,28,79,64,219,28,78,58,042,,68,51,146,28,1*71
$GLGSV,2,2,07,80,11,220,17,70,09,323,,86,09,356,,1*4A
$GAGSV,2,1,08,09,78,120,30,31,63,116,28,06,53,121,28,05,44,299,25,7*7D
$GAGSV,2,2,08,24,31,188,26,04,26,120,20,15,10,329,20,34,09,281,,7*71
$GBGSV,4,1,15,37,73,214,39,20,64,279,38,23,50,061,34,32,44,167,35,1*7E
$GBGSV,4,2,15,19,21,315,28,46,18,230,,38,15,333,29,08,09,342,20,1*79
$GBGSV,4,3,15,34,04,040,26,12,03,014,20,11,02,062,,13,01,346,,1*75
$GBGSV,4,4,15,43,01,082,,04,01,262,,25,01,055,,1*4B
$GNRMC,192942.000,A,4910.427286,N,12304.403106,W,0.01,0.00,051224,,,D,V*1C
$GNVTG,0.00,T,,M,0.01,N,0.03,K,D*24
$GNGGA,192943.000,4910.427310,N,12304.403058,W,2,26,0.63,13.046,M,-16.817,M,,*73
$GNGLL,4910.427310,N,12304.403058,W,192943.000,A,D*55
$GNGSA,A,3,09,07,04,16,30,20,27,08,26,05,,,1.01,0.63,0.79,1*0A
$GNGSA,A,3,69,79,68,,,,,,,,,,1.01,0.63,0.79,2*06
$GNGSA,A,3,09,31,06,05,24,04,15,,,,,,1.01,0.63,0.79,3*06
$GNGSA,A,3,37,20,23,32,19,38,,,,,,,1.01,0.63,0.79,4*0A
$GPGSV,3,1,12,09,78,141,35,07,66,267,33,04,47,124,31,16,34,053,29,1*6A
$GPGSV,3,2,12,44,33,171,27,30,28,258,27,20,26,308,27,27,20,095,21,1*67
$GPGSV,3,3,12,08,14,126,27,26,07,043,20,11,06,285,,05,05,332,18,1*6E
$GLGSV,2,1,07,69,73,315,28,79,64,219,28,78,58,042,,68,51,146,28,1*71
$GLGSV,2,2,07,80,11,220,17,70,09,323,,86,09,356,,1*4A
$GAGSV,2,1,08,09,78,120,30,31,63,116,28,06,53,121,28,05,44,299,25,7*7D
$GAGSV,2,2,08,24,31,188,25,04,26,120,21,15,10,329,20,34,09,281,,7*73
$GBGSV,4,1,15,37,73,214,39,20,64,279,38,23,50,061,35,32,44,167,35,1*7F
$GBGSV,4,2,15,19,21,315,28,46,18,230,,38,15,333,29,08,09,342,20,1*79
$GBGSV,4,3,15,34,04,040,26,12,03,014,20,11,02,062,,13,01,346,,1*75
$GBGSV,4,4,15,43,01,082,,04,01,262,,25,01,055,,1*4B
$GNRMC,192943.000,A,4910.427310,N,12304.403058,W,0.02,0.00,051224,,,D,V*1A
$GNVTG,0.00,T,,M,0.02,N,0.03,K,D*27
$GNGGA,192944.000,4910.427304,N,12304.403028,W,2,26,0.63,13.090,M,-16.816,M,,*7C
$GNGLL,4910.427304,N,12304.403028,W,192944.000,A,D*50
$GNGSA,A,3,09,07,04,16,30,20,27,08,26,05,,,1.01,0.63,0.79,1*0A
$GNGSA,A,3,69,79,68,,,,,,,,,,1.01,0.63,0.79,2*06
$GNGSA,A,3,09,31,06,05,24,04,15,,,,,,1.01,0.63,0.79,3*06
$GNGSA,A,3,37,20,23,32,19,38,,,,,,,1.01,0.63,0.79,4*0A
$GPGSV,3,1,12,09,78,141,35,07,66,267,33,04,47,124,31,16,34,053,29,1*6A
$GPGSV,3,2,12,44,33,171,27,30,28,258,27,20,26,308,27,27,20,095,21,1*67
$GPGSV,3,3,12,08,14,126,25,26,07,043,20,11,06,285,,05,05,332,18,1*6C
$GLGSV,2,1,07,69,73,315,28,79,64,219,28,78,58,042,,68,51,146,28,1*71
$GLGSV,2,2,07,80,11,220,17,70,09,323,,86,09,356,,1*4A
$GAGSV,2,1,08,09,78,120,30,31,63,116,28,06,53,121,28,05,44,299,25,7*7D
$GAGSV,2,2,08,24,31,188,25,04,26,120,21,15,10,329,19,34,09,281,,7*79
$GBGSV,4,1,15,37,73,214,38,20,64,279,38,23,50,061,35,32,44,167,35,1*7E
$GBGSV,4,2,15,19,21,315,28,46,18,230,,38,15,333,29,08,09,342,21,1*78
$GBGSV,4,3,15,34,04,040,26,12,03,014,20,11,02,062,,13,01,346,,1*75
$GBGSV,4,4,15,43,01,082,,04,01,262,,25,01,055,,1*4B
$GNRMC,192944.000,A,4910.427304,N,12304.403028,W,0.01,0.00,051224,,,D,V*1C
$GNVTG,0.00,T,,M,0.01,N,0.03,K,D*24
$GNGGA,192945.000,4910.427334,N,12304.402956,W,2,26,0.63,13.090,M,-16.817,M,,*7E
$GNGLL,4910.427334,N,12304.402956,W,192945.000,A,D*53
$GNGSA,A,3,09,07,04,16,30,20,27,08,26,05,,,1.01,0.63,0.79,1*0A
$GNGSA,A,3,69,79,68,,,,,,,,,,1.01,0.63,0.79,2*06
$GNGSA,A,3,09,31,06,05,24,04,15,,,,,,1.01,0.63,0.79,3*06
$GNGSA,A,3,37,20,23,32,19,38,,,,,,,1.01,0.63,0.79,4*0A
$GPGSV,3,1,12,09,78,141,35,07,66,267,33,04,47,124,31,16,34,053,29,1*6A
$GPGSV,3,2,12,44,33,171,27,30,28,258,27,20,26,308,27,27,20,095,22,1*64
$GPGSV,3,3,12,08,14,126,28,26,06,043,20,11,06,285,,05,05,332,18,1*60
$GLGSV,2,1,07,69,73,315,28,79,64,219,28,78,58,042,,68,51,146,28,1*71
$GLGSV,2,2,07,80,11,220,16,70,09,323,,86,09,356,,1*4B
$GAGSV,2,1,08,09,78,120,31,31,63,116,28,06,53,121,28,05,44,299,25,7*7C
$GAGSV,2,2,08,24,31,188,25,04,26,120,21,15,10,329,19,34,09,281,,7*79
$GBGSV,4,1,15,37,73,214,38,20,64,279,38,23,50,061,35,32,44,167,35,1*7E
$GBGSV,4,2,15,19,21,315,28,46,18,230,,38,15,333,29,08,09,342,21,1*78
$GBGSV,4,3,15,34,04,040,26,12,03,014,19,11,02,062,,13,01,346,,1*7F
$GBGSV,4,4,15,43,01,082,,04,01,262,,25,01,055,,1*4B
$GNRMC,192945.000,A,4910.427334,N,12304.402956,W,0.01,0.00,051224,,,D,V*1F
$GNVTG,0.00,T,,M,0.01,N,0.02,K,D*25
$GNGGA,192946.000,4910.427412,N,12304.402872,W,2,26,0.63,13.041,M,-16.816,M,,*74
$GNGLL,4910.427412,N,12304.402872,W,192946.000,A,D*54
$GNGSA,A,3,09,07,04,16,30,20,27,08,26,05,,,1.01,0.63,0.79,1*0A
$GNGSA,A,3,69,79,68,,,,,,,,,,1.01,0.63,0.79,2*06
$GNGSA,A,3,09,31,06,05,24,04,15,,,,,,1.01,0.63,0.79,3*06
$GNGSA,A,3,37,20,23,32,19,38,,,,,,,1.01,0.63,0.79,4*0A
$GPGSV,3,1,12,09,78,141,35,07,66,267,33,04,47,124,31,16,34,053,29,1*6A
$GPGSV,3,2,12,44,33,171,27,30,28,258,27,20,26,308,27,27,21,094,23,1*65
$GPGSV,3,3,12,08,14,126,28,26,06,043,20,11,06,285,,05,05,332,18,1*60
$GLGSV,2,1,07,69,73,315,28,79,64,219,28,78,58,042,,68,51,146,28,1*71
$GLGSV,2,2,07,80,11,220,16,70,09,323,,86,09,356,,1*4B
$GAGSV,2,1,08,09,78,120,31,31,63,116,28,06,53,121,28,05,44,299,25,7*7C
$GAGSV,2,2,08,24,31,188,25,04,26,120,21,15,10,329,19,34,09,281,,7*79
$GBGSV,4,1,15,37,73,214,38,20,64,279,38,23,50,061,35,32,44,167,35,1*7E
$GBGSV,4,2,15,19,21,315,28,46,18,230,,38,15,333,29,08,09,342,21,1*78
$GBGSV,4,3,15,34,04,040,26,12,03,014,19,11,02,062,,13,01,346,,1*7F
$GBGSV,4,4,15,43,01,082,,04,01,262,,25,01,055,,1*4B
$GNRMC,192946.000,A,4910.427412,N,12304.402872,W,0.01,0.00,051224,,,D,V*18
$GNVTG,0.00,T,,M,0.01,N,0.03,K,D*24
$GNGGA,192947.000,4910.427460,N,12304.402800,W,2,26,0.63,12.974,M,-16.816,M,,*7B
$GNGLL,4910.427460,N,12304.402800,W,192947.000,A,D*55
$GNGSA,A,3,09,07,04,16,30,20,27,08,26,05,,,1.01,0.63,0.79,1*0A
$GNGSA,A,3,69,79,68,,,,,,,,,,1.01,0.63,0.79,2*06
$GNGSA,A,3,09,31,06,05,24,04,15,,,,,,1.01,0.63,0.79,3*06
$GNGSA,A,3,37,20,23,32,19,38,,,,,,,1.01,0.63,0.79,4*0A
$GPGSV,3,1,12,09,78,141,35,07,66,267,33,04,47,124,31,16,34,053,29,1*6A
$GPGSV,3,2,12,44,33,171,27,30,28,258,28,20,26,308,27,27,21,094,23,1*6A
$GPGSV,3,3,12,08,14,126,27,11,06,285,,26,06,043,20,05,05,332,18,1*6F
$GLGSV,2,1,07,69,73,315,28,79,64,219,28,78,58,042,,68,51,146,27,1*7E
$GLGSV,2,2,07,80,11,220,16,86,09,356,,70,09,323,,1*4B
$GAGSV,2,1,07,09,78,120,31,31,63,116,29,06,53,121,28,05,44,299,25,7*72
$GAGSV,2,2,07,24,31,188,25,04,26,120,22,15,10,329,19,7*40
$GBGSV,4,1,15,37,73,214,38,20,64,279,38,23,50,061,35,32,44,167,35,1*7E
$GBGSV,4,2,15,19,21,315,28,46,18,230,,38,15,333,29,08,09,342,21,1*78
$GBGSV,4,3,15,34,04,040,27,12,03,014,19,11,02,062,,13,01,346,,1*7E
$GBGSV,4,4,15,43,01,082,,04,01,262,,25,01,055,,1*4B
$GNRMC,192947.000,A,4910.427460,N,12304.402800,W,0.02,0.00,051224,,,D,V*1A
$GNVTG,0.00,T,,M,0.02,N,0.03,K,D*27
$GNGGA,192948.000,4910.427448,N,12304.402686,W,2,26,0.63,12.919,M,-16.817,M,,*74
