$GNGGA,192918.000,4910.424550,N,12304.401012,W,2,27,0.55,5.764,M,-16.817,M,,*44
$GNGLL,4910.424550,N,12304.401012,W,192918.000,A,D*56
$GNGSA,A,3,09,07,04,16,30,20,27,08,26,,,,0.91,0.55,0.72,1*09
$GNGSA,A,3,69,79,78,68,80,86,,,,,,,0.91,0.55,0.72,2*09
$GNGSA,A,3,09,31,06,05,24,04,,,,,,,0.91,0.55,0.72,3*04
$GNGSA,A,3,37,20,23,32,19,38,,,,,,,0.91,0.55,0.72,4*0C
$GPGSV,3,1,10,09,79,140,33,07,65,266,31,04,47,124,28,16,35,054,27,1*6E
$GPGSV,3,2,10,30,28,258,25,20,26,309,21,27,20,095,19,08,13,127,21,1*64
$GPGSV,3,3,10,26,07,043,18,45,,,,1*59
$GLGSV,3,1,09,69,73,315,39,79,64,219,38,78,58,042,24,68,51,146,30,1*70
$GLGSV,3,2,09,80,11,220,23,86,09,356,20,70,09,323,,87,06,040,22,1*7D
$GLGSV,3,3,09,67,03,144,17,1*44
$GAGSV,2,1,07,09,78,120,26,31,63,116,26,06,53,121,26,05,44,299,24,7*74
$GAGSV,2,2,07,24,31,188,23,04,27,120,20,15,10,329,18,7*44
$GBGSV,2,1,08,37,73,214,35,20,64,279,36,23,50,061,33,32,44,167,34,1*70
$GBGSV,2,2,08,19,21,315,26,38,15,333,25,08,09,342,18,12,03,014,18,1*7C
$GNRMC,192918.000,A,4910.424550,N,12304.401012,W,0.11,291.64,051224,,,D,V*13
$GNVTG,291.64,T,,M,0.11,N,0.21,K,D*2D
$PAIRLOG,Full*51
$GNGGA,192919.000,4910.424550,N,12304.401108,W,2,27,0.55,5.549,M,-16.816,M,,*43
$GNGLL,4910.424550,N,12304.401108,W,192919.000,A,D*5D
$GNGSA,A,3,09,07,04,16,30,20,27,08,26,,,,0.91,0.55,0.72,1*09
$GNGSA,A,3,69,79,78,68,80,86,,,,,,,0.91,0.55,0.72,2*09
$GNGSA,A,3,09,31,06,05,24,04,,,,,,,0.91,0.55,0.72,3*04
$GNGSA,A,3,37,20,23,32,19,38,,,,,,,0.91,0.55,0.72,4*0C
$GPGSV,3,1,10,09,79,140,33,07,65,266,31,04,47,124,28,16,35,054,27,1*6E
$GPGSV,3,2,10,30,28,258,25,20,26,309,20,27,20,095,19,08,13,127,21,1*65
$GPGSV,3,3,10,26,07,043,19,45,,,,1*58
$GLGSV,3,1,09,69,73,315,39,79,64,219,38,78,58,042,23,68,51,146,30,1*77
$GLGSV,3,2,09,80,11,220,23,86,09,356,20,70,09,323,,87,06,040,22,1*7D
$GLGSV,3,3,09,67,03,144,17,1*44
$GAGSV,2,1,07,09,78,120,27,31,63,116,26,06,53,121,26,05,44,299,24,7*75
$GAGSV,2,2,07,24,31,188,23,04,27,120,20,15,10,329,18,7*44
$GBGSV,2,1,08,37,73,214,35,20,64,279,36,23,50,061,33,32,44,167,34,1*70
$GBGSV,2,2,08,19,21,315,26,38,15,333,25,08,09,342,18,12,03,014,18,1*7C
$GNRMC,192919.000,A,4910.424550,N,12304.401108,W,0.11,291.64,051224,,,D,V*18
$GNVTG,291.64,T,,M,0.11,N,0.21,K,D*2D
$PAIRLOG,Full*51
$GNGGA,192920.000,4910.424574,N,12304.401150,W,2,27,0.55,5.413,M,-16.816,M,,*4C
$GNGLL,4910.424574,N,12304.401150,W,192920.000,A,D*5C
$GNGSA,A,3,09,07,04,16,30,20,27,08,26,,,,0.91,0.55,0.72,1*09
$GNGSA,A,3,69,79,78,68,80,86,,,,,,,0.91,0.55,0.72,2*09
$GNGSA,A,3,09,31,06,05,24,04,,,,,,,0.91,0.55,0.72,3*04
$GNGSA,A,3,37,20,23,32,19,38,,,,,,,0.91,0.55,0.72,4*0C
$GPGSV,3,1,12,09,79,140,33,07,66,267,31,04,47,124,28,16,35,054,27,1*6E
$GPGSV,3,2,12,30,28,258,25,20,26,309,21,27,20,095,18,08,13,127,21,1*67
$GPGSV,3,3,12,26,07,043,19,11,06,286,,05,05,332,,45,,,,1*52
$GLGSV,3,1,09,69,73,315,39,79,64,219,37,78,58,042,23,68,51,146,30,1*78
$GLGSV,3,2,09,80,11,220,22,86,09,356,20,70,09,323,,87,06,040,22,1*7C
$GLGSV,3,3,09,67,03,144,17,1*44
$GAGSV,2,1,08,09,78,120,27,31,63,116,26,06,53,121,26,05,44,299,24,7*7A
$GAGSV,2,2,08,24,31,188,23,04,27,120,20,15,10,329,18,34,09,281,,7*7E
$GBGSV,4,1,15,37,73,214,35,20,64,279,36,58,57,242,,23,50,061,33,1*77
$GBGSV,4,2,15,32,44,167,34,19,21,315,26,46,18,230,,38,15,333,25,1*7B
$GBGSV,4,3,15,08,09,342,18,31,09,338,,34,04,040,,12,03,014,18,1*70
$GBGSV,4,4,15,11,02,062,,43,01,082,,04,01,262,,1*4B
$GNRMC,192920.000,A,4910.424574,N,12304.401150,W,0.12,291.64,051224,,,D,V*1A
$GNVTG,291.64,T,,M,0.12,N,0.22,K,D*2D
$PAIRLOG,Full*51
$GNGGA,192921.000,4910.424562,N,12304.401132,W,2,27,0.55,5.532,M,-16.817,M,,*4D
$GNGLL,4910.424562,N,12304.401132,W,192921.000,A,D*5E
$GNGSA,A,3,09,07,04,16,30,20,27,08,26,,,,0.91,0.55,0.72,1*09
$GNGSA,A,3,69,79,78,68,80,86,,,,,,,0.91,0.55,0.72,2*09
$GNGSA,A,3,09,31,06,05,24,04,,,,,,,0.91,0.55,0.72,3*04
$GNGSA,A,3,37,20,23,32,19,38,,,,,,,0.91,0.55,0.72,4*0C
$GPGSV,3,1,11,09,79,140,33,07,66,267,31,04,47,124,28,16,35,054,27,1*6D
$GPGSV,3,2,11,30,28,258,25,20,26,309,22,27,20,095,18,08,14,126,21,1*61
$GPGSV,3,3,11,26,07,043,18,11,06,286,,05,05,332,,1*51
$GLGSV,3,1,09,69,73,315,39,79,64,219,37,78,58,042,23,68,51,146,30,1*78
$GLGSV,3,2,09,80,11,220,22,86,09,356,20,70,09,323,,87,06,040,21,1*7F
$GLGSV,3,3,09,67,03,144,17,1*44
$GAGSV,2,1,08,09,78,120,27,31,63,116,27,06,53,121,26,05,44,299,24,7*7B
$GAGSV,2,2,08,24,31,188,24,04,27,120,21,15,10,329,18,34,09,281,,7*78
$GBGSV,4,1,15,37,73,214,35,20,64,279,36,58,57,242,,23,50,061,33,1*77
$GBGSV,4,2,15,32,44,167,34,19,21,315,26,46,18,230,,38,15,333,25,1*7B
$GBGSV,4,3,15,08,09,342,18,31,09,338,,34,04,040,,12,03,014,18,1*70
$GBGSV,4,4,15,11,02,062,,43,01,082,,04,01,262,,1*4B
$GNRMC,192921.000,A,4910.424562,N,12304.401132,W,0.17,291.64,051224,,,D,V*1D
$GNVTG,291.64,T,,M,0.17,N,0.32,K,D*29
$PAIRLOG,Full*51
$GNGGA,192922.000,4910.424574,N,12304.401156,W,2,27,0.55,5.407,M,-16.817,M,,*4C
$GNGLL,4910.424574,N,12304.401156,W,192922.000,A,D*58
$GNGSA,A,3,09,07,04,16,30,20,27,08,26,,,,0.91,0.55,0.72,1*09
$GNGSA,A,3,69,79,78,68,80,86,,,,,,,0.91,0.55,0.72,2*09
$GNGSA,A,3,09,31,06,05,24,04,,,,,,,0.91,0.55,0.72,3*04
$GNGSA,A,3,37,20,23,32,19,38,,,,,,,0.91,0.55,0.72,4*0C
$GPGSV,3,1,12,09,78,141,33,07,66,267,31,04,47,124,28,16,35,054,28,1*61
$GPGSV,3,2,12,30,28,258,26,20,26,309,22,27,20,095,19,08,14,126,21,1*60
$GPGSV,3,3,12,26,07,043,20,11,06,286,,05,05,332,,41,,,,1*5C
$GLGSV,3,1,09,69,73,315,39,79,64,219,38,78,58,042,23,68,51,146,30,1*77
$GLGSV,3,2,09,80,11,220,22,86,09,356,20,70,09,323,,87,06,040,21,1*7F
$GLGSV,3,3,09,67,03,144,17,1*44
$GAGSV,2,1,08,09,78,120,28,31,63,116,27,06,53,121,26,05,44,299,24,7*74
$GAGSV,2,2,08,24,31,188,24,04,27,120,21,15,10,329,18,34,09,281,,7*78
$GBGSV,4,1,15,37,73,214,35,20,64,279,36,58,57,242,,23,50,061,33,1*77
$GBGSV,4,2,15,32,44,167,34,19,21,315,25,46,18,230,,38,15,333,25,1*78
$GBGSV,4,3,15,08,09,342,18,31,09,338,,34,04,040,,12,03,014,18,1*70
$GBGSV,4,4,15,11,02,062,,43,01,082,,04,01,262,,1*4B
$GNRMC,192922.000,A,4910.424574,N,12304.401156,W,0.17,291.64,051224,,,D,V*1B
$GNVTG,291.64,T,,M,0.17,N,0.32,K,D*29
$PAIRLOG,Full*51
$GNGGA,192923.000,4910.424586,N,12304.401138,W,2,27,0.55,5.397,M,-16.816,M,,*47
$GNGLL,4910.424586,N,12304.401138,W,192923.000,A,D*5C
$GNGSA,A,3,09,07,04,16,30,20,27,08,26,,,,0.91,0.55,0.72,1*09
$GNGSA,A,3,69,79,78,68,80,86,,,,,,,0.91,0.55,0.72,2*09
$GNGSA,A,3,09,31,06,05,24,04,,,,,,,0.91,0.55,0.72,3*04
$GNGSA,A,3,37,20,23,32,19,38,,,,,,,0.91,0.55,0.72,4*0C
$GPGSV,3,1,10,09,78,141,33,07,66,267,31,04,47,124,28,16,35,054,28,1*63
$GPGSV,3,2,10,30,28,258,26,20,26,309,22,27,20,095,18,08,14,126,21,1*63
$GPGSV,3,3,10,26,07,043,19,41,,,,1*5C
$GLGSV,3,1,09,69,73,315,39,79,64,219,38,78,58,042,23,68,51,146,30,1*77
$GLGSV,3,2,09,80,11,220,22,86,09,356,19,70,09,323,,87,06,040,21,1*75
$GLGSV,3,3,09,67,03,144,17,1*44
$GAGSV,2,1,07,09,78,120,28,31,63,116,27,06,53,121,26,05,44,299,24,7*7B
$GAGSV,2,2,07,24,31,188,24,04,27,120,21,15,10,329,18,7*42
$GBGSV,2,1,08,37,73,214,35,20,64,279,36,23,50,061,33,32,44,167,34,1*70
$GBGSV,2,2,08,19,21,315,25,38,15,333,25,08,09,342,18,12,03,014,18,1*7F
$GNRMC,192923.000,A,4910.424586,N,12304.401138,W,0.14,291.64,051224,,,D,V*1C
$GNVTG,291.64,T,,M,0.14,N,0.26,K,D*2F
$PAIRLOG,Full*51
$GNGGA,192924.000,4910.424610,N,12304.401102,W,2,27,0.55,5.400,M,-16.816,M,,*4C
$GNGLL,4910.424610,N,12304.401102,W,192924.000,A,D*5E
$GNGSA,A,3,09,07,04,16,30,20,27,08,26,,,,0.91,0.55,0.72,1*09
$GNGSA,A,3,69,79,78,68,80,86,,,,,,,0.91,0.55,0.72,2*09
$GNGSA,A,3,09,31,06,05,24,04,,,,,,,0.91,0.55,0.72,3*04
$GNGSA,A,3,37,20,23,32,19,38,,,,,,,0.91,0.55,0.72,4*0C
$GPGSV,3,1,10,09,78,141,33,07,66,267,31,04,47,124,28,16,35,054,28,1*63
$GPGSV,3,2,10,30,28,258,26,20,26,309,23,27,20,095,17,08,14,126,21,1*6D
$GPGSV,3,3,10,26,07,043,20,41,,,,1*56
$GLGSV,3,1,09,69,73,315,39,79,64,219,38,78,58,042,23,68,51,146,30,1*77
$GLGSV,3,2,09,80,11,220,22,86,09,356,19,70,09,323,,87,06,040,21,1*75
$GLGSV,3,3,09,67,03,144,17,1*44
$GAGSV,2,1,07,09,78,120,29,31,63,116,27,06,53,121,27,05,44,299,24,7*7B
$GAGSV,2,2,07,24,31,188,25,04,27,120,21,15,10,329,18,7*43
$GBGSV,2,1,08,37,73,214,35,20,64,279,36,23,50,061,33,32,44,167,34,1*70
$GBGSV,2,2,08,19,21,315,25,38,15,333,25,08,09,342,18,12,03,014,18,1*7F
$GNRMC,192924.000,A,4910.424610,N,12304.401102,W,0.11,291.64,051224,,,D,V*1B
$GNVTG,291.64,T,,M,0.11,N,0.21,K,D*2D
$PAIRLOG,Full*51
$GNGGA,192925.000,4910.424616,N,12304.401054,W,2,27,0.55,5.388,M,-16.816,M,,*4E
$GNGLL,4910.424616,N,12304.401054,W,192925.000,A,D*5B
$GNGSA,A,3,09,07,04,16,30,20,27,08,26,,,,0.91,0.55,0.72,1*09
$GNGSA,A,3,69,79,78,68,80,86,,,,,,,0.91,0.55,0.72,2*09
$GNGSA,A,3,09,31,06,05,24,04,,,,,,,0.91,0.55,0.72,3*04
$GNGSA,A,3,37,20,23,32,19,38,,,,,,,0.91,0.55,0.72,4*0C
$GPGSV,3,1,12,09,78,141,33,07,66,267,31,04,47,124,28,16,35,054,28,1*61
$GPGSV,3,2,12,30,28,258,26,20,26,309,24,27,20,095,20,08,14,126,21,1*6C
$GPGSV,3,3,12,26,07,043,20,11,06,285,,05,05,332,,41,,,,1*5F
$GLGSV,3,1,09,69,73,315,39,79,64,219,38,78,58,042,24,68,51,146,31,1*71
$GLGSV,3,2,09,80,11,220,22,86,09,356,19,70,09,323,,87,06,040,21,1*75
$GLGSV,3,3,09,67,03,144,18,1*4B
$GAGSV,2,1,08,09,78,120,29,31,63,116,27,06,53,121,27,05,44,299,24,7*74
$GAGSV,2,2,08,24,31,188,25,04,27,120,21,15,10,329,18,34,09,281,,7*79
$GBGSV,4,1,15,37,73,214,35,20,64,279,36,58,57,242,,23,50,061,33,1*77
$GBGSV,4,2,15,32,44,167,34,19,21,315,25,46,18,230,,38,15,333,25,1*78
$GBGSV,4,3,15,08,09,342,18,31,09,338,,34,04,040,,12,03,014,18,1*70
$GBGSV,4,4,15,11,02,062,,43,01,082,,04,01,262,,1*4B
$GNRMC,192925.000,A,4910.424616,N,12304.401054,W,0.09,291.64,051224,,,D,V*17
$GNVTG,291.64,T,,M,0.09,N,0.16,K,D*20
$PAIRLOG,Full*51
$GNGGA,192926.000,4910.424634,N,12304.401036,W,2,27,0.55,5.371,M,-16.816,M,,*4F
$GNGLL,4910.424634,N,12304.401036,W,192926.000,A,D*5C
$GNGSA,A,3,09,07,04,16,30,20,27,08,26,,,,0.91,0.55,0.72,1*09
$GNGSA,A,3,69,79,78,68,80,86,,,,,,,0.91,0.55,0.72,2*09
$GNGSA,A,3,09,31,06,05,24,04,,,,,,,0.91,0.55,0.72,3*04
$GNGSA,A,3,37,20,23,32,19,38,,,,,,,0.91,0.55,0.72,4*0C
$GPGSV,3,1,12,09,78,141,33,07,66,267,32,04,47,124,29,16,35,054,29,1*62
$GPGSV,3,2,12,30,28,258,26,20,26,309,25,27,20,095,18,08,14,126,22,1*65
$GPGSV,3,3,12,26,07,043,19,11,06,285,,05,05,332,,41,,,,1*55
$GLGSV,3,1,09,69,73,315,39,79,64,219,39,78,58,042,25,68,51,146,32,1*72
$GLGSV,3,2,09,80,11,220,22,86,09,356,19,70,09,323,,87,06,040,21,1*75
$GLGSV,3,3,09,67,03,144,19,1*4A
$GAGSV,2,1,08,09,78,120,29,31,63,116,28,06,53,121,27,05,44,299,24,7*7B
$GAGSV,2,2,08,24,31,188,25,04,27,120,21,15,10,329,18,34,09,281,,7*79
$GBGSV,4,1,15,37,73,214,36,20,64,279,36,58,57,242,,23,50,061,33,1*74
$GBGSV,4,2,15,32,44,167,34,19,21,315,25,46,18,230,,38,15,333,25,1*78
$GBGSV,4,3,15,08,09,342,18,31,09,338,,34,04,040,,12,03,014,18,1*70
$GBGSV,4,4,15,11,02,062,,43,01,082,,04,01,262,,1*4B
$GNRMC,192926.000,A,4910.424634,N,12304.401036,W,0.08,291.64,051224,,,D,V*11
$GNVTG,291.64,T,,M,0.08,N,0.15,K,D*22
$PAIRLOG,Full*51
$GNGGA,192927.000,4910.424610,N,12304.401036,W,2,28,0.54,5.387,M,-16.816,M,,*4F
$GNGLL,4910.424610,N,12304.401036,W,192927.000,A,D*5B
$GNGSA,A,3,09,07,04,16,30,20,27,08,26,05,,,0.88,0.54,0.69,1*0F
$GNGSA,A,3,69,79,78,68,80,86,,,,,,,0.88,0.54,0.69,2*0A
$GNGSA,A,3,09,31,06,05,24,04,,,,,,,0.88,0.54,0.69,3*07
$GNGSA,A,3,37,20,23,32,19,38,,,,,,,0.88,0.54,0.69,4*0F
$GPGSV,3,1,11,09,78,141,34,07,66,267,32,04,47,124,29,16,35,054,29,1*66
$GPGSV,3,2,11,30,28,258,27,20,26,309,26,27,20,095,17,08,14,126,23,1*6A
$GPGSV,3,3,11,26,07,043,20,11,06,285,,05,05,332,21,1*5A
$GLGSV,3,1,09,69,73,315,39,79,64,219,39,78,58,042,25,68,51,146,32,1*72
$GLGSV,3,2,09,80,11,220,22,86,09,356,19,70,09,323,,87,06,040,22,1*76
$GLGSV,3,3,09,67,03,144,19,1*4A
$GAGSV,2,1,08,09,78,120,30,31,63,116,29,06,53,121,28,05,44,299,25,7*7C
$GAGSV,2,2,08,24,31,188,26,04,27,120,22,15,10,329,19,34,09,281,,7*78
$GBGSV,4,1,15,37,73,214,36,20,64,279,36,58,57,242,,23,50,061,33,1*74
$GBGSV,4,2,15,32,44,167,34,19,21,315,26,46,18,230,,38,15,333,25,1*7B
$GBGSV,4,3,15,08,09,342,18,31,09,338,,34,04,040,,12,03,014,18,1*70
$GBGSV,4,4,15,11,02,062,,04,01,262,,25,01,055,,1*41
$GNRMC,192927.000,A,4910.424610,N,12304.401036,W,0.06,291.64,051224,,,D,V*18
$GNVTG,291.64,T,,M,0.06,N,0.11,K,D*28
$PAIRLOG,Full*51
$GNGGA,192928.000,4910.424568,N,12304.401138,W,2,27,0.55,5.394,M,-16.816,M,,*4F
$GNGLL,4910.424568,N,12304.401138,W,192928.000,A,D*57
$GNGSA,A,3,09,07,04,16,30,20,27,08,26,,,,0.91,0.55,0.72,1*09
$GNGSA,A,3,69,79,78,68,80,86,,,,,,,0.91,0.55,0.72,2*09
$GNGSA,A,3,09,31,06,05,24,04,,,,,,,0.91,0.55,0.72,3*04
$GNGSA,A,3,37,20,23,32,19,38,,,,,,,0.91,0.55,0.72,4*0C
$GPGSV,3,1,12,09,78,141,35,07,66,267,33,04,47,124,29,16,35,054,29,1*65
$GPGSV,3,2,12,30,28,258,27,20,26,309,27,27,20,095,17,08,14,126,23,1*68
$GPGSV,3,3,12,26,07,043,21,11,06,285,,05,05,332,,36,,,,1*5E
$GLGSV,3,1,09,69,73,315,39,79,64,219,39,78,58,042,25,68,51,146,33,1*73
$GLGSV,3,2,09,80,11,220,22,86,09,356,20,70,09,323,,87,06,040,23,1*7D
$GLGSV,3,3,09,67,03,144,20,1*40
$GAGSV,2,1,08,09,78,120,30,31,63,116,29,06,53,121,28,05,44,299,26,7*7F
$GAGSV,2,2,08,24,31,188,26,04,27,120,23,15,10,329,20,34,09,281,,7*73
$GBGSV,4,1,15,37,73,214,36,20,64,279,36,58,57,242,,23,50,061,33,1*74
$GBGSV,4,2,15,32,44,167,34,19,21,315,27,46,18,230,,38,15,333,25,1*7A
$GBGSV,4,3,15,08,09,342,18,31,09,338,,34,04,040,,12,03,014,18,1*70
$GBGSV,4,4,15,11,02,062,,43,01,082,,04,01,262,,1*4B
$GNRMC,192928.000,A,4910.424568,N,12304.401138,W,0.05,291.64,051224,,,D,V*17
$GNVTG,291.64,T,,M,0.05,N,0.10,K,D*2A
$PAIRLOG,Full*51
$GNGGA,192929.000,4910.424556,N,12304.401204,W,2,27,0.55,5.357,M,-16.817,M,,*41
$GNGLL,4910.424556,N,12304.401204,W,192929.000,A,D*57
$GNGSA,A,3,09,07,04,16,30,20,27,08,26,,,,0.91,0.55,0.72,1*09
$GNGSA,A,3,69,79,78,68,80,86,,,,,,,0.91,0.55,0.72,2*09
$GNGSA,A,3,09,31,06,05,24,04,,,,,,,0.91,0.55,0.72,3*04
$GNGSA,A,3,37,20,23,32,19,38,,,,,,,0.91,0.55,0.72,4*0C
$GPGSV,3,1,12,09,78,141,35,07,66,267,33,04,47,124,29,16,34,053,29,1*63
$GPGSV,3,2,12,30,28,258,27,20,26,309,27,27,20,095,16,08,14,126,23,1*69
$GPGSV,3,3,12,26,07,043,21,11,06,285,,05,05,332,,36,,,,1*5E
$GLGSV,3,1,09,69,73,315,39,79,64,219,39,78,58,042,24,68,51,146,33,1*72
$GLGSV,3,2,09,80,11,220,23,86,09,356,20,70,09,323,,87,06,040,23,1*7C
$GLGSV,3,3,09,67,03,144,21,1*41
$GAGSV,2,1,08,09,78,120,31,31,63,116,29,06,53,121,29,05,44,299,26,7*7F
$GAGSV,2,2,08,24,31,188,26,04,27,120,23,15,10,329,20,34,09,281,,7*73
$GBGSV,4,1,15,37,73,214,36,20,64,279,36,58,57,242,,23,50,061,33,1*74
$GBGSV,4,2,15,32,44,167,34,19,21,315,27,46,18,230,,38,15,333,25,1*7A
$GBGSV,4,3,15,08,09,342,18,31,09,338,,34,04,040,,12,03,014,18,1*70
$GBGSV,4,4,15,11,02,062,,43,01,082,,04,01,262,,1*4B
$GNRMC,192929.000,A,4910.424556,N,12304.401204,W,0.05,291.64,051224,,,D,V*17
$GNVTG,291.64,T,,M,0.05,N,0.10,K,D*2A
$PAIRLOG,Full*51
$GNGGA,192930.000,4910.424598,N,12304.401270,W,2,27,0.55,5.149,M,-16.817,M,,*45
$GNGLL,4910.424598,N,12304.401270,W,192930.000,A,D*5E
$GNGSA,A,3,09,07,04,16,30,20,27,08,26,,,,0.91,0.55,0.72,1*09
$GNGSA,A,3,69,79,78,68,80,86,,,,,,,0.91,0.55,0.72,2*09
$GNGSA,A,3,09,31,06,05,24,04,,,,,,,0.91,0.55,0.72,3*04
$GNGSA,A,3,37,20,23,32,19,38,,,,,,,0.91,0.55,0.72,4*0C
$GPGSV,3,1,10,09,78,141,35,07,66,267,33,04,47,124,29,16,34,053,29,1*61
$GPGSV,3,2,10,30,28,258,27,20,26,309,27,27,20,095,16,08,14,126,23,1*6B
$GPGSV,3,3,10,26,07,043,21,36,,,,1*57
$GLGSV,3,1,09,69,73,315,40,79,64,219,40,78,58,042,25,68,51,146,34,1*74
$GLGSV,3,2,09,80,11,220,24,86,09,356,20,70,09,323,,87,06,040,23,1*7B
$GLGSV,3,3,09,67,03,144,22,1*42
$GAGSV,2,1,07,09,78,120,31,31,63,116,29,06,53,121,29,05,44,299,26,7*70
$GAGSV,2,2,07,24,31,188,27,04,27,120,23,15,10,329,20,7*48
$GBGSV,2,1,08,37,73,214,36,20,64,279,36,23,50,061,33,32,44,167,34,1*73
$GBGSV,2,2,08,19,21,315,27,38,15,333,25,08,09,342,18,12,03,014,18,1*7D
$GNRMC,192930.000,A,4910.424598,N,12304.401270,W,0.06,291.64,051224,,,D,V*1D
$GNVTG,291.64,T,,M,0.06,N,0.11,K,D*28
$PAIRLOG,Full*51
$GNGGA,192931.000,4910.424580,N,12304.401342,W,2,27,0.55,5.103,M,-16.817,M,,*43
$GNGLL,4910.424580,N,12304.401342,W,192931.000,A,D*56
$GNGSA,A,3,09,07,04,16,30,20,27,08,26,,,,0.91,0.55,0.72,1*09
$GNGSA,A,3,69,79,78,68,80,86,,,,,,,0.91,0.55,0.72,2*09
$GNGSA,A,3,09,31,06,05,24,04,,,,,,,0.91,0.55,0.72,3*04
$GNGSA,A,3,37,20,23,32,19,38,,,,,,,0.91,0.55,0.72,4*0C
$GPGSV,3,1,10,09,78,141,35,07,66,267,33,04,47,124,29,16,34,053,29,1*61
$GPGSV,3,2,10,30,28,258,27,20,26,309,26,27,20,095,17,08,14,126,23,1*6B
$GPGSV,3,3,10,26,07,043,21,36,,,,1*57
$GLGSV,3,1,09,69,73,315,40,79,64,219,40,78,58,042,25,68,51,146,34,1*74
$GLGSV,3,2,09,80,11,220,25,86,09,356,20,70,09,323,,87,06,040,23,1*7A
$GLGSV,3,3,09,67,03,144,22,1*42
$GAGSV,2,1,07,09,78,120,31,31,63,116,29,06,53,121,29,05,44,299,26,7*70
$GAGSV,2,2,07,24,31,188,27,04,27,120,23,15,10,329,20,7*48
$GBGSV,2,1,08,37,73,214,36,20,64,279,36,23,50,061,33,32,44,167,34,1*73
$GBGSV,2,2,08,19,21,315,27,38,15,333,25,08,09,342,18,12,03,014,18,1*7D
$GNRMC,192931.000,A,4910.424580,N,12304.401342,W,0.07,291.64,051224,,,D,V*14
$GNVTG,291.64,T,,M,0.07,N,0.13,K,D*2B
$PAIRLOG,Full*51
$GNGGA,192932.000,4910.424580,N,12304.401312,W,2,27,0.55,5.200,M,-16.816,M,,*44
$GNGLL,4910.424580,N,12304.401312,W,192932.000,A,D*50
$GNGSA,A,3,09,07,04,16,30,20,27,08,26,,,,0.91,0.55,0.72,1*09
$GNGSA,A,3,69,79,78,68,80,86,,,,,,,0.91,0.55,0.72,2*09
$GNGSA,A,3,09,31,06,05,24,04,,,,,,,0.91,0.55,0.72,3*04
$GNGSA,A,3,37,20,23,32,19,38,,,,,,,0.91,0.55,0.72,4*0C
$GPGSV,3,1,10,09,78,141,35,07,66,267,33,04,47,124,29,16,34,053,29,1*61
$GPGSV,3,2,10,30,28,258,26,20,26,309,27,27,20,095,16,08,14,126,23,1*6A
$GPGSV,3,3,10,26,07,043,20,36,,,,1*56
$GLGSV,3,1,09,69,73,315,40,79,64,219,40,78,58,042,26,68,51,146,34,1*77
$GLGSV,3,2,09,80,11,220,25,86,09,356,20,70,09,323,,87,06,040,23,1*7A
$GLGSV,3,3,09,67,03,144,21,1*41
$GAGSV,2,1,07,09,78,120,31,31,63,116,29,06,53,121,29,05,44,299,26,7*70
$GAGSV,2,2,07,24,31,188,27,04,27,120,23,15,10,329,20,7*48
$GBGSV,2,1,08,37,73,214,36,20,64,279,36,23,50,061,33,32,44,167,34,1*73
$GBGSV,2,2,08,19,21,315,27,38,15,333,25,08,09,342,18,12,03,014,18,1*7D
$GNRMC,192932.000,A,4910.424580,N,12304.401312,W,0.08,291.64,051224,,,D,V*1D
$GNVTG,291.64,T,,M,0.08,N,0.15,K,D*22
$PAIRLOG,Full*51
$GNGGA,192933.000,4910.424538,N,12304.401306,W,2,27,0.55,5.311,M,-16.816,M,,*42
$GNGLL,4910.424538,N,12304.401306,W,192933.000,A,D*57
$GNGSA,A,3,09,07,04,16,30,20,27,08,26,,,,0.91,0.55,0.72,1*09
$GNGSA,A,3,69,79,78,68,80,86,,,,,,,0.91,0.55,0.72,2*09
$GNGSA,A,3,09,31,06,05,24,04,,,,,,,0.91,0.55,0.72,3*04
$GNGSA,A,3,37,20,23,32,19,38,,,,,,,0.91,0.55,0.72,4*0C
$GPGSV,3,1,12,09,78,141,35,07,66,267,33,04,47,124,29,16,34,053,29,1*63
$GPGSV,3,2,12,30,28,258,26,20,26,308,27,27,20,095,16,08,14,126,23,1*69
$GPGSV,3,3,12,26,07,043,20,11,06,285,,05,05,332,,36,,,,1*5F
$GLGSV,3,1,09,69,73,315,40,79,64,219,40,78,58,042,26,68,51,146,34,1*77
$GLGSV,3,2,09,80,11,220,25,86,09,356,20,70,09,323,,87,06,040,23,1*7A
$GLGSV,3,3,09,67,03,144,20,1*40
$GAGSV,2,1,08,09,78,120,31,31,63,116,29,06,53,121,29,05,44,299,26,7*7F
$GAGSV,2,2,08,24,31,188,27,04,27,120,23,15,10,329,20,34,09,281,,7*72
$GBGSV,4,1,15,37,73,214,37,20,64,279,36,58,57,242,,23,50,061,34,1*72
$GBGSV,4,2,15,32,44,167,34,19,21,315,27,46,18,230,,38,15,333,25,1*7A
$GBGSV,4,3,15,08,09,342,18,31,09,338,,34,04,040,,12,03,014,18,1*70
$GBGSV,4,4,15,11,02,062,,43,01,082,,04,01,262,,1*4B
$GNRMC,192933.000,A,4910.424538,N,12304.401306,W,0.09,291.64,051224,,,D,V*1B
$GNVTG,291.64,T,,M,0.09,N,0.16,K,D*20
$PAIRLOG,Full*51
$GNGGA,192934.000,4910.424556,N,12304.401348,W,2,27,0.55,5.361,M,-16.816,M,,*40
$GNGLL,4910.424556,N,12304.401348,W,192934.000,A,D*52
$GNGSA,A,3,09,07,04,16,30,20,27,08,26,,,,0.91,0.55,0.72,1*09
$GNGSA,A,3,69,79,78,68,80,86,,,,,,,0.91,0.55,0.72,2*09
$GNGSA,A,3,09,31,06,05,24,04,,,,,,,0.91,0.55,0.72,3*04
$GNGSA,A,3,37,20,23,32,19,38,,,,,,,0.91,0.55,0.72,4*0C
$GPGSV,3,1,11,09,78,141,35,07,66,267,33,04,47,124,29,16,34,053,29,1*60
$GPGSV,3,2,11,30,28,258,26,20,26,308,26,27,20,095,16,08,14,126,23,1*6B
$GPGSV,3,3,11,26,07,043,20,11,06,285,,05,05,332,,1*59
$GLGSV,3,1,09,69,73,315,40,79,64,219,40,78,58,042,26,68,51,146,34,1*77
$GLGSV,3,2,09,80,11,220,25,86,09,356,20,70,09,323,,87,06,040,23,1*7A
$GLGSV,3,3,09,67,03,144,20,1*40
$GAGSV,2,1,08,09,78,120,31,31,63,116,29,06,53,121,29,05,44,299,26,7*7F
$GAGSV,2,2,08,24,31,188,27,04,27,120,23,15,10,329,20,34,09,281,,7*72
$GBGSV,4,1,15,37,73,214,37,20,64,279,36,58,57,242,,23,50,061,34,1*72
$GBGSV,4,2,15,32,44,167,34,19,21,315,27,46,18,230,,38,15,333,25,1*7A
$GBGSV,4,3,15,08,09,342,18,31,09,338,,34,04,040,,12,03,014,18,1*70
$GBGSV,4,4,15,11,02,062,,43,01,082,,04,01,262,,1*4B
$GNRMC,192934.000,A,4910.424556,N,12304.401348,W,0.09,291.64,051224,,,D,V*1E
$GNVTG,291.64,T,,M,0.09,N,0.17,K,D*21
$PAIRLOG,Full*51
$GNGGA,192935.000,4910.424508,N,12304.401432,W,2,27,0.55,5.422,M,-16.816,M,,*40
$GNGLL,4910.424508,N,12304.401432,W,192935.000,A,D*52
$GNGSA,A,3,09,07,04,16,30,20,27,08,26,,,,0.91,0.55,0.72,1*09
$GNGSA,A,3,69,79,78,68,80,86,,,,,,,0.91,0.55,0.72,2*09
$GNGSA,A,3,09,31,06,05,24,04,,,,,,,0.91,0.55,0.72,3*04
$GNGSA,A,3,37,20,23,32,19,38,,,,,,,0.91,0.55,0.72,4*0C
$GPGSV,3,1,12,09,78,141,34,07,66,267,32,04,47,124,29,16,34,053,29,1*63
$GPGSV,3,2,12,30,28,258,26,20,26,308,24,27,20,095,15,08,14,126,23,1*69
$GPGSV,3,3,12,26,07,043,19,11,06,285,,05,05,332,,49,,,,1*5D
$GLGSV,3,1,09,69,73,315,40,79,64,219,40,78,58,042,25,68,51,146,33,1*73
$GLGSV,3,2,09,80,11,220,25,86,09,356,20,70,09,323,,87,06,040,23,1*7A
$GLGSV,3,3,09,67,03,144,20,1*40
$GAGSV,2,1,08,09,78,120,30,31,63,116,29,06,53,121,28,05,44,299,26,7*7F
$GAGSV,2,2,08,24,31,188,26,04,27,120,23,15,10,329,20,34,09,281,,7*73
$GBGSV,4,1,15,37,73,214,37,20,64,279,36,58,57,242,,23,50,061,34,1*72
$GBGSV,4,2,15,32,44,167,34,19,21,315,27,46,18,230,,38,15,333,25,1*7A
$GBGSV,4,3,15,08,09,342,18,31,09,338,,34,04,040,,12,03,014,17,1*7F
$GBGSV,4,4,15,11,02,062,,43,01,082,,04,01,262,,1*4B
$GNRMC,192935.000,A,4910.424508,N,12304.401432,W,0.09,291.64,051224,,,D,V*1E
$GNVTG,291.64,T,,M,0.09,N,0.17,K,D*21
$PAIRLOG,Full*51
$GNGGA,192936.000,4910.424472,N,12304.401432,W,2,27,0.55,5.523,M,-16.816,M,,*4F
$GNGLL,4910.424472,N,12304.401432,W,192936.000,A,D*5D
$GNGSA,A,3,09,07,04,16,30,20,27,08,26,,,,0.91,0.55,0.72,1*09
$GNGSA,A,3,69,79,78,68,80,86,,,,,,,0.91,0.55,0.72,2*09
$GNGSA,A,3,09,31,06,05,24,04,,,,,,,0.91,0.55,0.72,3*04
$GNGSA,A,3,37,20,23,32,19,38,,,,,,,0.91,0.55,0.72,4*0C
$GPGSV,3,1,12,09,78,141,34,07,66,267,32,04,47,124,28,16,34,053,29,1*62
$GPGSV,3,2,12,30,28,258,26,20,26,308,24,27,20,095,16,08,14,126,23,1*6A
$GPGSV,3,3,12,26,07,043,19,11,06,285,,05,05,332,,49,,,,1*5D
$GLGSV,3,1,09,69,73,315,40,79,64,219,40,78,58,042,25,68,51,146,33,1*73
$GLGSV,3,2,09,80,11,220,25,86,09,356,20,70,09,323,,87,06,040,23,1*7A
$GLGSV,3,3,09,67,03,144,20,1*40
$GAGSV,2,1,08,09,78,120,30,31,63,116,29,06,53,121,28,05,44,299,26,7*7F
$GAGSV,2,2,08,24,31,188,26,04,27,120,22,15,10,329,20,34,09,281,,7*72
$GBGSV,4,1,15,37,73,214,37,20,64,279,36,58,57,242,,23,50,061,34,1*72
$GBGSV,4,2,15,32,44,167,34,19,21,315,26,46,18,230,,38,15,333,25,1*7B
$GBGSV,4,3,15,08,09,342,18,31,09,338,,34,04,040,,12,03,014,17,1*7F
$GBGSV,4,4,15,11,02,062,,43,01,082,,04,01,262,,1*4B
$GNRMC,192936.000,A,4910.424472,N,12304.401432,W,0.09,291.64,051224,,,D,V*11
$GNVTG,291.64,T,,M,0.09,N,0.17,K,D*21
$PAIRLOG,Full*51
$GNGGA,192937.000,4910.424406,N,12304.401504,W,2,27,0.55,5.597,M,-16.816,M,,*46
$GNGLL,4910.424406,N,12304.401504,W,192937.000,A,D*5B
$GNGSA,A,3,09,07,04,16,30,20,27,08,26,,,,0.91,0.55,0.72,1*09
$GNGSA,A,3,69,79,78,68,80,86,,,,,,,0.91,0.55,0.72,2*09
$GNGSA,A,3,09,31,06,05,24,04,,,,,,,0.91,0.55,0.72,3*04
$GNGSA,A,3,37,20,23,32,19,38,,,,,,,0.91,0.55,0.72,4*0C
$GPGSV,3,1,10,09,78,141,33,07,66,267,31,04,47,124,28,16,34,053,29,1*64
$GPGSV,3,2,10,30,28,258,26,20,26,308,24,27,20,095,16,08,14,126,23,1*68
$GPGSV,3,3,10,26,07,043,19,49,,,,1*54
$GLGSV,3,1,09,69,73,315,40,79,64,219,40,78,58,042,25,68,51,146,33,1*73
$GLGSV,3,2,09,80,11,220,25,86,09,356,20,70,09,323,,87,06,040,23,1*7A
$GLGSV,3,3,09,67,03,144,20,1*40
$GAGSV,2,1,07,09,78,120,30,31,63,116,29,06,53,121,28,05,44,299,26,7*70
$GAGSV,2,2,07,24,31,188,26,04,27,120,21,15,10,329,20,7*4B
$GBGSV,2,1,08,37,73,214,37,20,64,279,36,23,50,061,34,32,44,167,34,1*75
$GBGSV,2,2,08,19,21,315,26,38,15,333,25,08,09,342,18,12,03,014,17,1*73
$GNRMC,192937.000,A,4910.424406,N,12304.401504,W,0.10,291.64,051224,,,D,V*1F
$GNVTG,291.64,T,,M,0.10,N,0.18,K,D*26
$PAIRLOG,Full*51
$GNGGA,192938.000,4910.424394,N,12304.401546,W,2,27,0.55,5.641,M,-16.817,M,,*4A
$GNGLL,4910.424394,N,12304.401546,W,192938.000,A,D*5E
$GNGSA,A,3,09,07,04,16,30,20,27,08,26,,,,0.91,0.55,0.72,1*09
$GNGSA,A,3,69,79,78,68,80,86,,,,,,,0.91,0.55,0.72,2*09
$GNGSA,A,3,09,31,06,05,24,04,,,,,,,0.91,0.55,0.72,3*04
$GNGSA,A,3,37,20,23,32,19,38,,,,,,,0.91,0.55,0.72,4*0C
$GPGSV,3,1,10,09,78,141,33,07,66,267,31,04,47,124,28,16,34,053,29,1*64
$GPGSV,3,2,10,30,28,258,25,20,26,308,24,27,20,095,16,08,14,126,23,1*6B
$GPGSV,3,3,10,26,07,043,18,49,,,,1*55
$GLGSV,3,1,09,69,73,315,40,79,64,219,40,78,58,042,25,68,51,146,33,1*73
$GLGSV,3,2,09,80,11,220,25,86,09,356,20,70,09,323,,87,06,040,23,1*7A
$GLGSV,3,3,09,67,03,144,20,1*40
$GAGSV,2,1,07,09,78,120,30,31,63,116,29,06,53,121,28,05,44,299,26,7*70
$GAGSV,2,2,07,24,31,188,25,04,27,120,21,15,10,329,20,7*48
$GBGSV,2,1,08,37,73,214,37,20,64,279,36,23,50,061,33,32,44,167,34,1*72
$GBGSV,2,2,08,19,21,315,26,38,15,333,25,08,09,342,18,12,03,014,17,1*73
$GNRMC,192938.000,A,4910.424394,N,12304.401546,W,0.10,291.64,051224,,,D,V*1A
$GNVTG,291.64,T,,M,0.10,N,0.18,K,D*26
$PAIRLOG,Full*51
$GNGGA,192939.000,4910.424376,N,12304.401600,W,2,27,0.55,5.731,M,-16.817,M,,*40
$GNGLL,4910.424376,N,12304.401600,W,192939.000,A,D*52
$GNGSA,A,3,09,07,04,16,30,20,27,08,26,,,,0.91,0.55,0.72,1*09
$GNGSA,A,3,69,79,78,68,80,86,,,,,,,0.91,0.55,0.72,2*09
$GNGSA,A,3,09,31,06,05,24,04,,,,,,,0.91,0.55,0.72,3*04
$GNGSA,A,3,37,20,23,32,19,38,,,,,,,0.91,0.55,0.72,4*0C
$GPGSV,3,1,12,09,78,141,33,07,66,267,31,04,47,124,27,16,34,053,29,1*69
$GPGSV,3,2,12,30,28,258,25,20,26,308,23,27,20,095,16,08,14,126,23,1*6E
$GPGSV,3,3,12,26,06,043,18,11,06,285,,05,05,332,,49,,,,1*5D
$GLGSV,3,1,09,69,73,315,40,79,64,219,40,78,58,042,25,68,51,146,33,1*73
$GLGSV,3,2,09,80,11,220,25,86,09,356,20,70,09,323,,87,06,040,22,1*7B
$GLGSV,3,3,09,67,03,144,20,1*40
$GAGSV,2,1,08,09,78,120,30,31,63,116,28,06,53,121,27,05,44,299,25,7*72
$GAGSV,2,2,08,24,31,188,25,04,27,120,21,15,10,329,20,34,09,281,,7*72
$GBGSV,4,1,15,37,73,214,36,20,64,279,36,58,57,242,,23,50,061,33,1*74
$GBGSV,4,2,15,32,44,167,33,19,21,315,26,46,18,230,,38,15,333,24,1*7D
$GBGSV,4,3,15,08,09,342,18,31,09,338,,34,04,040,,12,03,014,17,1*7F
$GBGSV,4,4,15,11,02,062,,43,01,082,,04,01,262,,1*4B
$GNRMC,192939.000,A,4910.424376,N,12304.401600,W,0.10,291.64,051224,,,D,V*16
$GNVTG,291.64,T,,M,0.10,N,0.19,K,D*27
$PAIRLOG,Full*51
$GNGGA,192940.000,4910.424388,N,12304.401654,W,2,27,0.55,5.803,M,-16.816,M,,*41
$GNGLL,4910.424388,N,12304.401654,W,192940.000,A,D*5C
$GNGSA,A,3,09,07,04,16,30,20,27,08,26,,,,0.91,0.55,0.72,1*09
$GNGSA,A,3,69,79,78,68,80,86,,,,,,,0.91,0.55,0.72,2*09
$GNGSA,A,3,09,31,06,05,24,04,,,,,,,0.91,0.55,0.72,3*04
$GNGSA,A,3,37,20,23,32,19,38,,,,,,,0.91,0.55,0.72,4*0C
$GPGSV,3,1,11,09,78,141,34,07,66,267,31,04,47,124,27,16,34,053,29,1*6D
$GPGSV,3,2,11,30,28,258,25,20,26,308,25,27,20,094,17,08,14,126,23,1*6B
$GPGSV,3,3,11,26,06,043,18,11,06,285,,05,05,332,,1*53
$GLGSV,3,1,09,69,73,315,40,79,64,219,40,78,58,042,25,68,51,146,33,1*73
$GLGSV,3,2,09,80,11,220,25,86,09,356,20,70,09,323,,87,06,040,22,1*7B
$GLGSV,3,3,09,67,03,144,20,1*40
$GAGSV,2,1,08,09,78,120,30,31,63,116,28,06,53,121,27,05,44,299,25,7*72
$GAGSV,2,2,08,24,31,188,26,04,27,120,21,15,10,329,20,34,09,281,,7*71
$GBGSV,4,1,15,37,73,214,36,20,64,279,36,58,57,242,,23,50,061,33,1*74
$GBGSV,4,2,15,32,44,167,33,19,21,315,26,46,18,230,,38,15,333,24,1*7D
$GBGSV,4,3,15,08,09,342,18,31,09,338,,34,04,040,,12,03,014,17,1*7F
$GBGSV,4,4,15,11,02,062,,04,01,262,,25,01,055,,1*41
$GNRMC,192940.000,A,4910.424388,N,12304.401654,W,0.11,291.64,051224,,,D,V*19
$GNVTG,291.64,T,,M,0.11,N,0.20,K,D*2C
$PAIRLOG,Full*51
$GNGGA,192941.000,4910.424364,N,12304.401678,W,2,27,0.55,5.942,M,-16.817,M,,*49
$GNGLL,4910.424364,N,12304.401678,W,192941.000,A,D*51
$GNGSA,A,3,09,07,04,16,30,20,27,08,26,,,,0.91,0.55,0.72,1*09
$GNGSA,A,3,69,79,78,68,80,86,,,,,,,0.91,0.55,0.72,2*09
$GNGSA,A,3,09,31,06,05,24,04,,,,,,,0.91,0.55,0.72,3*04
$GNGSA,A,3,37,20,23,32,19,38,,,,,,,0.91,0.55,0.72,4*0C
$GPGSV,3,1,12,09,78,141,34,07,66,267,31,04,47,124,27,16,34,053,29,1*6E
$GPGSV,3,2,12,30,28,258,25,20,26,308,25,27,20,094,17,08,14,126,23,1*68
$GPGSV,3,3,12,26,06,043,18,11,06,285,,05,05,332,,39,,,,1*5A
$GLGSV,3,1,09,69,73,315,40,79,64,219,40,78,58,042,25,68,51,146,33,1*73
$GLGSV,3,2,09,80,11,220,25,86,09,356,20,70,09,323,,87,06,040,22,1*7B
$GLGSV,3,3,09,67,03,144,20,1*40
$GAGSV,2,1,08,09,78,120,30,31,63,116,28,06,53,121,27,05,44,299,25,7*72
$GAGSV,2,2,08,24,31,188,26,04,27,120,21,15,10,329,20,34,09,281,,7*71
$GBGSV,4,1,15,37,73,214,36,20,64,279,36,58,57,242,,23,50,061,33,1*74
$GBGSV,4,2,15,32,44,167,33,19,21,315,26,46,18,230,,38,15,333,24,1*7D
$GBGSV,4,3,15,08,09,342,18,31,09,338,,34,04,040,,12,03,014,17,1*7F
$GBGSV,4,4,15,11,02,062,,43,01,082,,04,01,262,,1*4B
$GNRMC,192941.000,A,4910.424364,N,12304.401678,W,0.11,291.64,051224,,,D,V*14
$GNVTG,291.64,T,,M,0.11,N,0.21,K,D*2D
$PAIRLOG,Full*51
$GNGGA,192942.000,4910.424400,N,12304.401780,W,2,27,0.55,6.038,M,-16.816,M,,*4F
$GNGLL,4910.424400,N,12304.401780,W,192942.000,A,D*51
$GNGSA,A,3,09,07,04,16,30,20,27,08,26,,,,0.91,0.55,0.72,1*09
$GNGSA,A,3,69,79,78,68,80,86,,,,,,,0.91,0.55,0.72,2*09
$GNGSA,A,3,09,31,06,05,24,04,,,,,,,0.91,0.55,0.72,3*04
$GNGSA,A,3,37,20,23,32,19,38,,,,,,,0.91,0.55,0.72,4*0C
$GPGSV,3,1,10,09,78,141,34,07,66,267,32,04,47,124,28,16,34,053,29,1*60
$GPGSV,3,2,10,30,28,258,25,20,26,308,25,27,20,094,18,08,14,126,23,1*65
$GPGSV,3,3,10,26,06,043,19,39,,,,1*52
$GLGSV,3,1,09,69,73,315,40,79,64,219,40,78,58,042,25,68,51,146,34,1*74
$GLGSV,3,2,09,80,11,220,25,86,09,356,20,70,09,323,,87,06,040,22,1*7B
$GLGSV,3,3,09,67,03,144,20,1*40
$GAGSV,2,1,07,09,78,120,30,31,63,116,29,06,53,121,27,05,44,299,26,7*7F
$GAGSV,2,2,07,24,31,188,26,04,27,120,22,15,10,329,20,7*48
$GBGSV,2,1,08,37,73,214,36,20,64,279,36,23,50,061,33,32,44,167,33,1*74
$GBGSV,2,2,08,19,21,315,26,38,15,333,24,08,09,342,18,12,03,014,17,1*72
$GNRMC,192942.000,A,4910.424400,N,12304.401780,W,0.12,291.64,051224,,,D,V*17
$GNVTG,291.64,T,,M,0.12,N,0.22,K,D*2D
$PAIRLOG,Full*51
$GNGGA,192943.000,4910.424454,N,12304.401768,W,2,27,0.55,6.135,M,-16.816,M,,*45
$GNGLL,4910.424454,N,12304.401768,W,192943.000,A,D*57
$GNGSA,A,3,09,07,04,16,30,20,27,08,26,,,,0.91,0.55,0.72,1*09
$GNGSA,A,3,69,79,78,68,80,86,,,,,,,0.91,0.55,0.72,2*09
$GNGSA,A,3,09,31,06,05,24,04,,,,,,,0.91,0.55,0.72,3*04
$GNGSA,A,3,37,20,23,32,19,38,,,,,,,0.91,0.55,0.72,4*0C
$GPGSV,3,1,10,09,78,141,34,07,66,267,33,04,47,124,29,16,34,053,30,1*68
$GPGSV,3,2,10,30,29,259,26,20,26,308,25,27,20,094,19,08,14,126,24,1*60
$GPGSV,3,3,10,26,06,043,19,39,,,,1*52
$GLGSV,3,1,09,69,73,315,40,79,64,219,40,78,58,042,25,68,51,146,34,1*74
$GLGSV,3,2,09,80,11,220,25,86,09,356,21,70,09,323,,87,06,040,22,1*7A
$GLGSV,3,3,09,67,03,144,20,1*40
$GAGSV,2,1,07,09,78,120,30,31,63,116,29,06,53,121,28,05,44,299,26,7*70
$GAGSV,2,2,07,24,31,188,26,04,27,120,22,15,10,329,20,7*48
$GBGSV,2,1,08,37,73,214,36,20,64,279,36,23,50,061,33,32,44,167,33,1*74
$GBGSV,2,2,08,19,21,315,26,38,15,333,24,08,09,342,19,12,03,014,17,1*73
$GNRMC,192943.000,A,4910.424454,N,12304.401768,W,0.11,291.64,051224,,,D,V*12
$GNVTG,291.64,T,,M,0.11,N,0.21,K,D*2D
$PAIRLOG,Full*51
$GNGGA,192944.000,4910.424460,N,12304.401840,W,2,27,0.55,6.252,M,-16.816,M,,*42
$GNGLL,4910.424460,N,12304.401840,W,192944.000,A,D*52
$GNGSA,A,3,09,07,04,16,30,20,27,08,26,,,,0.91,0.55,0.72,1*09
$GNGSA,A,3,69,79,78,68,80,86,,,,,,,0.91,0.55,0.72,2*09
$GNGSA,A,3,09,31,06,05,24,04,,,,,,,0.91,0.55,0.72,3*04
$GNGSA,A,3,37,20,23,32,19,38,,,,,,,0.91,0.55,0.72,4*0C
$GPGSV,3,1,10,09,78,141,33,07,66,267,32,04,47,124,28,16,34,053,29,1*67
$GPGSV,3,2,10,30,29,259,25,20,26,308,25,27,20,094,19,08,14,126,24,1*63
$GPGSV,3,3,10,26,06,043,19,39,,,,1*52
$GLGSV,3,1,09,69,73,315,40,79,64,219,40,78,58,042,25,68,51,146,34,1*74
$GLGSV,3,2,09,80,11,220,25,86,09,356,22,70,09,323,,87,06,040,21,1*7A
$GLGSV,3,3,09,67,03,144,20,1*40
$GAGSV,2,1,07,09,78,120,30,31,63,116,29,06,53,121,28,05,44,299,26,7*70
$GAGSV,2,2,07,24,31,188,26,04,27,120,22,15,10,329,20,7*48
$GBGSV,2,1,08,37,73,214,36,20,64,279,36,23,50,061,33,32,44,167,32,1*75
$GBGSV,2,2,08,19,21,315,26,38,15,333,24,08,09,342,19,12,03,014,17,1*73
$GNRMC,192944.000,A,4910.424460,N,12304.401840,W,0.11,291.64,051224,,,D,V*17
$GNVTG,291.64,T,,M,0.11,N,0.21,K,D*2D
$PAIRLOG,Full*51
$GNGGA,192945.000,4910.424448,N,12304.401864,W,2,27,0.55,6.600,M,-16.816,M,,*4C
$GNGLL,4910.424448,N,12304.401864,W,192945.000,A,D*5F
$GNGSA,A,3,09,07,04,16,30,20,27,08,26,,,,0.91,0.55,0.72,1*09
$GNGSA,A,3,69,79,78,68,80,86,,,,,,,0.91,0.55,0.72,2*09
$GNGSA,A,3,09,31,06,05,24,04,,,,,,,0.91,0.55,0.72,3*04
$GNGSA,A,3,37,20,23,32,19,38,,,,,,,0.91,0.55,0.72,4*0C
$GPGSV,3,1,12,09,78,141,33,07,66,267,32,04,47,124,28,16,34,053,29,1*65
$GPGSV,3,2,12,30,29,259,26,20,26,308,25,27,20,094,19,08,14,126,24,1*62
$GPGSV,3,3,12,26,06,043,19,11,06,285,,05,05,332,,39,,,,1*5B
$GLGSV,3,1,09,69,73,315,40,79,64,219,40,78,58,042,25,68,51,146,34,1*74
$GLGSV,3,2,09,80,11,220,25,86,09,356,22,70,09,323,,87,06,040,21,1*7A
$GLGSV,3,3,09,67,03,144,20,1*40
$GAGSV,2,1,08,09,78,120,30,31,63,116,29,06,53,121,28,05,44,299,26,7*7F
$GAGSV,2,2,08,24,31,188,27,04,27,120,22,15,10,329,20,34,09,281,,7*73
$GBGSV,4,1,15,37,73,214,36,20,64,279,36,58,57,242,,23,50,061,33,1*74
$GBGSV,4,2,15,32,44,167,32,19,21,315,26,46,18,230,,38,15,333,24,1*7C
$GBGSV,4,3,15,08,09,342,19,31,09,338,,34,04,040,,12,03,014,16,1*7F
$GBGSV,4,4,15,11,02,062,,43,01,082,,04,01,262,,1*4B
$GNRMC,192945.000,A,4910.424448,N,12304.401864,W,0.11,291.64,051224,,,D,V*1A
$GNVTG,291.64,T,,M,0.11,N,0.20,K,D*2C
$PAIRLOG,Full*51
$GNGGA,192946.000,4910.424448,N,12304.401906,W,2,27,0.55,6.760,M,-16.816,M,,*4D
$GNGLL,4910.424448,N,12304.401906,W,192946.000,A,D*59
$GNGSA,A,3,09,07,04,16,30,20,27,08,26,,,,0.91,0.55,0.72,1*09
$GNGSA,A,3,69,79,78,68,80,86,,,,,,,0.91,0.55,0.72,2*09
$GNGSA,A,3,09,31,06,05,24,04,,,,,,,0.91,0.55,0.72,3*04
$GNGSA,A,3,37,20,23,32,19,38,,,,,,,0.91,0.55,0.72,4*0C
$GPGSV,3,1,12,09,78,141,33,07,66,267,32,04,47,124,27,16,34,053,29,1*6A
$GPGSV,3,2,12,30,29,259,25,20,26,308,24,27,20,094,19,08,14,126,24,1*60
$GPGSV,3,3,12,26,06,043,19,11,06,285,,05,05,332,,39,,,,1*5B
$GLGSV,3,1,09,69,73,315,40,79,64,219,40,78,58,042,26,68,51,146,34,1*77
$GLGSV,3,2,09,80,11,220,25,86,09,356,22,70,09,323,,87,06,040,21,1*7A
$GLGSV,3,3,09,67,03,144,20,1*40
$GAGSV,2,1,08,09,78,120,30,31,63,116,29,06,53,121,28,05,44,299,25,7*7C
$GAGSV,2,2,08,24,31,188,26,04,27,120,22,15,10,329,20,34,09,281,,7*72
$GBGSV,4,1,15,37,73,214,36,20,64,279,36,58,57,242,,23,50,061,33,1*74
$GBGSV,4,2,15,32,44,167,32,19,21,315,26,46,18,230,,38,15,333,24,1*7C
$GBGSV,4,3,15,08,09,342,19,31,09,338,,34,04,040,24,12,03,014,16,1*79
$GBGSV,4,4,15,11,02,062,,43,01,082,,04,01,262,,1*4B
$GNRMC,192946.000,A,4910.424448,N,12304.401906,W,0.10,291.64,051224,,,D,V*1D
$GNVTG,291.64,T,,M,0.10,N,0.19,K,D*27
$PAIRLOG,Full*51
$GNGGA,192947.000,4910.424448,N,12304.401870,W,2,27,0.55,6.596,M,-16.816,M,,*47
$GNGLL,4910.424448,N,12304.401870,W,192947.000,A,D*58
$GNGSA,A,3,09,07,04,16,30,20,27,08,26,,,,0.91,0.55,0.72,1*09
$GNGSA,A,3,69,79,78,68,80,86,,,,,,,0.91,0.55,0.72,2*09
$GNGSA,A,3,09,31,06,05,24,04,,,,,,,0.91,0.55,0.72,3*04
$GNGSA,A,3,37,20,23,32,19,38,,,,,,,0.91,0.55,0.72,4*0C
$GPGSV,3,1,11,09,78,141,33,07,66,267,33,04,47,124,28,16,34,053,29,1*67
$GPGSV,3,2,11,30,29,259,27,20,26,308,24,27,20,094,19,08,14,126,24,1*61
$GPGSV,3,3,11,26,06,043,19,11,06,285,,05,05,332,,1*52
$GLGSV,3,1,09,69,73,315,40,79,64,219,40,78,58,042,27,68,51,146,34,1*76
$GLGSV,3,2,09,80,11,220,25,86,09,356,22,70,09,323,,87,06,040,21,1*7A
$GLGSV,3,3,09,67,03,144,20,1*40
$GAGSV,2,1,08,09,78,120,30,31,63,116,29,06,53,121,28,05,44,299,25,7*7C
$GAGSV,2,2,08,24,31,188,26,04,27,120,22,15,10,329,21,34,09,281,,7*73
$GBGSV,4,1,15,37,73,214,36,20,64,279,36,58,57,242,,23,50,061,33,1*74
$GBGSV,4,2,15,32,44,167,33,19,21,315,27,46,18,230,,38,15,333,24,1*7C
$GBGSV,4,3,15,08,09,342,19,31,09,338,,34,04,040,25,12,03,014,16,1*78
$GBGSV,4,4,15,11,02,062,,43,01,082,,04,01,262,,1*4B
$GNRMC,192947.000,A,4910.424448,N,12304.401870,W,0.09,291.64,051224,,,D,V*14
$GNVTG,291.64,T,,M,0.09,N,0.17,K,D*21
$PAIRLOG,Full*51
$GNGGA,192948.000,4910.424448,N,12304.401900,W,2,27,0.55,6.717,M,-16.816,M,,*45
