$GNGGA,001850.000,4910.427274,N,12304.402122,W,2,30,0.49,8.008,M,-16.816,M,,*4B
$GNGLL,4910.427274,N,12304.402122,W,001850.000,A,D*53
$GNGSA,A,3,22,17,14,19,13,15,30,02,24,21,,,0.90,0.49,0.75,1*0E
$GNGSA,A,3,73,72,80,71,,,,,,,,,0.90,0.49,0.75,2*0B
$GNGSA,A,3,25,03,24,08,02,10,12,05,33,,,,0.90,0.49,0.75,3*0A
$GNGSA,A,3,36,27,30,45,21,28,22,,,,,,0.90,0.49,0.75,4*09
$GPGSV,3,1,12,22,80,036,35,17,72,137,37,14,59,073,35,19,47,192,36,1*63
$GPGSV,3,2,12,13,39,222,34,46,33,188,31,15,31,264,32,30,27,138,30,1*62
$GPGSV,3,3,12,02,25,053,29,24,25,307,29,21,14,036,26,10,03,347,19,1*6C
$GLGSV,2,1,07,73,73,007,25,83,50,113,,82,40,048,,74,37,301,,1*76
$GLGSV,2,2,07,72,30,294,23,80,30,091,25,71,19,241,21,1*49
$GAGSV,3,1,10,25,82,325,32,03,41,236,28,24,38,075,28,08,33,302,30,7*7C
$GAGSV,3,2,10,02,31,266,26,10,28,099,24,12,28,072,22,11,20,128,20,7*7F
$GAGSV,3,3,10,05,12,189,21,33,08,021,21,7*7F
$GBGSV,3,1,12,36,71,299,40,46,51,106,,27,47,077,38,30,45,157,36,1*7A
$GBGSV,3,2,12,57,21,073,,45,21,292,31,21,15,310,32,28,15,039,30,1*7B
$GBGSV,3,3,12,22,14,259,32,13,04,318,26,29,04,194,27,08,04,308,23,1*77
$GNRMC,001850.000,A,4910.427274,N,12304.402122,W,0.02,342.49,061224,,,D,V*17
$GNVTG,342.49,T,,M,0.02,N,0.04,K,D*28
$GNGGA,001851.000,4910.427298,N,12304.402122,W,2,30,0.49,8.229,M,-16.816,M,,*49
$GNGLL,4910.427298,N,12304.402122,W,001851.000,A,D*50
$GNGSA,A,3,22,17,14,19,13,15,30,24,02,21,,,0.90,0.49,0.75,1*0E
$GNGSA,A,3,73,72,80,71,,,,,,,,,0.90,0.49,0.75,2*0B
$GNGSA,A,3,25,03,24,08,02,10,12,05,33,,,,0.90,0.49,0.75,3*0A
$GNGSA,A,3,36,27,30,45,21,28,22,,,,,,0.90,0.49,0.75,4*09
$GPGSV,3,1,12,22,80,036,35,17,72,137,37,14,59,073,35,19,47,192,35,1*60
$GPGSV,3,2,12,13,39,222,34,46,33,188,31,15,31,264,32,30,27,138,30,1*62
$GPGSV,3,3,12,24,25,307,29,02,24,052,28,21,14,036,26,10,03,347,19,1*6D
$GLGSV,2,1,07,73,73,007,25,83,50,113,,82,40,048,,74,37,301,,1*76
$GLGSV,2,2,07,72,30,294,24,80,30,091,25,71,19,241,21,1*4E
$GAGSV,3,1,10,25,82,325,31,03,41,236,28,24,38,075,28,08,33,302,30,7*7F
$GAGSV,3,2,10,02,31,266,26,10,28,099,24,12,28,072,22,11,20,128,20,7*7F
$GAGSV,3,3,10,05,12,189,21,33,08,021,21,7*7F
$GBGSV,3,1,12,36,71,299,40,46,51,106,,27,47,077,38,30,45,157,36,1*7A
$GBGSV,3,2,12,57,21,073,,45,21,292,31,21,15,310,31,28,15,039,30,1*78
$GBGSV,3,3,12,22,14,259,32,13,04,318,26,29,04,194,27,08,04,308,23,1*77
$GNRMC,001851.000,A,4910.427298,N,12304.402122,W,0.02,342.49,061224,,,D,V*14
$GNVTG,342.49,T,,M,0.02,N,0.04,K,D*28
$GNGGA,001852.000,4910.427364,N,12304.402152,W,2,30,0.49,8.464,M,-16.816,M,,*40
$GNGLL,4910.427364,N,12304.402152,W,001852.000,A,D*56
$GNGSA,A,3,22,17,14,19,13,15,30,24,02,21,,,0.90,0.49,0.75,1*0E
$GNGSA,A,3,73,72,80,71,,,,,,,,,0.90,0.49,0.75,2*0B
$GNGSA,A,3,25,03,24,08,02,10,12,05,33,,,,0.90,0.49,0.75,3*0A
$GNGSA,A,3,36,27,30,45,21,28,22,,,,,,0.90,0.49,0.75,4*09
$GPGSV,3,1,12,22,80,036,35,17,72,137,37,14,59,073,35,19,47,192,35,1*60
$GPGSV,3,2,12,13,39,222,34,46,33,188,30,15,31,264,32,30,27,138,30,1*63
$GPGSV,3,3,12,24,25,307,29,02,24,052,28,21,14,036,26,10,03,347,18,1*6C
$GLGSV,2,1,07,73,73,007,25,83,50,113,,82,40,048,,74,37,301,,1*76
$GLGSV,2,2,07,72,30,294,24,80,30,091,25,71,19,241,21,1*4E
$GAGSV,3,1,10,25,82,325,31,03,41,236,28,24,38,075,28,08,33,302,30,7*7F
$GAGSV,3,2,10,02,31,266,25,10,28,099,24,12,28,072,22,11,20,128,20,7*7C
$GAGSV,3,3,10,05,12,189,21,33,08,021,21,7*7F
$GBGSV,3,1,12,36,71,299,40,46,51,106,,27,47,077,38,30,45,157,36,1*7A
$GBGSV,3,2,12,57,21,073,,45,21,292,31,21,15,310,31,28,15,039,30,1*78
$GBGSV,3,3,12,22,14,259,32,13,04,318,26,29,04,194,27,08,04,308,23,1*77
$GNRMC,001852.000,A,4910.427364,N,12304.402152,W,0.02,342.49,061224,,,D,V*12
$GNVTG,342.49,T,,M,0.02,N,0.04,K,D*28
$GNGGA,001853.000,4910.427394,N,12304.402194,W,2,30,0.49,8.782,M,-16.816,M,,*4F
$GNGLL,4910.427394,N,12304.402194,W,001853.000,A,D*52
$GNGSA,A,3,22,17,14,19,13,15,30,24,02,21,,,0.90,0.49,0.75,1*0E
$GNGSA,A,3,73,72,80,71,,,,,,,,,0.90,0.49,0.75,2*0B
$GNGSA,A,3,25,03,24,08,02,10,12,05,33,,,,0.90,0.49,0.75,3*0A
$GNGSA,A,3,36,27,30,45,21,28,22,,,,,,0.90,0.49,0.75,4*09
$GPGSV,3,1,12,22,80,036,35,17,72,137,37,14,59,073,35,19,47,192,35,1*60
$GPGSV,3,2,12,13,39,222,34,46,33,188,30,15,31,264,32,30,27,138,30,1*63
$GPGSV,3,3,12,24,25,307,29,02,24,052,28,21,14,036,26,10,03,347,18,1*6C
$GLGSV,2,1,07,73,73,007,25,83,50,113,,82,40,048,,74,37,301,,1*76
$GLGSV,2,2,07,72,30,294,24,80,30,091,25,71,19,241,21,1*4E
$GAGSV,3,1,10,25,82,325,31,03,41,236,28,24,38,075,28,08,33,302,30,7*7F
$GAGSV,3,2,10,02,31,266,25,10,28,099,24,12,28,072,22,11,20,128,19,7*76
$GAGSV,3,3,10,05,12,189,21,33,08,021,21,7*7F
$GBGSV,3,1,12,36,71,299,40,46,51,106,,27,47,077,38,30,45,157,36,1*7A
$GBGSV,3,2,12,57,21,073,,45,21,292,31,21,15,310,31,28,15,039,30,1*78
$GBGSV,3,3,12,22,14,259,32,13,04,318,26,29,04,194,27,08,04,308,22,1*76
$GNRMC,001853.000,A,4910.427394,N,12304.402194,W,0.02,342.49,061224,,,D,V*16
$GNVTG,342.49,T,,M,0.02,N,0.03,K,D*2F
$GNGGA,001854.000,4910.427436,N,12304.402206,W,2,30,0.49,8.964,M,-16.816,M,,*49
