$GNGGA,002113.000,4910.426188,N,12304.400472,W,2,31,0.46,7.539,M,-16.816,M,,*43
$GNGLL,4910.426188,N,12304.400472,W,002113.000,A,D*5D
$GNGSA,A,3,22,17,14,19,13,15,30,24,02,21,,,0.83,0.46,0.69,1*0E
$GNGSA,A,3,73,72,80,71,,,,,,,,,0.83,0.46,0.69,2*0B
$GNGSA,A,3,25,03,24,08,02,10,12,05,33,,,,0.83,0.46,0.69,3*0A
$GNGSA,A,3,36,27,30,45,21,28,22,29,,,,,0.83,0.46,0.69,4*02
$GPGSV,4,1,13,22,79,041,34,17,72,134,37,14,58,074,35,19,49,192,34,1*6B
$GPGSV,4,2,13,13,38,221,31,46,33,188,30,15,30,263,31,30,26,139,32,1*65
$GPGSV,4,3,13,24,26,307,29,02,24,052,30,21,14,035,23,10,02,346,15,1*6B
$GPGSV,4,4,13,06,01,162,,1*54
$GLGSV,2,1,07,73,73,012,27,83,51,111,,82,40,046,,74,38,302,,1*71
$GLGSV,2,2,07,72,30,293,21,80,29,092,26,71,17,241,27,1*4C
$GAGSV,3,1,10,25,82,332,31,03,40,235,26,24,37,076,26,08,33,301,28,7*7D
$GAGSV,3,2,10,02,32,267,25,10,29,099,26,12,29,071,22,11,21,127,20,7*71
$GAGSV,3,3,10,05,11,188,21,33,08,020,18,7*76
$GBGSV,3,1,12,36,73,299,41,46,51,106,,27,47,075,39,30,46,156,38,1*76
$GBGSV,3,2,12,57,21,073,,45,21,292,32,21,15,309,34,28,15,038,34,1*73
$GBGSV,3,3,12,22,13,259,34,29,05,194,29,13,03,318,28,08,03,308,18,1*7F
$GNRMC,002113.000,A,4910.426188,N,12304.400472,W,0.01,342.49,061224,,,D,V*1A
$GNVTG,342.49,T,,M,0.01,N,0.03,K,D*2C
$GNGGA,002114.000,4910.426098,N,12304.400496,W,2,31,0.46,7.412,M,-16.816,M,,*46
$GNGLL,4910.426098,N,12304.400496,W,002114.000,A,D*50
$GNGSA,A,3,22,17,14,19,13,15,30,24,02,21,,,0.83,0.46,0.69,1*0E
$GNGSA,A,3,73,72,80,71,,,,,,,,,0.83,0.46,0.69,2*0B
$GNGSA,A,3,25,03,24,08,02,10,12,05,33,,,,0.83,0.46,0.69,3*0A
$GNGSA,A,3,36,27,30,45,21,28,22,29,,,,,0.83,0.46,0.69,4*02
$GPGSV,4,1,13,22,79,041,34,17,72,134,37,14,58,074,35,19,49,192,34,1*6B
$GPGSV,4,2,13,13,38,221,31,46,33,188,30,15,30,263,31,30,26,139,32,1*65
$GPGSV,4,3,13,24,26,307,29,02,24,052,31,21,14,035,24,10,02,346,15,1*6D
$GPGSV,4,4,13,06,01,162,,1*54
$GLGSV,2,1,07,73,73,012,26,83,51,111,,82,40,046,,74,38,302,,1*70
$GLGSV,2,2,07,72,30,293,21,80,29,092,25,71,17,241,26,1*4E
$GAGSV,3,1,10,25,82,332,32,03,40,235,26,24,37,076,26,08,33,301,28,7*7E
$GAGSV,3,2,10,02,32,267,25,10,29,099,26,12,29,071,22,11,21,127,20,7*71
$GAGSV,3,3,10,05,11,188,22,33,08,020,18,7*75
$GBGSV,3,1,12,36,73,299,41,46,50,107,,27,47,075,39,30,46,156,38,1*76
$GBGSV,3,2,12,57,21,073,,45,21,292,32,21,15,309,34,28,15,038,34,1*73
$GBGSV,3,3,12,22,13,259,34,29,05,194,29,13,03,318,28,08,03,308,18,1*7F
$GNRMC,002114.000,A,4910.426098,N,12304.400496,W,0.02,342.49,061224,,,D,V*14
$GNVTG,342.49,T,,M,0.02,N,0.03,K,D*2F
$GNGGA,002115.000,4910.426008,N,12304.400526,W,2,31,0.46,7.232,M,-16.817,M,,*41
$GNGLL,4910.426008,N,12304.400526,W,002115.000,A,D*52
$GNGSA,A,3,22,17,14,19,13,15,30,24,02,21,,,0.83,0.46,0.69,1*0E
$GNGSA,A,3,73,72,80,71,,,,,,,,,0.83,0.46,0.69,2*0B
$GNGSA,A,3,25,03,24,08,02,10,12,05,33,,,,0.83,0.46,0.69,3*0A
$GNGSA,A,3,36,27,30,45,21,28,22,29,,,,,0.83,0.46,0.69,4*02
$GPGSV,4,1,13,22,79,041,34,17,72,134,37,14,58,074,35,19,49,192,34,1*6B
$GPGSV,4,2,13,13,38,221,32,46,33,188,30,15,30,263,31,30,26,139,32,1*66
$GPGSV,4,3,13,24,26,307,29,02,24,052,31,21,14,035,24,10,02,346,15,1*6D
$GPGSV,4,4,13,06,01,162,,1*54
$GLGSV,2,1,07,73,73,012,26,83,51,111,,82,40,046,,74,38,302,,1*70
$GLGSV,2,2,07,72,30,293,21,80,29,092,27,71,17,241,26,1*4C
$GAGSV,3,1,10,25,82,332,32,03,40,235,26,24,37,076,26,08,33,301,28,7*7E
$GAGSV,3,2,10,02,32,267,25,10,29,099,27,12,29,071,22,11,21,127,20,7*70
$GAGSV,3,3,10,05,11,188,22,33,08,020,18,7*75
$GBGSV,3,1,12,36,73,299,41,46,50,107,,27,47,075,39,30,46,156,38,1*76
$GBGSV,3,2,12,57,21,073,,45,21,292,32,21,15,309,34,28,15,038,34,1*73
$GBGSV,3,3,12,22,13,259,34,29,05,194,29,13,03,318,27,08,03,308,18,1*70
$GNRMC,002115.000,A,4910.426008,N,12304.400526,W,0.02,342.49,061224,,,D,V*16
$GNVTG,342.49,T,,M,0.02,N,0.03,K,D*2F
$GNGGA,002116.000,4910.425936,N,12304.400514,W,2,31,0.46,7.027,M,-16.816,M,,*43
$GNGLL,4910.425936,N,12304.400514,W,002116.000,A,D*57
$GNGSA,A,3,22,17,14,19,13,15,30,24,02,21,,,0.83,0.46,0.69,1*0E
$GNGSA,A,3,73,72,80,71,,,,,,,,,0.83,0.46,0.69,2*0B
$GNGSA,A,3,25,03,24,08,02,10,12,05,33,,,,0.83,0.46,0.69,3*0A
$GNGSA,A,3,36,27,30,45,21,28,22,29,,,,,0.83,0.46,0.69,4*02
$GPGSV,4,1,13,22,79,041,34,17,72,134,37,14,58,074,35,19,49,192,34,1*6B
$GPGSV,4,2,13,13,38,221,32,46,33,188,30,15,30,263,31,30,26,139,32,1*66
$GPGSV,4,3,13,24,26,307,29,02,24,052,31,21,14,035,25,10,02,346,15,1*6C
$GPGSV,4,4,13,06,01,162,,1*54
$GLGSV,2,1,07,73,73,012,27,83,51,111,,82,40,046,,74,38,302,,1*71
$GLGSV,2,2,07,72,30,293,21,80,29,092,28,71,17,241,26,1*43
$GAGSV,3,1,10,25,82,332,32,03,40,235,26,24,37,076,26,08,33,301,28,7*7E
$GAGSV,3,2,10,02,32,267,25,10,29,099,27,12,29,071,23,11,21,127,20,7*71
$GAGSV,3,3,10,05,11,188,23,33,08,020,19,7*75
$GBGSV,3,1,12,36,73,299,41,46,50,107,,27,47,075,39,30,46,156,38,1*76
$GBGSV,3,2,12,57,21,073,,45,21,292,32,21,15,309,34,28,15,038,34,1*73
$GBGSV,3,3,12,22,13,259,34,29,05,194,29,13,03,318,27,08,03,308,18,1*70
$GNRMC,002116.000,A,4910.425936,N,12304.400514,W,0.02,342.49,061224,,,D,V*13
$GNVTG,342.49,T,,M,0.02,N,0.03,K,D*2F
$GNGGA,002117.000,4910.425804,N,12304.400604,W,2,31,0.46,6.854,M,-16.817,M,,*4C
$GNGLL,4910.425804,N,12304.400604,W,002117.000,A,D*54
$GNGSA,A,3,22,17,14,19,13,15,30,24,02,21,,,0.83,0.46,0.69,1*0E
$GNGSA,A,3,73,72,80,71,,,,,,,,,0.83,0.46,0.69,2*0B
$GNGSA,A,3,25,03,24,08,02,10,12,05,33,,,,0.83,0.46,0.69,3*0A
$GNGSA,A,3,36,27,30,45,21,28,22,29,,,,,0.83,0.46,0.69,4*02
$GPGSV,4,1,13,22,79,041,34,17,72,134,37,14,58,074,35,19,49,192,34,1*6B
$GPGSV,4,2,13,13,38,221,32,46,33,188,30,15,30,263,31,30,26,139,32,1*66
$GPGSV,4,3,13,24,26,307,29,02,24,052,31,21,14,035,24,10,02,346,13,1*6B
$GPGSV,4,4,13,06,01,162,,1*54
$GLGSV,2,1,07,73,73,012,27,83,51,111,,82,40,046,,74,38,302,,1*71
$GLGSV,2,2,07,72,30,293,22,80,29,092,26,71,17,241,26,1*4E
$GAGSV,3,1,10,25,82,332,32,03,40,235,27,24,37,076,26,08,33,301,28,7*7F
$GAGSV,3,2,10,02,32,267,25,10,29,099,27,12,29,071,23,11,21,127,20,7*71
$GAGSV,3,3,10,05,11,188,23,33,08,020,19,7*75
$GBGSV,3,1,12,36,73,299,41,46,50,107,,27,47,075,39,30,46,156,38,1*76
$GBGSV,3,2,12,57,21,073,,45,21,292,32,21,15,309,34,28,15,038,34,1*73
$GBGSV,3,3,12,22,13,259,34,29,05,194,29,13,03,318,27,08,03,308,18,1*70
$GNRMC,002117.000,A,4910.425804,N,12304.400604,W,0.02,342.49,061224,,,D,V*10
$GNVTG,342.49,T,,M,0.02,N,0.03,K,D*2F
$GNGGA,002118.000,4910.425726,N,12304.400592,W,2,31,0.46,6.714,M,-16.816,M,,*4A
$GNGLL,4910.425726,N,12304.400592,W,002118.000,A,D*58
$GNGSA,A,3,22,17,14,19,13,15,30,24,02,21,,,0.83,0.46,0.69,1*0E
$GNGSA,A,3,73,72,80,71,,,,,,,,,0.83,0.46,0.69,2*0B
$GNGSA,A,3,25,03,24,08,02,10,12,05,33,,,,0.83,0.46,0.69,3*0A
$GNGSA,A,3,36,27,30,45,21,28,22,29,,,,,0.83,0.46,0.69,4*02
$GPGSV,4,1,13,22,79,041,34,17,72,134,37,14,58,074,35,19,49,192,34,1*6B
$GPGSV,4,2,13,13,38,221,32,46,33,188,30,15,30,263,31,30,26,139,32,1*66
$GPGSV,4,3,13,24,26,307,30,02,24,052,31,21,14,035,25,10,02,346,13,1*62
$GPGSV,4,4,13,06,01,162,,1*54
$GLGSV,2,1,07,73,73,012,27,83,51,111,,82,40,046,,74,38,302,,1*71
$GLGSV,2,2,07,72,30,293,22,80,29,092,28,71,17,241,26,1*40
$GAGSV,3,1,10,25,82,332,32,03,40,235,27,24,37,076,26,08,33,301,28,7*7F
$GAGSV,3,2,10,02,32,267,25,10,29,099,27,12,29,071,23,11,21,127,21,7*70
$GAGSV,3,3,10,05,11,188,23,33,08,020,19,7*75
$GBGSV,3,1,12,36,73,299,41,46,50,107,,27,47,075,39,30,46,156,38,1*76
$GBGSV,3,2,12,57,21,073,,45,21,292,32,21,15,309,34,28,15,038,34,1*73
$GBGSV,3,3,12,22,13,259,34,29,05,194,29,13,03,318,27,08,03,308,18,1*70
$GNRMC,002118.000,A,4910.425726,N,12304.400592,W,0.02,342.49,061224,,,D,V*1C
$GNVTG,342.49,T,,M,0.02,N,0.04,K,D*28
$GNGGA,002119.000,4910.425696,N,12304.400568,W,2,31,0.46,6.592,M,-16.816,M,,*48
$GNGLL,4910.425696,N,12304.400568,W,002119.000,A,D*56
$GNGSA,A,3,22,17,14,19,13,15,30,24,02,21,,,0.83,0.46,0.69,1*0E
$GNGSA,A,3,73,72,80,71,,,,,,,,,0.83,0.46,0.69,2*0B
$GNGSA,A,3,25,03,24,08,02,10,12,05,33,,,,0.83,0.46,0.69,3*0A
$GNGSA,A,3,36,27,30,45,21,28,22,29,,,,,0.83,0.46,0.69,4*02
$GPGSV,4,1,13,22,79,041,34,17,72,134,37,14,58,074,35,19,49,192,34,1*6B
$GPGSV,4,2,13,13,38,221,32,46,33,188,31,15,30,263,31,30,26,139,32,1*67
$GPGSV,4,3,13,24,26,307,30,02,24,052,31,21,14,035,25,10,02,346,14,1*65
$GPGSV,4,4,13,06,01,162,,1*54
$GLGSV,2,1,07,73,73,012,27,83,51,111,,82,40,046,,74,38,302,,1*71
$GLGSV,2,2,07,72,30,293,21,80,29,092,26,71,17,241,25,1*4E
$GAGSV,3,1,10,25,82,332,32,03,40,235,27,24,37,076,26,08,33,301,28,7*7F
$GAGSV,3,2,10,02,32,267,25,10,29,099,27,12,29,071,23,11,21,127,21,7*70
$GAGSV,3,3,10,05,11,188,23,33,08,020,19,7*75
$GBGSV,3,1,12,36,73,299,41,46,50,107,,27,47,075,39,30,46,156,38,1*76
$GBGSV,3,2,12,45,21,292,32,21,15,309,34,28,15,038,34,22,13,259,34,1*7D
$GBGSV,3,3,12,29,05,194,29,08,03,308,18,13,03,318,27,42,01,353,,1*79
$GNRMC,002119.000,A,4910.425696,N,12304.400568,W,0.02,342.49,061224,,,D,V*12
$GNVTG,342.49,T,,M,0.02,N,0.03,K,D*2F
$GNGGA,002120.000,4910.425678,N,12304.400562,W,2,31,0.46,6.453,M,-16.816,M,,*44
$GNGLL,4910.425678,N,12304.400562,W,002120.000,A,D*56
$GNGSA,A,3,22,17,14,19,13,15,30,24,02,21,,,0.83,0.46,0.69,1*0E
$GNGSA,A,3,73,72,80,71,,,,,,,,,0.83,0.46,0.69,2*0B
$GNGSA,A,3,25,03,24,08,02,10,12,05,33,,,,0.83,0.46,0.69,3*0A
$GNGSA,A,3,36,27,30,45,21,28,22,29,,,,,0.83,0.46,0.69,4*02
$GPGSV,4,1,13,22,79,041,34,17,72,134,37,14,58,074,35,19,49,192,34,1*6B
$GPGSV,4,2,13,13,38,221,32,46,33,188,31,15,30,263,31,30,26,139,32,1*67
$GPGSV,4,3,13,24,26,307,30,02,24,052,31,21,14,035,25,10,02,346,14,1*65
$GPGSV,4,4,13,06,01,162,,1*54
$GLGSV,2,1,07,73,73,012,26,83,51,111,,82,40,046,,74,38,302,,1*70
$GLGSV,2,2,07,72,30,293,21,80,29,092,26,71,17,241,25,1*4E
$GAGSV,3,1,10,25,82,332,32,03,40,235,27,24,37,076,26,08,33,301,28,7*7F
$GAGSV,3,2,10,02,32,267,25,10,29,099,27,12,29,071,24,11,21,127,21,7*77
$GAGSV,3,3,10,05,11,188,23,33,08,020,19,7*75
$GBGSV,3,1,12,36,73,299,41,46,50,107,,27,47,075,39,30,46,156,38,1*76
$GBGSV,3,2,12,45,21,292,32,21,15,309,33,28,15,038,34,22,13,259,34,1*7A
$GBGSV,3,3,12,29,05,194,29,08,03,308,18,13,03,318,27,42,01,353,,1*79
$GNRMC,002120.000,A,4910.425678,N,12304.400562,W,0.02,342.49,061224,,,D,V*12
$GNVTG,342.49,T,,M,0.02,N,0.03,K,D*2F
$GNGGA,002121.000,4910.425684,N,12304.400550,W,2,31,0.46,6.300,M,-16.816,M,,*46
$GNGLL,4910.425684,N,12304.400550,W,002121.000,A,D*55
$GNGSA,A,3,22,17,14,19,13,15,30,24,02,21,,,0.83,0.46,0.69,1*0E
$GNGSA,A,3,73,72,80,71,,,,,,,,,0.83,0.46,0.69,2*0B
$GNGSA,A,3,25,03,24,08,02,10,12,05,33,,,,0.83,0.46,0.69,3*0A
$GNGSA,A,3,36,27,30,45,21,28,22,29,,,,,0.83,0.46,0.69,4*02
$GPGSV,4,1,13,22,79,041,34,17,72,134,37,14,58,074,35,19,49,192,34,1*6B
$GPGSV,4,2,13,13,38,221,32,46,33,188,31,15,30,263,31,30,26,139,31,1*64
$GPGSV,4,3,13,24,26,307,30,02,24,052,31,21,14,035,25,10,02,346,15,1*64
$GPGSV,4,4,13,06,01,162,,1*54
$GLGSV,2,1,07,73,73,012,26,83,51,111,,82,40,046,,74,38,302,,1*70
$GLGSV,2,2,07,72,30,293,21,80,29,092,26,71,17,241,25,1*4E
$GAGSV,3,1,10,25,82,332,31,03,40,235,27,24,37,076,26,08,33,301,28,7*7C
$GAGSV,3,2,10,02,32,267,25,10,29,099,27,12,29,071,24,11,21,127,21,7*77
$GAGSV,3,3,10,05,11,188,23,33,08,020,19,7*75
$GBGSV,3,1,12,36,73,299,41,46,50,107,,27,47,075,39,30,46,156,38,1*76
$GBGSV,3,2,12,57,21,073,,45,21,292,32,21,15,309,33,28,15,038,34,1*74
$GBGSV,3,3,12,22,13,259,34,29,05,194,29,13,03,318,27,08,03,308,18,1*70
$GNRMC,002121.000,A,4910.425684,N,12304.400550,W,0.01,342.49,061224,,,D,V*12
$GNVTG,342.49,T,,M,0.01,N,0.03,K,D*2C
$GNGGA,002122.000,4910.425720,N,12304.400604,W,2,31,0.46,6.221,M,-16.816,M,,*4A
$GNGLL,4910.425720,N,12304.400604,W,002122.000,A,D*5B
$GNGSA,A,3,22,17,14,19,13,15,30,24,02,21,,,0.83,0.46,0.69,1*0E
$GNGSA,A,3,73,72,80,71,,,,,,,,,0.83,0.46,0.69,2*0B
$GNGSA,A,3,25,03,24,08,02,10,12,05,33,,,,0.83,0.46,0.69,3*0A
$GNGSA,A,3,36,27,30,45,21,28,22,29,,,,,0.83,0.46,0.69,4*02
$GPGSV,4,1,13,22,79,041,34,17,72,134,37,14,58,074,35,19,49,192,34,1*6B
$GPGSV,4,2,13,13,38,221,32,46,33,188,31,15,30,263,31,30,26,139,31,1*64
$GPGSV,4,3,13,24,26,307,30,02,24,052,31,21,14,035,25,10,02,346,15,1*64
$GPGSV,4,4,13,06,01,162,,1*54
$GLGSV,2,1,07,73,73,012,27,83,51,111,,82,40,046,,74,38,302,,1*71
$GLGSV,2,2,07,72,30,293,21,80,29,092,27,71,17,241,25,1*4F
$GAGSV,3,1,10,25,82,332,31,03,40,235,27,24,37,076,26,08,33,301,28,7*7C
$GAGSV,3,2,10,02,32,267,25,10,29,099,27,12,29,071,24,11,21,127,21,7*77
$GAGSV,3,3,10,05,11,188,23,33,08,020,19,7*75
$GBGSV,3,1,12,36,73,299,40,46,50,107,,27,47,075,39,30,46,156,37,1*78
$GBGSV,3,2,12,57,21,073,,45,21,292,31,21,15,309,32,28,15,038,33,1*71
$GBGSV,3,3,12,22,13,259,34,29,05,194,29,13,03,318,26,08,03,308,18,1*71
$GNRMC,002122.000,A,4910.425720,N,12304.400604,W,0.02,342.49,061224,,,D,V*1F
$GNVTG,342.49,T,,M,0.02,N,0.03,K,D*2F
$GNGGA,002123.000,4910.425744,N,12304.400562,W,2,31,0.46,6.217,M,-16.816,M,,*4F
$GNGLL,4910.425744,N,12304.400562,W,002123.000,A,D*5B
$GNGSA,A,3,22,17,14,19,13,15,30,24,02,21,,,0.83,0.46,0.69,1*0E
$GNGSA,A,3,73,72,80,71,,,,,,,,,0.83,0.46,0.69,2*0B
$GNGSA,A,3,25,03,24,08,02,10,12,05,33,,,,0.83,0.46,0.69,3*0A
$GNGSA,A,3,36,27,30,45,21,28,22,29,,,,,0.83,0.46,0.69,4*02
$GPGSV,4,1,13,22,79,041,34,17,72,134,37,14,58,074,35,19,49,192,35,1*6A
$GPGSV,4,2,13,13,38,221,32,46,33,188,31,15,30,263,31,30,26,139,31,1*64
$GPGSV,4,3,13,24,26,307,30,02,24,052,31,21,14,035,25,10,02,346,15,1*64
$GPGSV,4,4,13,06,01,162,,1*54
$GLGSV,2,1,07,73,73,012,27,83,51,111,,82,40,046,,74,38,302,,1*71
$GLGSV,2,2,07,72,30,293,21,80,29,092,27,71,17,241,25,1*4F
$GAGSV,3,1,10,25,82,332,31,03,40,235,27,24,37,076,26,08,33,301,28,7*7C
$GAGSV,3,2,10,02,32,267,25,10,29,099,27,12,29,071,24,11,21,127,21,7*77
$GAGSV,3,3,10,05,11,188,23,33,08,020,19,7*75
$GBGSV,3,1,12,36,73,299,40,46,50,107,,27,47,075,38,30,46,156,37,1*79
$GBGSV,3,2,12,57,21,073,,45,21,292,31,21,15,309,32,28,15,038,33,1*71
$GBGSV,3,3,12,22,13,259,34,29,05,194,29,13,03,318,26,08,03,308,18,1*71
$GNRMC,002123.000,A,4910.425744,N,12304.400562,W,0.02,342.49,061224,,,D,V*1F
$GNVTG,342.49,T,,M,0.02,N,0.03,K,D*2F
$GNGGA,002124.000,4910.425738,N,12304.400574,W,2,31,0.46,6.197,M,-16.816,M,,*4F
$GNGLL,4910.425738,N,12304.400574,W,002124.000,A,D*50
$GNGSA,A,3,22,17,14,19,13,15,30,24,02,21,,,0.83,0.46,0.69,1*0E
$GNGSA,A,3,73,72,80,71,,,,,,,,,0.83,0.46,0.69,2*0B
$GNGSA,A,3,25,03,24,08,02,10,12,05,33,,,,0.83,0.46,0.69,3*0A
$GNGSA,A,3,36,27,30,45,21,28,22,29,,,,,0.83,0.46,0.69,4*02
$GPGSV,4,1,13,22,79,041,34,17,72,134,37,14,58,074,35,19,49,192,35,1*6A
$GPGSV,4,2,13,13,38,221,32,46,33,188,31,15,30,263,31,30,26,139,31,1*64
$GPGSV,4,3,13,24,26,307,30,02,24,052,31,21,14,035,25,10,02,346,15,1*64
$GPGSV,4,4,13,06,01,162,,1*54
$GLGSV,2,1,07,73,73,012,28,83,51,111,,82,40,046,,74,38,302,,1*7E
$GLGSV,2,2,07,72,30,293,22,80,29,092,27,71,17,241,25,1*4C
$GAGSV,3,1,10,25,82,332,31,03,40,235,27,24,37,076,26,08,33,301,29,7*7D
$GAGSV,3,2,10,02,32,267,25,10,29,099,28,12,29,071,24,11,21,127,21,7*78
$GAGSV,3,3,10,05,11,188,23,33,08,020,19,7*75
$GBGSV,3,1,12,36,73,299,40,46,50,107,,27,47,075,38,30,46,156,37,1*79
$GBGSV,3,2,12,57,21,073,,45,21,292,31,21,15,309,32,28,15,038,33,1*71
$GBGSV,3,3,12,22,13,259,34,29,05,194,29,13,03,318,26,08,03,308,18,1*71
$GNRMC,002124.000,A,4910.425738,N,12304.400574,W,0.01,342.49,061224,,,D,V*17
$GNVTG,342.49,T,,M,0.01,N,0.03,K,D*2C
$GNGGA,002125.000,4910.425798,N,12304.400538,W,2,31,0.46,6.270,M,-16.816,M,,*46
$GNGLL,4910.425798,N,12304.400538,W,002125.000,A,D*53
$GNGSA,A,3,22,17,14,19,13,15,30,24,02,21,,,0.83,0.46,0.69,1*0E
$GNGSA,A,3,73,72,80,71,,,,,,,,,0.83,0.46,0.69,2*0B
$GNGSA,A,3,25,03,24,08,02,10,12,05,33,,,,0.83,0.46,0.69,3*0A
$GNGSA,A,3,36,27,30,45,21,28,22,29,,,,,0.83,0.46,0.69,4*02
$GPGSV,4,1,13,22,79,041,34,17,72,134,37,14,58,074,35,19,49,192,35,1*6A
$GPGSV,4,2,13,13,38,221,33,46,33,188,32,15,30,263,31,30,26,139,31,1*66
$GPGSV,4,3,13,24,26,307,30,02,24,052,31,21,14,035,25,10,02,346,13,1*62
$GPGSV,4,4,13,06,01,162,,1*54
$GLGSV,2,1,07,73,73,012,28,83,51,111,,82,40,046,,74,38,302,,1*7E
$GLGSV,2,2,07,72,30,293,22,80,29,092,27,71,17,241,25,1*4C
$GAGSV,3,1,10,25,82,332,31,03,40,235,27,24,37,076,26,08,33,301,29,7*7D
$GAGSV,3,2,10,02,32,267,25,10,29,099,28,12,29,071,24,11,21,127,21,7*78
$GAGSV,3,3,10,05,11,188,23,33,08,020,19,7*75
$GBGSV,3,1,12,36,73,299,40,46,50,107,,27,47,075,39,30,46,156,37,1*78
$GBGSV,3,2,12,57,22,072,,45,21,292,31,21,15,309,33,28,15,038,33,1*72
$GBGSV,3,3,12,22,13,259,34,29,05,194,29,13,03,318,26,08,03,308,18,1*71
$GNRMC,002125.000,A,4910.425798,N,12304.400538,W,0.01,342.49,061224,,,D,V*14
$GNVTG,342.49,T,,M,0.01,N,0.03,K,D*2C
$GNGGA,002126.000,4910.425852,N,12304.400526,W,2,31,0.46,6.321,M,-16.816,M,,*46
$GNGLL,4910.425852,N,12304.400526,W,002126.000,A,D*56
$GNGSA,A,3,22,17,14,19,13,15,30,24,02,21,,,0.83,0.46,0.69,1*0E
$GNGSA,A,3,73,72,80,71,,,,,,,,,0.83,0.46,0.69,2*0B
$GNGSA,A,3,25,03,24,08,02,10,12,05,33,,,,0.83,0.46,0.69,3*0A
$GNGSA,A,3,36,27,30,45,21,28,22,29,,,,,0.83,0.46,0.69,4*02
$GPGSV,4,1,13,22,79,041,34,17,72,134,37,14,58,074,35,19,49,192,35,1*6A
$GPGSV,4,2,13,13,38,221,33,46,33,188,32,15,30,263,31,30,26,139,31,1*66
$GPGSV,4,3,13,24,26,307,30,02,24,052,32,21,14,035,25,10,02,346,12,1*60
$GPGSV,4,4,13,06,01,162,,1*54
$GLGSV,2,1,07,73,73,012,28,83,51,111,,82,40,046,,74,38,302,,1*7E
$GLGSV,2,2,07,72,30,293,22,80,29,092,28,71,17,241,25,1*43
$GAGSV,3,1,10,25,82,332,31,03,40,235,27,24,37,076,26,08,33,301,29,7*7D
$GAGSV,3,2,10,02,32,267,25,10,29,099,28,12,29,071,24,11,21,127,21,7*78
$GAGSV,3,3,10,05,11,188,23,33,08,020,19,7*75
$GBGSV,3,1,12,36,73,299,40,46,50,107,,27,47,075,39,30,46,156,37,1*78
$GBGSV,3,2,12,57,22,072,,45,21,292,31,21,15,309,33,28,15,038,33,1*72
$GBGSV,3,3,12,22,13,259,34,29,05,194,29,13,03,318,26,08,03,308,18,1*71
$GNRMC,002126.000,A,4910.425852,N,12304.400526,W,0.01,342.49,061224,,,D,V*11
$GNVTG,342.49,T,,M,0.01,N,0.03,K,D*2C
$GNGGA,002127.000,4910.425930,N,12304.400574,W,2,31,0.46,6.254,M,-16.816,M,,*46
$GNGLL,4910.425930,N,12304.400574,W,002127.000,A,D*55
$GNGSA,A,3,22,17,14,19,13,15,30,24,02,21,,,0.83,0.46,0.69,1*0E
$GNGSA,A,3,73,72,80,71,,,,,,,,,0.83,0.46,0.69,2*0B
$GNGSA,A,3,25,03,24,08,02,10,12,05,33,,,,0.83,0.46,0.69,3*0A
$GNGSA,A,3,36,27,30,45,21,28,22,29,,,,,0.83,0.46,0.69,4*02
$GPGSV,4,1,13,22,79,041,34,17,72,134,37,14,58,074,35,19,49,192,35,1*6A
$GPGSV,4,2,13,13,38,221,33,46,33,188,32,15,30,263,31,30,26,139,31,1*66
$GPGSV,4,3,13,24,26,307,30,02,24,052,32,21,14,035,25,10,02,346,12,1*60
$GPGSV,4,4,13,06,01,162,,1*54
$GLGSV,2,1,07,73,73,012,27,83,51,111,,82,40,046,,74,38,302,,1*71
$GLGSV,2,2,07,72,30,293,21,80,29,092,28,71,17,241,25,1*40
$GAGSV,3,1,10,25,82,332,31,03,40,235,27,24,37,076,26,08,33,301,29,7*7D
$GAGSV,3,2,10,02,32,267,25,10,29,099,28,12,29,071,24,11,21,127,21,7*78
$GAGSV,3,3,10,05,11,188,23,33,08,020,19,7*75
$GBGSV,3,1,12,36,73,299,41,46,50,107,,27,47,075,39,30,46,156,37,1*79
$GBGSV,3,2,12,57,22,072,,45,21,292,31,21,15,309,33,28,15,038,33,1*72
$GBGSV,3,3,12,22,13,259,34,29,05,194,29,13,03,318,26,08,03,308,18,1*71
$GNRMC,002127.000,A,4910.425930,N,12304.400574,W,0.01,342.49,061224,,,D,V*12
