$GNGGA,004325.000,4910.428060,N,12304.399590,W,2,34,0.43,8.492,M,-16.816,M,,*4E
$GNGLL,4910.428060,N,12304.399590,W,004325.000,A,D*5F
$GNGSA,A,3,17,22,19,14,24,13,15,02,30,21,06,12,0.75,0.43,0.61,1*0F
$GNGSA,A,3,80,82,71,79,,,,,,,,,0.75,0.43,0.61,2*0A
$GNGSA,A,3,30,27,29,34,07,36,15,02,,,,,0.75,0.43,0.61,3*0F
$GNGSA,A,3,45,29,30,36,26,42,35,14,21,33,,,0.75,0.43,0.61,4*08
$GPGSV,4,1,14,17,73,101,37,22,72,062,36,19,58,191,34,14,50,081,36,1*61
$GPGSV,4,2,14,24,34,305,31,46,33,187,32,13,30,215,32,15,25,254,31,1*6B
$GPGSV,4,3,14,02,21,044,28,30,17,142,28,21,09,030,29,06,09,159,28,1*6F
$GPGSV,4,4,14,12,05,269,19,10,01,339,,1*6B
$GLGSV,2,1,07,80,69,052,31,82,56,115,24,83,27,163,,71,26,286,20,1*72
$GLGSV,2,2,07,79,22,100,26,72,17,337,,65,15,338,,1*4F
$GAGSV,3,1,10,30,63,070,33,27,59,279,32,29,38,270,31,34,33,098,29,7*7F
$GAGSV,3,2,10,07,23,209,27,36,21,041,25,19,21,319,19,15,14,149,25,7*7D
$GAGSV,3,3,10,02,12,083,24,21,07,268,17,7*70
$GBGSV,3,1,10,45,88,063,39,29,56,142,37,30,37,056,36,36,36,114,34,1*72
$GBGSV,3,2,10,26,32,296,34,42,14,293,29,35,13,194,28,14,11,319,25,1*72
$GBGSV,3,3,10,21,06,247,26,33,05,343,28,1*7C
$GNRMC,004325.000,A,4910.428060,N,12304.399590,W,0.01,29.77,051224,,,D,V*28
$GNVTG,29.77,T,,M,0.01,N,0.02,K,D*1E
$GNGGA,004326.000,4910.428018,N,12304.399518,W,2,34,0.43,8.471,M,-16.816,M,,*4F
$GNGLL,4910.428018,N,12304.399518,W,004326.000,A,D*53
$GNGSA,A,3,17,22,19,14,24,13,15,02,30,21,06,12,0.75,0.43,0.61,1*0F
$GNGSA,A,3,80,82,71,79,,,,,,,,,0.75,0.43,0.61,2*0A
$GNGSA,A,3,30,27,29,34,07,36,15,02,,,,,0.75,0.43,0.61,3*0F
$GNGSA,A,3,45,29,30,36,26,42,35,14,21,33,,,0.75,0.43,0.61,4*08
$GPGSV,4,1,14,17,73,101,37,22,72,062,36,19,58,191,34,14,50,081,36,1*61
$GPGSV,4,2,14,24,34,305,31,46,33,187,32,13,30,215,32,15,25,254,31,1*6B
$GPGSV,4,3,14,02,21,044,28,30,17,142,28,21,09,030,29,06,09,159,28,1*6F
$GPGSV,4,4,14,12,05,269,19,10,01,339,,1*6B
$GLGSV,2,1,07,80,69,052,31,82,56,115,24,83,27,163,,71,26,286,20,1*72
$GLGSV,2,2,07,79,22,100,26,72,17,337,,65,15,338,,1*4F
$GAGSV,3,1,10,30,63,070,33,27,59,279,32,29,38,270,31,34,33,098,29,7*7F
$GAGSV,3,2,10,07,23,209,27,36,21,041,25,19,21,319,19,15,14,149,25,7*7D
$GAGSV,3,3,10,02,12,083,24,21,07,268,17,7*70
$GBGSV,3,1,10,45,88,063,39,29,56,142,37,30,37,056,36,36,36,114,34,1*72
$GBGSV,3,2,10,26,32,296,34,42,14,293,29,35,13,194,28,14,11,319,25,1*72
$GBGSV,3,3,10,21,06,247,26,33,05,343,28,1*7C
$GNRMC,004326.000,A,4910.428018,N,12304.399518,W,0.01,29.77,051224,,,D,V*24
$GNVTG,29.77,T,,M,0.01,N,0.02,K,D*1E
$GNGGA,004327.000,4910.427964,N,12304.399434,W,2,34,0.43,8.423,M,-16.816,M,,*4B
$GNGLL,4910.427964,N,12304.399434,W,004327.000,A,D*50
$GNGSA,A,3,17,22,19,14,24,13,15,02,30,21,06,12,0.75,0.43,0.61,1*0F
$GNGSA,A,3,80,82,71,79,,,,,,,,,0.75,0.43,0.61,2*0A
$GNGSA,A,3,30,27,29,34,07,36,15,02,,,,,0.75,0.43,0.61,3*0F
$GNGSA,A,3,45,29,30,36,26,42,35,14,21,33,,,0.75,0.43,0.61,4*08
$GPGSV,4,1,14,17,73,101,37,22,72,062,36,19,58,191,34,14,50,081,36,1*61
$GPGSV,4,2,14,24,34,305,31,46,33,187,33,13,30,215,32,15,25,254,31,1*6A
$GPGSV,4,3,14,02,21,044,28,30,17,142,28,21,09,030,29,06,09,159,28,1*6F
$GPGSV,4,4,14,12,05,269,19,10,01,339,,1*6B
$GLGSV,2,1,07,80,69,052,31,82,56,115,24,83,27,163,,71,26,286,21,1*73
$GLGSV,2,2,07,79,22,100,26,72,17,337,,65,15,338,,1*4F
$GAGSV,3,1,10,30,63,070,33,27,59,279,32,29,38,270,31,34,33,098,29,7*7F
$GAGSV,3,2,10,07,23,209,27,36,21,041,25,19,21,319,19,15,14,149,25,7*7D
$GAGSV,3,3,10,02,12,083,24,21,07,268,17,7*70
$GBGSV,3,1,10,45,88,063,39,29,56,142,37,30,37,056,36,36,36,114,34,1*72
$GBGSV,3,2,10,26,32,296,34,42,14,293,29,35,13,194,28,14,11,319,25,1*72
$GBGSV,3,3,10,21,06,247,26,33,05,343,28,1*7C
$GNRMC,004327.000,A,4910.427964,N,12304.399434,W,0.02,29.77,051224,,,D,V*24
$GNVTG,29.77,T,,M,0.02,N,0.03,K,D*1C
$GNGGA,004328.000,4910.427886,N,12304.399410,W,2,34,0.43,8.479,M,-16.816,M,,*40
$GNGLL,4910.427886,N,12304.399410,W,004328.000,A,D*54
$GNGSA,A,3,17,22,19,14,24,13,15,02,30,21,06,12,0.75,0.43,0.61,1*0F
$GNGSA,A,3,80,82,71,79,,,,,,,,,0.75,0.43,0.61,2*0A
$GNGSA,A,3,30,27,29,34,07,36,15,02,,,,,0.75,0.43,0.61,3*0F
$GNGSA,A,3,45,29,30,36,26,42,35,14,21,33,,,0.75,0.43,0.61,4*08
$GPGSV,4,1,14,17,73,101,37,22,72,062,36,19,58,191,34,14,50,081,36,1*61
$GPGSV,4,2,14,24,34,305,31,46,33,187,33,13,30,215,32,15,25,254,31,1*6A
$GPGSV,4,3,14,02,21,044,29,30,17,142,28,21,09,030,29,06,09,159,28,1*6E
$GPGSV,4,4,14,12,05,269,19,10,01,339,,1*6B
$GLGSV,2,1,07,80,69,052,31,82,56,115,24,83,27,163,,71,26,286,21,1*73
$GLGSV,2,2,07,79,22,100,25,72,17,337,,65,15,338,,1*4C
$GAGSV,3,1,10,30,63,070,33,27,59,279,32,29,38,270,31,34,33,098,29,7*7F
$GAGSV,3,2,10,07,23,209,27,36,21,041,25,19,21,319,19,15,14,149,25,7*7D
$GAGSV,3,3,10,02,12,083,24,21,07,268,17,7*70
$GBGSV,3,1,10,45,88,063,39,29,56,142,37,30,37,056,36,36,36,114,34,1*72
$GBGSV,3,2,10,26,32,296,34,42,14,293,29,35,13,194,28,14,11,319,25,1*72
$GBGSV,3,3,10,21,06,247,26,33,05,343,28,1*7C
$GNRMC,004328.000,A,4910.427886,N,12304.399410,W,0.02,29.77,051224,,,D,V*20
$GNVTG,29.77,T,,M,0.02,N,0.03,K,D*1C
$GNGGA,004329.000,4910.427838,N,12304.399386,W,2,34,0.43,8.558,M,-16.817,M,,*4F
$GNGLL,4910.427838,N,12304.399386,W,004329.000,A,D*58
$GNGSA,A,3,17,22,19,14,24,13,15,02,30,21,06,12,0.75,0.43,0.61,1*0F
$GNGSA,A,3,80,82,71,79,,,,,,,,,0.75,0.43,0.61,2*0A
$GNGSA,A,3,30,27,29,34,07,36,15,02,,,,,0.75,0.43,0.61,3*0F
$GNGSA,A,3,45,29,30,36,26,42,35,14,21,33,,,0.75,0.43,0.61,4*08
$GPGSV,4,1,14,17,73,101,37,22,72,062,36,19,58,191,34,14,50,081,36,1*61
$GPGSV,4,2,14,24,34,305,31,46,33,187,33,13,30,215,32,15,25,254,31,1*6A
$GPGSV,4,3,14,02,21,044,29,30,17,142,28,21,09,030,29,06,09,159,28,1*6E
$GPGSV,4,4,14,12,05,269,20,10,01,339,,1*61
$GLGSV,2,1,07,80,69,052,31,82,56,115,23,83,27,163,,71,26,286,20,1*75
$GLGSV,2,2,07,79,22,100,25,72,17,337,,65,15,338,,1*4C
$GAGSV,3,1,10,30,63,070,33,27,59,279,32,29,38,270,31,34,33,098,29,7*7F
$GAGSV,3,2,10,07,23,209,27,36,21,041,25,19,21,319,19,15,14,149,25,7*7D
$GAGSV,3,3,10,02,12,083,24,21,07,268,17,7*70
$GBGSV,3,1,10,45,88,063,39,29,56,142,37,30,37,056,36,36,36,114,34,1*72
$GBGSV,3,2,10,26,32,296,34,42,14,293,29,35,13,194,28,14,11,319,25,1*72
$GBGSV,3,3,10,21,06,247,26,33,05,343,28,1*7C
$GNRMC,004329.000,A,4910.427838,N,12304.399386,W,0.02,29.77,051224,,,D,V*2C
$GNVTG,29.77,T,,M,0.02,N,0.03,K,D*1C
$GNGGA,004330.000,4910.427844,N,12304.399338,W,2,34,0.43,8.614,M,-16.817,M,,*42
