$GNGGA,195158.000,4910.425486,N,12304.402206,W,2,28,0.54,2.565,M,-16.816,M,,*4B
$GNGLL,4910.425486,N,12304.402206,W,195158.000,A,D*52
$GNGSA,A,3,07,09,04,30,20,16,27,08,05,,,,0.95,0.54,0.78,1*07
$GNGSA,A,3,69,79,78,68,80,87,,,,,,,0.95,0.54,0.78,2*07
$GNGSA,A,3,09,31,05,06,24,04,,,,,,,0.95,0.54,0.78,3*0B
$GNGSA,A,3,37,20,23,32,19,38,34,,,,,,0.95,0.54,0.78,4*04
$GPGSV,3,1,11,07,75,283,30,09,67,144,29,04,37,130,26,30,37,264,25,1*6D
$GPGSV,3,2,11,44,33,171,27,20,29,298,26,16,26,048,27,27,25,084,24,1*6B
$GPGSV,3,3,11,08,21,119,19,05,12,327,18,14,03,210,17,1*54
$GLGSV,2,1,07,69,83,261,39,79,77,238,38,78,45,042,22,68,38,153,29,1*7A
$GLGSV,2,2,07,80,21,227,29,70,20,324,,87,10,030,21,1*46
$GAGSV,3,1,09,09,69,132,26,31,65,096,27,05,53,300,25,06,44,128,22,7*7B
$GAGSV,3,2,09,24,41,189,26,04,19,126,18,15,08,322,15,34,03,275,,7*73
$GAGSV,3,3,09,03,03,304,,7*4D
$GBGSV,4,1,15,37,83,211,33,20,66,256,34,58,66,252,,23,41,061,27,1*70
$GBGSV,4,2,15,32,33,168,28,19,29,313,28,46,26,235,,38,17,331,24,1*70
$GBGSV,4,3,15,08,12,341,20,31,09,335,,43,06,075,16,11,06,055,15,1*72
$GBGSV,4,4,15,34,06,032,17,13,04,346,16,12,02,006,,1*43
$GNRMC,195158.000,A,4910.425486,N,12304.402206,W,0.12,116.46,051224,,,D,V*18
$GNVTG,116.46,T,,M,0.12,N,0.22,K,D*21
$PAIRLOG,Full*51
$GNGGA,195159.000,4910.425444,N,12304.402284,W,2,28,0.54,2.500,M,-16.816,M,,*4D
$GNGLL,4910.425444,N,12304.402284,W,195159.000,A,D*57
$GNGSA,A,3,07,09,04,30,20,16,27,08,05,,,,0.95,0.54,0.78,1*07
$GNGSA,A,3,69,79,78,68,80,87,,,,,,,0.95,0.54,0.78,2*07
$GNGSA,A,3,09,31,05,06,24,04,,,,,,,0.95,0.54,0.78,3*0B
$GNGSA,A,3,37,20,23,32,19,38,34,,,,,,0.95,0.54,0.78,4*04
$GPGSV,3,1,11,07,75,283,30,09,67,144,29,04,37,130,26,30,37,264,25,1*6D
$GPGSV,3,2,11,44,33,171,27,20,29,298,26,16,26,048,26,27,25,084,24,1*6A
$GPGSV,3,3,11,08,21,119,19,05,12,327,18,14,03,210,17,1*54
$GLGSV,2,1,07,69,83,261,39,79,77,238,38,78,45,042,22,68,38,153,28,1*7B
$GLGSV,2,2,07,80,21,227,29,70,20,324,,87,10,030,22,1*45
$GAGSV,3,1,09,09,69,132,26,31,65,096,27,05,53,300,25,06,44,128,22,7*7B
$GAGSV,3,2,09,24,41,189,26,04,19,126,18,15,08,322,15,34,03,275,,7*73
$GAGSV,3,3,09,03,03,304,,7*4D
$GBGSV,4,1,15,37,83,211,33,20,66,256,34,58,66,252,,23,41,061,27,1*70
$GBGSV,4,2,15,32,33,168,28,19,29,313,28,46,26,235,,38,17,331,24,1*70
$GBGSV,4,3,15,08,12,341,20,31,09,335,,43,06,075,16,11,06,055,15,1*72
$GBGSV,4,4,15,34,06,032,17,13,04,346,16,12,02,006,,1*43
$GNRMC,195159.000,A,4910.425444,N,12304.402284,W,0.12,116.46,051224,,,D,V*1D
$GNVTG,116.46,T,,M,0.12,N,0.22,K,D*21
$PAIRLOG,Full*51
$GNGGA,195200.000,4910.425366,N,12304.402272,W,2,28,0.54,2.480,M,-16.816,M,,*45
$GNGLL,4910.425366,N,12304.402272,W,195200.000,A,D*56
$GNGSA,A,3,07,09,04,30,20,16,27,08,05,,,,0.95,0.54,0.78,1*07
$GNGSA,A,3,69,79,78,68,80,87,,,,,,,0.95,0.54,0.78,2*07
$GNGSA,A,3,09,31,05,06,24,04,,,,,,,0.95,0.54,0.78,3*0B
$GNGSA,A,3,37,20,23,32,19,38,34,,,,,,0.95,0.54,0.78,4*04
$GPGSV,3,1,11,07,75,283,30,09,67,144,30,04,37,130,26,30,37,264,25,1*65
$GPGSV,3,2,11,44,33,171,27,20,29,298,26,16,26,048,26,27,25,084,24,1*6A
$GPGSV,3,3,11,08,21,119,19,05,12,327,20,14,03,210,17,1*5F
$GLGSV,2,1,07,69,83,261,39,79,77,238,38,78,45,042,22,68,38,153,28,1*7B
$GLGSV,2,2,07,80,21,227,29,70,20,324,,87,10,030,22,1*45
$GAGSV,3,1,09,09,69,132,26,31,65,096,27,05,53,300,26,06,44,128,22,7*78
$GAGSV,3,2,09,24,41,189,26,04,19,126,18,15,08,322,16,34,03,275,,7*70
$GAGSV,3,3,09,03,03,304,,7*4D
$GBGSV,4,1,15,37,83,211,33,20,66,256,34,58,66,252,,23,41,061,27,1*70
$GBGSV,4,2,15,32,33,168,28,19,29,313,28,46,26,235,,38,17,331,24,1*70
$GBGSV,4,3,15,08,12,341,20,31,09,335,,43,06,075,16,11,06,055,15,1*72
$GBGSV,4,4,15,34,06,032,18,13,04,346,16,12,02,006,,1*4C
$GNRMC,195200.000,A,4910.425366,N,12304.402272,W,0.12,116.46,051224,,,D,V*1C
$GNVTG,116.46,T,,M,0.12,N,0.22,K,D*21
$PAIRLOG,Full*51
$GNGGA,195201.000,4910.425318,N,12304.402362,W,2,28,0.54,2.470,M,-16.816,M,,*42
$GNGLL,4910.425318,N,12304.402362,W,195201.000,A,D*5E
$GNGSA,A,3,07,09,04,30,20,16,27,08,05,,,,0.95,0.54,0.78,1*07
$GNGSA,A,3,69,79,78,68,80,87,,,,,,,0.95,0.54,0.78,2*07
$GNGSA,A,3,09,31,05,06,24,04,,,,,,,0.95,0.54,0.78,3*0B
$GNGSA,A,3,37,20,23,32,19,38,34,,,,,,0.95,0.54,0.78,4*04
$GPGSV,3,1,11,07,75,283,30,09,67,144,30,04,37,130,26,30,37,264,25,1*65
$GPGSV,3,2,11,44,33,171,27,20,29,298,26,16,26,048,25,27,25,084,23,1*6E
$GPGSV,3,3,11,08,21,119,19,05,12,327,20,14,03,210,17,1*5F
$GLGSV,2,1,07,69,83,261,39,79,77,238,38,78,45,042,22,68,38,153,28,1*7B
$GLGSV,2,2,07,80,21,227,29,70,20,324,,87,10,030,22,1*45
$GAGSV,3,1,09,09,69,132,26,31,65,096,27,05,53,300,26,06,44,128,22,7*78
$GAGSV,3,2,09,24,41,189,26,04,19,126,18,15,08,322,16,03,03,304,,7*73
$GAGSV,3,3,09,13,01,009,,7*40
$GBGSV,4,1,15,37,83,211,33,20,66,256,34,58,66,252,,23,41,061,27,1*70
$GBGSV,4,2,15,32,33,168,28,19,29,313,29,46,26,235,,38,17,331,24,1*71
$GBGSV,4,3,15,08,12,341,20,31,09,335,,43,06,075,16,11,06,055,15,1*72
$GBGSV,4,4,15,34,06,032,18,13,04,346,16,12,02,006,,1*4C
$GNRMC,195201.000,A,4910.425318,N,12304.402362,W,0.12,116.46,051224,,,D,V*14
$GNVTG,116.46,T,,M,0.12,N,0.22,K,D*21
$PAIRLOG,Full*51
$GNGGA,195202.000,4910.425348,N,12304.402374,W,2,28,0.54,2.503,M,-16.816,M,,*46
$GNGLL,4910.425348,N,12304.402374,W,195202.000,A,D*5F
$GNGSA,A,3,07,09,04,30,20,16,27,08,05,,,,0.95,0.54,0.78,1*07
$GNGSA,A,3,69,79,78,68,80,87,,,,,,,0.95,0.54,0.78,2*07
$GNGSA,A,3,09,31,05,06,24,04,,,,,,,0.95,0.54,0.78,3*0B
$GNGSA,A,3,37,20,23,32,19,38,34,,,,,,0.95,0.54,0.78,4*04
$GPGSV,3,1,11,07,75,283,30,09,67,144,30,04,37,130,26,30,37,264,25,1*65
$GPGSV,3,2,11,44,33,171,27,20,29,298,26,16,26,048,26,27,25,084,23,1*6D
$GPGSV,3,3,11,08,21,119,18,05,12,327,19,14,03,210,17,1*54
$GLGSV,2,1,07,69,83,261,38,79,77,238,38,78,45,042,22,68,38,153,28,1*7A
$GLGSV,2,2,07,80,21,227,29,70,20,324,,87,10,030,21,1*46
$GAGSV,3,1,09,09,69,132,26,31,65,096,27,05,53,300,26,06,44,128,22,7*78
$GAGSV,3,2,09,24,41,189,26,04,19,126,18,15,08,322,16,03,03,304,,7*73
$GAGSV,3,3,09,13,01,009,,7*40
$GBGSV,4,1,15,37,83,211,33,20,66,256,34,58,66,252,,23,41,061,28,1*7F
$GBGSV,4,2,15,32,33,168,29,19,29,313,29,46,26,235,,38,17,331,24,1*70
$GBGSV,4,3,15,08,12,341,21,31,09,335,,43,06,075,16,11,06,055,16,1*70
$GBGSV,4,4,15,34,06,032,19,13,04,346,17,12,02,006,,1*4C
$GNRMC,195202.000,A,4910.425348,N,12304.402374,W,0.11,116.46,051224,,,D,V*16
$GNVTG,116.46,T,,M,0.11,N,0.20,K,D*20
$PAIRLOG,Full*51
$GNGGA,195203.000,4910.425210,N,12304.402566,W,2,28,0.54,2.449,M,-16.817,M,,*40
$GNGLL,4910.425210,N,12304.402566,W,195203.000,A,D*57
$GNGSA,A,3,07,09,04,30,20,16,27,08,05,,,,0.95,0.54,0.78,1*07
$GNGSA,A,3,69,79,78,68,80,87,,,,,,,0.95,0.54,0.78,2*07
$GNGSA,A,3,09,31,05,06,24,04,,,,,,,0.95,0.54,0.78,3*0B
$GNGSA,A,3,37,20,23,32,19,38,34,,,,,,0.95,0.54,0.78,4*04
$GPGSV,3,1,11,07,75,283,30,09,67,144,30,04,37,130,26,30,37,264,25,1*65
$GPGSV,3,2,11,44,33,171,27,20,29,298,26,16,26,048,26,27,25,084,23,1*6D
$GPGSV,3,3,11,08,21,119,18,05,12,327,19,14,03,210,17,1*54
$GLGSV,2,1,07,69,83,261,38,79,77,238,38,78,45,042,22,68,38,153,28,1*7A
$GLGSV,2,2,07,80,21,227,29,70,20,324,,87,10,030,21,1*46
$GAGSV,3,1,09,09,69,132,26,31,65,096,27,05,53,300,26,06,44,128,22,7*78
$GAGSV,3,2,09,24,41,189,26,04,19,126,18,15,08,322,16,03,03,304,,7*73
$GAGSV,3,3,09,13,01,009,,7*40
$GBGSV,4,1,15,37,83,211,34,20,66,256,35,58,66,252,,23,41,061,28,1*79
$GBGSV,4,2,15,32,33,168,29,19,29,313,29,46,26,235,,38,17,331,24,1*70
$GBGSV,4,3,15,08,12,341,21,31,09,335,,43,06,075,16,11,06,055,16,1*70
$GBGSV,4,4,15,34,06,032,19,13,04,346,17,12,02,006,,1*4C
$GNRMC,195203.000,A,4910.425210,N,12304.402566,W,0.10,116.46,051224,,,D,V*1F
$GNVTG,116.46,T,,M,0.10,N,0.19,K,D*2B
$PAIRLOG,Full*51
$GNGGA,195204.000,4910.425186,N,12304.402638,W,2,28,0.54,2.469,M,-16.817,M,,*41
$GNGLL,4910.425186,N,12304.402638,W,195204.000,A,D*54
$GNGSA,A,3,07,09,04,30,20,16,27,08,05,,,,0.95,0.54,0.78,1*07
$GNGSA,A,3,69,79,78,68,80,87,,,,,,,0.95,0.54,0.78,2*07
$GNGSA,A,3,09,31,05,06,24,04,,,,,,,0.95,0.54,0.78,3*0B
$GNGSA,A,3,37,20,23,32,19,38,34,,,,,,0.95,0.54,0.78,4*04
$GPGSV,3,1,11,07,75,283,30,09,67,144,30,04,37,130,26,30,37,264,25,1*65
$GPGSV,3,2,11,44,33,171,27,20,29,298,26,16,26,048,25,27,25,084,24,1*69
$GPGSV,3,3,11,08,21,119,18,05,12,327,20,14,03,210,17,1*5E
$GLGSV,2,1,07,69,83,261,38,79,77,238,38,78,45,042,22,68,38,153,28,1*7A
$GLGSV,2,2,07,80,21,227,29,70,20,324,,87,10,030,21,1*46
$GAGSV,3,1,09,09,69,132,26,31,65,096,27,05,53,300,26,06,44,128,22,7*78
$GAGSV,3,2,09,24,41,189,26,04,19,126,18,15,08,322,16,03,03,304,,7*73
$GAGSV,3,3,09,13,01,009,,7*40
$GBGSV,4,1,15,37,83,211,34,20,66,256,35,58,66,252,,23,41,061,28,1*79
$GBGSV,4,2,15,32,33,168,29,19,29,313,29,46,26,235,,38,17,331,24,1*70
$GBGSV,4,3,15,08,12,341,21,31,09,335,,43,06,075,16,11,06,055,16,1*70
$GBGSV,4,4,15,34,06,032,19,13,04,346,17,12,02,006,,1*4C
$GNRMC,195204.000,A,4910.425186,N,12304.402638,W,0.08,116.46,051224,,,D,V*15
$GNVTG,116.46,T,,M,0.08,N,0.14,K,D*2F
$PAIRLOG,Full*51
$GNGGA,195205.000,4910.425120,N,12304.402710,W,2,28,0.54,2.487,M,-16.816,M,,*46
$GNGLL,4910.425120,N,12304.402710,W,195205.000,A,D*52
$GNGSA,A,3,07,09,04,30,20,16,27,08,05,,,,0.95,0.54,0.78,1*07
$GNGSA,A,3,69,79,78,68,80,87,,,,,,,0.95,0.54,0.78,2*07
$GNGSA,A,3,09,31,05,06,24,04,,,,,,,0.95,0.54,0.78,3*0B
$GNGSA,A,3,37,20,23,32,19,38,34,,,,,,0.95,0.54,0.78,4*04
$GPGSV,3,1,11,07,75,283,30,09,67,144,30,04,37,130,26,30,37,264,25,1*65
$GPGSV,3,2,11,44,33,171,27,20,29,298,26,16,26,048,25,27,25,084,23,1*6E
$GPGSV,3,3,11,08,21,119,18,05,12,327,20,14,03,210,17,1*5E
$GLGSV,2,1,07,69,83,261,38,79,77,238,38,78,45,042,23,68,38,153,28,1*7B
$GLGSV,2,2,07,80,21,227,29,70,20,324,,87,10,030,21,1*46
$GAGSV,3,1,09,09,69,132,26,31,65,096,27,05,53,300,26,06,44,128,22,7*78
$GAGSV,3,2,09,24,41,189,26,04,19,126,18,15,08,322,15,03,03,304,,7*70
$GAGSV,3,3,09,13,01,009,,7*40
$GBGSV,4,1,15,37,83,211,34,20,66,256,35,58,66,252,,23,41,061,28,1*79
$GBGSV,4,2,15,32,33,168,29,19,29,313,29,46,26,235,,38,17,331,24,1*70
$GBGSV,4,3,15,08,12,341,20,31,09,335,,43,06,075,16,11,06,055,15,1*72
$GBGSV,4,4,15,34,06,032,19,13,04,346,17,12,02,006,,1*4C
$GNRMC,195205.000,A,4910.425120,N,12304.402710,W,0.05,116.46,051224,,,D,V*1E
$GNVTG,116.46,T,,M,0.05,N,0.10,K,D*26
$PAIRLOG,Full*51
$GNGGA,195206.000,4910.425048,N,12304.402800,W,2,28,0.54,2.418,M,-16.817,M,,*43
$GNGLL,4910.425048,N,12304.402800,W,195206.000,A,D*50
$GNGSA,A,3,07,09,04,30,20,16,27,08,05,,,,0.95,0.54,0.78,1*07
$GNGSA,A,3,69,79,78,68,80,87,,,,,,,0.95,0.54,0.78,2*07
$GNGSA,A,3,09,31,05,06,24,04,,,,,,,0.95,0.54,0.78,3*0B
$GNGSA,A,3,37,20,23,32,19,38,34,,,,,,0.95,0.54,0.78,4*04
$GPGSV,3,1,11,07,75,283,29,09,67,144,30,04,37,130,26,30,37,264,24,1*6C
$GPGSV,3,2,11,44,33,171,26,20,29,298,24,16,26,048,25,27,25,084,22,1*6C
$GPGSV,3,3,11,08,21,119,18,05,12,327,19,14,03,210,17,1*54
$GLGSV,2,1,07,69,83,261,38,79,77,238,38,78,45,042,23,68,38,153,28,1*7B
$GLGSV,2,2,07,80,21,227,29,70,20,324,,87,10,030,20,1*47
$GAGSV,3,1,09,09,69,132,26,31,65,096,26,05,53,300,25,06,44,128,22,7*7A
$GAGSV,3,2,09,24,41,189,25,04,19,126,18,15,08,322,15,03,03,304,,7*73
$GAGSV,3,3,09,13,01,009,,7*40
$GBGSV,4,1,15,37,83,211,33,20,66,256,34,58,66,252,,23,41,061,28,1*7F
$GBGSV,4,2,15,32,33,168,29,19,29,313,29,46,26,235,,38,17,331,24,1*70
$GBGSV,4,3,15,08,12,341,20,31,09,335,,43,06,075,16,11,06,055,15,1*72
$GBGSV,4,4,15,34,06,032,19,13,04,346,17,12,02,006,,1*4C
$GNRMC,195206.000,A,4910.425048,N,12304.402800,W,0.03,116.46,051224,,,D,V*1A
$GNVTG,116.46,T,,M,0.03,N,0.06,K,D*27
$PAIRLOG,Full*51
$GNGGA,195207.000,4910.424988,N,12304.402860,W,2,28,0.54,2.536,M,-16.816,M,,*4C
$GNGLL,4910.424988,N,12304.402860,W,195207.000,A,D*53
$GNGSA,A,3,07,09,04,30,20,16,27,08,05,,,,0.95,0.54,0.78,1*07
$GNGSA,A,3,69,79,78,68,80,87,,,,,,,0.95,0.54,0.78,2*07
$GNGSA,A,3,09,31,05,06,24,04,,,,,,,0.95,0.54,0.78,3*0B
$GNGSA,A,3,37,20,23,32,19,38,34,,,,,,0.95,0.54,0.78,4*04
$GPGSV,3,1,11,07,75,283,29,09,67,144,29,04,37,130,25,30,37,264,23,1*60
$GPGSV,3,2,11,44,33,171,26,20,29,298,23,16,26,048,23,27,25,084,20,1*6F
$GPGSV,3,3,11,08,21,119,17,05,12,327,17,14,03,210,16,1*54
$GLGSV,2,1,07,69,83,261,38,79,77,238,38,78,45,042,23,68,38,153,28,1*7B
$GLGSV,2,2,07,80,21,227,29,70,20,324,,87,10,030,20,1*47
$GAGSV,3,1,09,09,69,132,25,31,65,096,25,05,53,300,24,06,44,128,21,7*78
$GAGSV,3,2,09,24,41,189,25,04,19,126,18,15,08,322,15,03,03,304,,7*73
$GAGSV,3,3,09,13,01,009,,7*40
$GBGSV,4,1,15,37,83,211,33,20,66,256,34,58,66,252,,23,41,061,28,1*7F
$GBGSV,4,2,15,32,33,168,29,19,29,313,29,46,26,235,,38,17,331,24,1*70
$GBGSV,4,3,15,08,12,341,20,31,09,335,,43,06,075,16,11,06,055,15,1*72
$GBGSV,4,4,15,34,06,032,19,13,04,346,17,12,02,006,,1*4C
$GNRMC,195207.000,A,4910.424988,N,12304.402860,W,0.02,116.46,051224,,,D,V*18
$GNVTG,116.46,T,,M,0.02,N,0.03,K,D*23
$PAIRLOG,Full*51
$GNGGA,195208.000,4910.425042,N,12304.402806,W,2,28,0.54,2.424,M,-16.816,M,,*4F
$GNGLL,4910.425042,N,12304.402806,W,195208.000,A,D*52
$GNGSA,A,3,07,09,04,30,20,16,27,08,05,,,,0.95,0.54,0.78,1*07
$GNGSA,A,3,69,79,78,68,80,87,,,,,,,0.95,0.54,0.78,2*07
$GNGSA,A,3,09,31,05,06,24,04,,,,,,,0.95,0.54,0.78,3*0B
$GNGSA,A,3,37,20,23,32,19,38,34,,,,,,0.95,0.54,0.78,4*04
$GPGSV,3,1,11,07,75,283,29,09,67,144,29,04,37,130,25,30,37,265,23,1*61
$GPGSV,3,2,11,44,33,171,26,20,29,298,24,16,26,048,23,27,25,084,22,1*6A
$GPGSV,3,3,11,08,21,119,17,05,12,327,19,14,03,210,16,1*5A
$GLGSV,2,1,07,69,83,261,39,79,77,238,38,78,45,042,23,68,38,153,27,1*75
$GLGSV,2,2,07,80,21,227,29,70,20,324,,87,10,030,21,1*46
$GAGSV,3,1,09,09,69,132,25,31,65,096,25,05,53,300,23,06,44,128,21,7*7F
$GAGSV,3,2,09,24,41,189,24,04,19,126,18,15,08,322,15,03,03,304,,7*72
$GAGSV,3,3,09,13,01,009,,7*40
$GBGSV,4,1,15,37,83,211,33,20,66,256,34,58,66,252,,23,41,061,28,1*7F
$GBGSV,4,2,15,32,33,168,29,19,29,313,29,46,26,235,,38,17,331,24,1*70
$GBGSV,4,3,15,08,12,341,20,31,09,335,,43,06,075,16,11,06,055,15,1*72
$GBGSV,4,4,15,34,06,032,19,13,04,346,17,12,02,006,,1*4C
$GNRMC,195208.000,A,4910.425042,N,12304.402806,W,0.26,116.46,051224,,,D,V*1F
$GNVTG,116.46,T,,M,0.26,N,0.48,K,D*2A
$PAIRLOG,Full*51
$GNGGA,195209.000,4910.424988,N,12304.402860,W,2,28,0.54,2.535,M,-16.816,M,,*41
$GNGLL,4910.424988,N,12304.402860,W,195209.000,A,D*5D
$GNGSA,A,3,07,09,04,30,20,16,27,08,05,,,,0.95,0.54,0.78,1*07
$GNGSA,A,3,69,79,78,68,80,87,,,,,,,0.95,0.54,0.78,2*07
$GNGSA,A,3,09,31,05,06,24,04,,,,,,,0.95,0.54,0.78,3*0B
$GNGSA,A,3,37,20,23,32,19,38,34,,,,,,0.95,0.54,0.78,4*04
$GPGSV,3,1,11,07,75,283,29,09,67,144,29,04,37,130,25,30,37,265,23,1*61
$GPGSV,3,2,11,44,33,171,26,20,29,298,25,16,26,048,25,27,25,084,22,1*6D
$GPGSV,3,3,11,08,21,119,18,05,12,327,19,14,03,210,16,1*55
$GLGSV,2,1,07,69,83,261,39,79,77,238,38,78,45,042,22,68,38,153,27,1*74
$GLGSV,2,2,07,80,21,227,29,70,20,324,,87,10,030,22,1*45
$GAGSV,3,1,09,09,69,132,25,31,65,096,25,05,53,300,23,06,44,128,21,7*7F
$GAGSV,3,2,09,24,41,189,24,04,19,126,18,15,08,322,15,03,03,304,,7*72
$GAGSV,3,3,09,13,01,009,,7*40
$GBGSV,4,1,15,37,83,211,33,20,66,256,34,58,66,252,,23,41,061,28,1*7F
$GBGSV,4,2,15,32,33,168,29,19,29,313,29,46,26,235,,38,17,331,24,1*70
$GBGSV,4,3,15,08,12,341,20,31,09,335,,43,06,075,16,11,06,055,15,1*72
$GBGSV,4,4,15,34,06,032,19,13,04,346,17,12,02,006,,1*4C
$GNRMC,195209.000,A,4910.424988,N,12304.402860,W,0.07,116.46,051224,,,D,V*13
$GNVTG,116.46,T,,M,0.07,N,0.13,K,D*27
$PAIRLOG,Full*51
$GNGGA,195210.000,4910.425006,N,12304.402860,W,2,28,0.54,2.537,M,-16.816,M,,*45
$GNGLL,4910.425006,N,12304.402860,W,195210.000,A,D*5B
$GNGSA,A,3,07,09,04,30,20,16,27,08,05,,,,0.95,0.54,0.78,1*07
$GNGSA,A,3,69,79,78,68,80,87,,,,,,,0.95,0.54,0.78,2*07
$GNGSA,A,3,09,31,05,06,24,04,,,,,,,0.95,0.54,0.78,3*0B
$GNGSA,A,3,37,20,23,32,19,38,34,,,,,,0.95,0.54,0.78,4*04
$GPGSV,3,1,11,07,75,283,29,09,66,144,29,04,37,130,26,30,37,265,23,1*63
$GPGSV,3,2,11,44,33,171,26,20,29,298,25,16,26,048,25,27,25,084,22,1*6D
$GPGSV,3,3,11,08,21,119,18,05,12,327,20,14,03,210,16,1*5F
$GLGSV,2,1,07,69,83,259,39,79,77,239,38,78,45,042,22,68,38,154,27,1*79
$GLGSV,2,2,07,80,22,227,29,70,20,324,,87,10,029,22,1*4E
$GAGSV,3,1,09,09,69,132,25,31,65,095,25,05,53,300,24,06,44,128,21,7*7B
$GAGSV,3,2,09,24,41,189,24,04,19,126,18,15,08,321,15,03,03,304,,7*71
$GAGSV,3,3,09,13,01,009,,7*40
$GBGSV,4,1,15,37,83,211,33,20,66,255,34,58,66,253,,23,41,061,28,1*7D
$GBGSV,4,2,15,32,33,168,29,19,29,313,29,46,26,236,,38,17,331,24,1*73
$GBGSV,4,3,15,08,12,341,20,31,09,335,,43,06,075,16,11,06,054,15,1*73
$GBGSV,4,4,15,34,06,032,18,13,04,346,17,12,02,006,,1*4D
$GNRMC,195210.000,A,4910.425006,N,12304.402860,W,0.07,116.46,051224,,,D,V*15
$GNVTG,116.46,T,,M,0.07,N,0.13,K,D*27
$PAIRLOG,Full*51
$GNGGA,195211.000,4910.424988,N,12304.402896,W,2,28,0.54,2.521,M,-16.816,M,,*44
$GNGLL,4910.424988,N,12304.402896,W,195211.000,A,D*5D
$GNGSA,A,3,07,09,04,30,20,16,27,08,05,,,,0.95,0.54,0.78,1*07
$GNGSA,A,3,69,79,78,68,80,87,,,,,,,0.95,0.54,0.78,2*07
$GNGSA,A,3,09,31,05,06,24,04,,,,,,,0.95,0.54,0.78,3*0B
$GNGSA,A,3,37,20,23,32,19,38,34,,,,,,0.95,0.54,0.78,4*04
$GPGSV,3,1,11,07,75,283,29,09,66,144,29,04,37,130,26,30,37,265,24,1*64
$GPGSV,3,2,11,44,33,171,26,20,29,298,25,16,26,048,25,27,25,084,22,1*6D
$GPGSV,3,3,11,08,21,119,18,05,12,327,21,14,03,210,16,1*5E
$GLGSV,2,1,07,69,83,259,39,79,77,239,38,78,45,042,22,68,38,154,27,1*79
$GLGSV,2,2,07,80,22,227,29,70,20,324,,87,10,029,23,1*4F
$GAGSV,3,1,09,09,69,132,25,31,65,095,26,05,53,300,25,06,44,128,22,7*7A
$GAGSV,3,2,09,24,41,189,25,04,19,126,18,15,08,321,15,34,03,275,,7*73
$GAGSV,3,3,09,03,03,304,,7*4D
$GBGSV,4,1,15,37,83,211,33,20,66,255,34,58,66,253,,23,41,061,28,1*7D
$GBGSV,4,2,15,32,33,168,29,19,29,313,29,46,26,236,,38,17,331,24,1*73
$GBGSV,4,3,15,08,12,341,20,31,09,335,,43,06,075,16,11,06,054,15,1*73
$GBGSV,4,4,15,34,06,032,18,13,04,346,17,12,02,006,,1*4D
$GNRMC,195211.000,A,4910.424988,N,12304.402896,W,0.04,116.46,051224,,,D,V*10
$GNVTG,116.46,T,,M,0.04,N,0.08,K,D*2E
$PAIRLOG,Full*51
$GNGGA,195212.000,4910.424988,N,12304.402902,W,2,28,0.54,2.460,M,-16.817,M,,*4E
$GNGLL,4910.424988,N,12304.402902,W,195212.000,A,D*52
$GNGSA,A,3,07,09,04,30,20,16,27,08,05,,,,0.95,0.54,0.78,1*07
$GNGSA,A,3,69,79,78,68,80,87,,,,,,,0.95,0.54,0.78,2*07
$GNGSA,A,3,09,31,05,06,24,04,,,,,,,0.95,0.54,0.78,3*0B
$GNGSA,A,3,37,20,23,32,19,38,34,,,,,,0.95,0.54,0.78,4*04
$GPGSV,3,1,11,07,75,283,29,09,66,144,29,04,37,130,26,30,37,265,23,1*63
$GPGSV,3,2,11,44,33,171,26,20,29,298,25,16,26,048,25,27,25,084,22,1*6D
$GPGSV,3,3,11,08,21,119,19,05,12,327,20,14,03,210,16,1*5E
$GLGSV,2,1,07,69,83,259,39,79,77,239,38,78,45,042,22,68,38,154,27,1*79
$GLGSV,2,2,07,80,22,227,29,70,20,324,,87,10,029,23,1*4F
$GAGSV,3,1,09,09,69,132,25,31,65,095,26,05,53,300,25,06,44,128,22,7*7A
$GAGSV,3,2,09,24,41,189,25,04,19,126,18,15,08,321,15,03,03,304,,7*70
$GAGSV,3,3,09,13,01,009,,7*40
$GBGSV,4,1,15,37,83,211,33,20,66,255,34,58,66,253,,23,41,061,28,1*7D
$GBGSV,4,2,15,32,33,168,29,19,29,313,29,46,26,236,,38,17,331,24,1*73
$GBGSV,4,3,15,08,12,341,20,31,09,335,,43,06,075,16,11,06,054,15,1*73
$GBGSV,4,4,15,34,06,032,18,13,04,346,17,12,02,006,,1*4D
$GNRMC,195212.000,A,4910.424988,N,12304.402902,W,0.03,116.46,051224,,,D,V*18
$GNVTG,116.46,T,,M,0.03,N,0.05,K,D*24
$PAIRLOG,Full*51
$GNGGA,195213.000,4910.425018,N,12304.402908,W,2,28,0.54,2.431,M,-16.816,M,,*41
$GNGLL,4910.425018,N,12304.402908,W,195213.000,A,D*58
$GNGSA,A,3,07,09,04,30,20,16,27,08,05,,,,0.95,0.54,0.78,1*07
$GNGSA,A,3,69,79,78,68,80,87,,,,,,,0.95,0.54,0.78,2*07
$GNGSA,A,3,09,31,05,06,24,04,,,,,,,0.95,0.54,0.78,3*0B
$GNGSA,A,3,37,20,23,32,19,38,34,,,,,,0.95,0.54,0.78,4*04
$GPGSV,3,1,11,07,75,283,30,09,66,144,30,04,37,130,27,30,37,265,26,1*67
$GPGSV,3,2,11,44,33,171,26,20,29,298,26,16,26,048,26,27,25,084,22,1*6D
$GPGSV,3,3,11,08,21,119,19,05,12,327,20,14,03,210,16,1*5E
$GLGSV,2,1,07,69,83,259,39,79,77,239,38,78,45,042,22,68,38,154,27,1*79
$GLGSV,2,2,07,80,22,227,30,70,20,324,,87,10,029,23,1*47
$GAGSV,3,1,09,09,69,132,26,31,65,095,27,05,53,300,25,06,44,128,22,7*78
$GAGSV,3,2,09,24,41,189,25,04,19,126,18,15,08,321,15,03,03,304,,7*70
$GAGSV,3,3,09,13,01,009,,7*40
$GBGSV,4,1,15,37,83,211,33,20,66,255,34,58,66,253,,23,41,061,28,1*7D
$GBGSV,4,2,15,32,33,168,29,19,29,313,29,46,26,236,,38,17,331,24,1*73
$GBGSV,4,3,15,08,12,341,20,31,09,335,,43,06,075,16,11,06,054,16,1*70
$GBGSV,4,4,15,34,06,032,18,13,04,346,17,12,02,006,,1*4D
$GNRMC,195213.000,A,4910.425018,N,12304.402908,W,0.02,116.46,051224,,,D,V*13
$GNVTG,116.46,T,,M,0.02,N,0.04,K,D*24
$PAIRLOG,Full*51
$GNGGA,195214.000,4910.424994,N,12304.402926,W,2,28,0.54,2.388,M,-16.816,M,,*43
$GNGLL,4910.424994,N,12304.402926,W,195214.000,A,D*5F
$GNGSA,A,3,07,09,04,30,20,16,27,08,05,,,,0.95,0.54,0.78,1*07
$GNGSA,A,3,69,79,78,68,80,87,,,,,,,0.95,0.54,0.78,2*07
$GNGSA,A,3,09,31,05,06,24,04,,,,,,,0.95,0.54,0.78,3*0B
$GNGSA,A,3,37,20,23,32,19,38,34,,,,,,0.95,0.54,0.78,4*04
$GPGSV,3,1,11,07,75,283,31,09,66,144,31,04,37,130,28,30,37,265,26,1*68
$GPGSV,3,2,11,44,33,171,27,20,29,298,26,16,26,048,27,27,25,084,22,1*6D
$GPGSV,3,3,11,08,21,119,20,05,12,327,22,14,03,210,17,1*57
$GLGSV,2,1,07,69,83,259,39,79,77,239,38,78,45,042,22,68,38,154,27,1*79
$GLGSV,2,2,07,80,22,227,30,70,20,324,,87,10,029,23,1*47
$GAGSV,3,1,10,09,69,132,27,31,65,095,28,05,53,300,26,06,44,128,22,7*7D
$GAGSV,3,2,10,24,41,189,25,04,19,126,19,15,08,321,15,34,03,275,,7*7A
$GAGSV,3,3,10,03,03,304,,13,01,009,,7*7F
$GBGSV,4,1,14,37,83,211,33,20,66,255,34,23,41,061,28,32,33,168,29,1*70
$GBGSV,4,2,14,19,29,313,29,46,26,236,,38,17,331,24,08,12,341,20,1*78
$GBGSV,4,3,14,31,09,335,,11,06,054,16,34,06,032,18,43,06,075,16,1*77
$GBGSV,4,4,14,13,04,346,17,12,02,006,,1*75
$GNRMC,195214.000,A,4910.424994,N,12304.402926,W,0.02,116.46,051224,,,D,V*14
$GNVTG,116.46,T,,M,0.02,N,0.03,K,D*23
$PAIRLOG,Full*51
$GNGGA,195215.000,4910.425000,N,12304.402854,W,2,28,0.54,2.399,M,-16.817,M,,*42
$GNGLL,4910.425000,N,12304.402854,W,195215.000,A,D*5F
$GNGSA,A,3,07,09,04,30,20,16,27,08,05,,,,0.95,0.54,0.78,1*07
$GNGSA,A,3,69,79,78,68,80,87,,,,,,,0.95,0.54,0.78,2*07
$GNGSA,A,3,09,31,05,06,24,04,,,,,,,0.95,0.54,0.78,3*0B
$GNGSA,A,3,37,20,23,32,19,38,34,,,,,,0.95,0.54,0.78,4*04
$GPGSV,3,1,11,07,75,283,31,09,66,144,31,04,37,130,28,30,37,265,25,1*6B
$GPGSV,3,2,11,44,33,171,27,20,29,298,26,16,26,048,25,27,25,084,21,1*6C
$GPGSV,3,3,11,08,21,119,20,05,12,327,22,14,03,210,17,1*57
$GLGSV,2,1,07,69,83,259,39,79,77,239,38,78,45,042,21,68,38,154,28,1*75
$GLGSV,2,2,07,80,22,227,30,70,20,324,,87,10,029,23,1*47
$GAGSV,3,1,09,09,69,132,27,31,65,095,27,05,53,300,26,06,44,128,22,7*7A
$GAGSV,3,2,09,24,41,189,25,04,19,126,19,15,08,321,15,03,03,304,,7*71
$GAGSV,3,3,09,13,01,009,,7*40
$GBGSV,4,1,15,37,83,211,33,20,66,255,34,58,66,253,,23,41,061,28,1*7D
$GBGSV,4,2,15,32,33,168,29,19,29,313,29,46,26,236,,38,17,331,24,1*73
$GBGSV,4,3,15,08,12,341,20,31,09,335,,43,06,075,16,11,06,054,16,1*70
$GBGSV,4,4,15,34,06,032,18,13,04,346,17,12,02,006,,1*4D
$GNRMC,195215.000,A,4910.425000,N,12304.402854,W,0.01,116.46,051224,,,D,V*17
$GNVTG,116.46,T,,M,0.01,N,0.02,K,D*21
$PAIRLOG,Full*51
$GNGGA,195216.000,4910.425030,N,12304.402914,W,2,28,0.54,2.371,M,-16.816,M,,*40
$GNGLL,4910.425030,N,12304.402914,W,195216.000,A,D*5A
$GNGSA,A,3,07,09,04,30,20,16,27,08,05,,,,0.95,0.54,0.78,1*07
$GNGSA,A,3,69,79,78,68,80,87,,,,,,,0.95,0.54,0.78,2*07
$GNGSA,A,3,09,31,05,06,24,04,,,,,,,0.95,0.54,0.78,3*0B
$GNGSA,A,3,37,20,23,32,19,38,34,,,,,,0.95,0.54,0.78,4*04
$GPGSV,3,1,11,07,75,283,32,09,66,144,31,04,37,130,28,30,37,265,25,1*68
$GPGSV,3,2,11,44,33,171,27,20,29,298,26,16,26,048,26,27,25,084,21,1*6F
$GPGSV,3,3,11,08,21,119,21,05,12,327,22,14,03,210,17,1*56
$GLGSV,2,1,07,69,83,259,39,79,77,239,38,78,45,042,20,68,38,154,28,1*74
$GLGSV,2,2,07,80,22,227,30,70,20,324,,87,10,029,23,1*47
$GAGSV,3,1,09,09,69,132,27,31,65,095,27,05,53,300,26,06,44,128,23,7*7B
$GAGSV,3,2,09,24,41,189,25,04,19,126,19,15,08,321,15,03,03,304,,7*71
$GAGSV,3,3,09,13,01,009,,7*40
$GBGSV,4,1,15,37,83,211,33,20,66,255,34,58,66,253,,23,41,061,28,1*7D
$GBGSV,4,2,15,32,33,168,29,19,29,313,29,46,26,236,,38,17,331,24,1*73
$GBGSV,4,3,15,08,12,341,20,31,09,335,,43,06,075,15,11,06,054,16,1*73
$GBGSV,4,4,15,34,06,032,18,13,04,346,17,12,02,006,,1*4D
$GNRMC,195216.000,A,4910.425030,N,12304.402914,W,0.01,116.46,051224,,,D,V*12
$GNVTG,116.46,T,,M,0.01,N,0.03,K,D*20
$PAIRLOG,Full*51
$GNGGA,195217.000,4910.424976,N,12304.402998,W,2,28,0.54,2.299,M,-16.816,M,,*48
$GNGLL,4910.424976,N,12304.402998,W,195217.000,A,D*55
$GNGSA,A,3,07,09,04,30,20,16,27,08,05,,,,0.95,0.54,0.78,1*07
$GNGSA,A,3,69,79,78,68,80,87,,,,,,,0.95,0.54,0.78,2*07
$GNGSA,A,3,09,31,05,06,24,04,,,,,,,0.95,0.54,0.78,3*0B
$GNGSA,A,3,37,20,23,32,19,38,34,,,,,,0.95,0.54,0.78,4*04
$GPGSV,3,1,11,07,75,283,32,09,66,144,32,04,37,130,28,30,37,265,26,1*68
$GPGSV,3,2,11,44,33,171,27,20,29,298,26,16,26,048,27,27,25,084,21,1*6E
$GPGSV,3,3,11,08,21,119,22,05,12,327,22,14,03,210,18,1*5A
$GLGSV,2,1,07,69,83,259,39,79,77,239,38,78,45,042,20,68,38,154,28,1*74
$GLGSV,2,2,07,80,22,227,30,70,20,324,,87,10,029,23,1*47
$GAGSV,3,1,09,09,69,132,27,31,65,095,27,05,53,300,26,06,44,128,23,7*7B
$GAGSV,3,2,09,24,41,189,25,04,19,126,19,15,08,321,15,03,03,304,,7*71
$GAGSV,3,3,09,13,01,009,,7*40
$GBGSV,4,1,15,37,83,211,33,20,66,255,34,58,66,253,,23,41,061,28,1*7D
$GBGSV,4,2,15,32,33,168,29,19,29,313,29,46,26,236,,38,17,331,24,1*73
$GBGSV,4,3,15,08,12,341,21,31,09,335,,43,06,075,15,11,06,054,16,1*72
$GBGSV,4,4,15,34,06,032,19,13,04,346,17,12,02,006,,1*4C
$GNRMC,195217.000,A,4910.424976,N,12304.402998,W,0.02,116.46,051224,,,D,V*1E
$GNVTG,116.46,T,,M,0.02,N,0.03,K,D*23
$PAIRLOG,Full*51
$GNGGA,195218.000,4910.424952,N,12304.402992,W,2,28,0.54,2.401,M,-16.817,M,,*4D
$GNGLL,4910.424952,N,12304.402992,W,195218.000,A,D*56
$GNGSA,A,3,07,09,04,30,20,16,27,08,05,,,,0.95,0.54,0.78,1*07
$GNGSA,A,3,69,79,78,68,80,87,,,,,,,0.95,0.54,0.78,2*07
$GNGSA,A,3,09,31,05,06,24,04,,,,,,,0.95,0.54,0.78,3*0B
$GNGSA,A,3,37,20,23,32,19,38,34,,,,,,0.95,0.54,0.78,4*04
$GPGSV,3,1,11,07,75,283,32,09,66,144,32,04,37,130,29,30,37,265,26,1*69
$GPGSV,3,2,11,44,33,171,27,20,29,298,26,16,26,048,28,27,25,084,21,1*61
$GPGSV,3,3,11,08,21,119,22,05,12,327,23,14,03,210,18,1*5B
$GLGSV,2,1,07,69,83,259,39,79,77,239,38,78,45,042,19,68,38,154,28,1*7E
$GLGSV,2,2,07,80,22,227,30,70,20,324,,87,10,029,23,1*47
$GAGSV,3,1,09,09,69,132,27,31,65,095,28,05,53,300,26,06,44,128,23,7*74
$GAGSV,3,2,09,24,41,189,25,04,19,126,19,15,08,321,15,03,03,304,,7*71
$GAGSV,3,3,09,13,01,009,,7*40
$GBGSV,4,1,15,37,83,211,33,20,66,255,34,58,66,253,,23,41,061,28,1*7D
$GBGSV,4,2,15,32,33,168,29,19,29,313,29,46,26,236,,38,17,331,24,1*73
$GBGSV,4,3,15,08,12,341,21,31,09,335,,43,06,075,15,11,06,054,17,1*73
$GBGSV,4,4,15,34,06,032,19,13,04,346,17,12,02,006,,1*4C
$GNRMC,195218.000,A,4910.424952,N,12304.402992,W,0.02,116.46,051224,,,D,V*1D
$GNVTG,116.46,T,,M,0.02,N,0.03,K,D*23
$PAIRLOG,Full*51
$GNGGA,195219.000,4910.424940,N,12304.403022,W,2,28,0.54,2.451,M,-16.817,M,,*49
$GNGLL,4910.424940,N,12304.403022,W,195219.000,A,D*57
$GNGSA,A,3,07,09,04,30,20,16,27,08,05,,,,0.95,0.54,0.78,1*07
$GNGSA,A,3,69,79,78,68,80,87,,,,,,,0.95,0.54,0.78,2*07
$GNGSA,A,3,09,31,05,06,24,04,,,,,,,0.95,0.54,0.78,3*0B
$GNGSA,A,3,37,20,23,32,19,38,34,,,,,,0.95,0.54,0.78,4*04
$GPGSV,3,1,11,07,75,283,32,09,66,144,32,04,37,130,29,30,37,265,26,1*69
$GPGSV,3,2,11,44,33,171,27,20,29,298,26,16,26,048,28,27,25,084,21,1*61
$GPGSV,3,3,11,08,21,119,22,05,12,327,24,14,03,210,18,1*5C
$GLGSV,2,1,07,69,83,259,39,79,77,239,38,78,45,042,19,68,38,154,28,1*7E
$GLGSV,2,2,07,80,22,227,30,70,20,324,,87,10,029,23,1*47
$GAGSV,3,1,09,09,69,132,27,31,65,095,28,05,53,300,26,06,44,128,23,7*74
$GAGSV,3,2,09,24,41,189,25,04,19,126,19,15,08,321,15,03,03,304,,7*71
$GAGSV,3,3,09,13,01,009,,7*40
$GBGSV,4,1,15,37,83,211,33,20,66,255,34,58,66,253,,23,41,061,28,1*7D
$GBGSV,4,2,15,32,33,168,28,19,29,313,29,46,26,236,,38,17,331,24,1*72
$GBGSV,4,3,15,08,12,341,20,31,09,335,,43,06,075,15,11,06,054,17,1*72
$GBGSV,4,4,15,34,06,032,19,13,04,346,17,12,02,006,,1*4C
$GNRMC,195219.000,A,4910.424940,N,12304.403022,W,0.02,116.46,051224,,,D,V*1C
$GNVTG,116.46,T,,M,0.02,N,0.04,K,D*24
$PAIRLOG,Full*51
$GNGGA,195220.000,4910.424922,N,12304.403052,W,2,28,0.54,2.638,M,-16.817,M,,*4D
$GNGLL,4910.424922,N,12304.403052,W,195220.000,A,D*5E
$GNGSA,A,3,07,09,04,30,20,16,27,08,05,,,,0.95,0.54,0.78,1*07
$GNGSA,A,3,69,79,78,68,80,87,,,,,,,0.95,0.54,0.78,2*07
$GNGSA,A,3,09,31,05,06,24,04,,,,,,,0.95,0.54,0.78,3*0B
$GNGSA,A,3,37,20,23,32,19,38,34,,,,,,0.95,0.54,0.78,4*04
$GPGSV,3,1,11,07,75,283,32,09,66,144,32,04,37,130,29,30,37,265,25,1*6A
$GPGSV,3,2,11,44,33,171,27,20,29,298,26,16,26,048,28,27,25,084,21,1*61
$GPGSV,3,3,11,08,21,119,22,05,12,327,23,14,03,210,18,1*5B
$GLGSV,2,1,07,69,83,259,39,79,77,239,38,78,45,042,20,68,38,154,28,1*74
$GLGSV,2,2,07,80,22,227,30,70,20,324,,87,10,029,23,1*47
$GAGSV,3,1,09,09,69,132,27,31,65,095,28,05,53,300,26,06,44,128,23,7*74
$GAGSV,3,2,09,24,41,189,25,04,19,126,19,15,08,321,16,34,03,275,,7*71
$GAGSV,3,3,09,03,03,304,,7*4D
$GBGSV,4,1,15,37,83,211,33,20,66,255,34,58,66,253,,23,41,061,28,1*7D
$GBGSV,4,2,15,32,33,168,28,19,29,313,29,46,26,236,,38,17,331,24,1*72
$GBGSV,4,3,15,08,12,341,20,31,09,335,,43,06,075,15,11,06,054,17,1*72
$GBGSV,4,4,15,34,06,032,19,13,04,346,17,12,02,006,,1*4C
$GNRMC,195220.000,A,4910.424922,N,12304.403052,W,0.03,116.46,051224,,,D,V*14
$GNVTG,116.46,T,,M,0.03,N,0.05,K,D*24
$PAIRLOG,Full*51
$GNGGA,195221.000,4910.424880,N,12304.403112,W,2,28,0.54,2.653,M,-16.816,M,,*4C
$GNGLL,4910.424880,N,12304.403112,W,195221.000,A,D*53
$GNGSA,A,3,07,09,04,30,20,16,27,08,05,,,,0.95,0.54,0.78,1*07
$GNGSA,A,3,69,79,78,68,80,87,,,,,,,0.95,0.54,0.78,2*07
$GNGSA,A,3,09,31,05,06,24,04,,,,,,,0.95,0.54,0.78,3*0B
$GNGSA,A,3,37,20,23,32,19,38,34,,,,,,0.95,0.54,0.78,4*04
$GPGSV,3,1,11,07,75,283,32,09,66,144,32,04,37,130,29,30,37,265,25,1*6A
$GPGSV,3,2,11,44,33,171,27,20,29,298,26,16,26,048,27,27,25,084,22,1*6D
$GPGSV,3,3,11,08,21,119,23,05,12,327,25,14,03,210,18,1*5C
$GLGSV,2,1,07,69,83,259,39,79,77,239,38,78,45,042,20,68,38,154,28,1*74
$GLGSV,2,2,07,80,22,227,30,70,20,324,,87,10,029,24,1*40
$GAGSV,3,1,09,09,69,132,27,31,65,095,28,05,53,300,27,06,44,128,23,7*75
$GAGSV,3,2,09,24,41,189,25,04,19,126,19,15,08,321,16,34,03,275,,7*71
$GAGSV,3,3,09,03,03,304,,7*4D
$GBGSV,4,1,15,37,83,211,33,20,66,255,33,58,66,253,,23,41,061,27,1*75
$GBGSV,4,2,15,32,33,168,28,19,29,313,29,46,26,236,,38,17,331,24,1*72
$GBGSV,4,3,15,08,12,341,20,31,09,335,,43,06,075,15,11,06,054,16,1*73
$GBGSV,4,4,15,34,06,032,19,13,04,346,17,12,02,006,,1*4C
$GNRMC,195221.000,A,4910.424880,N,12304.403112,W,0.03,116.46,051224,,,D,V*19
$GNVTG,116.46,T,,M,0.03,N,0.06,K,D*27
$PAIRLOG,Full*51
$GNGGA,195222.000,4910.424874,N,12304.403160,W,2,28,0.54,2.669,M,-16.816,M,,*48
$GNGLL,4910.424874,N,12304.403160,W,195222.000,A,D*5E
$GNGSA,A,3,07,09,04,30,20,16,27,08,05,,,,0.95,0.54,0.78,1*07
$GNGSA,A,3,69,79,78,68,80,87,,,,,,,0.95,0.54,0.78,2*07
$GNGSA,A,3,09,31,05,06,24,04,,,,,,,0.95,0.54,0.78,3*0B
$GNGSA,A,3,37,20,23,32,19,38,34,,,,,,0.95,0.54,0.78,4*04
$GPGSV,3,1,11,07,75,283,31,09,66,144,31,04,37,130,28,30,37,265,21,1*6F
$GPGSV,3,2,11,44,33,171,26,20,29,298,25,16,26,048,26,27,25,084,21,1*6D
$GPGSV,3,3,11,08,21,119,22,05,12,327,21,14,03,210,18,1*59
$GLGSV,2,1,07,69,83,259,39,79,77,239,38,78,45,042,20,68,38,154,28,1*74
$GLGSV,2,2,07,80,22,227,30,70,20,324,,87,10,029,24,1*40
$GAGSV,3,1,09,09,69,132,26,31,65,095,27,05,53,300,26,06,44,128,23,7*7A
$GAGSV,3,2,09,24,41,189,24,04,19,126,19,15,08,321,16,34,03,275,,7*70
$GAGSV,3,3,09,03,03,304,,7*4D
$GBGSV,4,1,15,37,83,211,33,20,66,255,33,58,66,253,,23,41,061,27,1*75
$GBGSV,4,2,15,32,33,168,28,19,29,313,29,46,26,236,,38,17,331,23,1*75
$GBGSV,4,3,15,08,12,341,20,31,09,335,,43,06,075,15,11,06,054,16,1*73
$GBGSV,4,4,15,34,06,032,18,13,04,346,17,12,02,006,,1*4D
$GNRMC,195222.000,A,4910.424874,N,12304.403160,W,0.04,116.46,051224,,,D,V*13
$GNVTG,116.46,T,,M,0.04,N,0.08,K,D*2E
$PAIRLOG,Full*51
$GNGGA,195223.000,4910.424796,N,12304.403214,W,2,28,0.54,2.628,M,-16.816,M,,*4F
$GNGLL,4910.424796,N,12304.403214,W,195223.000,A,D*5C
$GNGSA,A,3,07,09,04,30,20,16,27,08,05,,,,0.95,0.54,0.78,1*07
$GNGSA,A,3,69,79,78,68,80,87,,,,,,,0.95,0.54,0.78,2*07
$GNGSA,A,3,09,31,05,06,24,04,,,,,,,0.95,0.54,0.78,3*0B
$GNGSA,A,3,37,20,23,32,19,38,34,,,,,,0.95,0.54,0.78,4*04
$GPGSV,3,1,11,07,75,283,31,09,66,144,31,04,37,130,28,30,37,265,23,1*6D
$GPGSV,3,2,11,44,33,171,26,20,29,298,25,16,26,048,26,27,25,084,20,1*6C
$GPGSV,3,3,11,08,21,119,22,05,12,327,22,14,03,210,18,1*5A
$GLGSV,2,1,07,69,83,259,39,79,77,239,38,78,45,042,19,68,38,154,28,1*7E
$GLGSV,2,2,07,80,22,227,30,70,20,324,,87,10,029,24,1*40
$GAGSV,3,1,09,09,69,132,26,31,65,095,27,05,53,300,25,06,44,128,23,7*79
$GAGSV,3,2,09,24,41,189,24,04,19,126,18,15,08,321,16,34,03,275,,7*71
$GAGSV,3,3,09,03,03,304,,7*4D
$GBGSV,4,1,15,37,83,211,33,20,66,255,33,58,66,253,,23,41,061,27,1*75
$GBGSV,4,2,15,32,33,168,28,19,29,313,29,46,26,236,,38,17,331,23,1*75
$GBGSV,4,3,15,08,12,341,20,31,09,335,,43,06,075,15,11,06,054,16,1*73
$GBGSV,4,4,15,34,06,032,18,13,04,346,17,12,02,006,,1*4D
$GNRMC,195223.000,A,4910.424796,N,12304.403214,W,0.06,116.46,051224,,,D,V*13
$GNVTG,116.46,T,,M,0.06,N,0.11,K,D*24
$PAIRLOG,Full*51
$GNGGA,195224.000,4910.424826,N,12304.403268,W,2,28,0.54,2.641,M,-16.816,M,,*48
$GNGLL,4910.424826,N,12304.403268,W,195224.000,A,D*54
$GNGSA,A,3,07,09,04,30,20,16,27,08,05,,,,0.95,0.54,0.78,1*07
$GNGSA,A,3,69,79,78,68,80,87,,,,,,,0.95,0.54,0.78,2*07
$GNGSA,A,3,09,31,05,06,24,04,,,,,,,0.95,0.54,0.78,3*0B
$GNGSA,A,3,37,20,23,32,19,38,34,,,,,,0.95,0.54,0.78,4*04
$GPGSV,3,1,11,07,75,283,31,09,66,144,31,04,37,130,28,30,37,265,23,1*6D
$GPGSV,3,2,11,44,33,171,26,20,29,298,25,16,26,048,26,27,25,084,20,1*6C
$GPGSV,3,3,11,08,21,119,22,05,12,327,23,14,04,210,18,1*5C
$GLGSV,2,1,07,69,83,259,39,79,77,239,38,78,45,042,19,68,38,154,28,1*7E
$GLGSV,2,2,07,80,22,227,30,70,20,324,,87,10,029,24,1*40
$GAGSV,3,1,09,09,69,132,26,31,65,095,27,05,53,300,25,06,44,128,23,7*79
$GAGSV,3,2,09,24,41,189,24,04,19,126,18,15,08,321,16,34,03,275,,7*71
$GAGSV,3,3,09,03,03,304,,7*4D
$GBGSV,4,1,15,37,83,211,32,20,66,255,33,58,66,253,,23,41,061,27,1*74
$GBGSV,4,2,15,32,33,168,27,19,29,313,28,46,26,236,,38,17,331,23,1*7B
$GBGSV,4,3,15,08,12,341,20,31,09,335,,43,06,075,15,11,06,054,16,1*73
$GBGSV,4,4,15,34,06,032,18,13,04,346,17,12,02,006,,1*4D
$GNRMC,195224.000,A,4910.424826,N,12304.403268,W,0.07,116.46,051224,,,D,V*1A
$GNVTG,116.46,T,,M,0.07,N,0.13,K,D*27
$PAIRLOG,Full*51
$GNGGA,195225.000,4910.424802,N,12304.403352,W,2,28,0.54,2.540,M,-16.816,M,,*45
$GNGLL,4910.424802,N,12304.403352,W,195225.000,A,D*5B
$GNGSA,A,3,07,09,04,30,20,16,27,08,05,,,,0.95,0.54,0.78,1*07
$GNGSA,A,3,69,79,78,68,80,87,,,,,,,0.95,0.54,0.78,2*07
$GNGSA,A,3,09,31,05,06,24,04,,,,,,,0.95,0.54,0.78,3*0B
$GNGSA,A,3,37,20,23,32,19,38,34,,,,,,0.95,0.54,0.78,4*04
$GPGSV,3,1,11,07,75,283,31,09,66,144,31,04,37,130,28,30,37,265,22,1*6C
$GPGSV,3,2,11,44,33,171,26,20,29,298,25,16,26,048,25,27,25,084,20,1*6F
$GPGSV,3,3,11,08,21,119,22,05,12,327,24,14,04,210,18,1*5B
$GLGSV,2,1,07,69,83,259,39,79,77,239,38,78,45,042,19,68,38,154,29,1*7F
$GLGSV,2,2,07,80,22,227,30,70,20,324,,87,10,029,24,1*40
$GAGSV,3,1,09,09,69,132,26,31,65,095,27,05,53,300,24,06,44,128,23,7*78
$GAGSV,3,2,09,24,41,189,24,04,19,126,18,15,08,321,16,03,03,304,,7*72
$GAGSV,3,3,09,13,01,009,,7*40
$GBGSV,4,1,15,37,83,211,32,20,66,255,33,58,66,253,,23,41,061,27,1*74
$GBGSV,4,2,15,32,33,168,27,19,29,313,28,46,26,236,,38,17,331,23,1*7B
$GBGSV,4,3,15,08,12,341,20,31,09,335,,43,06,075,15,11,06,054,16,1*73
$GBGSV,4,4,15,34,06,032,18,13,04,346,17,12,02,006,,1*4D
$GNRMC,195225.000,A,4910.424802,N,12304.403352,W,0.08,116.46,051224,,,D,V*1A
$GNVTG,116.46,T,,M,0.08,N,0.15,K,D*2E
$PAIRLOG,Full*51
$GNGGA,195226.000,4910.424778,N,12304.403388,W,2,28,0.54,2.373,M,-16.816,M,,*45
$GNGLL,4910.424778,N,12304.403388,W,195226.000,A,D*5D
$GNGSA,A,3,07,09,04,30,20,16,27,08,05,,,,0.95,0.54,0.78,1*07
$GNGSA,A,3,69,79,78,68,80,87,,,,,,,0.95,0.54,0.78,2*07
$GNGSA,A,3,09,31,05,06,24,04,,,,,,,0.95,0.54,0.78,3*0B
$GNGSA,A,3,37,20,23,32,19,38,34,,,,,,0.95,0.54,0.78,4*04
$GPGSV,3,1,11,07,75,283,31,09,66,144,31,04,37,130,28,30,37,265,23,1*6D
$GPGSV,3,2,11,44,33,171,26,20,29,298,25,16,26,048,25,27,25,084,20,1*6F
$GPGSV,3,3,11,08,21,119,22,05,12,327,23,14,04,210,18,1*5C
$GLGSV,2,1,07,69,83,259,39,79,77,239,37,78,45,042,19,68,38,154,29,1*70
$GLGSV,2,2,07,80,22,227,29,70,20,324,,87,10,029,24,1*48
$GAGSV,3,1,09,09,69,132,26,31,65,095,27,05,53,300,24,06,44,128,23,7*78
$GAGSV,3,2,09,24,41,189,24,04,19,126,18,15,08,321,15,03,03,304,,7*71
$GAGSV,3,3,09,13,01,009,,7*40
$GBGSV,4,1,15,37,83,211,32,20,66,255,33,58,66,253,,23,41,061,27,1*74
$GBGSV,4,2,15,32,33,168,27,19,29,313,28,46,26,236,,38,17,331,23,1*7B
$GBGSV,4,3,15,08,12,341,19,31,09,335,,43,06,075,15,11,06,054,16,1*79
$GBGSV,4,4,15,34,06,032,18,13,04,346,17,12,02,006,,1*4D
$GNRMC,195226.000,A,4910.424778,N,12304.403388,W,0.01,116.46,051224,,,D,V*15
$GNVTG,116.46,T,,M,0.01,N,0.03,K,D*20
$PAIRLOG,Full*51
$GNGGA,195227.000,4910.424802,N,12304.403352,W,2,28,0.54,2.540,M,-16.816,M,,*47
$GNGLL,4910.424802,N,12304.403352,W,195227.000,A,D*59
$GNGSA,A,3,07,09,04,30,20,16,27,08,05,,,,0.95,0.54,0.78,1*07
$GNGSA,A,3,69,79,78,68,80,87,,,,,,,0.95,0.54,0.78,2*07
$GNGSA,A,3,09,31,05,06,24,04,,,,,,,0.95,0.54,0.78,3*0B
$GNGSA,A,3,37,20,23,32,19,38,34,,,,,,0.95,0.54,0.78,4*04
$GPGSV,3,1,11,07,75,283,31,09,66,144,31,04,37,130,27,30,37,265,23,1*62
$GPGSV,3,2,11,44,33,171,26,20,29,298,24,16,26,048,25,27,25,084,20,1*6E
$GPGSV,3,3,11,08,21,119,22,05,12,327,21,14,04,210,18,1*5E
$GLGSV,2,1,07,69,83,259,39,79,77,239,37,78,45,042,19,68,38,154,28,1*71
$GLGSV,2,2,07,80,22,227,29,70,20,324,,87,10,029,24,1*48
$GAGSV,3,1,09,09,69,132,25,31,65,095,26,05,53,300,24,06,44,128,23,7*7A
$GAGSV,3,2,09,24,41,189,24,04,19,126,17,15,08,321,15,03,03,304,,7*7E
$GAGSV,3,3,09,13,01,009,,7*40
$GBGSV,4,1,15,37,83,211,32,20,66,255,33,58,66,253,,23,41,061,27,1*74
$GBGSV,4,2,15,32,33,168,27,19,29,313,28,46,26,236,,38,17,331,23,1*7B
$GBGSV,4,3,15,08,12,341,19,31,09,335,,43,06,075,16,11,06,054,16,1*7A
$GBGSV,4,4,15,34,06,032,17,13,04,346,17,12,02,006,,1*42
$GNRMC,195227.000,A,4910.424802,N,12304.403352,W,0.29,116.46,051224,,,D,V*1B
$GNVTG,116.46,T,,M,0.29,N,0.54,K,D*28
$PAIRLOG,Full*51
$GNGGA,195228.000,4910.424778,N,12304.403388,W,2,28,0.54,2.379,M,-16.817,M,,*40
