$GNGGA,195158.000,4910.427598,N,12304.404066,W,2,29,0.55,9.112,M,-16.816,M,,*4A
$GNGLL,4910.427598,N,12304.404066,W,195158.000,A,D*5C
$GNGSA,A,3,07,09,30,04,20,16,27,08,05,,,,0.93,0.55,0.75,1*0D
$GNGSA,A,3,69,79,68,80,,,,,,,,,0.93,0.55,0.75,2*0D
$GNGSA,A,3,09,31,05,06,24,04,15,,,,,,0.93,0.55,0.75,3*05
$GNGSA,A,3,37,20,23,32,19,38,08,34,11,,,,0.93,0.55,0.75,4*06
$GPGSV,3,1,11,07,75,283,35,09,67,144,35,30,37,264,31,04,37,130,31,1*66
$GPGSV,3,2,11,44,33,171,29,20,29,298,31,16,26,048,31,27,25,084,28,1*68
$GPGSV,3,3,11,08,21,119,20,05,12,327,23,14,03,210,20,1*52
$GLGSV,2,1,06,69,83,261,25,79,77,238,28,78,45,042,16,68,38,153,26,1*7F
$GLGSV,2,2,06,80,21,227,21,87,10,030,16,1*7B
$GAGSV,3,1,10,09,69,132,31,31,65,096,31,05,53,300,29,06,44,128,27,7*7B
$GAGSV,3,2,10,24,41,189,29,04,19,126,23,15,08,322,17,03,03,304,12,7*7E
$GAGSV,3,3,10,34,03,275,,13,01,009,,7*7C
$GBGSV,4,1,14,37,83,211,36,20,66,256,38,23,41,061,31,32,33,168,30,1*7A
$GBGSV,4,2,14,19,29,313,33,46,26,235,,38,17,331,26,08,12,341,22,1*70
$GBGSV,4,3,14,34,06,032,22,11,06,055,19,43,06,075,18,13,04,346,18,1*7E
$GBGSV,4,4,14,12,02,006,13,04,01,262,,1*75
$GNRMC,195158.000,A,4910.427598,N,12304.404066,W,0.01,0.00,051224,,,D,V*10
$GNVTG,0.00,T,,M,0.01,N,0.02,K,D*25
$GNGGA,195159.000,4910.427658,N,12304.404018,W,2,29,0.55,9.165,M,-16.817,M,,*4C
$GNGLL,4910.427658,N,12304.404018,W,195159.000,A,D*5B
$GNGSA,A,3,07,09,30,04,20,16,27,08,05,,,,0.93,0.55,0.75,1*0D
$GNGSA,A,3,69,79,68,80,,,,,,,,,0.93,0.55,0.75,2*0D
$GNGSA,A,3,09,31,05,06,24,04,15,,,,,,0.93,0.55,0.75,3*05
$GNGSA,A,3,37,20,23,32,19,38,08,34,11,,,,0.93,0.55,0.75,4*06
$GPGSV,3,1,11,07,75,283,35,09,67,144,35,30,37,264,31,04,37,130,31,1*66
$GPGSV,3,2,11,44,33,171,29,20,29,298,31,16,26,048,31,27,25,084,28,1*68
$GPGSV,3,3,11,08,21,119,21,05,12,327,23,14,03,210,20,1*53
$GLGSV,2,1,07,69,83,261,26,79,77,238,28,78,45,042,16,68,38,153,26,1*7D
$GLGSV,2,2,07,80,21,227,21,70,20,324,,87,10,030,16,1*4A
$GAGSV,3,1,10,09,69,132,31,31,65,096,31,05,53,300,29,06,44,128,27,7*7B
$GAGSV,3,2,10,24,41,189,29,04,19,126,22,15,08,322,17,03,03,304,13,7*7E
$GAGSV,3,3,10,34,03,275,,13,01,009,,7*7C
$GBGSV,4,1,14,37,83,211,36,20,66,256,38,23,41,061,32,32,33,168,30,1*79
$GBGSV,4,2,14,19,29,313,33,46,26,235,,38,17,331,26,08,12,341,22,1*70
$GBGSV,4,3,14,34,06,032,22,11,06,055,19,43,06,075,18,13,04,346,18,1*7E
$GBGSV,4,4,14,12,02,006,14,04,01,262,,1*72
$GNRMC,195159.000,A,4910.427658,N,12304.404018,W,0.01,0.00,051224,,,D,V*17
$GNVTG,0.00,T,,M,0.01,N,0.03,K,D*24
$GNGGA,195200.000,4910.427610,N,12304.403952,W,2,29,0.55,9.082,M,-16.816,M,,*46
$GNGLL,4910.427610,N,12304.403952,W,195200.000,A,D*58
$GNGSA,A,3,07,09,30,04,20,16,27,08,05,,,,0.93,0.55,0.75,1*0D
$GNGSA,A,3,69,79,68,80,,,,,,,,,0.93,0.55,0.75,2*0D
$GNGSA,A,3,09,31,05,06,24,04,15,,,,,,0.93,0.55,0.75,3*05
$GNGSA,A,3,37,20,23,32,19,38,08,34,11,,,,0.93,0.55,0.75,4*06
$GPGSV,3,1,11,07,75,283,35,09,67,144,35,30,37,264,31,04,37,130,31,1*66
$GPGSV,3,2,11,44,33,171,29,20,29,298,31,16,26,048,31,27,25,084,29,1*69
$GPGSV,3,3,11,08,21,119,21,05,12,327,23,14,03,210,20,1*53
$GLGSV,2,1,07,69,83,261,26,79,77,238,28,78,45,042,16,68,38,153,27,1*7C
$GLGSV,2,2,07,80,21,227,21,70,20,324,,87,10,030,16,1*4A
$GAGSV,3,1,10,09,69,132,31,31,65,096,32,05,53,300,29,06,44,128,27,7*78
$GAGSV,3,2,10,24,41,189,29,04,19,126,22,15,08,322,17,03,03,304,13,7*7E
$GAGSV,3,3,10,34,03,275,,13,01,009,,7*7C
$GBGSV,4,1,14,37,83,211,36,20,66,256,38,23,41,061,32,32,33,168,31,1*78
$GBGSV,4,2,14,19,29,313,33,46,26,235,,38,17,331,27,08,12,341,23,1*70
$GBGSV,4,3,14,34,06,032,23,11,06,055,19,43,06,075,18,13,04,346,19,1*7E
$GBGSV,4,4,14,12,02,006,13,04,01,262,,1*75
$GNRMC,195200.000,A,4910.427610,N,12304.403952,W,0.02,0.00,051224,,,D,V*17
$GNVTG,0.00,T,,M,0.02,N,0.03,K,D*27
$GNGGA,195201.000,4910.427538,N,12304.403970,W,2,29,0.55,9.050,M,-16.816,M,,*41
$GNGLL,4910.427538,N,12304.403970,W,195201.000,A,D*50
$GNGSA,A,3,07,09,30,04,20,16,27,08,05,,,,0.93,0.55,0.75,1*0D
$GNGSA,A,3,69,79,68,80,,,,,,,,,0.93,0.55,0.75,2*0D
$GNGSA,A,3,09,31,05,06,24,04,15,,,,,,0.93,0.55,0.75,3*05
$GNGSA,A,3,37,20,23,32,19,38,08,34,11,,,,0.93,0.55,0.75,4*06
$GPGSV,3,1,11,07,75,283,35,09,67,144,35,30,37,264,31,04,37,130,31,1*66
$GPGSV,3,2,11,44,33,171,29,20,29,298,31,16,26,048,31,27,25,084,29,1*69
$GPGSV,3,3,11,08,21,119,21,05,12,327,23,14,03,210,20,1*53
$GLGSV,2,1,07,69,83,261,26,79,77,238,28,78,45,042,16,68,38,153,27,1*7C
$GLGSV,2,2,07,80,21,227,21,70,20,324,,87,10,030,16,1*4A
$GAGSV,3,1,10,09,69,132,31,31,65,096,32,05,53,300,29,06,44,128,27,7*78
$GAGSV,3,2,10,24,41,189,29,04,19,126,22,15,08,322,17,03,03,304,13,7*7E
$GAGSV,3,3,10,34,03,275,,13,01,009,,7*7C
$GBGSV,4,1,14,37,83,211,36,20,66,256,38,23,41,061,32,32,33,168,31,1*78
$GBGSV,4,2,14,19,29,313,33,46,26,235,,38,17,331,27,08,12,341,23,1*70
$GBGSV,4,3,14,34,06,032,24,11,06,055,19,43,06,075,18,13,04,346,19,1*79
$GBGSV,4,4,14,12,02,006,14,04,01,262,,1*72
$GNRMC,195201.000,A,4910.427538,N,12304.403970,W,0.02,0.00,051224,,,D,V*1F
$GNVTG,0.00,T,,M,0.02,N,0.04,K,D*20
$GNGGA,195202.000,4910.427454,N,12304.404000,W,2,29,0.55,9.097,M,-16.816,M,,*4B
$GNGLL,4910.427454,N,12304.404000,W,195202.000,A,D*51
$GNGSA,A,3,07,09,30,04,20,16,27,08,05,,,,0.93,0.55,0.75,1*0D
$GNGSA,A,3,69,79,68,80,,,,,,,,,0.93,0.55,0.75,2*0D
$GNGSA,A,3,09,31,05,06,24,04,15,,,,,,0.93,0.55,0.75,3*05
$GNGSA,A,3,37,20,23,32,19,38,08,34,11,,,,0.93,0.55,0.75,4*06
$GPGSV,3,1,11,07,75,283,35,09,67,144,35,30,37,264,31,04,37,130,31,1*66
$GPGSV,3,2,11,44,33,171,29,20,29,298,31,16,26,048,31,27,25,084,29,1*69
$GPGSV,3,3,11,08,21,119,21,05,12,327,23,14,03,210,20,1*53
$GLGSV,2,1,07,69,83,261,27,79,77,238,28,78,45,042,16,68,38,153,27,1*7D
$GLGSV,2,2,07,80,21,227,21,70,20,324,,87,10,030,16,1*4A
$GAGSV,3,1,10,09,69,132,31,31,65,096,32,05,53,300,29,06,44,128,27,7*78
$GAGSV,3,2,10,24,41,189,29,04,19,126,22,15,08,322,17,03,03,304,13,7*7E
$GAGSV,3,3,10,34,03,275,,13,01,009,,7*7C
$GBGSV,4,1,14,37,83,211,36,20,66,256,38,23,41,061,32,32,33,168,31,1*78
$GBGSV,4,2,14,19,29,313,33,46,26,235,,38,17,331,27,08,12,341,23,1*70
$GBGSV,4,3,14,34,06,032,24,11,06,055,19,43,06,075,18,13,04,346,19,1*79
$GBGSV,4,4,14,12,02,006,15,04,01,262,,1*73
$GNRMC,195202.000,A,4910.427454,N,12304.404000,W,0.02,0.00,051224,,,D,V*1E
$GNVTG,0.00,T,,M,0.02,N,0.04,K,D*20
$GNGGA,195203.000,4910.427394,N,12304.403964,W,2,29,0.55,9.142,M,-16.816,M,,*44
$GNGLL,4910.427394,N,12304.403964,W,195203.000,A,D*57
$GNGSA,A,3,07,09,30,04,20,16,27,08,05,,,,0.93,0.55,0.75,1*0D
$GNGSA,A,3,69,79,68,80,,,,,,,,,0.93,0.55,0.75,2*0D
$GNGSA,A,3,09,31,05,06,24,04,15,,,,,,0.93,0.55,0.75,3*05
$GNGSA,A,3,37,20,23,32,19,38,08,34,11,,,,0.93,0.55,0.75,4*06
$GPGSV,3,1,11,07,75,283,35,09,67,144,35,30,37,264,31,04,37,130,31,1*66
$GPGSV,3,2,11,44,33,171,29,20,29,298,31,16,26,048,31,27,25,084,29,1*69
$GPGSV,3,3,11,08,21,119,21,05,12,327,23,14,03,210,20,1*53
$GLGSV,2,1,06,69,83,261,27,79,77,238,28,78,45,042,16,68,38,153,27,1*7C
$GLGSV,2,2,06,80,21,227,21,87,10,030,16,1*7B
$GAGSV,3,1,10,09,69,132,31,31,65,096,32,05,53,300,29,06,44,128,27,7*78
$GAGSV,3,2,10,24,41,189,29,04,19,126,22,15,08,322,17,03,03,304,13,7*7E
$GAGSV,3,3,10,34,03,275,,13,01,009,,7*7C
$GBGSV,4,1,14,37,83,211,36,20,66,256,38,23,41,061,32,32,33,168,31,1*78
$GBGSV,4,2,14,19,29,313,33,46,26,235,,38,17,331,27,08,12,341,23,1*70
$GBGSV,4,3,14,34,06,032,24,11,06,055,19,43,06,075,18,13,04,346,19,1*79
$GBGSV,4,4,14,12,02,006,15,04,01,262,,1*73
$GNRMC,195203.000,A,4910.427394,N,12304.403964,W,0.02,0.00,051224,,,D,V*18
$GNVTG,0.00,T,,M,0.02,N,0.04,K,D*20
$GNGGA,195204.000,4910.427292,N,12304.403868,W,2,29,0.55,9.156,M,-16.816,M,,*4C
$GNGLL,4910.427292,N,12304.403868,W,195204.000,A,D*5A
$GNGSA,A,3,07,09,30,04,20,16,27,08,05,,,,0.93,0.55,0.75,1*0D
$GNGSA,A,3,69,79,68,80,,,,,,,,,0.93,0.55,0.75,2*0D
$GNGSA,A,3,09,31,05,06,24,04,15,,,,,,0.93,0.55,0.75,3*05
$GNGSA,A,3,37,20,23,32,19,38,08,34,11,,,,0.93,0.55,0.75,4*06
$GPGSV,3,1,11,07,75,283,35,09,67,144,35,30,37,264,31,04,37,130,31,1*66
$GPGSV,3,2,11,44,33,171,29,20,29,298,31,16,26,048,31,27,25,084,29,1*69
$GPGSV,3,3,11,08,21,119,22,05,12,327,23,14,03,210,20,1*50
$GLGSV,2,1,07,69,83,261,27,79,77,238,28,78,45,042,16,68,38,153,27,1*7D
$GLGSV,2,2,07,80,21,227,22,70,20,324,,87,10,030,16,1*49
$GAGSV,3,1,10,09,69,132,31,31,65,096,32,05,53,300,29,06,44,128,27,7*78
$GAGSV,3,2,10,24,41,189,29,04,19,126,22,15,08,322,17,03,03,304,13,7*7E
$GAGSV,3,3,10,34,03,275,,13,01,009,,7*7C
$GBGSV,4,1,14,37,83,211,36,20,66,256,38,23,41,061,32,32,33,168,31,1*78
$GBGSV,4,2,14,19,29,313,33,46,26,235,,38,17,331,27,08,12,341,23,1*70
$GBGSV,4,3,14,34,06,032,24,11,06,055,19,43,06,075,18,13,04,346,19,1*79
$GBGSV,4,4,14,12,02,006,15,04,01,262,,1*73
$GNRMC,195204.000,A,4910.427292,N,12304.403868,W,0.03,0.00,051224,,,D,V*14
$GNVTG,0.00,T,,M,0.03,N,0.05,K,D*20
$GNGGA,195205.000,4910.427244,N,12304.403682,W,2,29,0.55,9.170,M,-16.816,M,,*48
$GNGLL,4910.427244,N,12304.403682,W,195205.000,A,D*5A
$GNGSA,A,3,07,09,30,04,20,16,27,08,05,,,,0.93,0.55,0.75,1*0D
$GNGSA,A,3,69,79,68,80,,,,,,,,,0.93,0.55,0.75,2*0D
$GNGSA,A,3,09,31,05,06,24,04,15,,,,,,0.93,0.55,0.75,3*05
$GNGSA,A,3,37,20,23,32,19,38,08,34,11,,,,0.93,0.55,0.75,4*06
$GPGSV,3,1,11,07,75,283,35,09,67,144,35,30,37,264,31,04,37,130,31,1*66
$GPGSV,3,2,11,44,33,171,29,20,29,298,31,16,26,048,31,27,25,084,29,1*69
$GPGSV,3,3,11,08,21,119,21,05,12,327,23,14,03,210,20,1*53
$GLGSV,2,1,07,69,83,261,27,79,77,238,28,78,45,042,16,68,38,153,27,1*7D
$GLGSV,2,2,07,80,21,227,22,70,20,324,,87,10,030,16,1*49
$GAGSV,3,1,10,09,69,132,31,31,65,096,32,05,53,300,29,06,44,128,27,7*78
$GAGSV,3,2,10,24,41,189,29,04,19,126,22,15,08,322,17,03,03,304,13,7*7E
$GAGSV,3,3,10,34,03,275,,13,01,009,,7*7C
$GBGSV,4,1,14,37,83,211,37,20,66,256,38,23,41,061,32,32,33,168,31,1*79
$GBGSV,4,2,14,19,29,313,33,46,26,235,,38,17,331,27,08,12,341,23,1*70
$GBGSV,4,3,14,34,06,032,24,11,06,055,19,43,06,075,18,13,04,346,19,1*79
$GBGSV,4,4,14,12,02,006,15,04,01,262,,1*73
$GNRMC,195205.000,A,4910.427244,N,12304.403682,W,0.03,0.00,051224,,,D,V*14
$GNVTG,0.00,T,,M,0.03,N,0.05,K,D*20
$GNGGA,195206.000,4910.427172,N,12304.403496,W,2,29,0.55,9.193,M,-16.817,M,,*46
$GNGLL,4910.427172,N,12304.403496,W,195206.000,A,D*58
$GNGSA,A,3,07,09,30,04,20,16,27,08,05,,,,0.93,0.55,0.75,1*0D
$GNGSA,A,3,69,79,68,80,,,,,,,,,0.93,0.55,0.75,2*0D
$GNGSA,A,3,09,31,05,06,24,04,15,,,,,,0.93,0.55,0.75,3*05
$GNGSA,A,3,37,20,23,32,19,38,08,34,11,,,,0.93,0.55,0.75,4*06
$GPGSV,3,1,11,07,75,283,35,09,67,144,35,30,37,264,31,04,37,130,31,1*66
$GPGSV,3,2,11,44,33,171,29,20,29,298,31,16,26,048,31,27,25,084,29,1*69
$GPGSV,3,3,11,08,21,119,22,05,12,327,23,14,03,210,20,1*50
$GLGSV,2,1,07,69,83,261,27,79,77,238,28,78,45,042,16,68,38,153,26,1*7C
$GLGSV,2,2,07,80,21,227,22,70,20,324,,87,10,030,16,1*49
$GAGSV,3,1,10,09,69,132,31,31,65,096,31,05,53,300,29,06,44,128,27,7*7B
$GAGSV,3,2,10,24,41,189,29,04,19,126,22,15,08,322,17,03,03,304,13,7*7E
$GAGSV,3,3,10,34,03,275,,13,01,009,,7*7C
$GBGSV,4,1,14,37,83,211,37,20,66,256,38,23,41,061,32,32,33,168,31,1*79
$GBGSV,4,2,14,19,29,313,33,46,26,235,,38,17,331,27,08,12,341,23,1*70
$GBGSV,4,3,14,34,06,032,24,11,06,055,19,43,06,075,18,13,04,346,18,1*78
$GBGSV,4,4,14,12,02,006,15,04,01,262,,1*73
$GNRMC,195206.000,A,4910.427172,N,12304.403496,W,0.03,0.00,051224,,,D,V*16
$GNVTG,0.00,T,,M,0.03,N,0.05,K,D*20
$GNGGA,195207.000,4910.427094,N,12304.403238,W,2,29,0.55,9.153,M,-16.816,M,,*41
$GNGLL,4910.427094,N,12304.403238,W,195207.000,A,D*52
$GNGSA,A,3,07,09,30,04,20,16,27,08,05,,,,0.93,0.55,0.75,1*0D
$GNGSA,A,3,69,79,68,80,,,,,,,,,0.93,0.55,0.75,2*0D
$GNGSA,A,3,09,31,05,06,24,04,15,,,,,,0.93,0.55,0.75,3*05
$GNGSA,A,3,37,20,23,32,19,38,08,34,11,,,,0.93,0.55,0.75,4*06
$GPGSV,3,1,11,07,75,283,36,09,67,144,35,30,37,264,31,04,37,130,31,1*65
$GPGSV,3,2,11,44,33,171,30,20,29,298,31,16,26,048,31,27,25,084,29,1*61
$GPGSV,3,3,11,08,21,119,23,05,12,327,23,14,03,210,20,1*51
$GLGSV,2,1,07,69,83,261,27,79,77,238,28,78,45,042,15,68,38,153,26,1*7F
$GLGSV,2,2,07,80,21,227,22,70,20,324,,87,10,030,16,1*49
$GAGSV,3,1,10,09,69,132,31,31,65,096,31,05,53,300,29,06,44,128,28,7*74
$GAGSV,3,2,10,24,41,189,29,04,19,126,22,15,08,322,17,03,03,304,14,7*79
$GAGSV,3,3,10,34,03,275,,13,01,009,,7*7C
$GBGSV,4,1,14,37,83,211,37,20,66,256,38,23,41,061,32,32,33,168,31,1*79
$GBGSV,4,2,14,19,29,313,33,46,26,235,,38,17,331,27,08,12,341,23,1*70
$GBGSV,4,3,14,34,06,032,24,11,06,055,19,43,06,075,18,13,04,346,18,1*78
$GBGSV,4,4,14,12,02,006,15,04,01,262,,1*73
$GNRMC,195207.000,A,4910.427094,N,12304.403238,W,0.03,0.00,051224,,,D,V*1C
$GNVTG,0.00,T,,M,0.03,N,0.06,K,D*23
$GNGGA,195208.000,4910.427016,N,12304.402968,W,2,29,0.55,9.140,M,-16.816,M,,*49
$GNGLL,4910.427016,N,12304.402968,W,195208.000,A,D*58
$GNGSA,A,3,07,09,30,04,20,16,27,08,05,,,,0.93,0.55,0.75,1*0D
$GNGSA,A,3,69,79,68,80,,,,,,,,,0.93,0.55,0.75,2*0D
$GNGSA,A,3,09,31,05,06,24,04,15,,,,,,0.93,0.55,0.75,3*05
$GNGSA,A,3,37,20,23,32,19,38,08,34,11,,,,0.93,0.55,0.75,4*06
$GPGSV,3,1,11,07,75,283,36,09,67,144,35,30,37,264,31,04,37,130,31,1*65
$GPGSV,3,2,11,44,33,171,30,20,29,298,31,16,26,048,31,27,25,084,29,1*61
$GPGSV,3,3,11,08,21,119,21,05,12,327,23,14,03,210,20,1*53
$GLGSV,2,1,07,69,83,261,27,79,77,238,28,78,45,042,15,68,38,153,26,1*7F
$GLGSV,2,2,07,80,21,227,23,70,20,324,,87,10,030,16,1*48
$GAGSV,3,1,10,09,69,132,31,31,65,096,31,05,53,300,29,06,44,128,28,7*74
$GAGSV,3,2,10,24,41,189,29,04,19,126,21,15,08,322,17,03,03,304,14,7*7A
$GAGSV,3,3,10,34,03,275,,13,01,009,,7*7C
$GBGSV,4,1,14,37,83,211,37,20,66,256,38,23,41,061,32,32,33,168,31,1*79
$GBGSV,4,2,14,19,29,313,33,46,26,235,,38,17,331,28,08,12,341,23,1*7F
$GBGSV,4,3,14,34,06,032,24,11,06,055,19,43,06,075,18,13,04,346,18,1*78
$GBGSV,4,4,14,12,02,006,15,04,01,262,,1*73
$GNRMC,195208.000,A,4910.427016,N,12304.402968,W,0.04,0.00,051224,,,D,V*11
$GNVTG,0.00,T,,M,0.04,N,0.07,K,D*25
$GNGGA,195209.000,4910.426908,N,12304.402800,W,2,29,0.55,9.101,M,-16.817,M,,*44
$GNGLL,4910.426908,N,12304.402800,W,195209.000,A,D*51
$GNGSA,A,3,07,09,30,04,20,16,27,08,05,,,,0.93,0.55,0.75,1*0D
$GNGSA,A,3,69,79,68,80,,,,,,,,,0.93,0.55,0.75,2*0D
$GNGSA,A,3,09,31,05,06,24,04,15,,,,,,0.93,0.55,0.75,3*05
$GNGSA,A,3,37,20,23,32,19,38,08,34,11,,,,0.93,0.55,0.75,4*06
$GPGSV,3,1,11,07,75,283,36,09,67,144,35,30,37,264,31,04,37,130,31,1*65
$GPGSV,3,2,11,44,33,171,30,20,29,298,31,16,26,048,31,27,25,084,29,1*61
$GPGSV,3,3,11,08,21,119,22,05,12,327,23,14,03,210,20,1*50
$GLGSV,2,1,07,69,83,261,27,79,77,238,28,78,45,042,16,68,38,153,27,1*7D
$GLGSV,2,2,07,80,21,227,23,70,20,324,,87,10,030,17,1*49
$GAGSV,3,1,10,09,69,132,31,31,65,096,31,05,53,300,29,06,44,128,28,7*74
$GAGSV,3,2,10,24,41,189,29,04,19,126,22,15,08,322,16,03,03,304,14,7*78
$GAGSV,3,3,10,34,03,275,,13,01,009,,7*7C
$GBGSV,4,1,14,37,83,211,37,20,66,256,38,23,41,061,33,32,33,168,31,1*78
$GBGSV,4,2,14,19,29,313,33,46,26,235,,38,17,331,28,08,12,341,23,1*7F
$GBGSV,4,3,14,34,06,032,24,11,06,055,19,43,06,075,19,13,04,346,18,1*79
$GBGSV,4,4,14,12,02,006,16,04,01,262,,1*70
$GNRMC,195209.000,A,4910.426908,N,12304.402800,W,0.04,0.00,051224,,,D,V*18
$GNVTG,0.00,T,,M,0.04,N,0.08,K,D*2A
$GNGGA,195210.000,4910.426842,N,12304.402680,W,2,29,0.55,9.063,M,-16.816,M,,*41
$GNGLL,4910.426842,N,12304.402680,W,195210.000,A,D*50
$GNGSA,A,3,07,09,30,04,20,16,27,08,05,,,,0.93,0.55,0.75,1*0D
$GNGSA,A,3,69,79,68,80,,,,,,,,,0.93,0.55,0.75,2*0D
$GNGSA,A,3,09,31,05,06,24,04,15,,,,,,0.93,0.55,0.75,3*05
$GNGSA,A,3,37,20,23,32,19,38,08,34,11,,,,0.93,0.55,0.75,4*06
$GPGSV,3,1,11,07,75,283,36,09,67,144,35,30,37,264,31,04,37,130,31,1*65
$GPGSV,3,2,11,44,33,171,30,20,29,298,32,16,26,048,31,27,25,084,29,1*62
$GPGSV,3,3,11,08,21,119,23,05,12,327,23,14,03,210,20,1*51
$GLGSV,2,1,07,69,83,261,27,79,77,238,28,78,45,042,16,68,38,153,27,1*7D
$GLGSV,2,2,07,80,21,227,23,70,20,324,,87,10,030,17,1*49
$GAGSV,3,1,10,09,69,132,31,31,65,096,31,05,53,300,29,06,44,128,28,7*74
$GAGSV,3,2,10,24,41,189,29,04,19,126,22,15,08,322,16,03,03,304,14,7*78
$GAGSV,3,3,10,34,03,275,,13,01,009,,7*7C
$GBGSV,4,1,14,37,83,211,37,20,66,256,38,23,41,061,33,32,33,168,32,1*7B
$GBGSV,4,2,14,19,29,313,34,46,26,235,,38,17,331,29,08,12,341,23,1*79
$GBGSV,4,3,14,34,06,032,24,11,06,055,19,43,06,075,19,13,04,346,19,1*78
$GBGSV,4,4,14,12,02,006,16,04,01,262,,1*70
$GNRMC,195210.000,A,4910.426842,N,12304.402680,W,0.04,0.00,051224,,,D,V*19
$GNVTG,0.00,T,,M,0.04,N,0.07,K,D*25
$GNGGA,195211.000,4910.426776,N,12304.402500,W,2,29,0.55,8.973,M,-16.817,M,,*4B
$GNGLL,4910.426776,N,12304.402500,W,195211.000,A,D*52
$GNGSA,A,3,07,09,30,04,20,16,27,08,05,,,,0.93,0.55,0.75,1*0D
$GNGSA,A,3,69,79,68,80,,,,,,,,,0.93,0.55,0.75,2*0D
$GNGSA,A,3,09,31,05,06,24,04,15,,,,,,0.93,0.55,0.75,3*05
$GNGSA,A,3,37,20,23,32,19,38,08,34,11,,,,0.93,0.55,0.75,4*06
$GPGSV,3,1,11,07,75,283,36,09,67,144,35,30,37,264,31,04,37,130,31,1*65
$GPGSV,3,2,11,44,33,171,30,20,29,298,32,16,26,048,31,27,25,084,29,1*62
$GPGSV,3,3,11,08,21,119,22,05,12,327,23,14,03,210,20,1*50
$GLGSV,2,1,07,69,83,261,27,79,77,238,28,78,45,042,16,68,38,153,27,1*7D
$GLGSV,2,2,07,80,21,227,23,70,20,324,,87,10,030,17,1*49
$GAGSV,3,1,10,09,69,132,31,31,65,096,31,05,53,300,29,06,44,128,28,7*74
$GAGSV,3,2,10,24,41,189,29,04,19,126,22,15,08,322,16,03,03,304,14,7*78
$GAGSV,3,3,10,34,03,275,,13,01,009,,7*7C
$GBGSV,4,1,14,37,83,211,37,20,66,256,38,23,41,061,33,32,33,168,32,1*7B
$GBGSV,4,2,14,19,29,313,34,46,26,235,,38,17,331,29,08,12,341,23,1*79
$GBGSV,4,3,14,34,06,032,24,11,06,055,19,43,06,075,19,13,04,346,19,1*78
$GBGSV,4,4,14,12,02,006,16,04,01,262,,1*70
$GNRMC,195211.000,A,4910.426776,N,12304.402500,W,0.03,0.00,051224,,,D,V*1C
$GNVTG,0.00,T,,M,0.03,N,0.06,K,D*23
$GNGGA,195212.000,4910.426656,N,12304.402458,W,2,29,0.55,8.982,M,-16.817,M,,*49
$GNGLL,4910.426656,N,12304.402458,W,195212.000,A,D*5E
$GNGSA,A,3,07,09,30,04,20,16,27,08,05,,,,0.93,0.55,0.75,1*0D
$GNGSA,A,3,69,79,68,80,,,,,,,,,0.93,0.55,0.75,2*0D
$GNGSA,A,3,09,31,05,06,24,04,15,,,,,,0.93,0.55,0.75,3*05
$GNGSA,A,3,37,20,23,32,19,38,08,34,11,,,,0.93,0.55,0.75,4*06
$GPGSV,3,1,11,07,75,283,36,09,67,144,35,30,37,264,31,04,37,130,31,1*65
$GPGSV,3,2,11,44,33,171,30,20,29,298,32,16,26,048,31,27,25,084,29,1*62
$GPGSV,3,3,11,08,21,119,24,05,12,327,23,14,03,210,20,1*56
$GLGSV,2,1,07,69,83,261,27,79,77,238,28,78,45,042,16,68,38,153,27,1*7D
$GLGSV,2,2,07,80,21,227,23,70,20,324,,87,10,030,16,1*48
$GAGSV,3,1,10,09,69,132,31,31,65,096,31,05,53,300,29,06,44,128,28,7*74
$GAGSV,3,2,10,24,41,189,29,04,19,126,22,15,08,322,16,03,03,304,14,7*78
$GAGSV,3,3,10,34,03,275,,13,01,009,,7*7C
$GBGSV,4,1,14,37,83,211,37,20,66,256,38,23,41,061,33,32,33,168,32,1*7B
$GBGSV,4,2,14,19,29,313,34,46,26,235,,38,17,331,29,08,12,341,23,1*79
$GBGSV,4,3,14,34,06,032,24,11,06,055,19,43,06,075,19,13,04,346,19,1*78
$GBGSV,4,4,14,12,02,006,16,04,01,262,,1*70
$GNRMC,195212.000,A,4910.426656,N,12304.402458,W,0.03,0.00,051224,,,D,V*10
$GNVTG,0.00,T,,M,0.03,N,0.05,K,D*20
$GNGGA,195213.000,4910.426578,N,12304.402416,W,2,29,0.55,9.052,M,-16.816,M,,*49
$GNGLL,4910.426578,N,12304.402416,W,195213.000,A,D*5A
$GNGSA,A,3,07,09,30,04,20,16,27,08,05,,,,0.93,0.55,0.75,1*0D
$GNGSA,A,3,69,79,68,80,,,,,,,,,0.93,0.55,0.75,2*0D
$GNGSA,A,3,09,31,05,06,24,04,15,,,,,,0.93,0.55,0.75,3*05
$GNGSA,A,3,37,20,23,32,19,38,08,34,11,,,,0.93,0.55,0.75,4*06
$GPGSV,3,1,11,07,75,283,36,09,67,144,35,30,37,265,31,04,37,130,31,1*64
$GPGSV,3,2,11,44,33,171,29,20,29,298,31,16,26,048,31,27,25,084,29,1*69
$GPGSV,3,3,11,08,21,119,22,05,12,327,23,14,03,210,20,1*50
$GLGSV,2,1,07,69,83,261,27,79,77,238,28,78,45,042,15,68,38,153,27,1*7E
$GLGSV,2,2,07,80,21,227,23,70,20,324,,87,10,030,16,1*48
$GAGSV,3,1,10,09,69,132,31,31,65,096,31,05,53,300,29,06,44,128,28,7*74
$GAGSV,3,2,10,24,41,189,29,04,19,126,22,15,08,322,16,03,03,304,14,7*78
$GAGSV,3,3,10,34,03,275,,13,01,009,,7*7C
$GBGSV,4,1,14,37,83,211,37,20,66,256,38,23,41,061,33,32,33,168,32,1*7B
$GBGSV,4,2,14,19,29,313,34,46,26,235,,38,17,331,29,08,12,341,23,1*79
$GBGSV,4,3,14,34,06,032,24,11,06,055,19,43,06,075,19,13,04,346,19,1*78
$GBGSV,4,4,14,12,02,006,16,04,01,262,,1*70
$GNRMC,195213.000,A,4910.426578,N,12304.402416,W,0.03,0.00,051224,,,D,V*14
$GNVTG,0.00,T,,M,0.03,N,0.05,K,D*20
$GNGGA,195214.000,4910.426500,N,12304.402290,W,2,29,0.55,9.111,M,-16.816,M,,*4F
$GNGLL,4910.426500,N,12304.402290,W,195214.000,A,D*5A
$GNGSA,A,3,07,09,30,04,20,16,27,08,05,,,,0.93,0.55,0.75,1*0D
$GNGSA,A,3,69,79,68,80,,,,,,,,,0.93,0.55,0.75,2*0D
$GNGSA,A,3,09,31,05,06,24,04,15,,,,,,0.93,0.55,0.75,3*05
$GNGSA,A,3,37,20,23,32,19,38,08,34,11,,,,0.93,0.55,0.75,4*06
$GPGSV,3,1,11,07,75,283,36,09,67,144,35,30,37,265,31,04,37,130,31,1*64
$GPGSV,3,2,11,44,33,171,29,20,29,298,31,16,26,048,31,27,25,084,29,1*69
$GPGSV,3,3,11,08,21,119,22,05,12,327,23,14,03,210,21,1*51
$GLGSV,2,1,07,69,83,261,27,79,77,238,28,78,45,042,15,68,38,153,27,1*7E
$GLGSV,2,2,07,80,21,227,23,70,20,324,,87,10,030,16,1*48
$GAGSV,3,1,10,09,69,132,31,31,65,096,32,05,53,300,29,06,44,128,28,7*77
$GAGSV,3,2,10,24,41,189,29,04,19,126,23,15,08,322,16,03,03,304,14,7*79
$GAGSV,3,3,10,34,03,275,,13,01,009,,7*7C
$GBGSV,4,1,14,37,83,211,37,20,66,256,38,23,41,061,33,32,33,168,32,1*7B
$GBGSV,4,2,14,19,29,313,34,46,26,235,,38,17,331,29,08,12,341,23,1*79
$GBGSV,4,3,14,34,06,032,24,11,06,055,20,43,06,075,19,13,04,346,19,1*72
$GBGSV,4,4,14,12,02,006,16,04,01,262,,1*70
$GNRMC,195214.000,A,4910.426500,N,12304.402290,W,0.03,0.00,051224,,,D,V*14
$GNVTG,0.00,T,,M,0.03,N,0.05,K,D*20
$GNGGA,195215.000,4910.426446,N,12304.402200,W,2,29,0.55,9.127,M,-16.816,M,,*41
$GNGLL,4910.426446,N,12304.402200,W,195215.000,A,D*51
$GNGSA,A,3,07,09,04,30,20,16,27,08,05,,,,0.93,0.55,0.75,1*0D
$GNGSA,A,3,69,79,68,80,,,,,,,,,0.93,0.55,0.75,2*0D
$GNGSA,A,3,09,31,05,06,24,04,15,,,,,,0.93,0.55,0.75,3*05
$GNGSA,A,3,37,20,23,32,19,38,08,11,34,,,,0.93,0.55,0.75,4*06
$GPGSV,3,1,11,07,75,283,36,09,66,144,35,04,37,130,31,30,37,265,31,1*65
$GPGSV,3,2,11,44,33,171,29,20,29,298,31,16,26,048,31,27,25,083,29,1*6E
$GPGSV,3,3,11,08,21,119,22,05,12,327,24,14,04,210,21,1*51
$GLGSV,2,1,07,69,83,258,27,79,77,239,28,78,45,042,15,68,38,154,27,1*72
$GLGSV,2,2,07,80,22,227,23,70,20,324,,87,10,029,16,1*43
$GAGSV,3,1,10,09,69,132,31,31,65,095,32,05,53,300,29,06,44,128,28,7*74
$GAGSV,3,2,10,24,41,189,29,04,19,126,23,15,08,321,16,03,03,304,15,7*7B
$GAGSV,3,3,10,34,03,274,,13,01,009,,7*7D
$GBGSV,4,1,14,37,83,211,37,20,66,255,38,23,41,061,33,32,33,168,32,1*78
$GBGSV,4,2,14,19,29,313,34,46,26,236,,38,17,331,29,08,12,341,23,1*7A
$GBGSV,4,3,14,11,06,054,20,34,06,032,24,43,06,075,19,13,04,346,19,1*73
$GBGSV,4,4,14,12,02,006,16,04,01,262,,1*70
$GNRMC,195215.000,A,4910.426446,N,12304.402200,W,0.03,0.00,051224,,,D,V*1F
$GNVTG,0.00,T,,M,0.03,N,0.05,K,D*20
$GNGGA,195216.000,4910.426398,N,12304.402146,W,2,29,0.55,9.192,M,-16.816,M,,*49
$GNGLL,4910.426398,N,12304.402146,W,195216.000,A,D*57
$GNGSA,A,3,07,09,04,30,20,16,27,08,05,,,,0.93,0.55,0.75,1*0D
$GNGSA,A,3,69,79,68,80,,,,,,,,,0.93,0.55,0.75,2*0D
$GNGSA,A,3,09,31,05,06,24,04,15,,,,,,0.93,0.55,0.75,3*05
$GNGSA,A,3,37,20,23,32,19,38,08,11,34,,,,0.93,0.55,0.75,4*06
$GPGSV,3,1,11,07,75,283,36,09,66,144,35,04,37,130,31,30,37,265,31,1*65
$GPGSV,3,2,11,44,33,171,29,20,29,298,31,16,26,048,31,27,25,083,29,1*6E
$GPGSV,3,3,11,08,21,119,22,05,12,327,24,14,04,210,21,1*51
$GLGSV,2,1,07,69,83,258,27,79,77,239,28,78,45,042,15,68,38,154,27,1*72
$GLGSV,2,2,07,80,22,227,23,70,20,324,,87,10,029,16,1*43
$GAGSV,3,1,10,09,69,132,31,31,65,095,32,05,53,300,29,06,44,128,28,7*74
$GAGSV,3,2,10,24,41,189,29,04,19,126,23,15,08,321,16,03,03,304,15,7*7B
$GAGSV,3,3,10,34,03,274,,13,01,009,,7*7D
$GBGSV,4,1,14,37,83,211,37,20,66,255,38,23,41,061,33,32,33,168,32,1*78
$GBGSV,4,2,14,19,29,313,34,46,26,236,,38,17,331,29,08,12,341,23,1*7A
$GBGSV,4,3,14,11,06,054,20,34,06,032,24,43,06,075,20,13,04,346,19,1*79
$GBGSV,4,4,14,12,02,006,16,04,01,262,,1*70
$GNRMC,195216.000,A,4910.426398,N,12304.402146,W,0.02,0.00,051224,,,D,V*18
$GNVTG,0.00,T,,M,0.02,N,0.04,K,D*20
$GNGGA,195217.000,4910.426332,N,12304.402062,W,2,29,0.55,9.172,M,-16.817,M,,*40
$GNGLL,4910.426332,N,12304.402062,W,195217.000,A,D*51
$GNGSA,A,3,07,09,04,30,20,16,27,08,05,,,,0.93,0.55,0.75,1*0D
$GNGSA,A,3,69,79,68,80,,,,,,,,,0.93,0.55,0.75,2*0D
$GNGSA,A,3,09,31,05,06,24,04,15,,,,,,0.93,0.55,0.75,3*05
$GNGSA,A,3,37,20,23,32,19,38,08,11,34,,,,0.93,0.55,0.75,4*06
$GPGSV,3,1,11,07,75,283,36,09,66,144,35,04,37,130,31,30,37,265,31,1*65
$GPGSV,3,2,11,44,33,171,29,20,29,298,31,16,26,048,31,27,25,083,29,1*6E
$GPGSV,3,3,11,08,21,119,22,05,12,327,24,14,04,210,21,1*51
$GLGSV,2,1,07,69,83,258,27,79,77,239,27,78,45,042,16,68,38,154,27,1*7E
$GLGSV,2,2,07,80,22,227,23,70,20,324,,87,10,029,16,1*43
$GAGSV,3,1,10,09,69,132,31,31,65,095,32,05,53,300,29,06,44,128,28,7*74
$GAGSV,3,2,10,24,41,189,29,04,19,126,23,15,08,321,16,03,03,304,15,7*7B
$GAGSV,3,3,10,34,03,274,,13,01,009,,7*7D
$GBGSV,4,1,14,37,83,211,37,20,66,255,38,23,41,061,33,32,33,168,32,1*78
$GBGSV,4,2,14,19,29,313,34,46,26,236,,38,17,331,29,08,12,341,23,1*7A
$GBGSV,4,3,14,11,06,054,20,34,06,032,24,43,06,075,20,13,04,346,19,1*79
$GBGSV,4,4,14,12,02,006,16,04,01,262,,1*70
$GNRMC,195217.000,A,4910.426332,N,12304.402062,W,0.02,0.00,051224,,,D,V*1E
$GNVTG,0.00,T,,M,0.02,N,0.04,K,D*20
$GNGGA,195218.000,4910.426230,N,12304.402032,W,2,29,0.55,9.161,M,-16.816,M,,*4A
$GNGLL,4910.426230,N,12304.402032,W,195218.000,A,D*58
$GNGSA,A,3,07,09,04,30,20,16,27,08,05,,,,0.93,0.55,0.75,1*0D
$GNGSA,A,3,69,79,68,80,,,,,,,,,0.93,0.55,0.75,2*0D
$GNGSA,A,3,09,31,05,06,24,04,15,,,,,,0.93,0.55,0.75,3*05
$GNGSA,A,3,37,20,23,32,19,38,08,11,34,,,,0.93,0.55,0.75,4*06
$GPGSV,3,1,11,07,75,283,36,09,66,144,35,04,37,130,32,30,37,265,31,1*66
$GPGSV,3,2,11,44,33,171,29,20,29,298,31,16,26,048,31,27,25,083,29,1*6E
$GPGSV,3,3,11,08,21,119,23,05,12,327,25,14,04,210,21,1*51
$GLGSV,2,1,07,69,83,258,27,79,77,239,27,78,45,042,16,68,38,154,27,1*7E
$GLGSV,2,2,07,80,22,227,23,70,20,324,,87,10,029,16,1*43
$GAGSV,3,1,10,09,69,132,31,31,65,095,32,05,53,300,29,06,44,128,28,7*74
$GAGSV,3,2,10,24,41,189,29,04,19,126,23,15,08,321,16,03,03,304,15,7*7B
$GAGSV,3,3,10,34,03,274,,13,01,009,,7*7D
$GBGSV,4,1,14,37,83,211,37,20,66,255,38,23,41,061,33,32,33,168,32,1*78
$GBGSV,4,2,14,19,29,313,34,46,26,236,,38,17,331,29,08,12,341,23,1*7A
$GBGSV,4,3,14,11,06,054,20,34,06,032,25,43,06,075,20,13,04,346,19,1*78
$GBGSV,4,4,14,12,02,006,15,04,01,262,,1*73
$GNRMC,195218.000,A,4910.426230,N,12304.402032,W,0.02,0.00,051224,,,D,V*17
$GNVTG,0.00,T,,M,0.02,N,0.04,K,D*20
$GNGGA,195219.000,4910.426206,N,12304.401930,W,2,29,0.55,9.096,M,-16.816,M,,*4F
$GNGLL,4910.426206,N,12304.401930,W,195219.000,A,D*54
$GNGSA,A,3,07,09,04,30,20,16,27,08,05,,,,0.93,0.55,0.75,1*0D
$GNGSA,A,3,69,79,68,80,,,,,,,,,0.93,0.55,0.75,2*0D
$GNGSA,A,3,09,31,05,06,24,04,15,,,,,,0.93,0.55,0.75,3*05
$GNGSA,A,3,37,20,23,32,19,38,08,11,34,,,,0.93,0.55,0.75,4*06
$GPGSV,3,1,11,07,75,283,36,09,66,144,35,04,37,130,32,30,37,265,30,1*67
$GPGSV,3,2,11,44,33,171,29,20,29,298,31,16,26,048,31,27,25,083,29,1*6E
$GPGSV,3,3,11,08,21,119,23,05,12,327,25,14,04,210,21,1*51
$GLGSV,2,1,07,69,83,258,27,79,77,239,27,78,45,042,16,68,38,154,27,1*7E
$GLGSV,2,2,07,80,22,227,23,70,20,324,,87,10,029,16,1*43
$GAGSV,3,1,10,09,69,132,31,31,65,095,32,05,53,300,30,06,44,128,28,7*7C
$GAGSV,3,2,10,24,41,189,29,04,19,126,23,15,08,321,17,03,03,304,15,7*7A
$GAGSV,3,3,10,34,03,274,,13,01,009,,7*7D
$GBGSV,4,1,14,37,83,211,37,20,66,255,38,23,41,061,33,32,33,168,32,1*78
$GBGSV,4,2,14,19,29,313,34,46,26,236,,38,17,331,29,08,12,341,23,1*7A
$GBGSV,4,3,14,11,06,054,20,34,06,032,25,43,06,075,20,13,04,346,19,1*78
$GBGSV,4,4,14,12,02,006,15,04,01,262,,1*73
$GNRMC,195219.000,A,4910.426206,N,12304.401930,W,0.02,0.00,051224,,,D,V*1B
$GNVTG,0.00,T,,M,0.02,N,0.04,K,D*20
$GNGGA,195220.000,4910.426170,N,12304.401876,W,2,29,0.55,8.961,M,-16.817,M,,*45
$GNGLL,4910.426170,N,12304.401876,W,195220.000,A,D*5F
$GNGSA,A,3,07,09,04,30,20,16,27,08,05,,,,0.93,0.55,0.75,1*0D
$GNGSA,A,3,69,79,68,80,,,,,,,,,0.93,0.55,0.75,2*0D
$GNGSA,A,3,09,31,05,06,24,04,15,,,,,,0.93,0.55,0.75,3*05
$GNGSA,A,3,37,20,23,32,19,38,08,11,34,,,,0.93,0.55,0.75,4*06
$GPGSV,3,1,11,07,75,283,36,09,66,144,35,04,37,130,32,30,37,265,30,1*67
$GPGSV,3,2,11,44,33,171,29,20,29,298,31,16,26,048,31,27,25,083,29,1*6E
$GPGSV,3,3,11,08,21,119,25,05,12,327,25,14,04,210,21,1*57
$GLGSV,2,1,07,69,83,258,26,79,77,239,27,78,45,042,16,68,38,154,26,1*7E
$GLGSV,2,2,07,80,22,227,23,70,20,324,,87,10,029,16,1*43
$GAGSV,3,1,10,09,69,132,31,31,65,095,32,05,53,300,30,06,44,128,28,7*7C
$GAGSV,3,2,10,24,41,189,29,04,19,126,23,15,08,321,17,03,03,304,16,7*79
$GAGSV,3,3,10,34,03,274,,13,01,009,,7*7D
$GBGSV,4,1,14,37,83,211,37,20,66,255,38,23,41,061,33,32,33,168,32,1*78
$GBGSV,4,2,14,19,29,313,34,46,26,236,,38,17,331,29,08,12,341,23,1*7A
$GBGSV,4,3,14,11,06,054,20,34,06,032,25,43,06,075,20,13,04,346,19,1*78
$GBGSV,4,4,14,12,02,006,14,04,01,262,,1*72
$GNRMC,195220.000,A,4910.426170,N,12304.401876,W,0.02,0.00,051224,,,D,V*10
$GNVTG,0.00,T,,M,0.02,N,0.04,K,D*20
$GNGGA,195221.000,4910.426152,N,12304.401876,W,2,29,0.55,8.959,M,-16.816,M,,*4E
$GNGLL,4910.426152,N,12304.401876,W,195221.000,A,D*5E
$GNGSA,A,3,07,09,04,30,20,16,27,08,05,,,,0.93,0.55,0.75,1*0D
$GNGSA,A,3,69,79,68,80,,,,,,,,,0.93,0.55,0.75,2*0D
$GNGSA,A,3,09,31,05,06,24,04,15,,,,,,0.93,0.55,0.75,3*05
$GNGSA,A,3,37,20,23,32,19,38,08,11,34,,,,0.93,0.55,0.75,4*06
$GPGSV,3,1,11,07,75,283,36,09,66,144,35,04,37,130,32,30,37,265,30,1*67
$GPGSV,3,2,11,44,33,171,29,20,29,298,31,16,26,048,30,27,25,083,29,1*6F
$GPGSV,3,3,11,08,21,119,23,05,12,327,26,14,04,210,21,1*52
$GLGSV,2,1,07,69,83,258,26,79,77,239,27,78,45,042,16,68,38,154,26,1*7E
$GLGSV,2,2,07,80,22,227,23,70,20,324,,87,10,029,17,1*42
$GAGSV,3,1,10,09,69,132,31,31,65,095,32,05,53,300,30,06,44,128,28,7*7C
$GAGSV,3,2,10,24,41,189,29,04,19,126,23,15,08,321,17,03,03,304,15,7*7A
$GAGSV,3,3,10,34,03,274,,13,01,009,,7*7D
$GBGSV,4,1,14,37,83,211,37,20,66,255,38,23,41,061,33,32,33,168,32,1*78
$GBGSV,4,2,14,19,29,313,34,46,26,236,,38,17,331,29,08,12,341,23,1*7A
$GBGSV,4,3,14,11,06,054,20,34,06,032,25,43,06,075,20,13,04,346,19,1*78
$GBGSV,4,4,14,12,02,006,14,04,01,262,,1*72
$GNRMC,195221.000,A,4910.426152,N,12304.401876,W,0.02,0.00,051224,,,D,V*11
$GNVTG,0.00,T,,M,0.02,N,0.04,K,D*20
$GNGGA,195222.000,4910.426110,N,12304.401894,W,2,29,0.55,8.963,M,-16.817,M,,*4F
$GNGLL,4910.426110,N,12304.401894,W,195222.000,A,D*57
$GNGSA,A,3,07,09,04,30,20,16,27,08,05,,,,0.93,0.55,0.75,1*0D
$GNGSA,A,3,69,79,68,80,,,,,,,,,0.93,0.55,0.75,2*0D
$GNGSA,A,3,09,31,05,06,24,04,15,,,,,,0.93,0.55,0.75,3*05
$GNGSA,A,3,37,20,23,32,19,38,08,11,34,,,,0.93,0.55,0.75,4*06
$GPGSV,3,1,11,07,75,283,36,09,66,144,35,04,37,130,32,30,37,265,30,1*67
$GPGSV,3,2,11,44,33,171,29,20,29,298,31,16,26,048,30,27,25,083,29,1*6F
$GPGSV,3,3,11,08,21,119,24,05,12,327,26,14,04,210,21,1*55
$GLGSV,2,1,07,69,83,258,25,79,77,239,27,78,45,042,15,68,38,154,26,1*7E
$GLGSV,2,2,07,80,22,227,23,70,20,324,,87,10,029,17,1*42
$GAGSV,3,1,10,09,69,132,31,31,65,095,31,05,53,300,30,06,44,128,28,7*7F
$GAGSV,3,2,10,24,41,189,29,04,19,126,23,15,08,321,17,03,03,304,15,7*7A
$GAGSV,3,3,10,34,03,274,,13,01,009,,7*7D
$GBGSV,4,1,14,37,83,211,37,20,66,255,38,23,41,061,33,32,33,168,32,1*78
$GBGSV,4,2,14,19,29,313,34,46,26,236,,38,17,331,29,08,12,341,23,1*7A
$GBGSV,4,3,14,11,06,054,20,34,06,032,25,43,06,075,20,13,04,346,19,1*78
$GBGSV,4,4,14,12,02,006,15,04,01,262,,1*73
$GNRMC,195222.000,A,4910.426110,N,12304.401894,W,0.02,0.00,051224,,,D,V*18
$GNVTG,0.00,T,,M,0.02,N,0.03,K,D*27
$GNGGA,195223.000,4910.426086,N,12304.401846,W,2,29,0.55,8.990,M,-16.816,M,,*42
$GNGLL,4910.426086,N,12304.401846,W,195223.000,A,D*57
$GNGSA,A,3,07,09,04,30,20,16,27,08,05,,,,0.93,0.55,0.75,1*0D
$GNGSA,A,3,69,79,68,80,,,,,,,,,0.93,0.55,0.75,2*0D
$GNGSA,A,3,09,31,05,06,24,04,15,,,,,,0.93,0.55,0.75,3*05
$GNGSA,A,3,37,20,23,32,19,38,08,11,34,,,,0.93,0.55,0.75,4*06
$GPGSV,3,1,11,07,75,283,35,09,66,144,35,04,37,130,32,30,37,265,29,1*6C
$GPGSV,3,2,11,44,33,171,29,20,29,298,30,16,26,048,30,27,25,083,28,1*6F
$GPGSV,3,3,11,08,22,119,24,05,12,327,25,14,04,210,21,1*55
$GLGSV,2,1,07,69,83,258,25,79,77,239,28,78,45,042,14,68,38,154,26,1*70
$GLGSV,2,2,07,80,22,227,23,70,20,324,,87,10,029,17,1*42
$GAGSV,3,1,10,09,69,132,31,31,65,095,31,05,53,300,29,06,44,128,28,7*77
$GAGSV,3,2,10,24,41,189,28,04,19,126,22,15,08,321,17,03,03,304,15,7*7A
$GAGSV,3,3,10,34,03,274,,13,01,009,,7*7D
$GBGSV,4,1,14,37,83,211,37,20,66,255,38,23,41,061,33,32,33,168,32,1*78
$GBGSV,4,2,14,19,29,313,34,46,26,236,,38,17,331,29,08,12,341,23,1*7A
$GBGSV,4,3,14,11,06,054,21,34,06,032,25,43,06,075,20,13,04,346,19,1*79
$GBGSV,4,4,14,12,02,006,15,04,01,262,,1*73
$GNRMC,195223.000,A,4910.426086,N,12304.401846,W,0.01,0.00,051224,,,D,V*1B
$GNVTG,0.00,T,,M,0.01,N,0.02,K,D*25
$GNGGA,195224.000,4910.426068,N,12304.401714,W,2,29,0.55,9.089,M,-16.816,M,,*4D
$GNGLL,4910.426068,N,12304.401714,W,195224.000,A,D*58
$GNGSA,A,3,07,09,04,30,20,16,27,08,05,,,,0.93,0.55,0.75,1*0D
$GNGSA,A,3,69,79,68,80,,,,,,,,,0.93,0.55,0.75,2*0D
$GNGSA,A,3,09,31,05,06,24,04,15,,,,,,0.93,0.55,0.75,3*05
$GNGSA,A,3,37,20,23,32,19,38,08,11,34,,,,0.93,0.55,0.75,4*06
$GPGSV,3,1,11,07,75,283,35,09,66,144,35,04,37,130,32,30,37,265,29,1*6C
$GPGSV,3,2,11,44,33,171,29,20,29,298,30,16,26,048,30,27,25,083,28,1*6F
$GPGSV,3,3,11,08,22,119,23,05,12,327,25,14,04,210,21,1*52
$GLGSV,2,1,07,69,83,258,26,79,77,239,28,78,45,042,15,68,38,154,26,1*72
$GLGSV,2,2,07,80,22,227,23,70,20,324,,87,10,029,17,1*42
$GAGSV,3,1,10,09,69,132,31,31,65,095,31,05,53,300,29,06,44,128,28,7*77
$GAGSV,3,2,10,24,41,189,28,04,19,126,22,15,08,321,17,03,03,304,15,7*7A
$GAGSV,3,3,10,34,03,274,,13,01,009,,7*7D
$GBGSV,4,1,14,37,83,211,37,20,66,255,38,23,41,061,33,32,33,168,32,1*78
$GBGSV,4,2,14,19,29,313,34,46,26,236,,38,17,331,29,08,12,341,23,1*7A
$GBGSV,4,3,14,11,06,054,21,34,06,032,25,43,06,075,20,13,04,346,19,1*79
$GBGSV,4,4,14,12,02,006,15,04,01,262,,1*73
$GNRMC,195224.000,A,4910.426068,N,12304.401714,W,0.01,0.00,051224,,,D,V*14
$GNVTG,0.00,T,,M,0.01,N,0.03,K,D*24
$GNGGA,195225.000,4910.426056,N,12304.401636,W,2,29,0.55,9.170,M,-16.816,M,,*47
$GNGLL,4910.426056,N,12304.401636,W,195225.000,A,D*55
$GNGSA,A,3,07,09,04,30,20,16,27,08,05,,,,0.93,0.55,0.75,1*0D
$GNGSA,A,3,69,79,68,80,,,,,,,,,0.93,0.55,0.75,2*0D
$GNGSA,A,3,09,31,05,06,24,04,15,,,,,,0.93,0.55,0.75,3*05
$GNGSA,A,3,37,20,23,32,19,38,08,11,34,,,,0.93,0.55,0.75,4*06
$GPGSV,3,1,11,07,75,283,35,09,66,144,35,04,37,130,32,30,37,265,29,1*6C
$GPGSV,3,2,11,44,33,171,29,20,29,298,30,16,26,048,30,27,25,083,28,1*6F
$GPGSV,3,3,11,08,22,119,24,05,12,327,25,14,04,210,22,1*56
$GLGSV,2,1,07,69,83,258,26,79,77,239,28,78,45,042,15,68,38,154,26,1*72
$GLGSV,2,2,07,80,22,227,23,70,20,324,,87,10,029,17,1*42
$GAGSV,3,1,10,09,69,132,31,31,65,095,31,05,53,300,29,06,44,128,28,7*77
$GAGSV,3,2,10,24,41,189,28,04,19,126,22,15,08,321,17,03,03,304,15,7*7A
$GAGSV,3,3,10,34,03,274,,13,01,009,,7*7D
$GBGSV,4,1,14,37,83,211,37,20,66,255,38,23,41,061,33,32,33,168,32,1*78
$GBGSV,4,2,14,19,29,313,34,46,26,236,,38,17,331,29,08,12,341,23,1*7A
$GBGSV,4,3,14,11,06,054,21,34,06,032,25,43,06,075,20,13,04,346,19,1*79
$GBGSV,4,4,14,12,02,006,15,04,01,262,,1*73
$GNRMC,195225.000,A,4910.426056,N,12304.401636,W,0.01,0.00,051224,,,D,V*19
$GNVTG,0.00,T,,M,0.01,N,0.02,K,D*25
$GNGGA,195226.000,4910.426068,N,12304.401570,W,2,29,0.55,9.267,M,-16.816,M,,*4D
$GNGLL,4910.426068,N,12304.401570,W,195226.000,A,D*5A
$GNGSA,A,3,07,09,04,30,20,16,27,08,05,,,,0.93,0.55,0.75,1*0D
$GNGSA,A,3,69,79,68,80,,,,,,,,,0.93,0.55,0.75,2*0D
$GNGSA,A,3,09,31,05,06,24,04,15,,,,,,0.93,0.55,0.75,3*05
$GNGSA,A,3,37,20,23,32,19,38,08,11,34,,,,0.93,0.55,0.75,4*06
$GPGSV,3,1,11,07,75,283,35,09,66,144,35,04,37,130,32,30,37,265,29,1*6C
$GPGSV,3,2,11,44,33,171,29,20,29,298,30,16,26,048,30,27,25,083,28,1*6F
$GPGSV,3,3,11,08,22,119,25,05,12,327,25,14,04,210,20,1*55
$GLGSV,2,1,07,69,83,258,26,79,77,239,28,78,45,042,14,68,38,154,26,1*73
$GLGSV,2,2,07,80,22,227,23,70,20,324,,87,10,029,17,1*42
$GAGSV,3,1,10,09,69,132,31,31,65,095,31,05,53,300,29,06,44,128,28,7*77
$GAGSV,3,2,10,24,41,189,28,04,19,126,22,15,08,321,17,03,03,304,15,7*7A
$GAGSV,3,3,10,34,03,274,,13,01,009,,7*7D
$GBGSV,4,1,14,37,83,211,37,20,66,255,38,23,41,061,33,32,33,168,32,1*78
$GBGSV,4,2,14,19,29,313,34,46,26,236,,38,17,331,29,08,12,341,23,1*7A
$GBGSV,4,3,14,11,06,054,21,34,06,032,25,43,06,075,20,13,04,346,19,1*79
$GBGSV,4,4,14,12,02,006,15,04,01,262,,1*73
$GNRMC,195226.000,A,4910.426068,N,12304.401570,W,0.01,0.00,051224,,,D,V*16
$GNVTG,0.00,T,,M,0.01,N,0.02,K,D*25
$GNGGA,195227.000,4910.426110,N,12304.401510,W,2,29,0.55,9.405,M,-16.817,M,,*47
$GNGLL,4910.426110,N,12304.401510,W,195227.000,A,D*53
$GNGSA,A,3,07,09,04,30,20,16,27,08,05,,,,0.93,0.55,0.75,1*0D
$GNGSA,A,3,69,79,68,80,,,,,,,,,0.93,0.55,0.75,2*0D
$GNGSA,A,3,09,31,05,06,24,04,15,,,,,,0.93,0.55,0.75,3*05
$GNGSA,A,3,37,20,23,32,19,38,08,11,34,,,,0.93,0.55,0.75,4*06
$GPGSV,3,1,11,07,75,283,35,09,66,144,35,04,37,130,32,30,37,265,29,1*6C
$GPGSV,3,2,11,44,33,171,29,20,29,298,30,16,26,048,30,27,25,083,28,1*6F
$GPGSV,3,3,11,08,22,119,25,05,12,327,25,14,04,210,19,1*5F
$GLGSV,2,1,07,69,83,258,26,79,77,239,28,78,45,042,14,68,38,154,26,1*73
$GLGSV,2,2,07,80,22,227,23,70,20,324,,87,10,029,17,1*42
$GAGSV,3,1,10,09,69,132,31,31,65,095,31,05,53,300,29,06,44,128,28,7*77
$GAGSV,3,2,10,24,41,189,28,04,19,126,22,15,08,321,17,03,03,304,15,7*7A
$GAGSV,3,3,10,34,03,274,,13,01,009,,7*7D
$GBGSV,4,1,14,37,83,211,37,20,66,255,38,23,41,061,33,32,33,168,32,1*78
$GBGSV,4,2,14,19,29,313,34,46,26,236,,38,17,331,29,08,12,341,23,1*7A
$GBGSV,4,3,14,11,06,054,21,34,06,032,24,43,06,075,20,13,04,346,19,1*78
$GBGSV,4,4,14,12,02,006,15,04,01,262,,1*73
$GNRMC,195227.000,A,4910.426110,N,12304.401510,W,0.01,0.00,051224,,,D,V*1F
$GNVTG,0.00,T,,M,0.01,N,0.02,K,D*25
$GNGGA,195228.000,4910.426104,N,12304.401468,W,2,29,0.55,9.496,M,-16.816,M,,*48
