$GNGGA,182538.000,4910.425918,N,12304.402176,W,2,31,0.50,6.198,M,-16.816,M,,*4F
$GNGLL,4910.425918,N,12304.402176,W,182538.000,A,D*58
$GNGSA,A,3,04,09,16,07,26,03,06,11,31,20,,,0.84,0.50,0.67,1*05
$GNGSA,A,3,68,78,69,67,79,85,,,,,,,0.84,0.50,0.67,2*06
$GNGSA,A,3,09,06,04,31,05,34,36,21,,,,,0.84,0.50,0.67,3*06
$GNGSA,A,3,32,23,37,20,25,41,38,,,,,,0.84,0.50,0.67,4*03
$GPGSV,4,1,14,04,75,092,36,09,71,302,37,16,48,087,33,07,40,243,34,1*63
$GPGSV,4,2,14,48,33,182,30,26,29,052,31,03,27,174,30,06,16,271,17,1*6D
$GPGSV,4,3,14,11,15,310,27,31,12,062,28,20,08,326,27,30,05,243,18,1*68
$GPGSV,4,4,14,27,02,116,17,29,01,009,,1*65
$GLGSV,2,1,07,68,81,075,30,78,78,136,17,69,40,318,27,67,31,127,24,1*7D
$GLGSV,2,2,07,79,30,201,25,85,13,334,18,84,07,284,,1*41
$GAGSV,3,1,10,09,79,315,33,06,73,093,32,04,46,102,30,31,45,146,30,7*7C
$GAGSV,3,2,10,05,25,291,25,34,20,301,22,36,15,249,22,24,08,186,21,7*77
$GAGSV,3,3,10,21,06,030,20,15,05,347,19,7*7F
$GBGSV,2,1,08,32,73,167,39,23,70,091,38,37,45,206,36,20,43,305,37,1*74
$GBGSV,2,2,08,25,22,051,32,41,19,139,27,38,06,333,26,04,01,262,,1*76
$GNRMC,182538.000,A,4910.425918,N,12304.402176,W,0.02,0.00,051224,,,D,V*17
$GNVTG,0.00,T,,M,0.02,N,0.03,K,D*27
$GNGGA,182539.000,4910.425786,N,12304.402182,W,2,31,0.50,6.048,M,-16.817,M,,*41
$GNGLL,4910.425786,N,12304.402182,W,182539.000,A,D*5B
$GNGSA,A,3,04,09,16,07,26,03,06,11,31,20,,,0.84,0.50,0.67,1*05
$GNGSA,A,3,68,78,69,67,79,85,,,,,,,0.84,0.50,0.67,2*06
$GNGSA,A,3,09,06,04,31,05,34,36,21,,,,,0.84,0.50,0.67,3*06
$GNGSA,A,3,32,23,37,20,25,41,38,,,,,,0.84,0.50,0.67,4*03
$GPGSV,4,1,14,04,75,092,36,09,71,302,37,16,48,087,33,07,40,243,34,1*63
$GPGSV,4,2,14,48,33,182,31,26,29,052,31,03,27,174,30,06,16,271,17,1*6C
$GPGSV,4,3,14,11,15,310,27,31,12,062,28,20,08,326,27,30,05,243,19,1*69
$GPGSV,4,4,14,27,02,116,17,29,01,009,,1*65
$GLGSV,2,1,07,68,81,075,30,78,78,136,17,69,40,318,27,67,31,127,24,1*7D
$GLGSV,2,2,07,79,30,201,25,85,13,334,18,84,07,284,,1*41
$GAGSV,3,1,10,09,79,315,33,06,73,093,32,04,46,102,30,31,45,146,30,7*7C
$GAGSV,3,2,10,05,25,291,25,34,20,301,22,36,15,249,22,24,08,186,21,7*77
$GAGSV,3,3,10,21,06,030,20,15,05,347,19,7*7F
$GBGSV,2,1,08,32,73,167,39,23,70,091,38,37,45,206,36,20,43,305,37,1*74
$GBGSV,2,2,08,25,22,051,32,41,19,139,27,38,06,333,26,04,01,262,,1*76
$GNRMC,182539.000,A,4910.425786,N,12304.402182,W,0.02,0.00,051224,,,D,V*14
$GNVTG,0.00,T,,M,0.02,N,0.03,K,D*27
$GNGGA,182540.000,4910.425756,N,12304.402188,W,2,31,0.50,5.964,M,-16.817,M,,*4C
$GNGLL,4910.425756,N,12304.402188,W,182540.000,A,D*52
$GNGSA,A,3,04,09,16,07,26,03,06,11,31,20,,,0.84,0.50,0.67,1*05
$GNGSA,A,3,68,78,69,67,79,85,,,,,,,0.84,0.50,0.67,2*06
$GNGSA,A,3,09,06,04,31,05,34,36,21,,,,,0.84,0.50,0.67,3*06
$GNGSA,A,3,32,23,37,20,25,41,38,,,,,,0.84,0.50,0.67,4*03
$GPGSV,4,1,14,04,75,092,36,09,71,302,37,16,48,087,33,07,40,243,34,1*63
$GPGSV,4,2,14,48,33,182,30,26,29,052,31,03,27,174,30,06,16,271,17,1*6D
$GPGSV,4,3,14,11,15,310,27,31,12,062,28,20,08,326,27,30,05,243,19,1*69
$GPGSV,4,4,14,27,02,116,17,29,01,009,,1*65
$GLGSV,2,1,07,68,81,075,30,78,78,136,17,69,40,318,27,67,31,127,24,1*7D
$GLGSV,2,2,07,79,30,201,26,85,13,334,18,84,07,284,,1*42
$GAGSV,3,1,10,09,79,315,33,06,73,093,32,04,46,102,30,31,45,146,29,7*74
$GAGSV,3,2,10,05,25,291,25,34,20,301,21,36,15,249,22,24,08,186,21,7*74
$GAGSV,3,3,10,21,06,030,20,15,05,347,19,7*7F
$GBGSV,2,1,08,32,73,167,39,23,70,091,38,37,45,206,36,20,43,305,37,1*74
$GBGSV,2,2,08,25,22,051,32,41,19,139,27,38,06,333,26,04,01,262,,1*76
$GNRMC,182540.000,A,4910.425756,N,12304.402188,W,0.02,0.00,051224,,,D,V*1D
$GNVTG,0.00,T,,M,0.02,N,0.03,K,D*27
$GNGGA,182541.000,4910.425732,N,12304.402212,W,2,31,0.50,5.850,M,-16.817,M,,*49
$GNGLL,4910.425732,N,12304.402212,W,182541.000,A,D*51
$GNGSA,A,3,04,09,16,07,26,03,06,11,31,20,,,0.84,0.50,0.67,1*05
$GNGSA,A,3,68,78,69,67,79,85,,,,,,,0.84,0.50,0.67,2*06
$GNGSA,A,3,09,06,04,31,05,34,36,21,,,,,0.84,0.50,0.67,3*06
$GNGSA,A,3,32,23,37,20,25,41,38,,,,,,0.84,0.50,0.67,4*03
$GPGSV,4,1,14,04,75,092,36,09,71,302,37,16,48,087,33,07,40,243,34,1*63
$GPGSV,4,2,14,48,33,182,30,26,29,052,31,03,27,174,30,06,16,271,17,1*6D
$GPGSV,4,3,14,11,15,310,27,31,12,062,27,20,08,326,27,30,05,243,19,1*66
$GPGSV,4,4,14,27,02,116,17,29,01,009,,1*65
$GLGSV,2,1,07,68,81,075,30,78,78,136,17,69,40,318,27,67,31,127,24,1*7D
$GLGSV,2,2,07,79,30,201,26,85,13,334,18,84,07,284,,1*42
$GAGSV,3,1,10,09,79,315,33,06,73,093,32,04,46,102,30,31,45,146,29,7*74
$GAGSV,3,2,10,05,25,291,25,34,20,301,21,36,15,249,21,24,08,186,21,7*77
$GAGSV,3,3,10,21,06,030,20,15,05,347,19,7*7F
$GBGSV,2,1,08,32,73,167,39,23,70,091,38,37,45,206,36,20,43,305,37,1*74
$GBGSV,2,2,08,25,22,051,33,41,19,139,27,38,06,333,26,04,01,262,,1*77
$GNRMC,182541.000,A,4910.425732,N,12304.402212,W,0.01,0.00,051224,,,D,V*1D
$GNVTG,0.00,T,,M,0.01,N,0.02,K,D*25
$GNGGA,182542.000,4910.425666,N,12304.402278,W,2,31,0.50,5.751,M,-16.817,M,,*48
$GNGLL,4910.425666,N,12304.402278,W,182542.000,A,D*5E
$GNGSA,A,3,04,09,16,07,26,03,06,11,31,20,,,0.84,0.50,0.67,1*05
$GNGSA,A,3,68,78,69,67,79,85,,,,,,,0.84,0.50,0.67,2*06
$GNGSA,A,3,09,06,04,31,05,34,36,21,,,,,0.84,0.50,0.67,3*06
$GNGSA,A,3,32,23,37,20,25,41,38,,,,,,0.84,0.50,0.67,4*03
$GPGSV,4,1,14,04,75,092,36,09,71,302,37,16,48,087,33,07,40,243,34,1*63
$GPGSV,4,2,14,48,33,182,30,26,29,052,31,03,27,174,30,06,16,271,17,1*6D
$GPGSV,4,3,14,11,15,310,27,31,12,062,27,20,08,326,27,30,05,243,19,1*66
$GPGSV,4,4,14,27,02,116,17,29,01,009,,1*65
$GLGSV,2,1,07,68,81,075,30,78,78,136,17,69,40,318,27,67,31,127,24,1*7D
$GLGSV,2,2,07,79,30,201,25,85,13,334,19,84,07,284,,1*40
$GAGSV,3,1,10,09,79,315,33,06,73,093,32,04,46,102,30,31,45,146,29,7*74
$GAGSV,3,2,10,05,25,291,25,34,20,301,21,36,15,249,21,24,08,186,21,7*77
$GAGSV,3,3,10,21,06,030,20,15,05,347,19,7*7F
$GBGSV,2,1,08,32,73,167,39,23,70,091,38,37,45,206,36,20,43,305,37,1*74
$GBGSV,2,2,08,25,22,051,33,41,19,139,27,38,06,333,26,04,01,262,,1*77
$GNRMC,182542.000,A,4910.425666,N,12304.402278,W,0.01,0.00,051224,,,D,V*12
$GNVTG,0.00,T,,M,0.01,N,0.02,K,D*25
$GNGGA,182543.000,4910.425588,N,12304.402278,W,2,31,0.50,5.642,M,-16.816,M,,*48
