$GNGGA,183751.000,4910.424418,N,12304.402326,W,2,31,0.48,11.049,M,-16.816,M,,*7A
$GNGLL,4910.424418,N,12304.402326,W,183751.000,A,D*5F
$GNGSA,A,3,09,04,16,07,26,03,11,06,20,30,31,27,0.77,0.48,0.61,1*00
$GNGSA,A,3,68,69,79,67,85,,,,,,,,0.77,0.48,0.61,2*0A
$GNGSA,A,3,09,06,31,04,05,34,36,,,,,,0.77,0.48,0.61,3*06
$GNGSA,A,3,23,32,37,20,25,41,38,,,,,,0.77,0.48,0.61,4*00
$GPGSV,4,1,13,09,77,304,36,04,70,102,32,16,47,079,33,07,45,247,33,1*64
$GPGSV,4,2,13,48,33,182,28,26,25,049,24,03,22,174,26,11,14,305,23,1*62
$GPGSV,4,3,13,06,13,267,18,20,12,324,24,30,10,246,24,31,07,064,17,1*68
$GPGSV,4,4,13,27,05,112,21,1*57
$GLGSV,2,1,07,78,80,101,,68,77,107,30,69,46,320,25,79,36,203,27,1*74
$GLGSV,2,2,07,67,26,131,22,85,12,328,17,86,04,018,,1*4B
$GAGSV,3,1,10,09,82,327,30,06,69,100,29,31,49,143,25,04,42,106,25,7*79
$GAGSV,3,2,10,05,28,293,23,34,19,297,22,36,12,246,19,24,12,186,18,7*7B
$GAGSV,3,3,10,15,06,344,18,21,03,029,11,7*71
$GBGSV,3,1,09,23,68,080,35,32,67,165,36,37,50,208,34,20,48,304,36,1*7B
$GBGSV,3,2,09,25,18,051,27,41,15,141,29,38,08,334,26,19,02,314,21,1*73
$GBGSV,3,3,09,04,01,262,,1*4C
$GNRMC,183751.000,A,4910.424418,N,12304.402326,W,0.02,0.00,051224,,,D,V*10
$GNVTG,0.00,T,,M,0.02,N,0.03,K,D*27
$GNGGA,183752.000,4910.424418,N,12304.402206,W,2,31,0.48,11.128,M,-16.816,M,,*7C
$GNGLL,4910.424418,N,12304.402206,W,183752.000,A,D*5F
$GNGSA,A,3,09,04,16,07,26,03,11,06,20,30,31,27,0.77,0.48,0.61,1*00
$GNGSA,A,3,68,69,79,67,85,,,,,,,,0.77,0.48,0.61,2*0A
$GNGSA,A,3,09,06,31,04,05,34,36,,,,,,0.77,0.48,0.61,3*06
$GNGSA,A,3,23,32,37,20,25,41,38,,,,,,0.77,0.48,0.61,4*00
$GPGSV,4,1,13,09,77,304,36,04,70,102,32,16,47,079,33,07,45,247,33,1*64
$GPGSV,4,2,13,48,33,182,28,26,25,049,24,03,22,174,26,11,14,305,24,1*65
$GPGSV,4,3,13,06,13,267,18,20,12,324,25,30,10,246,24,31,07,064,17,1*69
$GPGSV,4,4,13,27,05,112,21,1*57
$GLGSV,2,1,07,78,80,100,,68,77,108,30,69,46,320,25,79,36,203,26,1*7B
$GLGSV,2,2,07,67,26,131,21,85,12,328,17,86,04,018,,1*48
$GAGSV,3,1,10,09,83,327,30,06,69,100,29,31,49,143,25,04,42,106,24,7*79
$GAGSV,3,2,10,05,28,293,23,34,19,296,22,24,13,186,18,36,12,246,19,7*7B
$GAGSV,3,3,10,15,06,344,18,21,03,029,11,7*71
$GBGSV,3,1,09,23,67,079,35,32,67,165,36,37,50,208,35,20,48,303,36,1*74
$GBGSV,3,2,09,25,18,051,27,41,14,141,29,38,08,334,26,19,03,314,21,1*73
$GBGSV,3,3,09,04,01,262,,1*4C
$GNRMC,183752.000,A,4910.424418,N,12304.402206,W,0.02,0.00,051224,,,D,V*10
$GNVTG,0.00,T,,M,0.02,N,0.03,K,D*27
$GNGGA,183753.000,4910.424400,N,12304.402164,W,2,31,0.48,11.275,M,-16.817,M,,*79
$GNGLL,4910.424400,N,12304.402164,W,183753.000,A,D*50
$GNGSA,A,3,09,04,16,07,26,03,11,06,20,30,31,27,0.77,0.48,0.61,1*00
$GNGSA,A,3,68,69,79,67,85,,,,,,,,0.77,0.48,0.61,2*0A
$GNGSA,A,3,09,06,31,04,05,34,36,,,,,,0.77,0.48,0.61,3*06
$GNGSA,A,3,23,32,37,20,25,41,38,,,,,,0.77,0.48,0.61,4*00
$GPGSV,4,1,13,09,77,304,36,04,70,102,33,16,47,079,33,07,45,247,34,1*62
$GPGSV,4,2,13,48,33,182,28,26,25,049,26,03,22,174,27,11,14,305,24,1*66
$GPGSV,4,3,13,06,13,267,18,20,12,324,26,30,10,246,24,31,07,064,17,1*6A
$GPGSV,4,4,13,27,05,112,21,1*57
$GLGSV,2,1,07,78,80,100,,68,77,108,30,69,46,320,25,79,36,203,26,1*7B
$GLGSV,2,2,07,67,26,131,22,85,12,328,17,86,04,018,,1*4B
$GAGSV,3,1,10,09,83,327,30,06,69,100,30,31,49,143,26,04,42,106,25,7*73
$GAGSV,3,2,10,05,28,293,24,34,19,296,22,24,13,186,18,36,12,246,19,7*7C
$GAGSV,3,3,10,15,06,344,18,21,03,029,11,7*71
$GBGSV,3,1,09,23,67,079,35,32,67,165,36,37,50,208,35,20,48,303,36,1*74
$GBGSV,3,2,09,25,18,051,27,41,14,141,29,38,08,334,26,19,03,314,21,1*73
$GBGSV,3,3,09,04,01,262,,1*4C
$GNRMC,183753.000,A,4910.424400,N,12304.402164,W,0.01,0.00,051224,,,D,V*1C
$GNVTG,0.00,T,,M,0.01,N,0.03,K,D*24
$GNGGA,183754.000,4910.424292,N,12304.402146,W,2,31,0.48,11.368,M,-16.816,M,,*7F
$GNGLL,4910.424292,N,12304.402146,W,183754.000,A,D*5A
$GNGSA,A,3,09,04,16,07,26,03,11,06,20,30,31,27,0.77,0.48,0.61,1*00
$GNGSA,A,3,68,69,79,67,85,,,,,,,,0.77,0.48,0.61,2*0A
$GNGSA,A,3,09,06,31,04,05,34,36,,,,,,0.77,0.48,0.61,3*06
$GNGSA,A,3,23,32,37,20,25,41,38,,,,,,0.77,0.48,0.61,4*00
$GPGSV,4,1,13,09,77,304,36,04,70,102,34,16,47,079,33,07,45,247,34,1*65
$GPGSV,4,2,13,48,33,182,28,26,25,049,27,03,22,174,27,11,14,305,26,1*65
$GPGSV,4,3,13,06,13,267,18,20,12,324,27,30,10,246,24,31,07,064,17,1*6B
$GPGSV,4,4,13,27,05,112,22,1*54
$GLGSV,2,1,07,78,80,100,,68,77,108,30,69,46,320,25,79,36,203,26,1*7B
$GLGSV,2,2,07,67,26,131,22,85,12,328,17,86,04,018,,1*4B
$GAGSV,3,1,10,09,83,327,31,06,69,100,30,31,49,143,26,04,42,106,25,7*72
$GAGSV,3,2,10,05,28,293,24,34,19,296,23,24,13,186,18,36,12,246,19,7*7D
$GAGSV,3,3,10,15,06,344,18,21,03,029,11,7*71
$GBGSV,3,1,09,23,67,079,34,32,67,165,35,37,50,208,34,20,48,303,35,1*74
$GBGSV,3,2,09,25,18,051,26,41,14,141,28,38,08,334,25,19,03,314,21,1*70
$GBGSV,3,3,09,04,01,262,,1*4C
$GNRMC,183754.000,A,4910.424292,N,12304.402146,W,0.02,0.00,051224,,,D,V*15
$GNVTG,0.00,T,,M,0.02,N,0.03,K,D*27
$GNGGA,183755.000,4910.424220,N,12304.402008,W,2,31,0.48,11.354,M,-16.816,M,,*73
$GNGLL,4910.424220,N,12304.402008,W,183755.000,A,D*59
$GNGSA,A,3,09,04,16,07,26,03,11,06,20,30,31,27,0.77,0.48,0.61,1*00
$GNGSA,A,3,68,69,79,67,85,,,,,,,,0.77,0.48,0.61,2*0A
$GNGSA,A,3,09,06,31,04,05,34,36,,,,,,0.77,0.48,0.61,3*06
$GNGSA,A,3,23,32,37,20,25,41,38,,,,,,0.77,0.48,0.61,4*00
$GPGSV,4,1,13,09,77,304,37,04,70,102,34,16,47,079,33,07,45,247,34,1*64
$GPGSV,4,2,13,48,33,182,28,26,25,049,27,03,21,174,27,11,14,305,25,1*65
$GPGSV,4,3,13,06,13,267,18,20,12,324,25,30,10,246,24,31,07,064,18,1*66
$GPGSV,4,4,13,27,05,112,23,1*55
$GLGSV,2,1,07,78,80,100,,68,77,108,30,69,46,320,24,79,36,203,26,1*7A
$GLGSV,2,2,07,67,26,131,22,85,12,328,17,86,04,018,,1*4B
$GAGSV,3,1,10,09,83,327,31,06,69,100,30,31,49,143,26,04,42,106,25,7*72
