$GNGGA,001148.000,4910.425774,N,12304.400244,W,2,32,0.50,2.862,M,-16.816,M,,*49
$GNGLL,4910.425774,N,12304.400244,W,001148.000,A,D*55
$GNGSA,A,3,22,17,14,13,19,30,15,02,24,21,,,0.96,0.50,0.82,1*08
$GNGSA,A,3,79,88,78,80,69,,,,,,,,0.96,0.50,0.82,2*04
$GNGSA,A,3,21,04,06,13,09,19,31,15,,,,,0.96,0.50,0.82,3*07
$GNGSA,A,3,26,29,35,45,24,14,33,42,13,,,,0.96,0.50,0.82,4*0B
$GPGSV,4,1,13,22,83,359,27,17,67,152,29,14,65,068,27,13,44,227,29,1*6B
$GPGSV,4,2,13,19,41,191,28,46,33,188,28,30,33,136,26,15,33,271,20,1*66
$GPGSV,4,3,13,02,26,059,18,24,19,307,22,21,17,041,17,23,02,315,,1*6A
$GPGSV,4,4,13,10,02,352,,1*51
$GLGSV,2,1,07,79,70,351,36,88,45,064,37,78,37,084,20,70,28,312,,1*78
$GLGSV,2,2,07,80,25,293,32,69,23,240,31,71,05,353,,1*45
$GAGSV,3,1,10,21,54,069,29,04,46,258,27,06,38,293,24,13,27,087,24,7*77
$GAGSV,3,2,10,09,24,315,21,19,20,193,18,31,17,261,21,15,16,034,19,7*7E
$GAGSV,3,3,10,26,10,139,24,27,04,077,,7*7B
$GBGSV,3,1,12,26,81,310,34,29,42,067,29,35,42,153,31,45,39,103,29,1*7F
$GBGSV,3,2,12,24,28,290,28,14,20,275,21,33,18,301,26,42,14,248,24,1*79
$GBGSV,3,3,12,44,08,188,20,08,07,309,16,13,06,320,20,41,03,346,20,1*7E
$GNRMC,001148.000,A,4910.425774,N,12304.400244,W,0.15,177.63,041224,,,D,V*19
$GNVTG,177.63,T,,M,0.15,N,0.27,K,D*23
$PAIRLOG,Full*51
$GNGGA,001149.000,4910.425744,N,12304.400238,W,2,32,0.50,2.932,M,-16.816,M,,*44
$GNGLL,4910.425744,N,12304.400238,W,001149.000,A,D*5C
$GNGSA,A,3,22,17,14,13,19,30,15,02,24,21,,,0.96,0.50,0.82,1*08
$GNGSA,A,3,79,88,78,80,69,,,,,,,,0.96,0.50,0.82,2*04
$GNGSA,A,3,21,04,06,13,09,19,31,15,,,,,0.96,0.50,0.82,3*07
$GNGSA,A,3,26,29,35,45,24,14,33,42,13,,,,0.96,0.50,0.82,4*0B
$GPGSV,4,1,13,22,83,359,27,17,67,152,29,14,65,068,28,13,44,227,30,1*6C
$GPGSV,4,2,13,19,41,191,27,46,33,188,28,30,33,136,26,15,33,271,20,1*69
$GPGSV,4,3,13,02,26,059,19,24,19,307,23,21,17,041,16,23,02,315,,1*6B
$GPGSV,4,4,13,10,02,352,,1*51
$GLGSV,2,1,07,79,70,351,36,88,45,064,37,78,37,084,20,70,28,312,,1*78
$GLGSV,2,2,07,80,25,293,32,69,23,240,32,71,05,353,,1*46
$GAGSV,3,1,10,21,54,069,29,04,46,258,27,06,38,293,24,13,27,087,24,7*77
$GAGSV,3,2,10,09,24,315,22,19,20,193,18,31,17,261,21,15,16,034,19,7*7D
$GAGSV,3,3,10,26,10,139,24,27,04,077,,7*7B
$GBGSV,3,1,12,26,81,310,34,29,42,067,29,35,42,153,31,45,39,103,28,1*7E
$GBGSV,3,2,12,24,28,290,28,14,20,275,21,33,18,301,26,42,14,248,23,1*7E
$GBGSV,3,3,12,44,08,188,20,08,07,309,16,13,06,320,20,41,03,346,20,1*7E
$GNRMC,001149.000,A,4910.425744,N,12304.400238,W,0.15,177.63,041224,,,D,V*10
$GNVTG,177.63,T,,M,0.15,N,0.27,K,D*23
$PAIRLOG,Full*51
$GNGGA,001150.000,4910.425768,N,12304.400244,W,2,32,0.50,2.863,M,-16.816,M,,*4C
$GNGLL,4910.425768,N,12304.400244,W,001150.000,A,D*51
$GNGSA,A,3,22,17,14,13,19,30,15,02,24,21,,,0.96,0.50,0.82,1*08
$GNGSA,A,3,79,88,78,80,69,,,,,,,,0.96,0.50,0.82,2*04
$GNGSA,A,3,21,04,06,13,09,19,31,15,,,,,0.96,0.50,0.82,3*07
$GNGSA,A,3,26,29,35,45,24,14,33,42,13,,,,0.96,0.50,0.82,4*0B
$GPGSV,4,1,13,22,83,359,28,17,67,152,30,14,65,068,29,13,44,227,31,1*6B
$GPGSV,4,2,13,19,41,191,30,46,33,188,29,30,33,136,27,15,33,271,21,1*6E
$GPGSV,4,3,13,02,26,059,20,24,19,307,24,21,17,041,16,23,02,315,,1*66
$GPGSV,4,4,13,10,02,352,,1*51
$GLGSV,2,1,07,79,70,351,36,88,45,064,37,78,37,084,20,70,28,312,,1*78
$GLGSV,2,2,07,80,25,293,33,69,23,240,32,71,05,353,,1*47
$GAGSV,3,1,10,21,54,069,29,04,46,258,28,06,38,293,24,13,27,087,24,7*78
$GAGSV,3,2,10,09,24,315,22,19,20,193,19,31,17,261,21,15,16,034,19,7*7C
$GAGSV,3,3,10,26,10,139,24,27,04,077,,7*7B
$GBGSV,3,1,12,26,81,310,35,29,42,067,29,35,42,153,32,45,39,103,28,1*7C
$GBGSV,3,2,12,24,28,290,28,14,20,275,21,33,18,301,26,42,14,248,23,1*7E
$GBGSV,3,3,12,44,08,188,20,08,07,309,16,13,06,320,20,41,03,346,20,1*7E
$GNRMC,001150.000,A,4910.425768,N,12304.400244,W,0.33,177.05,041224,,,D,V*19
$GNVTG,177.05,T,,M,0.33,N,0.60,K,D*24
$PAIRLOG,Full*51
$GNGGA,001151.000,4910.425750,N,12304.400244,W,2,32,0.50,2.891,M,-16.816,M,,*4B
$GNGLL,4910.425750,N,12304.400244,W,001151.000,A,D*5B
$GNGSA,A,3,22,17,14,13,19,30,15,02,24,21,,,0.96,0.50,0.82,1*08
$GNGSA,A,3,79,88,78,80,69,,,,,,,,0.96,0.50,0.82,2*04
$GNGSA,A,3,21,04,06,13,09,19,31,15,,,,,0.96,0.50,0.82,3*07
$GNGSA,A,3,26,29,35,45,24,14,33,42,13,,,,0.96,0.50,0.82,4*0B
$GPGSV,4,1,13,22,83,359,28,17,67,152,30,14,65,068,29,13,44,227,29,1*62
$GPGSV,4,2,13,19,41,191,29,46,33,188,29,30,33,136,27,15,33,271,21,1*66
$GPGSV,4,3,13,02,26,059,21,24,19,307,24,21,17,041,15,23,02,315,,1*64
$GPGSV,4,4,13,10,02,352,,1*51
$GLGSV,2,1,07,79,70,351,36,88,45,064,37,78,37,084,21,70,28,312,,1*79
$GLGSV,2,2,07,80,25,293,33,69,23,240,32,71,05,353,,1*47
$GAGSV,3,1,10,21,54,069,29,04,46,258,28,06,38,293,25,13,27,087,25,7*78
$GAGSV,3,2,10,09,24,315,22,19,20,193,19,31,17,261,21,15,16,034,19,7*7C
$GAGSV,3,3,10,26,10,139,24,27,04,077,,7*7B
$GBGSV,3,1,12,26,81,310,35,29,42,067,30,35,42,153,33,45,39,103,28,1*75
$GBGSV,3,2,12,24,28,290,29,14,20,275,21,33,18,301,27,42,14,248,24,1*79
$GBGSV,3,3,12,44,08,188,21,08,07,309,17,13,06,320,21,41,03,346,20,1*7F
$GNRMC,001151.000,A,4910.425750,N,12304.400244,W,0.07,177.05,041224,,,D,V*14
$GNVTG,177.05,T,,M,0.07,N,0.13,K,D*27
$PAIRLOG,Full*51
$GNGGA,001152.000,4910.425726,N,12304.400268,W,2,32,0.50,2.907,M,-16.816,M,,*49
$GNGLL,4910.425726,N,12304.400268,W,001152.000,A,D*57
$GNGSA,A,3,22,17,14,13,19,30,15,02,24,21,,,0.96,0.50,0.82,1*08
$GNGSA,A,3,79,88,78,80,69,,,,,,,,0.96,0.50,0.82,2*04
$GNGSA,A,3,21,04,06,13,09,19,31,15,,,,,0.96,0.50,0.82,3*07
$GNGSA,A,3,26,29,35,45,24,14,33,42,13,,,,0.96,0.50,0.82,4*0B
$GPGSV,4,1,13,22,83,359,28,17,67,152,30,14,65,068,29,13,44,227,28,1*63
$GPGSV,4,2,13,19,41,191,28,46,33,188,29,30,33,136,27,15,33,271,21,1*67
$GPGSV,4,3,13,02,26,059,21,24,19,307,24,21,17,041,14,23,02,315,,1*65
$GPGSV,4,4,13,10,02,352,,1*51
$GLGSV,2,1,07,79,70,351,36,88,45,064,37,78,37,084,21,70,28,312,,1*79
$GLGSV,2,2,07,80,25,293,33,69,23,240,32,71,05,353,,1*47
$GAGSV,3,1,10,21,54,069,29,04,46,258,28,06,38,293,25,13,27,087,25,7*78
$GAGSV,3,2,10,09,24,315,22,19,20,193,19,31,17,261,21,15,16,034,19,7*7C
$GAGSV,3,3,10,26,11,138,24,27,04,077,,7*7B
$GBGSV,3,1,12,26,81,310,35,29,42,067,31,35,42,153,33,45,39,103,28,1*74
$GBGSV,3,2,12,24,28,290,29,14,20,275,22,33,18,301,27,42,14,248,25,1*7B
$GBGSV,3,3,12,44,08,188,22,08,07,309,18,13,06,320,21,41,03,346,20,1*73
$GNRMC,001152.000,A,4910.425726,N,12304.400268,W,0.08,177.05,041224,,,D,V*17
$GNVTG,177.05,T,,M,0.08,N,0.14,K,D*2F
$PAIRLOG,Full*51
$GNGGA,001153.000,4910.425744,N,12304.400232,W,2,32,0.49,2.864,M,-16.817,M,,*4E
$GNGLL,4910.425744,N,12304.400232,W,001153.000,A,D*5D
$GNGSA,A,3,22,17,14,13,19,15,30,02,24,21,,,0.96,0.49,0.82,1*00
$GNGSA,A,3,79,88,78,80,69,,,,,,,,0.96,0.49,0.82,2*0C
$GNGSA,A,3,21,04,06,13,09,19,31,15,,,,,0.96,0.49,0.82,3*0F
$GNGSA,A,3,26,35,29,45,24,14,33,42,13,,,,0.96,0.49,0.82,4*03
$GPGSV,4,1,13,22,83,359,28,17,67,152,30,14,65,068,29,13,44,227,30,1*6A
$GPGSV,4,2,13,19,41,191,29,15,33,271,22,46,33,188,29,30,33,136,26,1*64
$GPGSV,4,3,13,02,26,059,22,24,19,307,24,21,17,041,15,23,02,315,,1*67
$GPGSV,4,4,13,10,02,352,,1*51
$GLGSV,2,1,07,79,70,351,36,88,45,064,37,78,37,084,21,70,28,312,,1*79
$GLGSV,2,2,07,80,25,293,33,69,23,240,32,71,05,353,,1*47
$GAGSV,3,1,10,21,54,069,29,04,46,258,28,06,38,293,25,13,27,087,26,7*7B
$GAGSV,3,2,10,09,24,315,22,19,20,193,19,31,17,261,21,15,16,034,19,7*7C
$GAGSV,3,3,10,26,11,138,24,27,03,077,,7*7C
$GBGSV,3,1,12,26,81,310,36,35,42,153,33,29,42,067,31,45,39,103,28,1*77
$GBGSV,3,2,12,24,28,290,29,14,20,275,21,33,18,301,27,42,14,248,25,1*78
$GBGSV,3,3,12,44,08,188,22,08,07,309,18,13,06,320,21,41,03,346,21,1*72
$GNRMC,001153.000,A,4910.425744,N,12304.400232,W,0.06,177.05,041224,,,D,V*13
$GNVTG,177.05,T,,M,0.06,N,0.12,K,D*27
$PAIRLOG,Full*51
$GNGGA,001154.000,4910.425714,N,12304.400184,W,2,32,0.49,2.845,M,-16.816,M,,*40
$GNGLL,4910.425714,N,12304.400184,W,001154.000,A,D*51
$GNGSA,A,3,22,17,14,13,19,15,30,02,24,21,,,0.96,0.49,0.82,1*00
$GNGSA,A,3,79,88,78,80,69,,,,,,,,0.96,0.49,0.82,2*0C
$GNGSA,A,3,21,04,06,13,09,19,31,15,,,,,0.96,0.49,0.82,3*0F
$GNGSA,A,3,26,35,29,45,24,14,33,42,13,,,,0.96,0.49,0.82,4*03
$GPGSV,4,1,13,22,83,359,28,17,67,152,30,14,65,068,29,13,44,227,30,1*6A
$GPGSV,4,2,13,19,41,191,28,15,33,271,22,46,33,188,29,30,33,136,26,1*65
$GPGSV,4,3,13,02,26,059,22,24,19,307,24,21,17,041,16,23,02,315,,1*64
$GPGSV,4,4,13,10,02,352,,1*51
$GLGSV,2,1,07,79,70,351,36,88,45,064,37,78,37,084,21,70,28,312,,1*79
$GLGSV,2,2,07,80,25,293,33,69,23,240,32,71,05,353,,1*47
$GAGSV,3,1,10,21,54,069,29,04,46,258,28,06,38,293,25,13,27,087,26,7*7B
$GAGSV,3,2,10,09,24,315,22,19,20,193,19,31,17,261,22,15,16,034,19,7*7F
$GAGSV,3,3,10,26,11,138,25,27,03,077,,7*7D
$GBGSV,3,1,12,26,81,310,36,35,42,153,33,29,42,067,31,45,39,103,28,1*77
$GBGSV,3,2,12,24,28,290,29,14,20,275,21,33,18,301,28,42,14,248,25,1*77
$GBGSV,3,3,12,44,08,188,22,08,07,309,18,13,06,320,21,41,03,346,21,1*72
$GNRMC,001154.000,A,4910.425714,N,12304.400184,W,0.05,177.05,041224,,,D,V*1C
$GNVTG,177.05,T,,M,0.05,N,0.09,K,D*2E
$PAIRLOG,Full*51
$GNGGA,001155.000,4910.425666,N,12304.400166,W,2,32,0.49,2.825,M,-16.816,M,,*4F
$GNGLL,4910.425666,N,12304.400166,W,001155.000,A,D*58
$GNGSA,A,3,22,17,14,13,19,15,30,02,24,21,,,0.96,0.49,0.82,1*00
$GNGSA,A,3,79,88,78,80,69,,,,,,,,0.96,0.49,0.82,2*0C
$GNGSA,A,3,21,04,06,13,09,19,31,15,,,,,0.96,0.49,0.82,3*0F
$GNGSA,A,3,26,35,29,45,24,14,33,42,13,,,,0.96,0.49,0.82,4*03
$GPGSV,4,1,13,22,83,359,28,17,67,152,30,14,65,068,29,13,44,227,29,1*62
$GPGSV,4,2,13,19,41,191,28,15,33,271,22,46,33,188,29,30,33,136,26,1*65
$GPGSV,4,3,13,02,26,059,21,24,19,307,24,21,17,041,18,23,02,315,,1*69
$GPGSV,4,4,13,10,02,352,,1*51
$GLGSV,2,1,07,79,70,351,36,88,45,064,37,78,37,084,22,70,28,312,,1*7A
$GLGSV,2,2,07,80,25,293,32,69,23,240,31,71,05,353,,1*45
$GAGSV,3,1,10,21,54,069,29,04,46,258,28,06,38,293,25,13,27,087,26,7*7B
$GAGSV,3,2,10,09,24,315,22,19,20,193,19,31,17,261,23,15,16,034,19,7*7E
$GAGSV,3,3,10,26,11,138,25,27,03,077,,7*7D
$GBGSV,3,1,12,26,81,310,36,35,42,153,34,29,42,067,32,45,39,103,28,1*73
$GBGSV,3,2,12,24,28,290,30,14,20,275,22,33,18,301,28,42,14,248,25,1*7C
$GBGSV,3,3,12,44,08,188,22,08,07,309,18,13,06,320,21,41,03,346,21,1*72
$GNRMC,001155.000,A,4910.425666,N,12304.400166,W,0.06,177.05,041224,,,D,V*16
$GNVTG,177.05,T,,M,0.06,N,0.12,K,D*27
$PAIRLOG,Full*51
$GNGGA,001156.000,4910.425648,N,12304.400178,W,2,32,0.49,2.844,M,-16.816,M,,*48
$GNGLL,4910.425648,N,12304.400178,W,001156.000,A,D*58
$GNGSA,A,3,22,17,14,13,19,15,30,02,24,21,,,0.96,0.49,0.82,1*00
$GNGSA,A,3,79,88,78,80,69,,,,,,,,0.96,0.49,0.82,2*0C
$GNGSA,A,3,21,04,06,13,09,19,31,15,,,,,0.96,0.49,0.82,3*0F
$GNGSA,A,3,26,35,29,45,24,14,33,42,13,,,,0.96,0.49,0.82,4*03
$GPGSV,4,1,13,22,83,359,28,17,67,152,30,14,65,068,29,13,44,227,29,1*62
$GPGSV,4,2,13,19,41,191,28,15,33,271,21,46,33,188,29,30,33,136,26,1*66
$GPGSV,4,3,13,02,26,059,20,24,19,307,24,21,17,041,17,23,02,315,,1*67
$GPGSV,4,4,13,10,02,352,,1*51
$GLGSV,2,1,07,79,70,351,36,88,45,064,37,78,37,084,22,70,28,312,,1*7A
$GLGSV,2,2,07,80,25,293,32,69,23,240,31,71,05,353,,1*45
$GAGSV,3,1,10,21,54,069,29,04,46,258,28,06,38,293,25,13,27,087,26,7*7B
$GAGSV,3,2,10,09,24,315,22,19,20,193,19,31,17,261,22,15,16,034,18,7*7E
$GAGSV,3,3,10,26,11,138,25,27,03,077,,7*7D
$GBGSV,3,1,12,26,81,310,35,35,42,153,34,29,42,067,31,45,39,103,27,1*7C
$GBGSV,3,2,12,24,28,290,30,14,20,275,22,33,18,301,28,42,14,248,25,1*7C
$GBGSV,3,3,12,44,08,188,22,08,07,309,18,13,06,320,21,41,03,346,22,1*71
$GNRMC,001156.000,A,4910.425648,N,12304.400178,W,0.08,177.05,041224,,,D,V*18
$GNVTG,177.05,T,,M,0.08,N,0.14,K,D*2F
$PAIRLOG,Full*51
$GNGGA,001157.000,4910.425678,N,12304.400202,W,2,32,0.49,2.798,M,-16.816,M,,*4A
$GNGLL,4910.425678,N,12304.400202,W,001157.000,A,D*54
$GNGSA,A,3,22,17,14,13,19,15,30,02,24,21,,,0.96,0.49,0.82,1*00
$GNGSA,A,3,79,88,78,80,69,,,,,,,,0.96,0.49,0.82,2*0C
$GNGSA,A,3,21,04,06,13,09,19,31,15,,,,,0.96,0.49,0.82,3*0F
$GNGSA,A,3,26,35,29,45,24,14,33,42,13,,,,0.96,0.49,0.82,4*03
$GPGSV,4,1,13,22,83,359,28,17,67,152,30,14,65,068,29,13,44,227,29,1*62
$GPGSV,4,2,13,19,41,191,28,15,33,271,20,46,33,188,29,30,33,136,26,1*67
$GPGSV,4,3,13,02,26,059,20,24,19,307,24,21,17,041,16,23,02,315,,1*66
$GPGSV,4,4,13,10,02,352,,1*51
$GLGSV,2,1,07,79,70,351,36,88,45,064,37,78,37,084,21,70,28,312,,1*79
$GLGSV,2,2,07,80,25,293,32,69,23,240,32,71,05,353,,1*46
$GAGSV,3,1,10,21,54,069,29,04,46,258,28,06,38,293,25,13,27,087,26,7*7B
$GAGSV,3,2,10,09,24,315,22,19,20,193,19,31,17,262,22,15,16,034,18,7*7D
$GAGSV,3,3,10,26,11,138,25,27,03,077,,7*7D
$GBGSV,3,1,12,26,81,310,35,35,42,153,34,29,42,067,31,45,39,103,27,1*7C
$GBGSV,3,2,12,24,28,290,30,14,20,275,21,33,18,301,28,42,14,248,25,1*7F
$GBGSV,3,3,12,44,08,188,22,08,07,309,18,13,06,320,21,41,03,346,22,1*71
$GNRMC,001157.000,A,4910.425678,N,12304.400202,W,0.07,177.05,041224,,,D,V*1B
$GNVTG,177.05,T,,M,0.07,N,0.13,K,D*27
$PAIRLOG,Full*51
$GNGGA,001158.000,4910.425636,N,12304.400124,W,2,32,0.49,2.667,M,-16.816,M,,*49
$GNGLL,4910.425636,N,12304.400124,W,001158.000,A,D*56
$GNGSA,A,3,22,17,14,13,19,15,30,02,24,21,,,0.96,0.49,0.82,1*00
$GNGSA,A,3,79,88,78,80,69,,,,,,,,0.96,0.49,0.82,2*0C
$GNGSA,A,3,21,04,06,13,09,19,31,15,,,,,0.96,0.49,0.82,3*0F
$GNGSA,A,3,26,35,29,45,24,14,33,42,13,,,,0.96,0.49,0.82,4*03
$GPGSV,4,1,13,22,83,359,27,17,67,152,28,14,65,068,28,13,44,227,28,1*64
$GPGSV,4,2,13,19,41,191,27,15,33,271,20,46,33,188,28,30,33,136,25,1*6A
$GPGSV,4,3,13,02,26,059,19,24,19,307,23,21,17,041,16,23,02,315,,1*6B
$GPGSV,4,4,13,10,02,352,,1*51
$GLGSV,2,1,07,79,70,351,37,88,45,064,37,78,37,084,21,70,28,312,,1*78
$GLGSV,2,2,07,80,25,293,32,69,23,240,32,71,05,353,,1*46
$GAGSV,3,1,10,21,54,069,29,04,46,258,28,06,38,293,25,13,27,087,26,7*7B
$GAGSV,3,2,10,09,24,315,22,19,20,193,18,31,17,262,22,15,16,034,18,7*7C
$GAGSV,3,3,10,26,11,138,25,27,03,077,,7*7D
$GBGSV,3,1,12,26,81,310,35,35,42,153,34,29,42,067,31,45,39,103,27,1*7C
$GBGSV,3,2,12,24,28,290,30,14,20,275,21,33,18,301,27,42,14,248,25,1*70
$GBGSV,3,3,12,44,08,188,22,08,07,309,18,13,06,320,21,41,03,346,22,1*71
$GNRMC,001158.000,A,4910.425636,N,12304.400124,W,0.08,177.05,041224,,,D,V*16
$GNVTG,177.05,T,,M,0.08,N,0.15,K,D*2E
$PAIRLOG,Full*51
$GNGGA,001159.000,4910.425588,N,12304.400118,W,2,32,0.49,2.736,M,-16.816,M,,*44
$GNGLL,4910.425588,N,12304.400118,W,001159.000,A,D*5E
$GNGSA,A,3,22,17,14,13,19,15,30,02,24,21,,,0.96,0.49,0.82,1*00
$GNGSA,A,3,79,88,78,80,69,,,,,,,,0.96,0.49,0.82,2*0C
$GNGSA,A,3,21,04,06,13,09,19,31,15,,,,,0.96,0.49,0.82,3*0F
$GNGSA,A,3,26,35,29,45,24,14,33,42,13,,,,0.96,0.49,0.82,4*03
$GPGSV,4,1,13,22,83,359,26,17,67,152,27,14,65,068,27,13,44,227,27,1*6A
$GPGSV,4,2,13,19,41,191,26,15,33,271,20,46,33,188,27,30,33,136,25,1*64
$GPGSV,4,3,13,02,26,059,18,24,19,307,22,21,17,041,15,23,02,315,,1*68
$GPGSV,4,4,13,10,02,352,,1*51
$GLGSV,2,1,07,79,70,351,37,88,45,064,37,78,37,084,21,70,28,312,,1*78
$GLGSV,2,2,07,80,25,293,32,69,23,240,32,71,05,353,,1*46
$GAGSV,3,1,10,21,54,069,29,04,46,258,27,06,38,293,25,13,27,087,25,7*77
$GAGSV,3,2,10,09,24,315,21,19,20,193,17,31,17,262,21,15,16,034,18,7*73
$GAGSV,3,3,10,26,11,138,25,27,03,077,,7*7D
$GBGSV,3,1,12,26,81,310,35,35,42,153,34,29,42,067,31,45,39,103,27,1*7C
$GBGSV,3,2,12,24,28,290,29,14,20,275,21,33,18,301,27,42,14,248,24,1*79
$GBGSV,3,3,12,44,08,188,22,08,07,309,18,13,06,320,21,41,03,346,21,1*72
$GNRMC,001159.000,A,4910.425588,N,12304.400118,W,0.10,177.05,041224,,,D,V*17
$GNVTG,177.05,T,,M,0.10,N,0.18,K,D*2A
$PAIRLOG,Full*51
$GNGGA,001200.000,4910.425618,N,12304.400130,W,2,32,0.49,2.807,M,-16.816,M,,*46
$GNGLL,4910.425618,N,12304.400130,W,001200.000,A,D*51
$GNGSA,A,3,22,17,14,13,19,15,30,02,24,21,,,0.96,0.49,0.82,1*00
$GNGSA,A,3,79,88,78,80,69,,,,,,,,0.96,0.49,0.82,2*0C
$GNGSA,A,3,21,04,06,13,09,19,31,15,,,,,0.96,0.49,0.82,3*0F
$GNGSA,A,3,26,35,29,45,24,14,33,42,13,,,,0.96,0.49,0.82,4*03
$GPGSV,4,1,13,22,83,359,26,17,67,152,26,14,65,068,26,13,44,227,26,1*6B
$GPGSV,4,2,13,19,41,191,25,15,33,271,20,46,33,188,27,30,33,136,25,1*67
$GPGSV,4,3,13,02,26,059,17,24,19,307,21,21,17,041,15,23,02,315,,1*64
$GPGSV,4,4,13,10,02,352,,1*51
$GLGSV,2,1,07,79,70,351,37,88,45,064,37,78,37,084,22,70,28,312,,1*7B
$GLGSV,2,2,07,80,25,293,31,69,23,240,32,71,05,353,,1*45
$GAGSV,3,1,10,21,54,069,28,04,46,258,27,06,38,293,24,13,27,087,24,7*76
$GAGSV,3,2,10,09,24,315,20,19,20,193,16,31,17,262,20,15,16,034,17,7*7D
$GAGSV,3,3,10,26,11,138,25,27,03,077,,7*7D
$GBGSV,3,1,12,26,81,310,35,35,42,153,34,29,42,067,31,45,39,103,27,1*7C
$GBGSV,3,2,12,24,28,290,30,14,20,275,21,33,18,301,28,42,14,248,24,1*7E
$GBGSV,3,3,12,44,08,188,22,08,07,309,17,13,06,320,21,41,03,346,21,1*7D
$GNRMC,001200.000,A,4910.425618,N,12304.400130,W,0.10,177.05,041224,,,D,V*18
$GNVTG,177.05,T,,M,0.10,N,0.19,K,D*2B
$PAIRLOG,Full*51
$GNGGA,001201.000,4910.425612,N,12304.400082,W,2,32,0.49,2.820,M,-16.816,M,,*40
$GNGLL,4910.425612,N,12304.400082,W,001201.000,A,D*52
$GNGSA,A,3,22,17,14,13,19,15,30,02,24,21,,,0.96,0.49,0.82,1*00
$GNGSA,A,3,79,88,78,80,69,,,,,,,,0.96,0.49,0.82,2*0C
$GNGSA,A,3,21,04,06,13,09,19,31,15,,,,,0.96,0.49,0.82,3*0F
$GNGSA,A,3,26,35,29,45,24,14,33,42,13,,,,0.96,0.49,0.82,4*03
$GPGSV,4,1,13,22,83,359,26,17,67,152,26,14,65,068,25,13,44,227,26,1*68
$GPGSV,4,2,13,19,41,191,25,15,33,271,20,46,33,188,27,30,33,136,25,1*67
$GPGSV,4,3,13,02,26,059,17,24,19,307,21,21,17,041,15,23,02,315,,1*64
$GPGSV,4,4,13,10,02,352,,1*51
$GLGSV,2,1,07,79,70,351,37,88,45,064,37,78,37,084,22,70,28,312,,1*7B
$GLGSV,2,2,07,80,25,293,32,69,23,240,32,71,05,353,,1*46
$GAGSV,3,1,10,21,54,069,28,04,46,258,28,06,38,293,24,13,27,087,25,7*78
$GAGSV,3,2,10,09,24,315,20,19,20,193,17,31,17,262,21,15,16,034,17,7*7D
$GAGSV,3,3,10,26,11,138,25,27,03,077,,7*7D
$GBGSV,3,1,12,26,81,310,35,35,42,153,34,29,42,067,31,45,39,103,27,1*7C
$GBGSV,3,2,12,24,28,290,30,14,20,275,21,33,18,301,28,42,14,248,24,1*7E
$GBGSV,3,3,12,44,08,188,22,08,07,309,17,13,06,320,21,41,03,346,21,1*7D
$GNRMC,001201.000,A,4910.425612,N,12304.400082,W,0.11,177.05,041224,,,D,V*1A
$GNVTG,177.05,T,,M,0.11,N,0.20,K,D*20
$PAIRLOG,Full*51
$GNGGA,001202.000,4910.425618,N,12304.400088,W,2,32,0.49,2.827,M,-16.816,M,,*44
$GNGLL,4910.425618,N,12304.400088,W,001202.000,A,D*51
$GNGSA,A,3,22,17,14,13,19,15,30,02,24,21,,,0.96,0.49,0.82,1*00
$GNGSA,A,3,79,88,78,80,69,,,,,,,,0.96,0.49,0.82,2*0C
$GNGSA,A,3,21,04,06,13,09,19,31,15,,,,,0.96,0.49,0.82,3*0F
$GNGSA,A,3,26,35,29,45,24,14,33,42,13,,,,0.96,0.49,0.82,4*03
$GPGSV,4,1,13,22,83,359,26,17,67,152,27,14,65,068,28,13,44,227,26,1*64
$GPGSV,4,2,13,19,41,191,25,15,33,271,20,46,33,188,27,30,33,136,25,1*67
$GPGSV,4,3,13,02,26,059,18,24,19,307,22,21,17,041,15,23,02,315,,1*68
$GPGSV,4,4,13,10,02,352,,1*51
$GLGSV,2,1,07,79,70,351,37,88,45,064,37,78,37,084,21,70,28,312,,1*78
$GLGSV,2,2,07,80,25,293,32,69,23,240,32,71,05,353,,1*46
$GAGSV,3,1,10,21,54,069,28,04,46,258,28,06,38,293,24,13,27,087,25,7*78
$GAGSV,3,2,10,09,24,315,20,19,20,193,17,31,17,262,21,15,16,034,17,7*7D
$GAGSV,3,3,10,26,11,138,25,27,03,077,,7*7D
$GBGSV,3,1,12,26,81,310,34,35,42,153,33,29,42,067,30,45,39,103,26,1*7A
$GBGSV,3,2,12,24,28,290,29,14,20,275,21,33,18,301,27,42,14,248,24,1*79
$GBGSV,3,3,12,44,08,188,21,08,07,309,17,13,06,320,21,41,03,346,20,1*7F
$GNRMC,001202.000,A,4910.425618,N,12304.400088,W,0.11,177.05,041224,,,D,V*19
$GNVTG,177.05,T,,M,0.11,N,0.21,K,D*21
$PAIRLOG,Full*51
$GNGGA,001203.000,4910.425600,N,12304.400022,W,2,32,0.49,2.881,M,-16.816,M,,*40
$GNGLL,4910.425600,N,12304.400022,W,001203.000,A,D*59
$GNGSA,A,3,22,17,14,13,19,15,30,02,24,21,,,0.96,0.49,0.82,1*00
$GNGSA,A,3,79,88,78,80,69,,,,,,,,0.96,0.49,0.82,2*0C
$GNGSA,A,3,21,04,06,13,09,19,31,15,,,,,0.96,0.49,0.82,3*0F
$GNGSA,A,3,26,35,29,45,24,14,33,42,13,,,,0.96,0.49,0.82,4*03
$GPGSV,4,1,13,22,83,359,27,17,67,152,29,14,65,068,30,13,44,227,27,1*63
$GPGSV,4,2,13,19,41,191,26,15,33,271,22,46,33,188,28,30,33,136,26,1*6A
$GPGSV,4,3,13,02,26,059,19,24,19,307,23,21,17,041,16,23,02,315,,1*6B
$GPGSV,4,4,13,10,02,352,,1*51
$GLGSV,2,1,07,79,70,351,37,88,45,064,37,78,37,084,21,70,28,312,,1*78
$GLGSV,2,2,07,80,25,293,32,69,23,240,31,71,05,353,,1*45
$GAGSV,3,1,10,21,54,069,29,04,46,258,29,06,38,293,25,13,27,087,26,7*7A
$GAGSV,3,2,10,09,24,315,21,19,20,193,17,31,17,262,22,15,16,034,17,7*7F
$GAGSV,3,3,10,26,11,138,25,27,03,077,,7*7D
$GBGSV,3,1,12,26,81,310,34,35,42,153,33,29,42,067,30,45,39,103,25,1*79
$GBGSV,3,2,12,24,28,290,28,14,20,275,21,33,18,301,26,42,14,248,23,1*7E
$GBGSV,3,3,12,44,08,188,21,08,07,309,17,13,06,320,20,41,03,346,20,1*7E
$GNRMC,001203.000,A,4910.425600,N,12304.400022,W,0.11,177.05,041224,,,D,V*11
$GNVTG,177.05,T,,M,0.11,N,0.21,K,D*21
$PAIRLOG,Full*51
$GNGGA,001204.000,4910.425660,N,12304.400034,W,2,32,0.49,2.924,M,-16.816,M,,*48
$GNGLL,4910.425660,N,12304.400034,W,001204.000,A,D*5F
$GNGSA,A,3,22,17,14,13,19,15,30,02,24,21,,,0.96,0.49,0.82,1*00
$GNGSA,A,3,79,88,78,80,69,,,,,,,,0.96,0.49,0.82,2*0C
$GNGSA,A,3,21,04,06,13,09,19,31,15,,,,,0.96,0.49,0.82,3*0F
$GNGSA,A,3,26,35,29,45,24,14,33,42,13,,,,0.96,0.49,0.82,4*03
$GPGSV,4,1,13,22,83,359,27,17,67,152,29,14,65,068,28,13,44,227,27,1*6A
$GPGSV,4,2,13,19,41,191,26,15,33,271,22,46,33,188,28,30,33,136,26,1*6A
$GPGSV,4,3,13,02,26,059,19,24,19,307,23,21,17,041,16,23,02,315,,1*6B
$GPGSV,4,4,13,10,02,352,,1*51
$GLGSV,2,1,07,79,70,351,37,88,45,064,37,78,37,084,21,70,28,312,,1*78
$GLGSV,2,2,07,80,25,293,32,69,23,240,31,71,05,353,,1*45
$GAGSV,3,1,10,21,54,069,29,04,46,258,29,06,38,293,25,13,27,087,26,7*7A
$GAGSV,3,2,10,09,24,315,21,19,20,193,17,31,17,262,22,15,16,034,17,7*7F
$GAGSV,3,3,10,26,11,138,25,27,03,077,,7*7D
$GBGSV,3,1,12,26,81,310,34,35,42,153,33,29,42,067,30,45,39,103,25,1*79
$GBGSV,3,2,12,24,28,290,28,14,20,275,21,33,18,301,26,42,14,248,22,1*7F
$GBGSV,3,3,12,44,08,188,21,08,07,309,17,13,06,320,20,41,03,346,20,1*7E
$GNRMC,001204.000,A,4910.425660,N,12304.400034,W,0.11,177.05,041224,,,D,V*17
$GNVTG,177.05,T,,M,0.11,N,0.21,K,D*21
$PAIRLOG,Full*51
$GNGGA,001205.000,4910.425642,N,12304.400040,W,2,32,0.49,3.081,M,-16.817,M,,*4C
$GNGLL,4910.425642,N,12304.400040,W,001205.000,A,D*5D
$GNGSA,A,3,22,17,14,13,19,15,30,02,24,21,,,0.96,0.49,0.82,1*00
$GNGSA,A,3,79,88,78,80,69,,,,,,,,0.96,0.49,0.82,2*0C
$GNGSA,A,3,21,04,06,13,09,19,31,15,,,,,0.96,0.49,0.82,3*0F
$GNGSA,A,3,26,35,29,45,24,14,33,42,13,,,,0.96,0.49,0.82,4*03
$GPGSV,4,1,13,22,83,359,27,17,67,152,29,14,65,068,26,13,44,227,26,1*65
$GPGSV,4,2,13,19,41,191,26,15,33,271,22,46,33,188,28,30,33,136,26,1*6A
$GPGSV,4,3,13,02,26,059,19,24,19,307,23,21,17,041,16,23,02,315,,1*6B
$GPGSV,4,4,13,10,02,352,,1*51
$GLGSV,2,1,07,79,70,351,37,88,45,064,37,78,37,084,21,70,28,312,,1*78
$GLGSV,2,2,07,80,25,293,32,69,23,240,31,71,05,353,,1*45
$GAGSV,3,1,10,21,54,069,29,04,46,258,29,06,38,293,24,13,27,087,26,7*7B
$GAGSV,3,2,10,09,24,315,21,19,20,193,17,31,17,262,21,15,16,034,17,7*7C
$GAGSV,3,3,10,26,11,138,25,27,03,077,,7*7D
$GBGSV,3,1,12,26,81,310,34,35,42,153,33,29,42,067,30,45,39,103,25,1*79
$GBGSV,3,2,12,24,28,290,28,14,20,275,21,33,18,301,26,42,14,248,23,1*7E
$GBGSV,3,3,12,44,08,188,21,08,07,309,17,13,06,320,19,41,03,346,20,1*74
$GNRMC,001205.000,A,4910.425642,N,12304.400040,W,0.11,177.05,041224,,,D,V*15
$GNVTG,177.05,T,,M,0.11,N,0.21,K,D*21
$PAIRLOG,Full*51
$GNGGA,001206.000,4910.425654,N,12304.400004,W,2,32,0.49,2.931,M,-16.817,M,,*4B
$GNGLL,4910.425654,N,12304.400004,W,001206.000,A,D*59
$GNGSA,A,3,22,17,14,13,19,15,30,02,24,21,,,0.96,0.49,0.82,1*00
$GNGSA,A,3,79,88,78,80,69,,,,,,,,0.96,0.49,0.82,2*0C
$GNGSA,A,3,21,04,06,13,09,19,31,15,,,,,0.96,0.49,0.82,3*0F
$GNGSA,A,3,26,35,29,45,24,14,33,42,13,,,,0.96,0.49,0.82,4*03
$GPGSV,4,1,13,22,83,359,28,17,67,152,30,14,65,068,29,13,44,227,27,1*6C
$GPGSV,4,2,13,19,41,191,27,15,33,271,22,46,33,188,28,30,33,136,27,1*6A
$GPGSV,4,3,13,02,26,059,20,24,19,307,24,21,17,041,17,23,02,315,,1*67
$GPGSV,4,4,13,10,02,352,,1*51
$GLGSV,2,1,07,79,70,351,37,88,45,064,37,78,37,084,20,70,28,312,,1*79
$GLGSV,2,2,07,80,25,293,32,69,23,240,30,71,05,353,,1*44
$GAGSV,3,1,10,21,54,069,29,04,46,258,29,06,38,293,24,13,27,087,26,7*7B
$GAGSV,3,2,10,09,24,315,21,19,20,193,18,31,17,262,22,15,16,034,17,7*70
$GAGSV,3,3,10,26,11,138,25,27,03,077,,7*7D
$GBGSV,3,1,12,26,81,310,34,35,42,153,33,29,42,067,30,45,39,103,25,1*79
$GBGSV,3,2,12,24,28,290,28,14,20,275,21,33,18,301,26,42,14,248,23,1*7E
$GBGSV,3,3,12,44,08,188,21,08,07,309,17,13,06,320,19,41,03,346,20,1*74
$GNRMC,001206.000,A,4910.425654,N,12304.400004,W,0.09,177.05,041224,,,D,V*18
$GNVTG,177.05,T,,M,0.09,N,0.16,K,D*2C
$PAIRLOG,Full*51
$GNGGA,001207.000,4910.425690,N,12304.399974,W,2,32,0.49,3.027,M,-16.816,M,,*45
$GNGLL,4910.425690,N,12304.399974,W,001207.000,A,D*59
$GNGSA,A,3,22,17,14,13,19,15,30,02,24,21,,,0.96,0.49,0.82,1*00
$GNGSA,A,3,79,88,78,80,69,,,,,,,,0.96,0.49,0.82,2*0C
$GNGSA,A,3,21,04,06,13,09,19,31,15,,,,,0.96,0.49,0.82,3*0F
$GNGSA,A,3,26,35,29,45,24,14,33,42,13,,,,0.96,0.49,0.82,4*03
$GPGSV,4,1,13,22,83,359,28,17,67,152,30,14,65,068,27,13,44,227,27,1*62
$GPGSV,4,2,13,19,41,191,27,15,33,271,22,46,33,188,28,30,33,136,27,1*6A
$GPGSV,4,3,13,02,26,059,20,24,19,307,24,21,17,041,17,23,02,315,,1*67
$GPGSV,4,4,13,10,02,352,,1*51
$GLGSV,2,1,07,79,70,351,36,88,45,064,37,78,37,084,19,70,28,312,,1*72
$GLGSV,2,2,07,80,25,293,32,69,22,239,30,71,05,353,,1*4B
$GAGSV,3,1,10,21,54,069,29,04,46,258,28,06,38,293,24,13,27,087,26,7*7A
$GAGSV,3,2,10,09,24,315,21,19,20,193,18,31,17,262,22,15,16,034,17,7*70
$GAGSV,3,3,10,26,11,138,25,27,03,077,,7*7D
$GBGSV,3,1,12,26,81,310,33,35,42,153,32,29,42,067,29,45,39,103,24,1*76
$GBGSV,3,2,12,24,28,290,27,14,20,275,21,33,18,301,25,42,14,248,22,1*73
$GBGSV,3,3,12,44,08,188,20,08,07,309,17,13,06,320,19,41,03,346,19,1*7F
$GNRMC,001207.000,A,4910.425690,N,12304.399974,W,0.06,177.05,041224,,,D,V*17
$GNVTG,177.05,T,,M,0.06,N,0.11,K,D*24
$PAIRLOG,Full*51
$GNGGA,001208.000,4910.425672,N,12304.399962,W,2,32,0.49,3.189,M,-16.816,M,,*44
$GNGLL,4910.425672,N,12304.399962,W,001208.000,A,D*5D
$GNGSA,A,3,22,17,14,13,19,15,30,02,24,21,,,0.96,0.49,0.82,1*00
$GNGSA,A,3,79,88,78,80,69,,,,,,,,0.96,0.49,0.82,2*0C
$GNGSA,A,3,21,04,06,13,09,19,31,15,,,,,0.96,0.49,0.82,3*0F
$GNGSA,A,3,26,35,29,45,24,14,33,42,13,,,,0.96,0.49,0.82,4*03
$GPGSV,4,1,13,22,83,359,27,17,67,152,29,14,65,068,26,13,44,227,27,1*64
$GPGSV,4,2,13,19,41,191,27,15,33,271,22,46,33,188,28,30,33,136,27,1*6A
$GPGSV,4,3,13,02,26,059,19,24,19,307,23,21,17,041,17,23,02,315,,1*6A
$GPGSV,4,4,13,10,02,352,,1*51
$GLGSV,2,1,07,79,70,351,36,88,45,064,37,78,37,084,18,70,28,310,,1*71
$GLGSV,2,2,07,80,25,293,32,69,22,239,30,71,05,353,,1*4B
$GAGSV,3,1,10,21,54,069,29,04,46,258,28,06,38,293,23,13,27,087,26,7*7D
$GAGSV,3,2,10,09,24,315,20,19,20,193,17,31,17,262,22,15,16,034,17,7*7E
$GAGSV,3,3,10,26,11,138,25,27,03,077,,7*7D
$GBGSV,3,1,12,26,81,310,33,35,42,153,32,29,42,067,29,45,39,103,23,1*71
$GBGSV,3,2,12,24,28,290,27,14,20,275,20,33,18,301,25,42,14,248,22,1*72
$GBGSV,3,3,12,44,08,188,20,08,07,309,17,13,06,320,19,41,03,346,19,1*7F
$GNRMC,001208.000,A,4910.425672,N,12304.399962,W,0.03,177.05,041224,,,D,V*16
$GNVTG,177.05,T,,M,0.03,N,0.06,K,D*27
$PAIRLOG,Full*51
$GNGGA,001209.000,4910.425684,N,12304.400022,W,2,32,0.49,3.367,M,-16.816,M,,*44
$GNGLL,4910.425684,N,12304.400022,W,001209.000,A,D*5F
$GNGSA,A,3,22,17,14,13,19,15,30,02,24,21,,,0.96,0.49,0.82,1*00
$GNGSA,A,3,79,88,78,80,69,,,,,,,,0.96,0.49,0.82,2*0C
$GNGSA,A,3,21,04,06,13,09,19,31,15,,,,,0.96,0.49,0.82,3*0F
$GNGSA,A,3,26,35,29,45,24,14,33,42,13,,,,0.96,0.49,0.82,4*03
$GPGSV,4,1,13,22,83,359,27,17,67,152,29,14,65,068,27,13,44,227,27,1*65
$GPGSV,4,2,13,19,41,191,27,15,33,271,22,46,33,188,28,30,33,136,27,1*6A
$GPGSV,4,3,13,02,26,059,19,24,19,307,23,21,17,041,15,23,02,315,,1*68
$GPGSV,4,4,13,10,02,352,,1*51
$GLGSV,2,1,07,79,70,351,36,88,45,064,37,78,37,084,17,70,28,310,,1*7E
$GLGSV,2,2,07,80,25,293,32,69,22,239,30,71,06,352,,1*49
$GAGSV,3,1,10,21,54,069,28,04,46,258,28,06,38,293,23,13,27,087,26,7*7C
$GAGSV,3,2,10,09,24,315,20,19,20,193,17,31,17,262,22,15,16,034,16,7*7F
$GAGSV,3,3,10,26,11,138,25,27,03,077,,7*7D
$GBGSV,3,1,12,26,81,310,33,35,42,153,32,29,42,067,29,45,39,103,23,1*71
$GBGSV,3,2,12,24,28,290,28,14,20,275,20,33,18,301,25,42,14,248,22,1*7D
$GBGSV,3,3,12,44,08,188,20,08,07,309,17,13,06,320,19,41,03,346,20,1*75
$GNRMC,001209.000,A,4910.425684,N,12304.400022,W,0.02,177.05,041224,,,D,V*15
$GNVTG,177.05,T,,M,0.02,N,0.03,K,D*23
$PAIRLOG,Full*51
$GNGGA,001210.000,4910.425648,N,12304.400052,W,2,32,0.49,3.425,M,-16.816,M,,*4A
$GNGLL,4910.425648,N,12304.400052,W,001210.000,A,D*50
$GNGSA,A,3,22,17,14,13,19,15,30,02,24,21,,,0.96,0.49,0.82,1*00
$GNGSA,A,3,79,88,78,80,69,,,,,,,,0.96,0.49,0.82,2*0C
$GNGSA,A,3,21,04,06,13,09,19,31,15,,,,,0.96,0.49,0.82,3*0F
$GNGSA,A,3,26,35,29,45,24,14,33,42,13,,,,0.96,0.49,0.82,4*03
$GPGSV,4,1,13,22,83,359,27,17,67,152,29,14,65,068,27,13,44,227,27,1*65
$GPGSV,4,2,13,19,41,191,26,15,33,271,22,46,33,188,28,30,33,136,27,1*6B
$GPGSV,4,3,13,02,26,059,19,24,19,307,24,21,17,041,16,23,02,315,,1*6C
$GPGSV,4,4,13,10,02,352,,1*51
$GLGSV,2,1,07,79,70,351,36,88,45,064,37,78,37,084,17,70,28,310,,1*7E
$GLGSV,2,2,07,80,25,293,32,69,22,239,30,71,06,352,,1*49
$GAGSV,3,1,10,21,54,069,28,04,46,258,28,06,38,293,23,13,27,087,25,7*7F
$GAGSV,3,2,10,09,24,315,19,19,20,193,17,31,17,262,22,15,16,034,16,7*75
$GAGSV,3,3,10,26,11,138,25,27,03,077,,7*7D
$GBGSV,3,1,12,26,81,310,34,35,42,153,32,29,42,067,30,45,39,103,24,1*79
$GBGSV,3,2,12,24,28,290,29,14,20,275,20,33,18,301,26,42,14,248,23,1*7E
$GBGSV,3,3,12,44,08,188,20,08,07,309,17,13,06,320,19,41,03,346,20,1*75
$GNRMC,001210.000,A,4910.425648,N,12304.400052,W,0.01,177.05,041224,,,D,V*19
$GNVTG,177.05,T,,M,0.01,N,0.01,K,D*22
$PAIRLOG,Full*51
$GNGGA,001211.000,4910.425576,N,12304.400082,W,2,32,0.49,3.395,M,-16.816,M,,*44
$GNGLL,4910.425576,N,12304.400082,W,001211.000,A,D*52
$GNGSA,A,3,22,17,14,13,19,15,30,02,24,21,,,0.96,0.49,0.82,1*00
$GNGSA,A,3,79,88,78,80,69,,,,,,,,0.96,0.49,0.82,2*0C
$GNGSA,A,3,21,04,06,13,09,19,31,15,,,,,0.96,0.49,0.82,3*0F
$GNGSA,A,3,26,35,29,45,24,14,33,42,13,,,,0.96,0.49,0.82,4*03
$GPGSV,4,1,13,22,83,359,28,17,67,152,30,14,65,068,29,13,44,227,28,1*63
$GPGSV,4,2,13,19,41,191,27,15,33,271,23,46,33,188,28,30,33,136,28,1*64
$GPGSV,4,3,13,02,26,059,20,24,19,307,25,21,17,041,17,23,02,315,,1*66
$GPGSV,4,4,13,10,02,352,,1*51
$GLGSV,2,1,07,79,70,351,36,88,45,064,37,78,37,084,17,70,28,310,,1*7E
$GLGSV,2,2,07,80,25,293,32,69,22,239,30,71,06,352,,1*49
$GAGSV,3,1,10,21,54,069,28,04,46,258,28,06,38,293,23,13,27,087,25,7*7F
$GAGSV,3,2,10,09,24,315,20,19,20,193,17,31,17,262,22,15,16,034,16,7*7F
$GAGSV,3,3,10,26,11,138,25,27,03,077,,7*7D
$GBGSV,3,1,12,26,81,310,34,35,42,153,33,29,42,067,30,45,39,103,24,1*78
$GBGSV,3,2,12,24,28,290,29,14,20,275,21,33,18,301,27,42,14,248,23,1*7E
$GBGSV,3,3,12,44,08,188,21,08,07,309,17,13,06,320,19,41,03,346,21,1*75
$GNRMC,001211.000,A,4910.425576,N,12304.400082,W,0.01,177.05,041224,,,D,V*1B
$GNVTG,177.05,T,,M,0.01,N,0.02,K,D*21
$PAIRLOG,Full*51
$GNGGA,001212.000,4910.425558,N,12304.400082,W,2,32,0.49,3.423,M,-16.817,M,,*40
$GNGLL,4910.425558,N,12304.400082,W,001212.000,A,D*5D
$GNGSA,A,3,22,17,14,13,19,15,30,02,24,21,,,0.96,0.49,0.82,1*00
$GNGSA,A,3,79,88,78,80,69,,,,,,,,0.96,0.49,0.82,2*0C
$GNGSA,A,3,21,04,06,13,09,19,31,15,,,,,0.96,0.49,0.82,3*0F
$GNGSA,A,3,26,35,29,45,24,14,33,42,13,,,,0.96,0.49,0.82,4*03
$GPGSV,4,1,13,22,83,359,28,17,67,152,30,14,65,068,29,13,44,227,28,1*63
$GPGSV,4,2,13,19,41,191,27,15,33,271,24,46,33,188,28,30,33,136,28,1*63
$GPGSV,4,3,13,02,26,059,20,24,19,307,25,21,17,041,17,23,02,315,,1*66
$GPGSV,4,4,13,10,02,352,,1*51
$GLGSV,2,1,07,79,70,351,37,88,45,064,37,78,37,084,17,70,28,310,,1*7F
$GLGSV,2,2,07,80,25,293,33,69,22,239,30,71,06,352,,1*48
$GAGSV,3,1,10,21,54,069,28,04,46,258,28,06,38,293,23,13,27,087,25,7*7F
$GAGSV,3,2,10,09,24,315,20,19,20,193,17,31,17,262,22,15,16,034,17,7*7E
$GAGSV,3,3,10,26,11,138,25,27,03,077,,7*7D
$GBGSV,3,1,12,26,81,310,35,35,42,153,33,29,42,067,31,45,39,103,25,1*79
$GBGSV,3,2,12,24,28,290,29,14,20,275,22,33,18,301,27,42,14,248,24,1*7A
$GBGSV,3,3,12,44,08,188,21,08,07,309,18,13,06,320,19,41,03,346,22,1*79
$GNRMC,001212.000,A,4910.425558,N,12304.400082,W,0.01,177.05,041224,,,D,V*14
$GNVTG,177.05,T,,M,0.01,N,0.02,K,D*21
$PAIRLOG,Full*51
$GNGGA,001213.000,4910.425546,N,12304.400100,W,2,32,0.49,3.490,M,-16.817,M,,*4D
$GNGLL,4910.425546,N,12304.400100,W,001213.000,A,D*58
$GNGSA,A,3,22,17,14,13,19,15,30,02,24,21,,,0.96,0.49,0.82,1*00
$GNGSA,A,3,79,88,78,80,69,,,,,,,,0.96,0.49,0.82,2*0C
$GNGSA,A,3,21,04,06,13,09,19,31,15,,,,,0.96,0.49,0.82,3*0F
$GNGSA,A,3,26,35,29,45,24,14,33,42,13,,,,0.96,0.49,0.82,4*03
$GPGSV,4,1,13,22,83,359,29,17,67,152,31,14,65,068,28,13,44,227,29,1*63
$GPGSV,4,2,13,19,41,191,28,15,33,271,24,46,33,188,29,30,33,136,28,1*6D
$GPGSV,4,3,13,02,26,059,21,24,19,307,26,21,17,041,18,23,02,315,,1*6B
$GPGSV,4,4,13,10,02,352,,1*51
$GLGSV,2,1,07,79,70,351,37,88,45,064,37,78,37,084,16,70,28,310,,1*7E
$GLGSV,2,2,07,80,25,293,33,69,22,239,31,71,06,352,,1*49
$GAGSV,3,1,10,21,54,069,29,04,46,258,29,06,38,293,23,13,27,087,25,7*7F
$GAGSV,3,2,10,09,24,315,21,19,20,193,18,31,17,262,22,15,16,034,17,7*70
$GAGSV,3,3,10,26,11,138,25,27,03,077,,7*7D
$GBGSV,3,1,12,26,81,310,35,35,42,153,33,29,42,067,31,45,39,103,25,1*79
$GBGSV,3,2,12,24,28,290,29,14,20,275,22,33,18,301,27,42,14,248,24,1*7A
$GBGSV,3,3,12,44,08,188,22,08,07,309,19,13,06,320,19,41,03,346,22,1*7B
$GNRMC,001213.000,A,4910.425546,N,12304.400100,W,0.01,177.05,041224,,,D,V*11
$GNVTG,177.05,T,,M,0.01,N,0.01,K,D*22
$PAIRLOG,Full*51
$GNGGA,001214.000,4910.425540,N,12304.400058,W,2,32,0.49,3.601,M,-16.816,M,,*4B
$GNGLL,4910.425540,N,12304.400058,W,001214.000,A,D*55
$GNGSA,A,3,22,17,14,13,19,15,30,02,24,21,,,0.96,0.49,0.82,1*00
$GNGSA,A,3,79,88,78,80,69,,,,,,,,0.96,0.49,0.82,2*0C
$GNGSA,A,3,21,04,06,13,09,19,31,15,,,,,0.96,0.49,0.82,3*0F
$GNGSA,A,3,26,35,29,45,24,14,33,42,13,,,,0.96,0.49,0.82,4*03
$GPGSV,4,1,13,22,83,359,30,17,67,152,32,14,65,068,29,13,44,227,29,1*69
$GPGSV,4,2,13,19,41,191,28,15,33,271,24,46,33,188,29,30,33,136,27,1*62
$GPGSV,4,3,13,02,26,059,22,24,19,307,25,21,17,041,19,23,02,315,,1*6A
$GPGSV,4,4,13,10,02,352,,1*51
$GLGSV,2,1,07,79,70,351,37,88,45,064,38,78,37,084,14,70,28,310,,1*73
$GLGSV,2,2,07,80,25,293,33,69,22,239,31,71,06,352,,1*49
$GAGSV,3,1,10,21,54,069,29,04,46,258,29,06,38,293,23,13,27,087,25,7*7F
$GAGSV,3,2,10,09,24,315,22,19,20,193,18,31,17,262,22,15,16,034,17,7*73
$GAGSV,3,3,10,26,11,138,24,27,03,077,,7*7C
$GBGSV,3,1,12,26,81,310,35,35,42,153,33,29,42,067,31,45,39,103,25,1*79
$GBGSV,3,2,12,24,28,290,29,14,20,275,22,33,18,301,27,42,14,248,25,1*7B
$GBGSV,3,3,12,44,08,188,22,08,07,309,19,13,06,320,19,41,03,346,22,1*7B
$GNRMC,001214.000,A,4910.425540,N,12304.400058,W,0.01,177.05,041224,,,D,V*1C
$GNVTG,177.05,T,,M,0.01,N,0.02,K,D*21
$PAIRLOG,Full*51
$GNGGA,001215.000,4910.425576,N,12304.400088,W,2,32,0.49,3.584,M,-16.817,M,,*4D
$GNGLL,4910.425576,N,12304.400088,W,001215.000,A,D*5C
$GNGSA,A,3,22,17,14,13,19,15,30,02,24,21,,,0.96,0.49,0.82,1*00
$GNGSA,A,3,79,88,78,80,69,,,,,,,,0.96,0.49,0.82,2*0C
$GNGSA,A,3,21,04,06,13,09,19,31,15,,,,,0.96,0.49,0.82,3*0F
$GNGSA,A,3,26,35,29,45,24,14,33,42,13,,,,0.96,0.49,0.82,4*03
$GPGSV,4,1,13,22,83,359,30,17,67,152,31,14,65,068,29,13,44,227,29,1*6A
$GPGSV,4,2,13,19,41,191,28,15,33,271,25,46,33,188,29,30,33,136,27,1*63
$GPGSV,4,3,13,02,26,059,23,24,19,307,25,21,17,041,19,23,02,315,,1*6B
$GPGSV,4,4,13,10,02,352,,1*51
$GLGSV,2,1,07,79,70,351,37,88,45,064,38,78,37,084,16,70,28,310,,1*71
$GLGSV,2,2,07,80,25,293,33,69,22,239,31,71,06,352,,1*49
$GAGSV,3,1,10,21,54,069,29,04,46,258,28,06,38,293,23,13,27,087,25,7*7E
$GAGSV,3,2,10,09,24,315,22,19,20,193,18,31,17,262,22,15,16,034,16,7*72
$GAGSV,3,3,10,26,11,138,24,27,03,077,,7*7C
$GBGSV,3,1,12,26,81,310,35,35,42,153,33,29,42,067,31,45,39,103,25,1*79
$GBGSV,3,2,12,24,28,290,29,14,20,275,22,33,18,301,27,42,14,248,25,1*7B
$GBGSV,3,3,12,44,08,188,22,08,07,309,19,13,06,320,19,41,03,346,22,1*7B
$GNRMC,001215.000,A,4910.425576,N,12304.400088,W,0.01,177.05,041224,,,D,V*15
$GNVTG,177.05,T,,M,0.01,N,0.02,K,D*21
$PAIRLOG,Full*51
$GNGGA,001216.000,4910.425648,N,12304.400058,W,2,32,0.49,3.471,M,-16.817,M,,*46
$GNGLL,4910.425648,N,12304.400058,W,001216.000,A,D*5C
$GNGSA,A,3,22,17,14,13,19,15,30,02,24,21,,,0.96,0.49,0.82,1*00
$GNGSA,A,3,79,88,78,80,69,,,,,,,,0.96,0.49,0.82,2*0C
$GNGSA,A,3,21,04,06,13,09,19,31,15,,,,,0.96,0.49,0.82,3*0F
$GNGSA,A,3,26,35,29,45,24,14,33,42,13,,,,0.96,0.49,0.82,4*03
$GPGSV,4,1,13,22,83,359,31,17,67,152,32,14,65,068,29,13,44,227,30,1*60
$GPGSV,4,2,13,19,41,191,29,15,33,271,26,46,33,188,29,30,33,136,28,1*6E
$GPGSV,4,3,13,02,26,059,24,24,19,307,25,21,17,041,20,23,02,315,,1*66
$GPGSV,4,4,13,10,02,352,,1*51
$GLGSV,2,1,07,79,70,351,37,88,45,064,38,78,36,085,16,70,28,310,,1*71
$GLGSV,2,2,07,80,25,293,33,69,22,239,31,71,06,352,,1*49
$GAGSV,3,1,10,21,54,069,29,04,46,258,29,06,38,293,23,13,27,087,26,7*7C
$GAGSV,3,2,10,09,24,315,22,19,20,193,18,31,17,262,23,15,16,034,17,7*72
$GAGSV,3,3,10,26,11,138,24,27,03,077,,7*7C
$GBGSV,3,1,12,26,81,310,34,35,42,153,32,29,42,067,30,45,39,103,23,1*7E
$GBGSV,3,2,12,24,28,290,28,14,20,275,22,33,18,301,25,42,14,248,24,1*79
$GBGSV,3,3,12,44,08,188,21,08,07,309,18,13,06,320,19,41,03,346,21,1*7A
$GNRMC,001216.000,A,4910.425648,N,12304.400058,W,0.01,177.05,041224,,,D,V*15
$GNVTG,177.05,T,,M,0.01,N,0.02,K,D*21
$PAIRLOG,Full*51
$GNGGA,001217.000,4910.425690,N,12304.399986,W,2,32,0.49,3.296,M,-16.816,M,,*41
$GNGLL,4910.425690,N,12304.399986,W,001217.000,A,D*55
$GNGSA,A,3,22,17,14,13,19,15,30,02,24,21,,,0.96,0.49,0.82,1*00
$GNGSA,A,3,79,88,78,80,69,,,,,,,,0.96,0.49,0.82,2*0C
$GNGSA,A,3,21,04,06,13,09,19,31,15,,,,,0.96,0.49,0.82,3*0F
$GNGSA,A,3,26,35,29,45,24,14,33,42,13,,,,0.96,0.49,0.82,4*03
$GPGSV,4,1,13,22,83,359,31,17,67,152,32,14,65,068,29,13,44,227,29,1*68
$GPGSV,4,2,13,19,41,191,29,15,33,271,26,46,33,188,29,30,33,136,28,1*6E
$GPGSV,4,3,13,02,26,059,25,24,19,307,25,21,17,041,20,23,02,315,,1*67
$GPGSV,4,4,13,10,02,352,,1*51
$GLGSV,2,1,07,79,70,355,37,88,45,064,38,78,36,085,16,70,28,310,,1*75
$GLGSV,2,2,07,80,25,293,33,69,22,239,31,71,06,352,,1*49
$GAGSV,3,1,10,21,54,069,28,04,46,258,29,06,38,293,23,13,27,087,26,7*7D
$GAGSV,3,2,10,09,24,315,22,19,20,193,18,31,17,262,22,15,16,034,17,7*73
$GAGSV,3,3,10,26,11,138,24,27,03,077,,7*7C
$GBGSV,3,1,12,26,81,310,33,35,42,153,32,29,42,067,29,45,39,103,19,1*78
$GBGSV,3,2,12,24,28,290,28,14,20,275,21,33,18,301,24,42,14,248,23,1*7C
$GBGSV,3,3,12,44,08,188,20,08,07,309,18,13,06,320,19,41,03,346,20,1*7A
$GNRMC,001217.000,A,4910.425690,N,12304.399986,W,0.01,177.05,041224,,,D,V*1C
$GNVTG,177.05,T,,M,0.01,N,0.02,K,D*21
$PAIRLOG,Full*51
$GNGGA,001218.000,4910.426734,N,12304.400118,W,2,32,0.49,2.808,M,-16.816,M,,*46
