$GNGGA,180335.000,4910.426446,N,12304.401090,W,2,27,0.52,8.796,M,-16.816,M,,*4A
$GNGLL,4910.426446,N,12304.401090,W,180335.000,A,D*5E
$GNGSA,A,3,04,09,16,03,26,07,06,31,11,,,,0.95,0.52,0.79,1*0A
$GNGSA,A,3,68,67,79,85,,,,,,,,,0.95,0.52,0.79,2*0B
$GNGSA,A,3,06,09,04,31,36,34,05,21,,,,,0.95,0.52,0.79,3*0B
$GNGSA,A,3,32,23,20,37,25,41,,,,,,,0.95,0.52,0.79,4*05
$GPGSV,3,1,11,04,82,051,39,09,61,297,39,16,45,105,36,03,38,173,35,1*62
$GPGSV,3,2,11,26,36,061,33,48,33,182,34,07,32,237,35,06,21,280,29,1*61
$GPGSV,3,3,11,31,21,059,31,11,14,319,31,29,03,018,22,1*56
$GLGSV,2,1,06,68,77,000,30,78,66,164,18,67,42,117,28,79,18,197,22,1*77
$GLGSV,2,2,06,84,14,293,,85,13,345,24,1*74
$GAGSV,3,1,09,06,80,068,35,09,71,302,35,04,53,094,33,31,36,151,29,7*70
$GAGSV,3,2,09,36,23,255,28,34,21,309,28,05,18,286,27,21,13,034,24,7*76
$GAGSV,3,3,09,11,03,211,13,7*49
$GBGSV,3,1,09,32,82,184,42,23,71,122,40,20,35,306,36,37,35,204,37,1*7B
$GBGSV,3,2,09,25,30,052,37,41,28,134,34,38,03,332,25,04,01,262,,1*79
$GBGSV,3,3,09,35,01,339,,1*41
$GNRMC,180335.000,A,4910.426446,N,12304.401090,W,0.02,0.00,051224,,,D,V*11
$GNVTG,0.00,T,,M,0.02,N,0.04,K,D*20
$GNGGA,180336.000,4910.426440,N,12304.401162,W,2,27,0.52,8.783,M,-16.816,M,,*47
$GNGLL,4910.426440,N,12304.401162,W,180336.000,A,D*57
$GNGSA,A,3,04,09,16,03,26,07,06,31,11,,,,0.95,0.52,0.79,1*0A
$GNGSA,A,3,68,67,79,85,,,,,,,,,0.95,0.52,0.79,2*0B
$GNGSA,A,3,06,09,04,31,36,34,05,21,,,,,0.95,0.52,0.79,3*0B
$GNGSA,A,3,32,23,20,37,25,41,,,,,,,0.95,0.52,0.79,4*05
$GPGSV,3,1,11,04,82,051,39,09,61,297,39,16,45,105,36,03,38,173,35,1*62
$GPGSV,3,2,11,26,36,061,33,48,33,182,34,07,32,237,35,06,21,280,29,1*61
$GPGSV,3,3,11,31,21,059,31,11,14,319,31,29,03,018,22,1*56
$GLGSV,2,1,06,68,77,000,30,78,66,164,18,67,42,117,28,79,18,197,21,1*74
$GLGSV,2,2,06,84,14,293,,85,13,345,25,1*75
$GAGSV,3,1,09,06,80,068,35,09,71,302,35,04,53,094,33,31,36,151,29,7*70
$GAGSV,3,2,09,36,23,255,28,34,21,309,28,05,18,286,27,21,13,034,24,7*76
$GAGSV,3,3,09,11,03,211,13,7*49
$GBGSV,3,1,09,32,82,184,42,23,71,122,40,20,35,306,36,37,35,204,37,1*7B
$GBGSV,3,2,09,25,30,052,37,41,28,134,34,38,03,332,25,04,01,262,,1*79
$GBGSV,3,3,09,35,01,339,,1*41
$GNRMC,180336.000,A,4910.426440,N,12304.401162,W,0.02,0.00,051224,,,D,V*18
$GNVTG,0.00,T,,M,0.02,N,0.04,K,D*20
$GNGGA,180337.000,4910.426452,N,12304.401228,W,2,27,0.52,8.777,M,-16.817,M,,*42
$GNGLL,4910.426452,N,12304.401228,W,180337.000,A,D*58
$GNGSA,A,3,04,09,16,03,26,07,06,31,11,,,,0.95,0.52,0.79,1*0A
$GNGSA,A,3,68,67,79,85,,,,,,,,,0.95,0.52,0.79,2*0B
$GNGSA,A,3,06,09,04,31,36,34,05,21,,,,,0.95,0.52,0.79,3*0B
$GNGSA,A,3,32,23,20,37,25,41,,,,,,,0.95,0.52,0.79,4*05
$GPGSV,3,1,11,04,82,051,39,09,61,297,39,16,45,105,36,03,38,173,35,1*62
$GPGSV,3,2,11,26,36,061,33,48,33,182,34,07,32,237,35,06,21,280,29,1*61
$GPGSV,3,3,11,31,21,059,31,11,14,319,31,29,03,018,23,1*57
$GLGSV,2,1,06,68,77,000,29,78,66,164,18,67,42,117,28,79,18,197,21,1*7C
$GLGSV,2,2,06,84,14,293,,85,13,345,25,1*75
$GAGSV,3,1,09,06,80,068,35,09,71,302,35,04,53,094,33,31,36,151,29,7*70
$GAGSV,3,2,09,36,23,255,28,34,21,309,28,05,18,286,27,21,13,034,24,7*76
$GAGSV,3,3,09,11,03,211,13,7*49
$GBGSV,3,1,09,32,82,184,42,23,71,122,40,20,35,306,36,37,35,204,37,1*7B
$GBGSV,3,2,09,25,30,052,37,41,28,134,34,38,03,332,25,04,01,262,,1*79
$GBGSV,3,3,09,35,01,339,,1*41
$GNRMC,180337.000,A,4910.426452,N,12304.401228,W,0.02,0.00,051224,,,D,V*17
$GNVTG,0.00,T,,M,0.02,N,0.04,K,D*20
$GNGGA,180338.000,4910.426476,N,12304.401324,W,2,27,0.52,8.781,M,-16.816,M,,*4E
$GNGLL,4910.426476,N,12304.401324,W,180338.000,A,D*5C
$GNGSA,A,3,04,09,16,03,26,07,06,31,11,,,,0.95,0.52,0.79,1*0A
$GNGSA,A,3,68,67,79,85,,,,,,,,,0.95,0.52,0.79,2*0B
$GNGSA,A,3,06,09,04,31,36,34,05,21,,,,,0.95,0.52,0.79,3*0B
$GNGSA,A,3,32,23,20,37,25,41,,,,,,,0.95,0.52,0.79,4*05
$GPGSV,3,1,11,04,82,051,39,09,61,297,39,16,45,105,36,03,38,173,35,1*62
$GPGSV,3,2,11,26,36,061,33,48,33,182,34,07,32,237,35,06,21,280,29,1*61
$GPGSV,3,3,11,31,21,059,31,11,14,319,31,29,03,018,23,1*57
$GLGSV,2,1,06,68,77,000,29,78,66,164,18,67,42,117,28,79,18,197,21,1*7C
$GLGSV,2,2,06,84,14,293,,85,13,345,25,1*75
$GAGSV,3,1,09,06,80,068,35,09,71,302,35,04,53,094,32,31,36,151,29,7*71
$GAGSV,3,2,09,36,23,255,28,34,21,309,28,05,18,286,27,21,13,034,24,7*76
$GAGSV,3,3,09,11,03,211,13,7*49
$GBGSV,3,1,09,32,82,184,42,23,71,122,40,20,35,306,36,37,35,204,37,1*7B
$GBGSV,3,2,09,25,30,052,37,41,28,134,34,38,03,332,25,04,01,262,,1*79
$GBGSV,3,3,09,35,01,339,,1*41
$GNRMC,180338.000,A,4910.426476,N,12304.401324,W,0.02,0.00,051224,,,D,V*13
$GNVTG,0.00,T,,M,0.02,N,0.03,K,D*27
$GNGGA,180339.000,4910.426452,N,12304.401426,W,2,27,0.52,8.858,M,-16.816,M,,*47
$GNGLL,4910.426452,N,12304.401426,W,180339.000,A,D*5E
$GNGSA,A,3,04,09,16,03,26,07,06,31,11,,,,0.95,0.52,0.79,1*0A
$GNGSA,A,3,68,67,79,85,,,,,,,,,0.95,0.52,0.79,2*0B
$GNGSA,A,3,06,09,04,31,36,34,05,21,,,,,0.95,0.52,0.79,3*0B
$GNGSA,A,3,32,23,20,37,25,41,,,,,,,0.95,0.52,0.79,4*05
$GPGSV,3,1,11,04,82,051,39,09,61,297,39,16,45,105,36,03,38,173,35,1*62
$GPGSV,3,2,11,26,36,061,33,48,33,182,34,07,32,237,35,06,21,280,29,1*61
$GPGSV,3,3,11,31,21,059,30,11,14,319,30,29,03,018,22,1*56
$GLGSV,2,1,06,68,77,000,29,78,66,164,18,67,42,117,28,79,18,197,21,1*7C
$GLGSV,2,2,06,84,14,293,,85,13,345,25,1*75
$GAGSV,3,1,09,06,80,068,35,09,71,302,35,04,53,094,32,31,36,151,29,7*71
$GAGSV,3,2,09,36,23,255,28,34,21,309,28,05,18,286,27,21,13,034,24,7*76
$GAGSV,3,3,09,11,03,211,13,7*49
$GBGSV,3,1,09,32,82,184,42,23,71,122,40,20,35,306,36,37,35,204,37,1*7B
