$GNGGA,183835.000,4910.423506,N,12304.401222,W,2,31,0.48,8.421,M,-16.816,M,,*4A
$GNGLL,4910.423506,N,12304.401222,W,183835.000,A,D*5D
$GNGSA,A,3,09,04,16,07,26,03,11,20,06,30,31,27,0.77,0.48,0.61,1*00
$GNGSA,A,3,68,69,79,67,85,,,,,,,,0.77,0.48,0.61,2*0A
$GNGSA,A,3,09,06,31,04,05,34,36,,,,,,0.77,0.48,0.61,3*06
$GNGSA,A,3,23,32,37,20,25,41,38,,,,,,0.77,0.48,0.61,4*00
$GPGSV,4,1,13,09,77,304,39,04,69,102,35,16,47,078,36,07,46,247,35,1*65
$GPGSV,4,2,13,48,33,182,31,26,25,049,29,03,21,174,30,11,14,304,24,1*65
$GPGSV,4,3,13,20,13,324,23,06,12,267,19,30,10,246,29,31,07,064,18,1*6C
$GPGSV,4,4,13,27,06,112,24,1*51
$GLGSV,2,1,07,78,80,098,,68,77,109,31,69,46,320,26,79,37,203,26,1*79
$GLGSV,2,2,07,67,25,131,23,85,12,328,20,86,05,018,,1*4C
$GAGSV,3,1,10,09,83,328,32,06,69,101,32,31,49,143,31,04,42,106,28,7*76
$GAGSV,3,2,10,05,29,293,26,34,19,296,26,24,13,186,19,36,11,246,23,7*70
$GAGSV,3,3,10,15,07,344,21,21,02,029,14,7*7E
$GBGSV,3,1,10,23,67,079,35,32,67,165,35,37,50,208,34,20,48,303,36,1*7E
$GBGSV,3,2,10,25,18,051,26,41,14,141,28,38,08,334,27,19,03,314,19,1*71
$GBGSV,3,3,10,04,01,262,,08,01,340,,1*7A
$GNRMC,183835.000,A,4910.423506,N,12304.401222,W,0.01,0.00,051224,,,D,V*11
$GNVTG,0.00,T,,M,0.01,N,0.02,K,D*25
$GNGGA,183836.000,4910.423506,N,12304.401186,W,2,31,0.48,8.456,M,-16.816,M,,*44
$GNGLL,4910.423506,N,12304.401186,W,183836.000,A,D*53
$GNGSA,A,3,09,04,16,07,26,03,11,20,06,30,31,27,0.77,0.48,0.61,1*00
$GNGSA,A,3,68,69,79,67,85,,,,,,,,0.77,0.48,0.61,2*0A
$GNGSA,A,3,09,06,31,04,05,34,36,,,,,,0.77,0.48,0.61,3*06
$GNGSA,A,3,23,32,37,20,25,41,38,,,,,,0.77,0.48,0.61,4*00
$GPGSV,4,1,13,09,77,304,39,04,69,102,35,16,47,078,36,07,46,247,35,1*65
$GPGSV,4,2,13,48,33,182,31,26,25,049,29,03,21,174,30,11,14,304,24,1*65
$GPGSV,4,3,13,20,13,324,25,06,12,267,19,30,10,246,29,31,07,064,18,1*6A
$GPGSV,4,4,13,27,06,112,24,1*51
$GLGSV,2,1,07,78,80,098,,68,77,109,32,69,46,320,26,79,37,203,26,1*7A
$GLGSV,2,2,07,67,25,131,23,85,12,328,20,86,05,018,,1*4C
$GAGSV,3,1,10,09,83,328,32,06,69,101,32,31,49,143,31,04,42,106,28,7*76
$GAGSV,3,2,10,05,29,293,26,34,19,296,26,24,13,186,19,36,11,246,23,7*70
$GAGSV,3,3,10,15,07,344,21,21,02,029,14,7*7E
$GBGSV,3,1,10,23,67,079,35,32,67,165,35,37,50,208,34,20,48,303,36,1*7E
$GBGSV,3,2,10,25,18,051,26,41,14,141,28,38,08,334,28,19,03,314,19,1*7E
$GBGSV,3,3,10,04,01,262,,08,01,340,,1*7A
$GNRMC,183836.000,A,4910.423506,N,12304.401186,W,0.01,0.00,051224,,,D,V*1F
$GNVTG,0.00,T,,M,0.01,N,0.02,K,D*25
$GNGGA,183837.000,4910.423470,N,12304.401204,W,2,31,0.48,8.485,M,-16.816,M,,*42
$GNGLL,4910.423470,N,12304.401204,W,183837.000,A,D*5B
$GNGSA,A,3,09,04,16,07,26,03,11,20,06,30,31,27,0.77,0.48,0.61,1*00
$GNGSA,A,3,68,69,79,67,85,,,,,,,,0.77,0.48,0.61,2*0A
$GNGSA,A,3,09,06,31,04,05,34,36,,,,,,0.77,0.48,0.61,3*06
$GNGSA,A,3,23,32,37,20,25,41,38,,,,,,0.77,0.48,0.61,4*00
$GPGSV,4,1,13,09,77,304,39,04,69,102,35,16,47,078,36,07,46,247,35,1*65
$GPGSV,4,2,13,48,33,182,31,26,25,049,29,03,21,174,30,11,14,304,24,1*65
$GPGSV,4,3,13,20,13,324,26,06,12,267,19,30,10,246,29,31,07,064,18,1*69
$GPGSV,4,4,13,27,06,112,25,1*50
$GLGSV,2,1,07,78,80,098,,68,77,109,31,69,46,320,26,79,37,203,26,1*79
$GLGSV,2,2,07,67,25,131,23,85,12,328,20,86,05,018,,1*4C
$GAGSV,3,1,10,09,83,328,33,06,69,101,32,31,49,143,31,04,42,106,28,7*77
$GAGSV,3,2,10,05,29,293,26,34,19,296,26,24,13,186,19,36,11,246,23,7*70
$GAGSV,3,3,10,15,07,344,21,21,02,029,14,7*7E
$GBGSV,3,1,10,23,67,079,35,32,67,165,35,37,50,208,34,20,48,303,36,1*7E
$GBGSV,3,2,10,25,18,051,26,41,14,141,29,38,08,334,28,19,03,314,19,1*7F
$GBGSV,3,3,10,04,01,262,,08,01,340,,1*7A
$GNRMC,183837.000,A,4910.423470,N,12304.401204,W,0.02,0.00,051224,,,D,V*14
$GNVTG,0.00,T,,M,0.02,N,0.04,K,D*20
$GNGGA,183838.000,4910.423464,N,12304.401168,W,2,31,0.48,8.568,M,-16.816,M,,*43
$GNGLL,4910.423464,N,12304.401168,W,183838.000,A,D*58
$GNGSA,A,3,09,04,16,07,26,03,11,20,06,30,31,27,0.77,0.48,0.61,1*00
$GNGSA,A,3,68,69,79,67,85,,,,,,,,0.77,0.48,0.61,2*0A
$GNGSA,A,3,09,06,31,04,05,34,36,,,,,,0.77,0.48,0.61,3*06
$GNGSA,A,3,23,32,37,20,25,41,38,,,,,,0.77,0.48,0.61,4*00
$GPGSV,4,1,13,09,77,304,39,04,69,102,35,16,47,078,36,07,46,247,35,1*65
$GPGSV,4,2,13,48,33,182,31,26,25,049,29,03,21,174,30,11,14,304,24,1*65
$GPGSV,4,3,13,20,13,324,24,06,12,267,18,30,10,246,29,31,07,064,18,1*6A
$GPGSV,4,4,13,27,06,112,24,1*51
$GLGSV,2,1,07,78,80,098,,68,77,109,31,69,46,320,26,79,37,203,25,1*7A
$GLGSV,2,2,07,67,25,131,23,85,12,328,20,86,05,018,,1*4C
$GAGSV,3,1,10,09,83,328,33,06,69,101,32,31,49,143,31,04,42,106,28,7*77
$GAGSV,3,2,10,05,29,293,26,34,19,296,26,24,13,186,19,36,11,246,23,7*70
$GAGSV,3,3,10,15,07,344,21,21,02,029,14,7*7E
$GBGSV,3,1,10,23,67,079,35,32,67,165,35,37,50,208,34,20,48,303,36,1*7E
$GBGSV,3,2,10,25,18,051,26,41,14,141,29,38,08,334,28,19,03,314,19,1*7F
$GBGSV,3,3,10,04,01,262,,08,01,340,,1*7A
$GNRMC,183838.000,A,4910.423464,N,12304.401168,W,0.02,0.00,051224,,,D,V*17
$GNVTG,0.00,T,,M,0.02,N,0.03,K,D*27
$GNGGA,183839.000,4910.423512,N,12304.401156,W,2,31,0.48,8.672,M,-16.816,M,,*47
$GNGLL,4910.423512,N,12304.401156,W,183839.000,A,D*54
$GNGSA,A,3,09,04,16,07,26,03,11,20,06,30,31,27,0.77,0.48,0.60,1*01
$GNGSA,A,3,68,69,79,67,85,,,,,,,,0.77,0.48,0.60,2*0B
$GNGSA,A,3,09,06,31,04,05,34,36,,,,,,0.77,0.48,0.60,3*07
$GNGSA,A,3,23,32,37,20,25,41,38,,,,,,0.77,0.48,0.60,4*01
$GPGSV,4,1,13,09,77,304,39,04,69,102,35,16,47,078,36,07,46,247,35,1*65
$GPGSV,4,2,13,48,33,182,31,26,25,049,29,03,21,174,29,11,14,304,24,1*6D
$GPGSV,4,3,13,20,13,324,24,06,12,267,18,30,10,246,29,31,07,064,18,1*6A
$GPGSV,4,4,13,27,06,112,24,1*51
$GLGSV,2,1,07,78,80,098,,68,77,109,31,69,46,320,26,79,37,203,25,1*7A
$GLGSV,2,2,07,67,25,131,23,85,12,328,19,86,05,018,,1*46
$GAGSV,3,1,10,09,83,328,32,06,69,101,32,31,49,143,31,04,42,106,28,7*76
$GAGSV,3,2,10,05,29,293,26,34,19,296,26,24,13,186,19,36,11,246,23,7*70
$GAGSV,3,3,10,15,07,344,21,21,02,029,14,7*7E
$GBGSV,3,1,10,23,67,079,35,32,67,165,35,37,50,208,34,20,48,303,36,1*7E
$GBGSV,3,2,10,25,18,051,26,41,14,141,29,38,08,334,28,19,03,314,19,1*7F
$GBGSV,3,3,10,04,01,262,,08,01,340,,1*7A
$GNRMC,183839.000,A,4910.423512,N,12304.401156,W,0.02,0.00,051224,,,D,V*1B
$GNVTG,0.00,T,,M,0.02,N,0.04,K,D*20
$GNGGA,183840.000,4910.423530,N,12304.401222,W,2,31,0.48,8.716,M,-16.816,M,,*4A
