25,054,29,24,24,307,26,21,15,037,23,10,03,348,22,1*67
$GLGSV,2,1,07,75,70,031,40,85,45,132,34,84,41,051,27,66,30,298,26,1*78
$GLGSV,2,2,07,76,30,297,,65,19,244,31,67,10,348,,1*45
$GAGSV,3,1,09,31,70,060,30,24,52,270,31,05,41,280,27,09,32,212,28,7*72
$GAGSV,3,2,09,33,27,104,27,26,23,051,23,06,17,193,26,03,12,327,19,7*7F
$GAGSV,3,3,09,12,05,153,14,7*4E
$GBGSV,4,1,14,58,64,128,,46,62,296,,37,58,105,31,28,52,101,29,1*70
$GBGSV,4,2,14,27,36,165,30,57,18,125,,19,16,267,24,22,14,318,25,1*7B
$GBGSV,4,3,14,43,14,039,24,36,11,291,18,23,08,109,23,08,04,308,19,1*73
$GBGSV,4,4,14,13,04,318,21,20,02,224,18,1*71
$GNRMC,003945.000,A,4910.427148,N,12304.401036,W,0.03,196.10,301124,,,D,V*1B
$GNVTG,196.10,T,,M,0.03,N,0.05,K,D*2F
$PAIRLOG,Full*51
$GNGGA,003946.000,4910.427094,N,12304.401036,W,2,30,0.48,4.447,M,-16.816,M,,*46
$GNGLL,4910.427094,N,12304.401036,W,003946.000,A,D*5C
$GNGSA,A,3,22,17,14,19,13,15,30,02,24,21,,,0.89,0.48,0.75,1*07
$GNGSA,A,3,75,85,84,66,65,,,,,,,,0.89,0.48,0.75,2*0D
$GNGSA,A,3,31,24,05,09,33,26,06,03,,,,,0.89,0.48,0.75,3*05
$GNGSA,A,3,37,28,27,19,22,43,23,,,,,,0.89,0.48,0.75,4*0E
$GPGSV,3,1,12,22,81,034,32,17,71,140,33,14,60,073,32,19,46,192,31,1*6B
$GPGSV,3,2,12,13,39,222,31,46,33,188,29,15,31,265,29,30,27,138,28,1*6C
$GPGSV,3,3,12,02,25,054,29,24,24,307,26,21,15,037,24,10,03,348,23,1*61
$GLGSV,2,1,06,75,70,031,41,85,45,132,34,84,41,051,27,66,30,298,26,1*78
$GLGSV,2,2,06,65,19,244,31,67,10,348,,1*7A
$GAGSV,3,1,09,31,70,060,30,24,52,270,31,05,41,280,27,09,32,212,28,7*72
$GAGSV,3,2,09,33,27,104,27,26,23,051,23,06,17,193,26,03,12,327,19,7*7F
$GAGSV,3,3,09,12,05,153,15,7*4F
$GBGSV,4,1,14,58,64,128,,46,62,296,,37,58,105,31,28,52,101,29,1*70
$GBGSV,4,2,14,27,36,165,30,57,18,125,,19,16,267,24,22,14,318,25,1*7B
$GBGSV,4,3,14,43,14,039,24,36,11,291,18,23,08,109,23,08,04,308,19,1*73
$GBGSV,4,4,14,13,04,318,21,20,02,224,18,1*71
$GNRMC,003946.000,A,4910.427094,N,12304.401036,W,0.02,196.10,301124,,,D,V*19
$GNVTG,196.10,T,,M,0.02,N,0.04,K,D*2F
$PAIRLOG,Full*51
$GNGGA,003947.000,4910.427034,N,12304.401126,W,2,30,0.48,4.396,M,-16.817,M,,*47
$GNGLL,4910.427034,N,12304.401126,W,003947.000,A,D*57
$GNGSA,A,3,22,17,14,19,13,15,30,02,24,21,,,0.89,0.48,0.75,1*07
$GNGSA,A,3,75,85,84,66,65,,,,,,,,0.89,0.48,0.75,2*0D
$GNGSA,A,3,31,24,05,09,33,26,06,03,,,,,0.89,0.48,0.75,3*05
$GNGSA,A,3,37,28,27,19,22,43,23,,,,,,0.89,0.48,0.75,4*0E
$GPGSV,3,1,12,22,81,034,32,17,71,140,33,14,60,073,32,19,46,192,31,1*6B
$GPGSV,3,2,12,13,39,222,31,46,33,188,29,15,31,265,29,30,27,138,28,1*6C
$GPGSV,3,3,12,02,25,054,29,24,24,307,26,21,15,037,24,10,03,348,24,1*66
$GLGSV,2,1,07,75,70,031,41,85,45,132,34,84,41,051,27,66,30,298,26,1*79
$GLGSV,2,2,07,76,30,297,,65,19,244,31,67,10,348,,1*45
$GAGSV,3,1,09,31,70,060,30,24,52,270,31,05,41,280,27,09,32,212,28,7*72
$GAGSV,3,2,09,33,27,104,27,26,23,051,23,06,17,193,26,03,12,327,19,7*7F
$GAGSV,3,3,09,12,05,153,15,7*4F
$GBGSV,4,1,14,58,64,128,,46,62,296,,37,58,105,31,28,52,101,29,1*70
$GBGSV,4,2,14,27,36,165,30,57,18,125,,19,16,267,25,22,14,318,25,1*7A
$GBGSV,4,3,14,43,14,039,24,36,11,291,18,23,08,109,23,08,04,308,19,1*73
$GBGSV,4,4,14,13,04,318,21,20,02,224,18,1*71
$GNRMC,003947.000,A,4910.427034,N,12304.401126,W,0.02,196.10,301124,,,D,V*12
$GNVTG,196.10,T,,M,0.02,N,0.04,K,D*2F
$PAIRLOG,Full*51
$GNGGA,003948.000,4910.426980,N,12304.401126,W,2,30,0.48,4.316,M,-16.816,M,,*46
$GNGLL,4910.426980,N,12304.401126,W,003948.000,A,D*5F
$GNGSA,A,3,22,17,14,19,13,15,30,02,24,21,,,0.89,0.48,0.75,1*07
$GNGSA,A,3,75,85,84,66,65,,,,,,,,0.89,0.48,0.75,2*0D
$GNGSA,A,3,31,24,05,09,33,26,06,03,,,,,0.89,0.48,0.75,3*05
$GNGSA,A,3,37,28,27,19,22,43,23,,,,,,0.89,0.48,0.75,4*0E
$GPGSV,3,1,12,22,81,034,32,17,71,140,33,14,60,073,32,19,46,192,31,1*6B
$GPGSV,3,2,12,13,39,222,31,46,33,188,29,15,31,265,28,30,27,138,28,1*6D
$GPGSV,3,3,12,02,25,054,29,24,24,307,26,21,15,037,24,10,03,348,24,1*66
$GLGSV,2,1,07,75,70,031,41,85,45,132,34,84,41,051,27,66,30,298,26,1*79
$GLGSV,2,2,07,76,30,297,,65,19,244,31,67,10,348,,1*45
$GAGSV,3,1,09,31,70,060,30,24,52,270,31,05,41,280,27,09,32,212,28,7*72
$GAGSV,3,2,09,33,27,104,27,26,23,051,23,06,17,193,26,03,12,327,18,7*7E
$GAGSV,3,3,09,12,05,153,14,7*4E
$GBGSV,4,1,14,58,64,128,,46,62,296,,37,58,105,31,28,52,101,29,1*70
$GBGSV,4,2,14,27,36,165,30,57,18,125,,19,16,267,25,22,14,318,25,1*7A
$GBGSV,4,3,14,43,14,039,24,36,11,291,18,23,08,109,22,08,04,308,19,1*72
$GBGSV,4,4,14,13,04,318,21,20,02,224,17,1*7E
$GNRMC,003948.000,A,4910.426980,N,12304.401126,W,0.02,196.10,301124,,,D,V*1A
$GNVTG,196.10,T,,M,0.02,N,0.04,K,D*2F
$PAIRLOG,Full*51
$GNGGA,003949.000,4910.426950,N,12304.401168,W,2,30,0.48,4.238,M,-16.817,M,,*4C
$GNGLL,4910.426950,N,12304.401168,W,003949.000,A,D*59
$GNGSA,A,3,22,17,14,19,13,15,30,02,24,21,,,0.89,0.48,0.75,1*07
$GNGSA,A,3,75,85,84,66,65,,,,,,,,0.89,0.48,0.75,2*0D
$GNGSA,A,3,31,24,05,09,33,26,06,03,,,,,0.89,0.48,0.75,3*05
$GNGSA,A,3,37,28,27,19,43,22,23,,,,,,0.89,0.48,0.75,4*0E
$GPGSV,3,1,12,22,81,034,32,17,71,140,33,14,60,073,32,19,46,192,30,1*6A
$GPGSV,3,2,12,13,39,222,30,46,33,188,28,15,31,265,28,30,27,138,28,1*6D
$GPGSV,3,3,12,02,25,054,29,24,24,307,26,21,15,037,24,10,03,348,24,1*66
$GLGSV,2,1,07,75,70,031,41,85,45,132,34,84,41,051,27,76,30,297,,1*73
$GLGSV,2,2,07,66,30,298,26,65,19,244,31,67,10,348,,1*4F
$GAGSV,3,1,10,31,70,060,29,24,52,270,31,05,41,280,26,09,32,212,28,7*73
$GAGSV,3,2,10,33,27,104,27,26,23,051,23,06,17,193,26,03,12,327,18,7*76
$GAGSV,3,3,10,12,05,153,14,25,02,263,,7*74
$GBGSV,4,1,13,58,64,128,,46,62,296,,37,58,105,31,28,52,101,29,1*77
$GBGSV,4,2,13,27,36,165,30,19,16,267,25,43,14,039,24,22,14,318,25,1*7E
$GBGSV,4,3,13,36,11,291,18,23,08,109,22,08,04,308,19,13,04,318,20,1*75
$GBGSV,4,4,13,20,02,224,17,1*46
$GNRMC,003949.000,A,4910.426950,N,12304.401168,W,0.02,196.10,301124,,,D,V*1C
$GNVTG,196.10,T,,M,0.02,N,0.04,K,D*2F
$PAIRLOG,Full*51
$GNGGA,003950.000,4910.426926,N,12304.401180,W,2,30,0.48,4.211,M,-16.816,M,,*49
$GNGLL,4910.426926,N,12304.401180,W,003950.000,A,D*56
$GNGSA,A,3,22,17,14,19,13,15,30,02,24,21,,,0.89,0.48,0.75,1*07
$GNGSA,A,3,75,85,84,66,65,,,,,,,,0.89,0.48,0.75,2*0D
$GNGSA,A,3,31,24,05,09,33,26,06,03,,,,,0.89,0.48,0.75,3*05
$GNGSA,A,3,37,28,27,19,43,22,23,,,,,,0.89,0.48,0.75,4*0E
$GPGSV,3,1,12,22,81,034,31,17,71,140,32,14,60,073,31,19,46,192,30,1*6B
$GPGSV,3,2,12,13,39,222,30,46,33,188,28,15,31,265,27,30,27,138,28,1*62
$GPGSV,3,3,12,02,25,054,29,24,24,307,26,21,15,037,24,10,03,348,23,1*61
$GLGSV,2,1,07,75,70,031,41,85,45,132,34,84,41,051,27,76,30,297,,1*73
$GLGSV,2,2,07,66,30,298,26,65,19,244,31,67,10,348,,1*4F
$GAGSV,3,1,10,31,70,060,29,24,52,270,30,05,41,280,26,09,32,212,28,7*72
$GAGSV,3,2,10,33,27,104,27,26,23,051,23,06,17,193,26,03,12,327,18,7*76
$GAGSV,3,3,10,12,05,153,15,25,02,263,,7*75
$GBGSV,4,1,13,58,64,128,,46,62,296,,37,58,105,31,28,52,101,29,1*77
$GBGSV,4,2,13,27,36,165,30,19,16,267,25,43,14,039,25,22,14,318,25,1*7F
$GBGSV,4,3,13,36,11,291,18,23,08,109,22,08,04,308,19,13,04,318,20,1*75
$GBGSV,4,4,13,20,02,224,17,1*46
$GNRMC,003950.000,A,4910.426926,N,12304.401180,W,0.02,196.10,301124,,,D,V*13
$GNVTG,196.10,T,,M,0.02,N,0.03,K,D*28
$PAIRLOG,Full*51
$GNGGA,003951.000,4910.426890,N,12304.401162,W,2,30,0.48,4.169,M,-16.817,M,,*45
$GNGLL,4910.426890,N,12304.401162,W,003951.000,A,D*57
$GNGSA,A,3,22,17,14,19,13,15,30,02,24,21,,,0.89,0.48,0.75,1*07
$GNGSA,A,3,75,85,84,66,65,,,,,,,,0.89,0.48,0.75,2*0D
$GNGSA,A,3,31,24,05,09,33,26,06,03,,,,,0.89,0.48,0.75,3*05
$GNGSA,A,3,37,28,27,19,43,22,23,,,,,,0.89,0.48,0.75,4*0E
$GPGSV,3,1,12,22,81,034,31,17,71,140,32,14,60,073,31,19,46,192,30,1*6B
$GPGSV,3,2,12,13,39,222,30,46,33,188,28,15,31,265,28,30,27,138,28,1*6D
$GPGSV,3,3,12,02,25,054,29,24,24,307,26,21,15,037,24,10,03,348,23,1*61
$GLGSV,2,1,07,75,70,031,41,85,45,132,34,84,41,051,27,76,30,297,,1*73
$GLGSV,2,2,07,66,30,298,26,65,19,244,31,67,10,348,,1*4F
$GAGSV,3,1,10,31,70,060,29,24,52,270,30,05,41,280,26,09,32,212,28,7*72
$GAGSV,3,2,10,33,27,104,27,26,23,051,23,06,17,193,26,03,12,327,18,7*76
$GAGSV,3,3,10,12,05,153,15,25,02,263,,7*75
$GBGSV,4,1,13,58,64,128,,46,62,296,,37,58,105,31,28,52,101,29,1*77
$GBGSV,4,2,13,27,36,165,30,19,16,267,25,43,14,039,25,22,14,318,25,1*7F
$GBGSV,4,3,13,36,11,291,18,23,08,109,22,08,04,308,19,13,04,318,20,1*75
$GBGSV,4,4,13,20,02,224,17,1*46
$GNRMC,003951.000,A,4910.426890,N,12304.401162,W,0.02,196.10,301124,,,D,V*12
$GNVTG,196.10,T,,M,0.02,N,0.03,K,D*28
$PAIRLOG,Full*51
$GNGGA,003952.000,4910.426860,N,12304.401192,W,2,30,0.48,4.114,M,-16.816,M,,*4D
$GNGLL,4910.426860,N,12304.401192,W,003952.000,A,D*54
$GNGSA,A,3,22,17,14,19,13,15,30,02,24,21,,,0.89,0.48,0.75,1*07
$GNGSA,A,3,75,85,84,66,65,,,,,,,,0.89,0.48,0.75,2*0D
$GNGSA,A,3,31,24,05,09,33,26,06,03,,,,,0.89,0.48,0.75,3*05
$GNGSA,A,3,37,28,27,19,43,22,23,,,,,,0.89,0.48,0.75,4*0E
$GPGSV,3,1,12,22,81,034,31,17,71,140,31,14,60,073,30,19,46,192,29,1*61
$GPGSV,3,2,12,13,39,222,29,46,33,188,28,15,31,265,27,30,27,138,28,1*6A
$GPGSV,3,3,12,02,25,054,28,24,24,307,25,21,15,037,23,10,03,348,23,1*64
$GLGSV,2,1,07,75,70,031,41,85,45,132,34,84,41,051,27,76,30,297,,1*73
$GLGSV,2,2,07,66,30,298,26,65,19,244,31,67,10,348,,1*4F
$GAGSV,3,1,10,31,70,060,29,24,52,270,29,05,41,280,26,09,32,212,28,7*7A
$GAGSV,3,2,10,33,27,104,26,26,23,051,22,06,17,193,25,03,12,327,18,7*75
$GAGSV,3,3,10,12,05,153,15,25,02,263,,7*75
$GBGSV,4,1,13,58,64,128,,46,62,296,,37,58,105,31,28,52,101,30,1*7F
$GBGSV,4,2,13,27,36,165,30,19,16,267,25,43,14,039,25,22,14,318,25,1*7F
$GBGSV,4,3,13,36,11,291,18,23,08,109,22,08,04,308,19,13,04,318,20,1*75
$GBGSV,4,4,13,20,02,224,17,1*46
$GNRMC,003952.000,A,4910.426860,N,12304.401192,W,0.01,196.10,301124,,,D,V*12
$GNVTG,196.10,T,,M,0.01,N,0.03,K,D*2B
$PAIRLOG,Full*51
$GNGGA,003953.000,4910.426848,N,12304.401162,W,2,30,0.48,4.085,M,-16.816,M,,*40
