8,79,095,31,78,79,119,18,69,43,319,27,79,33,202,28,1*71
$GLGSV,2,2,07,67,28,129,28,85,12,331,19,86,03,020,,1*4C
$GAGSV,3,1,10,09,81,321,30,06,71,097,30,31,47,144,27,04,44,104,28,7*70
$GAGSV,3,2,10,05,27,292,24,34,20,298,23,36,13,247,20,24,10,186,21,7*74
$GAGSV,3,3,10,15,06,346,19,21,04,030,17,7*7B
$GBGSV,3,1,09,32,70,166,38,23,69,085,39,37,47,207,36,20,46,304,36,1*7D
$GBGSV,3,2,09,25,20,051,28,41,17,140,30,38,07,333,26,19,01,314,,1*74
$GBGSV,3,3,09,04,01,262,,1*4C
$GNRMC,183210.000,A,4910.426680,N,12304.400412,W,0.01,0.00,051224,,,D,V*10
$GNVTG,0.00,T,,M,0.01,N,0.02,K,D*25
$GNGGA,183211.000,4910.426668,N,12304.400280,W,2,31,0.50,12.222,M,-16.817,M,,*77
$GNGLL,4910.426668,N,12304.400280,W,183211.000,A,D*56
$GNGSA,A,3,09,04,16,07,26,03,11,06,20,31,30,,0.82,0.50,0.65,1*02
$GNGSA,A,3,68,78,69,79,67,85,,,,,,,0.82,0.50,0.65,2*02
$GNGSA,A,3,09,06,31,04,05,34,36,,,,,,0.82,0.50,0.65,3*01
$GNGSA,A,3,32,23,37,20,25,41,38,,,,,,0.82,0.50,0.65,4*07
$GPGSV,4,1,14,09,74,303,36,04,72,098,34,16,48,083,33,07,43,245,32,1*6E
$GPGSV,4,2,14,48,33,182,29,26,27,051,28,03,24,174,27,11,14,307,24,1*61
$GPGSV,4,3,14,06,14,269,19,20,11,325,20,31,10,063,21,30,07,245,25,1*61
$GPGSV,4,4,14,27,04,114,19,29,01,007,,1*61
$GLGSV,2,1,07,68,79,095,31,78,79,119,18,69,43,319,27,79,33,202,28,1*71
$GLGSV,2,2,07,67,28,129,28,85,12,331,19,86,03,020,,1*4C
$GAGSV,3,1,10,09,81,321,30,06,71,097,30,31,47,144,27,04,44,104,28,7*70
$GAGSV,3,2,10,05,27,292,24,34,20,298,23,36,13,247,20,24,10,186,22,7*77
$GAGSV,3,3,10,15,06,346,19,21,04,030,17,7*7B
$GBGSV,3,1,09,32,70,166,38,23,69,085,39,37,47,207,36,20,46,304,36,1*7D
$GBGSV,3,2,09,25,20,051,28,41,17,140,30,38,07,333,26,19,01,314,,1*74
$GBGSV,3,3,09,04,01,262,,1*4C
$GNRMC,183211.000,A,4910.426668,N,12304.400280,W,0.01,0.00,051224,,,D,V*1A
$GNVTG,0.00,T,,M,0.01,N,0.01,K,D*26
$GNGGA,183212.000,4910.426626,N,12304.400100,W,2,31,0.50,12.267,M,-16.816,M,,*75
$GNGLL,4910.426626,N,12304.400100,W,183212.000,A,D*54
$GNGSA,A,3,09,04,16,07,26,03,11,06,20,31,30,,0.82,0.50,0.65,1*02
$GNGSA,A,3,68,78,69,79,67,85,,,,,,,0.82,0.50,0.65,2*02
$GNGSA,A,3,09,06,31,04,05,34,36,,,,,,0.82,0.50,0.65,3*01
$GNGSA,A,3,32,23,37,20,25,41,38,,,,,,0.82,0.50,0.65,4*07
$GPGSV,4,1,14,09,74,303,36,04,72,098,34,16,48,083,33,07,43,245,32,1*6E
$GPGSV,4,2,14,48,33,182,28,26,27,051,28,03,24,174,26,11,14,307,24,1*61
$GPGSV,4,3,14,06,14,269,19,20,11,325,20,31,10,063,21,30,07,245,25,1*61
$GPGSV,4,4,14,27,04,114,20,29,01,007,,1*6B
$GLGSV,2,1,07,68,79,095,31,78,79,119,18,69,43,319,27,79,33,202,28,1*71
$GLGSV,2,2,07,67,28,129,28,85,12,331,19,86,03,020,,1*4C
$GAGSV,3,1,10,09,81,321,31,06,71,097,30,31,47,144,27,04,44,104,28,7*71
$GAGSV,3,2,10,05,27,292,24,34,20,298,23,36,13,247,20,24,10,186,22,7*77
$GAGSV,3,3,10,15,06,346,19,21,04,030,17,7*7B
$GBGSV,3,1,09,32,70,166,38,23,69,085,39,37,47,207,36,20,46,304,36,1*7D
$GBGSV,3,2,09,25,20,051,28,41,17,140,30,38,07,333,26,19,01,314,,1*74
$GBGSV,3,3,09,04,01,262,,1*4C
$GNRMC,183212.000,A,4910.426626,N,12304.400100,W,0.02,0.00,051224,,,D,V*1B
$GNVTG,0.00,T,,M,0.02,N,0.03,K,D*27
$GNGGA,183213.000,4910.426668,N,12304.399986,W,2,31,0.50,12.384,M,-16.816,M,,*73
$GNGLL,4910.426668,N,12304.399986,W,183213.000,A,D*5E
$GNGSA,A,3,09,04,16,07,26,03,11,06,20,31,30,,0.82,0.50,0.65,1*02
$GNGSA,A,3,68,78,69,79,67,85,,,,,,,0.82,0.50,0.65,2*02
$GNGSA,A,3,09,06,31,04,05,34,36,,,,,,0.82,0.50,0.65,3*01
$GNGSA,A,3,32,23,37,20,25,41,38,,,,,,0.82,0.50,0.65,4*07
$GPGSV,4,1,14,09,74,303,36,04,72,098,34,16,48,083,33,07,43,245,32,1*6E
$GPGSV,4,2,14,48,33,182,28,26,27,051,28,03,24,174,26,11,14,307,24,1*61
$GPGSV,4,3,14,06,14,269,20,20,11,325,19,31,10,063,21,30,07,245,24,1*60
$GPGSV,4,4,14,27,04,114,20,29,01,007,,1*6B
$GLGSV,2,1,06,68,79,095,31,78,79,119,17,69,43,319,27,79,33,202,28,1*7F
$GLGSV,2,2,06,67,28,129,28,85,12,331,20,1*78
$GAGSV,3,1,10,09,81,321,31,06,71,097,30,31,47,144,27,04,44,104,28,7*71
$GAGSV,3,2,10,05,27,292,24,34,20,298,23,36,13,247,20,24,10,186,22,7*77
$GAGSV,3,3,10,15,06,346,19,21,04,030,17,7*7B
$GBGSV,3,1,09,32,70,166,38,23,69,085,39,37,47,207,36,20,46,304,36,1*7D
$GBGSV,3,2,09,25,20,051,28,41,17,140,30,38,07,333,26,04,01,262,,1*78
$GBGSV,3,3,09,19,01,314,,1*40
$GNRMC,183213.000,A,4910.426668,N,12304.399986,W,0.02,0.00,051224,,,D,V*11
$GNVTG,0.00,T,,M,0.02,N,0.03,K,D*27
$GNGGA,183214.000,4910.426680,N,12304.399938,W,2,31,0.50,12.481,M,-16.816,M,,*75
$GNGLL,4910.426680,N,12304.399938,W,183214.000,A,D*5A
$GNGSA,A,3,09,04,16,07,26,03,11,06,20,31,30,,0.82,0.50,0.65,1*02
$GNGSA,A,3,68,78,69,79,67,85,,,,,,,0.82,0.50,0.65,2*02
$GNGSA,A,3,09,06,31,04,05,34,36,,,,,,0.82,0.50,0.65,3*01
$GNGSA,A,3,32,23,37,20,25,41,38,,,,,,0.82,0.50,0.65,4*07
$GPGSV,4,1,14,09,74,303,36,04,72,098,34,16,48,083,33,07,43,245,32,1*6E
$GPGSV,4,2,14,48,33,182,28,26,27,051,28,03,24,174,26,11,14,307,25,1*60
$GPGSV,4,3,14,06,14,269,20,20,11,325,19,31,10,063,21,30,07,245,25,1*61
$GPGSV,4,4,14,27,04,114,20,29,01,007,,1*6B
$GLGSV,2,1,07,68,79,095,31,78,79,119,17,69,43,319,27,79,33,202,28,1*7E
$GLGSV,2,2,07,67,28,129,28,85,12,331,21,86,03,020,,1*47
$GAGSV,3,1,10,09,81,321,31,06,71,097,30,31,47,144,27,04,44,104,28,7*71
$GAGSV,3,2,10,05,27,292,24,34,20,298,23,36,13,247,20,24,10,186,21,7*74
$GAGSV,3,3,10,15,06,346,19,21,04,030,17,7*7B
$GBGSV,3,1,09,32,70,166,38,23,69,085,39,37,47,207,36,20,46,304,36,1*7D
$GBGSV,3,2,09,25,20,051,28,41,17,140,30,38,07,333,27,19,01,314,,1*75
$GBGSV,3,3,09,04,01,262,,1*4C
$GNRMC,183214.000,A,4910.426680,N,12304.399938,W,0.02,0.00,051224,,,D,V*15
$GNVTG,0.00,T,,M,0.02,N,0.04,K,D*20
$GNGGA,183215.000,4910.426686,N,12304.399866,W,2,31,0.50,12.512,M,-16.817,M,,*72
