8,27,25,083,18,1*6E
$GPGSV,3,3,11,08,22,119,23,05,13,327,27,14,04,210,17,1*54
$GLGSV,2,1,07,69,83,253,27,79,78,240,28,78,44,042,16,68,37,154,27,1*75
$GLGSV,2,2,07,80,22,227,22,70,20,324,,87,11,029,21,1*47
$GAGSV,3,1,10,09,69,132,27,31,65,094,27,05,53,300,27,06,44,128,24,7*74
$GAGSV,3,2,10,24,42,189,25,04,18,126,20,15,08,321,18,03,04,304,13,7*79
$GAGSV,3,3,10,34,03,274,14,13,01,008,,7*79
$GBGSV,4,1,14,37,83,211,37,20,66,254,38,23,40,061,32,32,33,168,32,1*79
$GBGSV,4,2,14,19,29,313,32,46,27,236,,38,17,331,24,08,13,341,23,1*71
$GBGSV,4,3,14,34,06,032,24,43,06,075,16,11,06,054,22,13,04,346,18,1*7F
$GBGSV,4,4,14,12,02,006,14,04,01,262,,1*72
$GNRMC,195341.000,A,4910.425180,N,12304.402530,W,0.01,0.00,051224,,,D,V*15
$GNVTG,0.00,T,,M,0.01,N,0.03,K,D*24
$GNGGA,195342.000,4910.425246,N,12304.402470,W,2,29,0.55,8.440,M,-16.816,M,,*43
$GNGLL,4910.425246,N,12304.402470,W,195342.000,A,D*56
$GNGSA,A,3,07,09,30,04,20,16,27,08,05,,,,0.93,0.55,0.75,1*0D
$GNGSA,A,3,69,79,68,80,,,,,,,,,0.93,0.55,0.75,2*0D
$GNGSA,A,3,09,31,05,06,24,04,15,,,,,,0.93,0.55,0.75,3*05
$GNGSA,A,3,37,20,23,32,19,38,08,34,11,,,,0.93,0.55,0.75,4*06
$GPGSV,3,1,11,07,75,284,34,09,66,144,33,30,38,265,30,04,36,130,29,1*60
$GPGSV,3,2,11,44,33,171,28,20,29,297,27,16,25,048,28,27,25,083,18,1*6E
$GPGSV,3,3,11,08,22,119,22,05,13,327,27,14,04,210,17,1*55
$GLGSV,2,1,07,69,83,253,27,79,78,240,27,78,44,042,16,68,37,154,27,1*7A
$GLGSV,2,2,07,80,22,227,21,70,20,324,,87,11,029,20,1*45
$GAGSV,3,1,10,09,69,132,27,31,65,094,27,05,53,300,27,06,44,128,24,7*74
$GAGSV,3,2,10,24,42,189,25,04,18,126,19,15,08,321,18,03,04,304,13,7*73
$GAGSV,3,3,10,34,03,274,09,13,01,008,,7*75
$GBGSV,4,1,14,37,83,211,37,20,66,254,38,23,40,061,32,32,33,168,32,1*79
$GBGSV,4,2,14,19,29,313,32,46,27,236,,38,17,331,24,08,13,341,23,1*71
$GBGSV,4,3,14,34,06,032,24,43,06,075,16,11,06,054,22,13,04,346,18,1*7F
$GBGSV,4,4,14,12,02,006,14,04,01,262,,1*72
$GNRMC,195342.000,A,4910.425246,N,12304.402470,W,0.02,0.00,051224,,,D,V*19
$GNVTG,0.00,T,,M,0.02,N,0.03,K,D*27
$GNGGA,195343.000,4910.425306,N,12304.402332,W,2,29,0.55,8.500,M,-16.816,M,,*43
$GNGLL,4910.425306,N,12304.402332,W,195343.000,A,D*53
$GNGSA,A,3,07,09,30,04,20,16,27,08,05,,,,0.93,0.55,0.75,1*0D
$GNGSA,A,3,69,79,68,80,,,,,,,,,0.93,0.55,0.75,2*0D
$GNGSA,A,3,09,31,05,06,24,04,15,,,,,,0.93,0.55,0.75,3*05
$GNGSA,A,3,37,20,23,32,19,38,08,34,11,,,,0.93,0.55,0.75,4*06
$GPGSV,3,1,11,07,75,284,34,09,66,144,33,30,38,265,30,04,36,130,29,1*60
$GPGSV,3,2,11,44,33,171,28,20,29,297,26,16,25,048,28,27,25,083,18,1*6F
$GPGSV,3,3,11,08,22,119,22,05,13,327,27,14,04,210,17,1*55
$GLGSV,2,1,07,69,83,253,27,79,78,240,27,78,44,042,16,68,37,154,27,1*7A
$GLGSV,2,2,07,80,22,227,21,70,20,324,,87,11,029,20,1*45
$GAGSV,3,1,10,09,69,132,27,31,65,094,27,05,53,300,27,06,44,128,24,7*74
$GAGSV,3,2,10,24,42,189,25,04,18,126,19,15,08,321,18,03,04,304,13,7*73
$GAGSV,3,3,10,34,03,274,09,13,01,008,,7*75
$GBGSV,4,1,14,37,83,211,37,20,66,254,38,23,40,061,32,32,33,168,32,1*79
$GBGSV,4,2,14,19,29,313,32,46,27,236,,38,17,331,24,08,13,341,23,1*71
$GBGSV,4,3,14,34,06,032,24,43,06,075,16,11,06,054,22,13,04,346,18,1*7F
$GBGSV,4,4,14,12,02,006,14,04,01,262,,1*72
$GNRMC,195343.000,A,4910.425306,N,12304.402332,W,0.02,0.00,051224,,,D,V*1C
$GNVTG,0.00,T,,M,0.02,N,0.04,K,D*20
$GNGGA,195344.000,4910.425396,N,12304.402206,W,2,29,0.55,8.596,M,-16.816,M,,*44
$GNGLL,4910.425396,N,12304.402206,W,195344.000,A,D*5B
$GNGSA,A,3,07,09,30,04,20,16,27,08,05,,,,0.93,0.55,0.75,1*0D
$GNGSA,A,3,69,79,68,80,,,,,,,,,0.93,0.55,0.75,2*0D
$GNGSA,A,3,09,31,05,06,24,04,15,,,,,,0.93,0.55,0.75,3*05
$GNGSA,A,3,37,20,23,32,19,38,08,34,11,,,,0.93,0.55,0.75,4*06
$GPGSV,3,1,11,07,75,284,34,09,66,144,33,30,38,265,30,04,36,130,29,1*60
$GPGSV,3,2,11,44,33,171,28,20,29,297,27,16,25,048,28,27,25,083,18,1*6E
$GPGSV,3,3,11,08,22,119,22,05,13,327,27,14,04,210,17,1*55
$GLGSV,2,1,07,69,83,253,27,79,78,240,27,78,44,042,16,68,37,154,27,1*7A
$GLGSV,2,2,07,80,22,227,22,70,20,324,,87,11,029,20,1*46
$GAGSV,3,1,10,09,69,132,27,31,65,094,27,05,53,300,27,06,44,128,24,7*74
$GAGSV,3,2,10,24,42,189,25,04,18,126,20,15,08,321,18,03,04,304,13,7*79
$GAGSV,3,3,10,34,03,274,10,13,01,008,,7*7D
$GBGSV,4,1,14,37,83,211,37,20,66,254,38,23,40,061,32,32,33,168,32,1*79
$GBGSV,4,2,14,19,29,313,32,46,27,236,,38,17,331,24,08,13,341,23,1*71
$GBGSV,4,3,14,34,06,032,24,43,06,075,16,11,06,054,22,13,04,346,18,1*7F
$GBGSV,4,4,14,12,02,006,14,04,01,262,,1*72
$GNRMC,195344.000,A,4910.425396,N,12304.402206,W,0.02,0.00,051224,,,D,V*14
$GNVTG,0.00,T,,M,0.02,N,0.03,K,D*27
$GNGGA,195345.000,4910.425480,N,12304.402050,W,2,29,0.55,8.792,M,-16.816,M,,*42
$GNGLL,4910.425480,N,12304.402050,W,195345.000,A,D*5B
$GNGSA,A,3,07,09,30,04,20,16,27,08,05,,,,0.93,0.55,0.75,1*0D
$GNGSA,A,3,69,79,68,80,,,,,,,,,0.93,0.55,0.75,2*0D
$GNGSA,A,3,09,31,05,06,24,04,15,,,,,,0.93,0.55,0.75,3*05
$GNGSA,A,3,37,20,23,32,19,38,08,34,11,,,,0.93,0.55,0.75,4*06
$GPGSV,3,1,11,07,75,284,34,09,66,144,33,30,38,265,30,04,36,130,29,1*60
$GPGSV,3,2,11,44,33,171,28,20,29,297,27,16,25,048,27,27,25,083,18,1*61
$GPGSV,3,3,11,08,22,119,22,05,13,327,27,14,04,210,17,1*55
$GLGSV,2,1,07,69,83,253,27,79,78,240,27,78,44,042,16,68,37,154,27,1*7A
$GLGSV,2,2,07,80,22,227,22,70,20,324,,87,11,029,20,1*46
$GAGSV,3,1,10,09,69,132,27,31,65,094,27,05,53,300,27,06,44,128,25,7*75
$GAGSV,3,2,10,24,42,189,25,04,18,126,20,15,08,321,18,03,04,304,13,7*79
$GAGSV,3,3,10,34,03,274,12,13,01,008,,7*7F
$GBGSV,4,1,14,37,83,211,37,20,66,254,38,23,40,061,32,32,33,168,31,1*7A
$GBGSV,4,2,14,19,29,313,32,46,27,236,,38,17,331,24,08,13,341,23,1*71
$GBGSV,4,3,14,34,06,032,24,43,06,075,16,11,06,054,22,13,04,346,18,1*7F
$GBGSV,4,4,14,12,02,006,14,04,01,262,,1*72
$GNRMC,195345.000,A,4910.425480,N,12304.402050,W,0.02,0.00,051224,,,D,V*14
$GNVTG,0.00,T,,M,0.02,N,0.04,K,D*20
$GNGGA,195346.000,4910.425564,N,12304.401900,W,2,29,0.55,8.925,M,-16.816,M,,*47
$GNGLL,4910.425564,N,12304.401900,W,195346.000,A,D*5C
$GNGSA,A,3,07,09,30,04,20,16,27,08,05,,,,0.93,0.55,0.75,1*0D
$GNGSA,A,3,69,79,68,80,,,,,,,,,0.93,0.55,0.75,2*0D
$GNGSA,A,3,09,31,05,06,24,04,15,,,,,,0.93,0.55,0.75,3*05
$GNGSA,A,3,37,20,23,32,19,38,08,34,11,,,,0.93,0.55,0.75,4*06
$GPGSV,3,1,11,07,75,284,34,09,66,144,33,30,38,265,30,04,36,130,29,1*60
$GPGSV,3,2,11,44,33,171,28,20,29,297,26,16,25,048,27,27,25,083,19,1*61
$GPGSV,3,3,11,08,22,119,22,05,13,327,27,14,04,210,17,1*55
$GLGSV,2,1,07,69,83,253,26,79,78,240,27,78,44,042,16,68,37,154,27,1*7B
$GLGSV,2,2,07,80,22,227,22,70,20,324,,87,11,029,20,1*46
$GAGSV,3,1,10,09,69,132,27,31,65,094,27,05,53,300,27,06,44,128,25,7*75
$GAGSV,3,2,10,24,42,189,25,04,18,126,20,15,08,321,18,03,04,304,13,7*79
$GAGSV,3,3,10,34,03,274,11,13,01,008,,7*7C
$GBGSV,4,1,14,37,83,211,37,20,66,254,38,23,40,061,32,32,33,168,31,1*7A
$GBGSV,4,2,14,19,29,313,32,46,27,236,,38,17,331,24,08,13,341,23,1*71
$GBGSV,4,3,14,34,06,032,24,43,06,075,16,11,06,054,22,13,04,346,18,1*7F
$GBGSV,4,4,14,12,02,006,14,04,01,262,,1*72
$GNRMC,195346.000,A,4910.425564,N,12304.401900,W,0.02,0.00,051224,,,D,V*13
$GNVTG,0.00,T,,M,0.02,N,0.04,K,D*20
$GNGGA,195347.000,4910.425696,N,12304.401798,W,2,29,0.55,9.035,M,-16.816,M,,*4E
$GNGLL,4910.425696,N,12304.401798,W,195347.000,A,D*5C
$GNGSA,A,3,07,09,30,04,20,16,27,08,05,,,,0.93,0.55,0.75,1*0D
$GNGSA,A,3,69,79,68,80,,,,,,,,,0.93,0.55,0.75,2*0D
$GNGSA,A,3,09,31,05,06,24,04,15,,,,,,0.93,0.55,0.75,3*05
$GNGSA,A,3,37,20,23,32,19,38,08,34,11,,,,0.93,0.55,0.75,4*06
$GPGSV,3,1,11,07,75,284,34,09,66,144,33,30,38,265,30,04,36,130,29,1*60
$GPGSV,3,2,11,44,33,171,28,20,29,297,28,16,25,048,27,27,25,083,19,1*6F
$GPGSV,3,3,11,08,22,119,23,05,13,327,27,14,04,210,17,1*54
$GLGSV,2,1,07,69,83,253,26,79,78,240,27,78,44,042,15,68,37,154,27,1*78
$GLGSV,2,2,07,80,22,227,22,70,20,324,,87,11,029,20,1*46
$GAGSV,3,1,10,09,69,132,27,31,65,094,27,05,53,300,27,06,44,128,25,7*75
$GAGSV,3,2,10,24,42,189,25,04,18,126,20,15,08,321,18,03,04,304,13,7*79
$GAGSV,3,3,10,34,03,274,10,13,01,008,,7*7D
$GBGSV,4,1,14,37,83,211,37,20,66,254,38,23,40,061,32,32,33,168,32,1*79
$GBGSV,4,2,14,19,29,313,32,46,27,236,,38,17,331,24,08,13,341,23,1*71
$GBGSV,4,3,14,34,06,032,24,43,06,075,16,11,06,054,22,13,04,346,18,1*7F
$GBGSV,4,4,14,12,02,006,14,04,01,262,,1*72
$GNRMC,195347.000,A,4910.425696,N,12304.401798,W,0.02,0.00,051224,,,D,V*13
$GNVTG,0.00,T,,M,0.02,N,0.04,K,D*20
$GNGGA,195348.000,4910.425696,N,12304.401708,W,2,29,0.55,9.224,M,-16.816,M,,*4A
$GNGLL,4910.425696,N,12304.401708,W,195348.000,A,D*5A
$GNGSA,A,3,07,09,30,04,20,16,27,08,05,,,,0.93,0.55,0.75,1*0D
$GNGSA,A,3,69,79,68,80,,,,,,,,,0.93,0.55,0.75,2*0D
$GNGSA,A,3,09,31,05,06,24,04,15,,,,,,0.93,0.55,0.75,3*05
$GNGSA,A,3,37,20,23,32,19,38,08,34,11,,,,0.93,0.55,0.75,4*06
$GPGSV,3,1,11,07,75,284,34,09,66,144,32,30,38,265,30,04,36,130,29,1*61
$GPGSV,3,2,11,44,33,171,28,20,29,297,27,16,25,048,27,27,25,083,19,1*60
$GPGSV,3,3,11,08,22,119,24,05,13,327,27,14,04,210,17,1*53
$GLGSV,2,1,07,69,83,253,27,79,78,240,27,78,44,042,15,68,37,154,27,1*79
$GLGSV,2,2,07,80,22,227,22,70,20,324,,87,11,029,20,1*46
$GAGSV,3,1,10,09,69,132,27,31,65,094,27,05,53,300,26,06,44,128,25,7*74
$GAGSV,3,2,10,24,42,189,25,04,18,126,20,15,08,321,18,03,04,304,12,7*78
$GAGSV,3,3,10,34,03,274,09,13,01,008,,7*75
$GBGSV,4,1,14,37,83,211,37,20,66,254,38,23,40,061,32,32,33,168,32,1*79
$GBGSV,4,2,14,19,29,313,32,46,27,236,,38,17,331,24,08,13,341,23,1*71
$GBGSV,4,3,14,34,06,032,24,43,06,075,17,11,06,054,22,13,04,346,18,1*7E
$GBGSV,4,4,14,12,02,006,14,04,01,262,,1*72
$GNRMC,195348.000,A,4910.425696,N,12304.401708,W,0.02,0.00,051224,,,D,V*15
$GNVTG,0.00,T,,M,0.02,N,0.04,K,D*20
$GNGGA,195349.000,4910.425762,N,12304.401564,W,2,29,0.55,9.376,M,-16.816,M,,*4F
$GNGLL,4910.425762,N,12304.401564,W,195349.000,A,D*59
$GNGSA,A,3,07,09,30,04,20,16,27,08,05,,,,0.93,0.55,0.75,1*0D
$GNGSA,A,3,69,79,68,80,,,,,,,,,0.93,0.55,0.75,2*0D
$GNGSA,A,3,09,31,05,06,24,04,15,,,,,,0.93,0.55,0.75,3*05
$GNGSA,A,3,37,20,23,32,19,38,08,34,11,,,,0.93,0.55,0.75,4*06
$GPGSV,3,1,11,07,75,284,34,09,66,144,32,30,38,265,30,04,36,130,29,1*61
$GPGSV,3,2,11,44,33,171,28,20,29,297,26,16,25,048,27,27,25,083,20,1*6B
$GPGSV,3,3,11,08,22,119,24,05,13,327,27,14,04,210,17,1*53
$GLGSV,2,1,07,69,83,253,27,79,78,240,27,78,44,042,14,68,37,154,27,1*78
$GLGSV,2,2,07,80,22,227,22,70,20,324,,87,11,029,20,1*46
$GAGSV,3,1,10,09,69,132,27,31,65,094,27,05,53,300,26,06,44,128,25,7*74
$GAGSV,3,2,10,24,42,189,25,04,18,126,19,15,08,321,18,03,04,304,12,7*72
$GAGSV,3,3,10,34,03,274,08,13,01,008,,7*74
$GBGSV,4,1,14,37,83,211,37,20,66,254,38,23,40,061,32,32,33,168,32,1*79
$GBGSV,4,2,14,19,29,313,32,46,27,236,,38,17,331,24,08,13,341,23,1*71
$GBGSV,4,3,14,34,06,032,24,43,06,075,17,11,06,054,22,13,04,346,18,1*7E
$GBGSV,4,4,14,12,02,006,14,04,01,262,,1*72
$GNRMC,195349.000,A,4910.425762,N,12304.401564,W,0.03,0.00,051224,,,D,V*17
$GNVTG,0.00,T,,M,0.03,N,0.05,K,D*20
$GNGGA,195350.000,4910.425918,N,12304.401420,W,2,29,0.55,9.417,M,-16.816,M,,*45
$GNGLL,4910.425918,N,12304.401420,W,195350.000,A,D*53
$GNGSA,A,3,07,09,30,04,20,16,27,08,05,,,,0.93,0.55,0.75,1*0D
$GNGSA,A,3,69,79,68,80,,,,,,,,,0.93,0.55,0.75,2*0D
$GNGSA,A,3,09,31,05,06,24,04,15,,,,,,0.93,0.55,0.75,3*05
$GNGSA,A,3,37,20,23,32,19,38,08,34,11,,,,0.93,0.55,0.75,4*06
$GPGSV,3,1,11,07,75,284,33,09,66,144,32,30,38,265,30,04,36,130,29,1*66
$GPGSV,3,2,11,44,33,171,28,20,29,297,27,16,25,048,27,27,25,083,21,1*6B
$GPGSV,3,3,11,08,22,119,24,05,13,327,27,14,04,210,17,1*53
$GLGSV,2,1,07,69,83,253,28,79,78,240,28,78,44,042,15,68,37,154,27,1*79
$GLGSV,2,2,07,80,22,227,22,70,20,324,,87,11,029,20,1*46
$GAGSV,3,1,10,09,69,132,26,31,65,094,27,05,53,300,26,06,44,128,25,7*75
$GAGSV,3,2,10,24,42,189,25,04,18,126,19,15,08,321,18,03,04,304,12,7*72
$GAGSV,3,3,10,34,03,274,07,13,01,008,,7*7B
$GBGSV,4,1,14,37,83,211,37,20,66,254,38,23,40,061,32,32,33,168,31,1*7A
$GBGSV,4,2,14,19,29,313,32,46,27,236,,38,17,331,24,08,13,341,23,1*71
$GBGSV,4,3,14,34,06,032,24,43,06,075,17,11,06,054,22,13,04,346,18,1*7E
$GBGSV,4,4,14,12,02,006,14,04,01,262,,1*72
$GNRMC,195350.000,A,4910.425918,N,12304.401420,W,0.03,0.00,051224,,,D,V*1D
$GNVTG,0.00,T,,M,0.03,N,0.06,K,D*23
$GNGGA,195351.000,4910.426086,N,12304.401420,W,2,29,0.55,9.453,M,-16.816,M,,*49
$GNGLL,4910.426086,N,12304.401420,W,195351.000,A,D*5F
$GNGSA,A,3,07,09,30,04,20,16,27,08,05,,,,0.93,0.55,0.75,1*0D
$GNGSA,A,3,69,79,68,80,,,,,,,,,0.93,0.55,0.75,2*0D
$GNGSA,A,3,09,31,05,06,24,04,15,,,,,,0.93,0.55,0.75,3*05
$GNGSA,A,3,37,20,23,32,19,38,08,11,34,,,,0.93,0.55,0.75,4*06
$GPGSV,3,1,11,07,75,285,33,09,66,144,32,30,38,265,30,04,36,130,29,1*67
$GPGSV,3,2,11,44,33,171,28,20,29,297,27,16,25,048,27,27,25,083,21,1*6B
$GPGSV,3,3,11,08,22,119,24,05,13,327,27,14,04,210,17,1*53
$GLGSV,2,1,07,69,83,251,28,79,78,241,28,78,44,042,14,68,37,154,27,1*7B
$GLGSV,2,2,07,80,22,228,22,70,21,324,,87,11,029,20,1*48
$GAGSV,3,1,10,09,69,132,26,31,65,094,27,05,53,300,26,06,43,128,25,7*72
$GAGSV,3,2,10,24,42,189,25,04,18,126,20,15,08,321,18,03,04,304,13,7*79
$GAGSV,3,3,10,34,03,274,07,13,01,008,,7*7B
$GBGSV,4,1,14,37,84,210,37,20,66,253,38,23,40,061,33,32,32,168,31,1*7B
$GBGSV,4,2,14,19,29,313,32,46,27,236,,38,18,331,24,08,13,341,23,1*7E
$GBGSV,4,3,14,43,07,074,17,11,07,054,22,34,06,031,24,13,04,346,18,1*7C
$GBGSV,4,4,14,12,02,006,14,04,01,262,,1*72
$GNRMC,195351.000,A,4910.426086,N,12304.401420,W,0.03,0.00,051224,,,D,V*11
$GNVTG,0.00,T,,M,0.03,N,0.06,K,D*23
$GNGGA,195352.000,4910.426164,N,12304.401402,W,2,29,0.55,9.463,M,-16.816,M,,*44
$GNGLL,4910.426164,N,12304.401402,W,195352.000,A,D*51
$GNGSA,A,3,07,09,30,04,20,16,27,08,05,,,,0.93,0.55,0.75,1*0D
$GNGSA,A,3,69,79,68,80,,,,,,,,,0.93,0.55,0.75,2*0D
$GNGSA,A,3,09,31,05,06,24,04,15,,,,,,0.93,0.55,0.75,3*05
$GNGSA,A,3,37,20,23,32,19,38,08,11,34,,,,0.93,0.55,0.75,4*06
$GPGSV,3,1,11,07,75,285,33,09,66,144,32,30,38,265,30,04,36,130,28,1*66
$GPGSV,3,2,11,44,33,171,28,20,29,297,27,16,25,048,27,27,25,083,21,1*6B
$GPGSV,3,3,11,08,22,119,23,05,13,327,27,14,04,210,17,1*54
$GLGSV,2,1,07,69,83,251,28,79,78,241,28,78,44,042,14,68,37,154,27,1*7B
$GLGSV,2,2,07,80,22,228,23,70,21,324,,87,11,029,20,1*49
$GAGSV,3,1,10,09,69,132,26,31,65,094,27,05,53,300,26,06,43,128,25,7*72
$GAGSV,3,2,10,24,42,189,25,04,18,126,20,15,08,321,18,03,04,304,13,7*79
$GAGSV,3,3,10,34,03,274,07,13,01,008,,7*7B
$GBGSV,4,1,14,37,84,210,37,20,66,253,38,23,40,061,33,32,32,168,31,1*7B
$GBGSV,4,2,14,19,29,313,32,46,27,236,,38,18,331,24,08,13,341,23,1*7E
$GBGSV,4,3,14,43,07,074,17,11,07,054,22,34,06,031,23,13,04,346,18,1*7B
$GBGSV,4,4,14,12,02,006,14,04,01,262,,1*72
$GNRMC,195352.000,A,4910.426164,N,12304.401402,W,0.03,0.00,051224,,,D,V*1F
$GNVTG,0.00,T,,M,0.03,N,0.06,K,D*23
$GNGGA,195353.000,4910.426278,N,12304.401408,W,2,29,0.55,9.532,M,-16.816,M,,*44
$GNGLL,4910.426278,N,12304.401408,W,195353.000,A,D*54
$GNGSA,A,3,07,09,30,04,20,16,27,08,05,,,,0.93,0.55,0.75,1*0D
$GNGSA,A,3,69,79,68,80,,,,,,,,,0.93,0.55,0.75,2*0D
$GNGSA,A,3,09,31,05,06,24,04,15,,,,,,0.93,0.55,0.75,3*05
$GNGSA,A,3,37,20,23,32,19,38,08,11,34,,,,0.93,0.55,0.75,4*06
$GPGSV,3,1,11,07,75,285,33,09,66,144,33,30,38,265,30,04,36,130,28,1*67
$GPGSV,3,2,11,44,33,171,28,20,29,297,28,16,25,048,27,27,25,083,21,1*64
$GPGSV,3,3,11,08,22,119,24,05,13,327,27,14,04,210,18,1*5C
$GLGSV,2,1,07,69,83,251,28,79,78,241,28,78,44,042,15,68,37,154,27,1*7A
$GLGSV,2,2,07,80,22,228,23,70,21,324,,87,11,029,20,1*49
$GAGSV,3,1,10,09,69,132,26,31,65,094,27,05,53,300,26,06,43,128,25,7*72
$GAGSV,3,2,10,24,42,189,25,04,18,126,20,15,08,321,18,03,04,304,13,7*79
$GAGSV,3,3,10,34,03,274,07,13,01,008,,7*7B
$GBGSV,4,1,14,37,84,210,37,20,66,253,38,23,40,061,32,32,32,168,31,1*7A
$GBGSV,4,2,14,19,29,313,32,46,27,236,,38,18,331,24,08,13,341,22,1*7F
$GBGSV,4,3,14,43,07,074,17,11,07,054,22,34,06,031,23,13,04,346,18,1*7B
$GBGSV,4,4,14,12,02,006,14,04,01,262,,1*72
$GNRMC,195353.000,A,4910.426278,N,12304.401408,W,0.03,0.00,051224,,,D,V*1A
$GNVTG,0.00,T,,M,0.03,N,0.05,K,D*20
$GNGGA,195354.000,4910.426284,N,12304.401384,W,2,29,0.55,9.659,M,-16.816,M,,*4D
$GNGLL,4910.426284,N,12304.401384,W,195354.000,A,D*53
$GNGSA,A,3,07,09,30,04,20,16,27,08,05,,,,0.93,0.55,0.75,1*0D
$GNGSA,A,3,69,79,68,80,,,,,,,,,0.93,0.55,0.75,2*0D
$GNGSA,A,3,09,31,05,06,24,04,15,,,,,,0.93,0.55,0.75,3*05
$GNGSA,A,3,37,20,23,32,19,38,08,11,34,,,,0.93,0.55,0.75,4*06
$GPGSV,3,1,11,07,75,285,33,09,66,144,32,30,38,265,30,04,36,130,27,1*69
$GPGSV,3,2,11,44,33,171,27,20,29,297,25,16,25,048,26,27,25,083,21,1*67
$GPGSV,3,3,11,08,22,119,22,05,13,327,26,14,04,210,18,1*5B
$GLGSV,2,1,07,69,83,251,29,79,78,241,28,78,44,042,16,68,37,154,27,1*78
$GLGSV,2,2,07,80,22,228,23,70,21,324,,87,11,029,20,1*49
$GAGSV,3,1,10,09,69,132,25,31,65,094,26,05,53,300,25,06,43,128,24,7*72
$GAGSV,3,2,10,24,42,189,25,04,18,126,20,15,08,321,18,03,04,304,12,7*78
$GAGSV,3,3,10,34,03,274,07,13,01,008,,7*7B
$GBGSV,4,1,14,37,84,210,37,20,66,253,38,23,40,061,32,32,32,168,31,1*7A
$GBGSV,4,2,14,19,29,313,32,46,27,236,,38,18,331,24,08,13,341,23,1*7E
$GBGSV,4,3,14,43,07,074,17,11,07,054,22,34,06,031,23,13,04,346,18,1*7B
$GBGSV,4,4,14,12,02,006,14,04,01,262,,1*72
$GNRMC,195354.000,A,4910.426284,N,12304.401384,W,0.02,0.00,051224,,,D,V*1C
$GNVTG,0.00,T,,M,0.02,N,0.04,K,D*20
$GNGGA,195355.000,4910.426332,N,12304.401444,W,2,29,0.55,9.696,M,-16.816,M,,*48
$GNGLL,4910.426332,N,12304.401444,W,195355.000,A,D*55
$GNGSA,A,3,07,09,30,04,20,16,27,08,05,,,,0.93,0.55,0.75,1*0D
$GNGSA,A,3,69,79,68,80,,,,,,,,,0.93,0.55,0.75,2*0D
$GNGSA,A,3,09,31,05,06,24,04,15,,,,,,0.93,0.55,0.75,3*05
$GNGSA,A,3,37,20,23,32,19,38,08,11,34,,,,0.93,0.55,0.75,4*06
$GPGSV,3,1,11,07,75,285,33,09,66,144,32,30,38,265,30,04,36,130,27,1*69
$GPGSV,3,2,11,44,33,171,27,20,29,297,26,16,25,048,26,27,25,083,21,1*64
$GPGSV,3,3,11,08,22,119,23,05,13,327,26,14,04,210,18,1*5A
$GLGSV,2,1,07,69,83,251,29,79,78,241,29,78,44,042,16,68,37,154,26,1*78
$GLGSV,2,2,07,80,22,228,23,70,21,324,,87,11,029,20,1*49
$GAGSV,3,1,10,09,69,132,25,31,65,094,26,05,53,300,24,06,43,128,23,7*74
$GAGSV,3,2,10,24,42,189,25,04,18,126,19,15,08,321,18,03,04,304,12,7*72
$GAGSV,3,3,10,34,03,274,07,13,01,008,,7*7B
$GBGSV,4,1,14,37,84,210,37,20,66,253,38,23,40,061,32,32,32,168,31,1*7A
$GBGSV,4,2,14,19,29,313,32,46,27,236,,38,18,331,24,08,13,341,23,1*7E
$GBGSV,4,3,14,43,07,074,17,11,07,054,22,34,06,031,23,13,04,346,18,1*7B
$GBGSV,4,4,14,12,02,006,13,04,01,262,,1*75
$GNRMC,195355.000,A,4910.426332,N,12304.401444,W,0.01,0.00,051224,,,D,V*19
$GNVTG,0.00,T,,M,0.01,N,0.03,K,D*24
$GNGGA,195356.000,4910.426386,N,12304.401534,W,2,29,0.55,9.679,M,-16.816,M,,*43
$GNGLL,4910.426386,N,12304.401534,W,195356.000,A,D*5F
$GNGSA,A,3,07,09,30,04,20,16,27,08,05,,,,0.93,0.55,0.75,1*0D
$GNGSA,A,3,69,79,68,80,,,,,,,,,0.93,0.55,0.75,2*0D
$GNGSA,A,3,09,31,05,06,24,04,15,,,,,,0.93,0.55,0.75,3*05
$GNGSA,A,3,37,20,23,32,19,38,08,11,34,,,,0.93,0.55,0.75,4*06
$GPGSV,3,1,11,07,75,285,33,09,66,144,32,30,38,265,30,04,36,130,27,1*69
$GPGSV,3,2,11,44,33,171,27,20,29,297,25,16,25,048,26,27,25,083,21,1*67
$GPGSV,3,3,11,08,22,119,23,05,13,326,26,14,04,210,18,1*5B
$GLGSV,2,1,07,69,83,251,29,79,78,241,29,78,44,042,16,68,37,154,27,1*79
$GLGSV,2,2,07,80,22,228,23,70,21,324,,87,11,029,20,1*49
$GAGSV,3,1,10,09,69,132,25,31,65,094,25,05,53,300,24,06,43,128,23,7*77
$GAGSV,3,2,10,24,42,189,24,04,18,126,19,15,08,321,18,03,04,304,12,7*73
$GAGSV,3,3,10,34,03,274,07,13,01,008,,7*7B
$GBGSV,4,1,14,37,84,210,37,20,66,253,38,23,40,061,32,32,32,168,31,1*7A
$GBGSV,4,2,14,19,29,313,32,46,27,236,,38,18,331,24,08,13,341,23,1*7E
$GBGSV,4,3,14,43,07,074,17,11,07,054,23,34,06,031,23,13,04,346,18,1*7A
$GBGSV,4,4,14,12,02,006,13,04,01,262,,1*75
$GNRMC,195356.000,A,4910.426386,N,12304.401534,W,0.01,0.00,051224,,,D,V*13
$GNVTG,0.00,T,,M,0.01,N,0.02,K,D*25
$GNGGA,195357.000,4910.426482,N,12304.401606,W,2,29,0.55,9.694,M,-16.816,M,,*40
$GNGLL,4910.426482,N,12304.401606,W,195357.000,A,D*5F
$GNGSA,A,3,07,09,30,04,20,16,27,08,05,,,,0.93,0.55,0.75,1*0D
$GNGSA,A,3,69,79,68,80,,,,,,,,,0.93,0.55,0.75,2*0D
$GNGSA,A,3,09,31,05,06,24,04,15,,,,,,0.93,0.55,0.75,3*05
$GNGSA,A,3,37,20,23,32,19,38,08,11,34,,,,0.93,0.55,0.75,4*06
$GPGSV,3,1,11,07,75,285,33,09,66,144,32,30,38,265,30,04,36,130,27,1*69
$GPGSV,3,2,11,44,33,171,27,20,29,297,26,16,25,048,27,27,25,083,22,1*66
$GPGSV,3,3,11,08,22,119,25,05,13,326,26,14,04,210,18,1*5D
$GLGSV,2,1,07,69,83,251,29,79,78,241,29,78,44,042,16,68,37,154,27,1*79
$GLGSV,2,2,07,80,22,228,23,70,21,324,,87,11,029,21,1*48
$GAGSV,3,1,10,09,69,132,25,31,65,094,25,05,53,300,24,06,43,128,23,7*77
$GAGSV,3,2,10,24,42,189,24,04,18,126,19,15,08,321,17,03,04,304,12,7*7C
$GAGSV,3,3,10,34,03,274,06,13,01,008,,7*7A
$GBGSV,4,1,14,37,84,210,37,20,66,253,38,23,40,061,32,32,32,168,31,1*7A
$GBGSV,4,2,14,19,29,313,32,46,27,236,,38,18,331,23,08,13,341,23,1*79
$GBGSV,4,3,14,43,07,074,17,11,07,054,24,34,06,031,23,13,04,346,18,1*7D
$GBGSV,4,4,14,12,02,006,12,04,01,262,,1*74
$GNRMC,195357.000,A,4910.426482,N,12304.401606,W,0.02,0.00,051224,,,D,V*10
$GNVTG,0.00,T,,M,0.02,N,0.03,K,D*27
$GNGGA,195358.000,4910.426608,N,12304.401534,W,2,29,0.55,9.757,M,-16.816,M,,*43
$GNGLL,4910.426608,N,12304.401534,W,195358.000,A,D*52
$GNGSA,A,3,07,09,30,04,20,16,27,08,05,,,,0.93,0.55,0.75,1*0D
$GNGSA,A,3,69,79,68,80,,,,,,,,,0.93,0.55,0.75,2*0D
$GNGSA,A,3,09,31,05,06,24,04,15,,,,,,0.93,0.55,0.75,3*05
$GNGSA,A,3,37,20,23,32,19,38,08,11,34,,,,0.93,0.55,0.75,4*06
$GPGSV,3,1,11,07,75,285,33,09,66,144,32,30,38,265,30,04,36,130,27,1*69
$GPGSV,3,2,11,44,33,171,27,20,29,297,26,16,25,048,27,27,25,083,23,1*67
$GPGSV,3,3,11,08,22,119,24,05,13,326,26,14,04,210,17,1*53
$GLGSV,2,1,07,69,83,251,29,79,78,241,29,78,44,042,15,68,37,154,27,1*7A
$GLGSV,2,2,07,80,22,228,23,70,21,324,,87,11,029,21,1*48
$GAGSV,3,1,10,09,69,132,25,31,65,094,25,05,53,300,24,06,43,128,23,7*77
$GAGSV,3,2,10,24,42,189,24,04,18,126,19,15,08,321,17,03,04,304,12,7*7C
$GAGSV,3,3,10,34,03,274,06,13,01,008,,7*7A
$GBGSV,4,1,14,37,84,210,37,20,66,253,38,23,40,061,32,32,32,168,31,1*7A
$GBGSV,4,2,14,19,29,313,32,46,27,236,,38,18,331,23,08,13,341,23,1*79
$GBGSV,4,3,14,43,07,074,17,11,07,054,22,34,06,031,23,13,04,346,18,1*7B
$GBGSV,4,4,14,12,02,006,12,04,01,262,,1*74
$GNRMC,195358.000,A,4910.426608,N,12304.401534,W,0.03,0.00,051224,,,D,V*1C
$GNVTG,0.00,T,,M,0.03,N,0.05,K,D*20
$GNGGA,195359.000,4910.426746,N,12304.401498,W,2,29,0.55,9.837,M,-16.816,M,,*47
$GNGLL,4910.426746,N,12304.401498,W,195359.000,A,D*5F
$GNGSA,A,3,07,09,30,04,20,16,27,08,05,,,,0.93,0.55,0.75,1*0D
$GNGSA,A,3,69,79,68,80,,,,,,,,,0.93,0.55,0.75,2*0D
$GNGSA,A,3,09,31,05,06,24,04,15,,,,,,0.93,0.55,0.75,3*05
$GNGSA,A,3,37,20,23,32,19,38,08,11,34,,,,0.93,0.55,0.75,4*06
$GPGSV,3,1,11,07,75,285,33,09,66,144,32,30,38,265,30,04,36,130,27,1*69
$GPGSV,3,2,11,44,33,171,27,20,29,297,26,16,25,048,27,27,25,083,23,1*67
$GPGSV,3,3,11,08,22,119,24,05,13,326,25,14,04,210,18,1*5F
$GLGSV,2,1,07,69,83,251,29,79,78,241,29,78,44,042,16,68,37,154,27,1*79
$GLGSV,2,2,07,80,22,228,23,70,21,324,,87,11,029,21,1*48
$GAGSV,3,1,10,09,69,132,25,31,65,094,25,05,53,300,24,06,43,128,23,7*77
$GAGSV,3,2,10,24,42,189,24,04,18,126,19,15,08,321,17,03,04,304,11,7*7F
$GAGSV,3,3,10,34,03,274,06,13,01,008,,7*7A
$GBGSV,4,1,14,37,84,210,37,20,66,253,38,23,40,061,32,32,32,168,31,1*7A
$GBGSV,4,2,14,19,29,313,32,46,27,236,,38,18,331,23,08,13,341,22,1*78
$GBGSV,4,3,14,43,07,074,17,11,07,054,22,34,06,031,23,13,04,346,18,1*7B
$GBGSV,4,4,14,12,02,006,12,04,01,262,,1*74
$GNRMC,195359.000,A,4910.426746,N,12304.401498,W,0.04,0.00,051224,,,D,V*16
$GNVTG,0.00,T,,M,0.04,N,0.07,K,D*25
$GNGGA,195400.000,4910.426854,N,12304.401486,W,2,29,0.55,9.809,M,-16.816,M,,*42
$GNGLL,4910.426854,N,12304.401486,W,195400.000,A,D*57
$GNGSA,A,3,07,09,30,04,20,16,27,08,05,,,,0.93,0.55,0.75,1*0D
$GNGSA,A,3,69,79,68,80,,,,,,,,,0.93,0.55,0.75,2*0D
$GNGSA,A,3,09,31,05,06,24,04,15,,,,,,0.93,0.55,0.75,3*05
$GNGSA,A,3,37,20,23,32,19,38,08,11,34,,,,0.93,0.55,0.75,4*06
$GPGSV,3,1,11,07,75,285,33,09,66,144,32,30,38,265,30,04,36,130,27,1*69
$GPGSV,3,2,11,44,33,171,27,20,29,297,26,16,25,048,27,27,25,083,23,1*67
$GPGSV,3,3,11,08,22,119,24,05,13,326,26,14,04,210,19,1*5D
$GLGSV,2,1,07,69,83,251,29,79,78,241,29,78,44,042,15,68,37,154,27,1*7A
$GLGSV,2,2,07,80,22,228,23,70,21,324,,87,11,029,21,1*48
$GAGSV,3,1,10,09,69,132,26,31,65,094,25,05,53,300,24,06,43,128,23,7*74
$GAGSV,3,2,10,24,42,189,24,04,18,126,19,15,08,321,18,03,04,304,10,7*71
$GAGSV,3,3,10,34,03,274,06,13,01,008,,7*7A
$GBGSV,4,1,14,37,84,210,37,20,66,253,38,23,40,061,32,32,32,168,31,1*7A
$GBGSV,4,2,14,19,29,313,32,46,27,236,,38,18,331,23,08,13,341,23,1*79
$GBGSV,4,3,14,43,07,074,17,11,07,054,24,34,06,031,23,13,04,346,18,1*7D
$GBGSV,4,4,14,12,02,006,12,04,01,262,,1*74
$GNRMC,195400.000,A,4910.426854,N,12304.401486,W,0.04,0.00,051224,,,D,V*1E
$GNVTG,0.00,T,,M,0.04,N,0.08,K,D*2A
$GNGGA,195401.000,4910.426962,N,12304.401474,W,2,29,0.55,9.774,M,-16.816,M,,*4F
$GNGLL,4910.426962,N,12304.401474,W,195401.000,A,D*5F
$GNGSA,A,3,07,09,30,04,20,16,27,08,05,,,,0.93,0.55,0.75,1*0D
$GNGSA,A,3,69,79,68,80,,,,,,,,,0.93,0.55,0.75,2*0D
$GNGSA,A,3,09,31,05,06,24,04,15,,,,,,0.93,0.55,0.75,3*05
$GNGSA,A,3,37,20,23,32,19,38,08,11,34,,,,0.93,0.55,0.75,4*06
$GPGSV,3,1,11,07,75,285,33,09,66,144,32,30,38,265,30,04,36,130,27,1*69
$GPGSV,3,2,11,44,33,171,27,20,29,297,26,16,25,048,27,27,25,083,24,1*60
$GPGSV,3,3,11,08,22,119,24,05,13,326,25,14,04,210,18,1*5F
$GLGSV,2,1,07,69,83,251,29,79,78,241,30,78,44,042,15,68,37,154,26,1*73
$GLGSV,2,2,07,80,22,228,23,70,21,324,,87,11,029,21,1*48
$GAGSV,3,1,10,09,69,132,26,31,65,094,25,05,53,300,25,06,43,128,23,7*75
$GAGSV,3,2,10,24,42,189,24,04,18,126,19,15,08,321,18,03,04,304,10,7*71
$GAGSV,3,3,10,34,03,274,06,13,01,008,,7*7A
$GBGSV,4,1,14,37,84,210,37,20,66,253,38,23,40,061,32,32,32,168,31,1*7A
$GBGSV,4,2,14,19,29,313,32,46,27,236,,38,18,331,23,08,13,341,23,1*79
$GBGSV,4,3,14,43,07,074,17,11,07,054,24,34,06,031,23,13,04,346,18,1*7D
$GBGSV,4,4,14,12,02,006,12,04,01,262,,1*74
$GNRMC,195401.000,A,4910.426962,N,12304.401474,W,0.04,0.00,051224,,,D,V*16
$GNVTG,0.00,T,,M,0.04,N,0.07,K,D*25
$GNGGA,195402.000,4910.427058,N,12304.401408,W,2,29,0.55,9.742,M,-16.817,M,,*42
$GNGLL,4910.427058,N,12304.401408,W,195402.000,A,D*56
$GNGSA,A,3,07,09,30,04,20,16,27,08,05,,,,0.93,0.55,0.75,1*0D
$GNGSA,A,3,69,79,68,80,,,,,,,,,0.93,0.55,0.75,2*0D
$GNGSA,A,3,09,31,05,06,24,04,15,,,,,,0.93,0.55,0.75,3*05
$GNGSA,A,3,37,20,23,32,19,38,08,11,34,,,,0.93,0.55,0.75,4*06
$GPGSV,3,1,11,07,75,285,33,09,66,144,33,30,38,265,30,04,36,130,28,1*67
$GPGSV,3,2,11,44,33,171,28,20,29,297,27,16,25,048,27,27,25,083,25,1*6F
$GPGSV,3,3,11,08,22,119,26,05,13,326,26,14,04,210,19,1*5F
$GLGSV,2,1,06,69,83,251,29,79,78,241,30,78,44,042,15,68,37,154,27,1*73
$GLGSV,2,2,06,80,22,228,23,87,11,029,21,1*78
$GAGSV,3,1,10,09,69,132,27,31,65,094,26,05,53,300,25,06,43,128,23,7*77
$GAGSV,3,2,10,24,42,189,25,04,18,126,20,15,08,321,18,03,04,304,10,7*7A
$GAGSV,3,3,10,34,03,274,06,13,01,008,,7*7A
$GBGSV,4,1,14,37,84,210,37,20,66,253,38,23,40,061,32,32,32,168,31,1*7A
$GBGSV,4,2,14,19,29,313,32,46,27,236,,38,18,331,23,08,13,341,23,1*79
$GBGSV,4,3,14,43,07,074,17,11,07,054,23,34,06,031,23,13,04,346,18,1*7A
$GBGSV,4,4,14,12,02,006,12,04,01,262,,1*74
$GNRMC,195402.000,A,4910.427058,N,12304.401408,W,0.03,0.00,051224,,,D,V*18
$GNVTG,0.00,T,,M,0.03,N,0.06,K,D*23
$GNGGA,195403.000,4910.427154,N,12304.401408,W,2,29,0.55,9.766,M,-16.816,M,,*49
$GNGLL,4910.427154,N,12304.401408,W,195403.000,A,D*5A
$GNGSA,A,3,07,09,30,04,20,16,27,08,05,,,,0.93,0.55,0.75,1*0D
$GNGSA,A,3,69,79,68,80,,,,,,,,,0.93,0.55,0.75,2*0D
$GNGSA,A,3,09,31,05,06,24,04,15,,,,,,0.93,0.55,0.75,3*05
$GNGSA,A,3,37,20,23,32,19,38,08,11,34,,,,0.93,0.55,0.75,4*06
$GPGSV,3,1,11,07,75,285,33,09,66,144,32,30,38,265,30,04,36,130,27,1*69
$GPGSV,3,2,11,44,33,171,28,20,29,297,26,16,25,048,27,27,25,083,24,1*6F
$GPGSV,3,3,11,08,22,119,24,05,13,326,25,14,04,210,19,1*5E
$GLGSV,2,1,07,69,83,251,29,79,78,241,30,78,44,042,15,68,37,154,27,1*72
$GLGSV,2,2,07,80,22,228,23,70,21,324,,87,11,029,21,1*48
$GAGSV,3,1,10,09,69,132,26,31,65,094,26,05,53,300,25,06,43,128,23,7*76
$GAGSV,3,2,10,24,42,189,25,04,18,126,20,15,08,321,18,03,04,304,11,7*7B
$GAGSV,3,3,10,34,03,274,06,13,01,008,,7*7A
$GBGSV,4,1,14,37,84,210,37,20,66,253,38,23,40,061,32,32,32,168,31,1*7A
$GBGSV,4,2,14,19,29,313,32,46,27,236,,38,18,331,24,08,13,341,23,1*7E
$GBGSV,4,3,14,43,07,074,17,11,07,054,23,34,06,031,23,13,04,346,18,1*7A
$GBGSV,4,4,14,12,02,006,13,04,01,262,,1*75
$GNRMC,195403.000,A,4910.427154,N,12304.401408,W,0.03,0.00,051224,,,D,V*14
$GNVTG,0.00,T,,M,0.03,N,0.05,K,D*20
$GNGGA,195404.000,4910.427262,N,12304.401552,W,2,29,0.55,9.866,M,-16.817,M,,*48
$GNGLL,4910.427262,N,12304.401552,W,195404.000,A,D*55
$GNGSA,A,3,07,09,30,04,20,16,27,08,05,,,,0.93,0.55,0.75,1*0D
$GNGSA,A,3,69,79,68,80,,,,,,,,,0.93,0.55,0.75,2*0D
$GNGSA,A,3,09,31,05,06,24,04,15,,,,,,0.93,0.55,0.75,3*05
$GNGSA,A,3,37,20,23,32,19,38,08,11,34,,,,0.93,0.55,0.75,4*06
$GPGSV,3,1,11,07,75,285,33,09,66,144,32,30,38,265,30,04,36,130,26,1*68
$GPGSV,3,2,11,44,33,171,28,20,29,297,26,16,25,048,27,27,25,083,23,1*68
$GPGSV,3,3,11,08,22,119,25,05,13,326,25,14,04,210,19,1*5F
$GLGSV,2,1,07,69,83,251,29,79,78,241,30,78,44,042,15,68,37,154,27,1*72
$GLGSV,2,2,07,80,22,228,23,70,21,324,,87,11,029,21,1*48
$GAGSV,3,1,10,09,69,132,26,31,65,094,26,05,53,300,25,06,43,128,23,7*76
$GAGSV,3,2,10,24,42,189,25,04,18,126,20,15,08,321,18,03,04,304,11,7*7B
$GAGSV,3,3,10,34,03,274,05,13,01,008,,7*79
$GBGSV,4,1,14,37,84,210,37,20,66,253,38,23,40,061,32,32,32,168,31,1*7A
$GBGSV,4,2,14,19,29,313,32,46,27,236,,38,18,331,24,08,13,341,23,1*7E
$GBGSV,4,3,14,43,07,074,17,11,07,054,23,34,06,031,23,13,04,346,18,1*7A
$GBGSV,4,4,14,12,02,006,13,04,01,262,,1*75
$GNRMC,195404.000,A,4910.427262,N,12304.401552,W,0.03,0.00,051224,,,D,V*1B
$GNVTG,0.00,T,,M,0.03,N,0.05,K,D*20
$GNGGA,195405.000,4910.427268,N,12304.401576,W,2,29,0.55,9.872,M,-16.817,M,,*40
$GNGLL,4910.427268,N,12304.401576,W,195405.000,A,D*58
$GNGSA,A,3,07,09,30,04,20,16,27,08,05,,,,0.93,0.55,0.75,1*0D
$GNGSA,A,3,69,79,68,80,,,,,,,,,0.93,0.55,0.75,2*0D
$GNGSA,A,3,09,31,05,06,24,04,15,,,,,,0.93,0.55,0.75,3*05
$GNGSA,A,3,37,20,23,32,19,38,08,11,34,,,,0.93,0.55,0.75,4*06
$GPGSV,3,1,11,07,75,285,33,09,66,144,32,30,38,265,30,04,36,130,26,1*68
$GPGSV,3,2,11,44,33,171,28,20,29,297,26,16,25,048,27,27,25,083,25,1*6E
$GPGSV,3,3,11,08,22,119,25,05,13,326,25,14,04,210,19,1*5F
$GLGSV,2,1,07,69,83,251,29,79,78,241,30,78,44,042,15,68,37,154,27,1*72
$GLGSV,2,2,07,80,22,228,23,70,21,324,,87,11,029,21,1*48
$GAGSV,3,1,10,09,69,132,26,31,65,094,26,05,53,300,26,06,43,128,23,7*75
$GAGSV,3,2,10,24,42,189,25,04,18,126,20,15,08,321,18,03,04,304,11,7*7B
$GAGSV,3,3,10,34,03,274,05,13,01,008,,7*79
$GBGSV,4,1,14,37,84,210,37,20,66,253,38,23,40,061,32,32,32,168,31,1*7A
$GBGSV,4,2,14,19,29,313,32,46,27,236,,38,18,331,24,08,13,341,23,1*7E
$GBGSV,4,3,14,43,07,074,17,11,07,054,23,34,06,031,23,13,04,346,18,1*7A
$GBGSV,4,4,14,12,02,006,13,04,01,262,,1*75
$GNRMC,195405.000,A,4910.427268,N,12304.401576,W,0.02,0.00,051224,,,D,V*17
$GNVTG,0.00,T,,M,0.02,N,0.04,K,D*20
$GNGGA,195406.000,4910.427292,N,12304.401594,W,2,29,0.55,9.870,M,-16.816,M,,*49
$GNGLL,4910.427292,N,12304.401594,W,195406.000,A,D*52
$GNGSA,A,3,07,09,30,04,20,16,27,08,05,,,,0.93,0.55,0.75,1*0D
$GNGSA,A,3,69,79,68,80,,,,,,,,,0.93,0.55,0.75,2*0D
$GNGSA,A,3,09,31,05,06,24,04,15,,,,,,0.93,0.55,0.75,3*05
$GNGSA,A,3,37,20,23,32,19,38,08,11,34,,,,0.93,0.55,0.75,4*06
$GPGSV,3,1,11,07,75,285,33,09,66,144,32,30,38,265,30,04,36,130,26,1*68
$GPGSV,3,2,11,44,33,171,28,20,29,297,26,16,25,048,26,27,25,083,25,1*6F
$GPGSV,3,3,11,08,22,119,25,05,13,326,25,14,04,210,19,1*5F
$GLGSV,2,1,07,69,83,251,29,79,78,241,30,78,44,042,15,68,37,154,27,1*72
$GLGSV,2,2,07,80,22,228,23,70,21,324,,87,11,029,20,1*49
$GAGSV,3,1,10,09,69,132,26,31,65,094,26,05,53,300,26,06,43,128,23,7*75
$GAGSV,3,2,10,24,42,189,25,04,18,126,20,15,08,321,18,03,04,304,11,7*7B
$GAGSV,3,3,10,34,03,274,05,13,01,008,,7*79
$GBGSV,4,1,14,37,84,210,37,20,66,253,38,23,40,061,32,32,32,168,31,1*7A
$GBGSV,4,2,14,19,29,313,32,46,27,236,,38,18,331,24,08,13,341,23,1*7E
$GBGSV,4,3,14,43,07,074,17,11,07,054,23,34,06,031,23,13,04,346,18,1*7A
$GBGSV,4,4,14,12,02,006,13,04,01,262,,1*75
$GNRMC,195406.000,A,4910.427292,N,12304.401594,W,0.02,0.00,051224,,,D,V*1D
$GNVTG,0.00,T,,M,0.02,N,0.03,K,D*27
$GNGGA,195407.000,4910.427304,N,12304.401618,W,2,29,0.55,9.851,M,-16.816,M,,*42
$GNGLL,4910.427304,N,12304.401618,W,195407.000,A,D*5A
$GNGSA,A,3,07,09,30,04,20,16,27,08,05,,,,0.93,0.55,0.75,1*0D
$GNGSA,A,3,69,79,68,80,,,,,,,,,0.93,0.55,0.75,2*0D
$GNGSA,A,3,09,31,05,06,24,04,15,,,,,,0.93,0.55,0.75,3*05
$GNGSA,A,3,37,20,23,32,19,38,08,11,34,,,,0.93,0.55,0.75,4*06
$GPGSV,3,1,11,07,75,285,33,09,66,144,32,30,38,265,30,04,36,130,25,1*6B
$GPGSV,3,2,11,44,33,171,27,20,29,297,25,16,25,047,26,27,25,083,24,1*6D
$GPGSV,3,3,11,08,22,119,25,05,13,326,24,14,04,210,19,1*5E
$GLGSV,2,1,07,69,83,251,29,79,78,241,30,78,44,042,16,68,37,154,27,1*71
$GLGSV,2,2,07,80,22,228,23,70,21,324,,87,11,029,20,1*49
$GAGSV,3,1,10,09,69,132,26,31,65,094,26,05,53,300,26,06,43,128,23,7*75
$GAGSV,3,2,10,24,42,189,24,04,18,126,20,15,08,321,18,03,04,304,11,7*7A
$GAGSV,3,3,10,34,03,274,05,13,01,008,,7*79
$GBGSV,4,1,14,37,84,210,37,20,66,253,38,23,40,061,32,32,32,168,31,1*7A
$GBGSV,4,2,14,19,29,313,32,46,27,236,,38,18,331,24,08,13,341,23,1*7E
$GBGSV,4,3,14,43,07,074,17,11,07,054,23,34,06,031,23,13,04,346,18,1*7A
$GBGSV,4,4,14,12,02,006,13,04,01,262,,1*75
$GNRMC,195407.000,A,4910.427304,N,12304.401618,W,0.01,0.00,051224,,,D,V*16
$GNVTG,0.00,T,,M,0.01,N,0.02,K,D*25
$GNGGA,195408.000,4910.427316,N,12304.401660,W,2,29,0.55,9.838,M,-16.816,M,,*4E
$GNGLL,4910.427316,N,12304.401660,W,195408.000,A,D*59
$GNGSA,A,3,07,09,30,04,20,16,27,08,05,,,,0.93,0.55,0.75,1*0D
$GNGSA,A,3,69,79,68,80,,,,,,,,,0.93,0.55,0.75,2*0D
$GNGSA,A,3,09,31,05,06,24,04,15,,,,,,0.93,0.55,0.75,3*05
$GNGSA,A,3,37,20,23,32,19,38,08,11,34,,,,0.93,0.55,0.75,4*06
$GPGSV,3,1,11,07,75,285,33,09,66,144,32,30,38,265,30,04,36,130,26,1*68
$GPGSV,3,2,11,44,33,171,27,20,29,297,25,16,25,047,26,27,25,083,25,1*6C
$GPGSV,3,3,11,08,22,119,25,05,13,326,25,14,04,210,19,1*5F
$GLGSV,2,1,07,69,83,251,29,79,78,241,29,78,44,042,16,68,37,154,27,1*79
$GLGSV,2,2,07,80,22,228,23,70,21,324,,87,11,029,20,1*49
$GAGSV,3,1,10,09,69,132,26,31,65,094,26,05,53,300,26,06,43,128,23,7*75
$GAGSV,3,2,10,24,42,189,24,04,18,126,20,15,08,321,18,03,04,304,12,7*79
$GAGSV,3,3,10,34,03,274,05,13,01,008,,7*79
$GBGSV,4,1,14,37,84,210,37,20,66,253,38,23,40,061,32,32,32,168,31,1*7A
$GBGSV,4,2,14,19,29,313,32,46,27,236,,38,18,331,24,08,13,341,23,1*7E
$GBGSV,4,3,14,43,07,074,17,11,07,054,23,34,06,031,23,13,04,346,19,1*7B
$GBGSV,4,4,14,12,02,006,13,04,01,262,,1*75
$GNRMC,195408.000,A,4910.427316,N,12304.401660,W,0.01,0.00,051224,,,D,V*15
$GNVTG,0.00,T,,M,0.01,N,0.01,K,D*26
$GNGGA,195409.000,4910.427322,N,12304.401642,W,2,29,0.55,9.831,M,-16.816,M,,*41
$GNGLL,4910.427322,N,12304.401642,W,195409.000,A,D*5F
$GNGSA,A,3,07,09,30,04,20,16,27,08,05,,,,0.93,0.55,0.75,1*0D
$GNGSA,A,3,69,79,68,80,,,,,,,,,0.93,0.55,0.75,2*0D
$GNGSA,A,3,09,31,05,06,24,04,15,,,,,,0.93,0.55,0.75,3*05
$GNGSA,A,3,37,20,23,32,19,38,08,11,34,,,,0.93,0.55,0.75,4*06
$GPGSV,3,1,11,07,75,285,33,09,66,144,32,30,38,265,30,04,36,130,26,1*68
$GPGSV,3,2,11,44,33,171,27,20,29,297,25,16,25,047,27,27,25,083,25,1*6D
$GPGSV,3,3,11,08,22,119,24,05,13,326,25,14,04,210,19,1*5E
$GLGSV,2,1,07,69,83,251,29,79,78,241,29,78,44,042,16,68,37,154,27,1*79
$GLGSV,2,2,07,80,22,228,23,70,21,324,,87,11,029,20,1*49
$GAGSV,3,1,10,09,69,132,26,31,65,094,26,05,53,300,26,06,43,128,23,7*75
$GAGSV,3,2,10,24,42,189,24,04,18,126,20,15,08,321,18,03,04,304,12,7*79
$GAGSV,3,3,10,34,03,274,06,13,01,008,,7*7A
$GBGSV,4,1,14,37,84,210,37,20,66,253,38,23,40,061,32,32,32,168,31,1*7A
$GBGSV,4,2,14,19,29,313,32,46,27,236,,38,18,331,23,08,13,341,22,1*78
$GBGSV,4,3,14,43,07,074,17,11,07,054,23,34,06,031,23,13,04,346,19,1*7B
$GBGSV,4,4,14,12,02,006,13,04,01,262,,1*75
$GNRMC,195409.000,A,4910.427322,N,12304.401642,W,0.01,0.00,051224,,,D,V*13
$GNVTG,0.00,T,,M,0.01,N,0.01,K,D*26
$GNGGA,195410.000,4910.427334,N,12304.401654,W,2,29,0.55,9.786,M,-16.816,M,,*4A
$GNGLL,4910.427334,N,12304.401654,W,195410.000,A,D*57
$GNGSA,A,3,07,09,30,04,20,16,27,08,05,,,,0.93,0.55,0.75,1*0D
$GNGSA,A,3,69,79,68,80,,,,,,,,,0.93,0.55,0.75,2*0D
$GNGSA,A,3,09,31,05,06,24,04,15,,,,,,0.93,0.55,0.75,3*05
$GNGSA,A,3,37,20,23,32,19,38,08,11,34,,,,0.93,0.55,0.75,4*06
$GPGSV,3,1,11,07,75,285,33,09,66,144,32,30,38,265,30,04,36,130,28,1*66
$GPGSV,3,2,11,44,33,171,27,20,29,297,26,16,25,047,27,27,25,083,26,1*6D
$GPGSV,3,3,11,08,22,119,25,05,13,326,25,14,04,210,19,1*5F
$GLGSV,2,1,07,69,83,251,29,79,78,241,29,78,44,042,16,68,37,154,27,1*79
$GLGSV,2,2,07,80,22,228,23,70,21,324,,87,11,029,20,1*49
$GAGSV,3,1,10,09,69,132,26,31,65,094,27,05,53,300,26,06,43,128,23,7*74
$GAGSV,3,2,10,24,42,189,24,04,18,126,20,15,08,321,18,03,04,304,12,7*79
$GAGSV,3,3,10,34,03,274,07,13,01,008,,7*7B
$GBGSV,4,1,14,37,84,210,37,20,66,253,38,23,40,061,32,32,32,168,31,1*7A
$GBGSV,4,2,14,19,29,313,32,46,27,236,,38,18,331,23,08,13,341,22,1*78
$GBGSV,4,3,14,43,07,074,16,11,07,054,23,34,06,031,23,13,04,346,19,1*7A
$GBGSV,4,4,14,12,02,006,12,04,01,262,,1*74
$GNRMC,195410.000,A,4910.427334,N,12304.401654,W,0.01,0.00,051224,,,D,V*1B
$GNVTG,0.00,T,,M,0.01,N,0.01,K,D*26
$GNGGA,195411.000,4910.427358,N,12304.401642,W,2,29,0.55,9.776,M,-16.816,M,,*49
