,20,27,16,08,05,,,,0.95,0.54,0.78,1*07
$GNGSA,A,3,69,79,78,68,80,87,,,,,,,0.95,0.54,0.78,2*07
$GNGSA,A,3,09,31,05,06,24,04,,,,,,,0.95,0.54,0.78,3*0B
$GNGSA,A,3,37,20,23,32,19,38,34,,,,,,0.95,0.54,0.78,4*04
$GPGSV,3,1,11,07,75,284,30,09,66,144,29,30,38,265,30,04,36,130,28,1*6E
$GPGSV,3,2,11,44,33,171,27,20,29,297,23,27,25,083,20,16,25,048,24,1*62
$GPGSV,3,3,11,08,22,119,23,05,13,327,23,14,04,210,17,1*50
$GLGSV,2,1,07,69,83,254,39,79,78,240,38,78,44,042,26,68,37,154,32,1*7B
$GLGSV,2,2,07,80,22,227,30,70,20,324,,87,11,029,26,1*43
$GAGSV,3,1,09,09,69,132,24,31,65,094,24,05,53,300,24,06,44,128,21,7*7A
$GAGSV,3,2,09,24,42,189,24,04,18,126,19,15,08,321,14,03,04,304,13,7*76
$GAGSV,3,3,09,13,01,008,,7*41
$GBGSV,4,1,15,37,83,211,34,20,66,254,36,58,66,253,,23,40,061,29,1*79
$GBGSV,4,2,15,32,33,168,29,19,29,313,30,46,27,236,,38,17,331,22,1*7C
$GBGSV,4,3,15,08,13,341,21,31,09,335,,43,06,075,16,34,06,032,20,1*72
$GBGSV,4,4,15,11,06,054,19,13,04,346,17,12,02,006,,1*4B
$GNRMC,195341.000,A,4910.424790,N,12304.401150,W,0.07,51.88,051224,,,D,V*20
$GNVTG,51.88,T,,M,0.07,N,0.14,K,D*10
$PAIRLOG,Full*51
$GNGGA,195342.000,4910.424712,N,12304.401156,W,2,28,0.54,-3.724,M,-16.816,M,,*63
$GNGLL,4910.424712,N,12304.401156,W,195342.000,A,D*51
$GNGSA,A,3,07,09,30,04,20,27,16,08,05,,,,0.95,0.54,0.78,1*07
$GNGSA,A,3,69,79,78,68,80,87,,,,,,,0.95,0.54,0.78,2*07
$GNGSA,A,3,09,31,05,06,24,04,,,,,,,0.95,0.54,0.78,3*0B
$GNGSA,A,3,37,20,23,32,19,38,34,,,,,,0.95,0.54,0.78,4*04
$GPGSV,3,1,11,07,75,284,30,09,66,144,29,30,38,265,30,04,36,130,28,1*6E
$GPGSV,3,2,11,44,33,171,27,20,29,297,23,27,25,083,20,16,25,048,24,1*62
$GPGSV,3,3,11,08,22,119,23,05,13,327,23,14,04,210,17,1*50
$GLGSV,2,1,07,69,83,254,39,79,78,240,38,78,44,042,26,68,37,154,32,1*7B
$GLGSV,2,2,07,80,22,227,30,70,20,324,,87,11,029,26,1*43
$GAGSV,3,1,09,09,69,132,24,31,65,094,24,05,53,300,24,06,44,128,22,7*79
$GAGSV,3,2,09,24,42,189,24,04,18,126,19,15,08,321,15,03,04,304,13,7*77
$GAGSV,3,3,09,13,01,008,,7*41
$GBGSV,4,1,15,37,83,211,34,20,66,254,36,58,66,253,,23,40,061,30,1*71
$GBGSV,4,2,15,32,33,168,29,19,29,313,30,46,27,236,,38,17,331,23,1*7D
$GBGSV,4,3,15,08,13,341,22,31,09,335,,43,06,075,16,34,06,032,20,1*71
$GBGSV,4,4,15,11,06,054,19,13,04,346,17,12,02,006,,1*4B
$GNRMC,195342.000,A,4910.424712,N,12304.401156,W,0.07,51.88,051224,,,D,V*2F
$GNVTG,51.88,T,,M,0.07,N,0.13,K,D*17
$PAIRLOG,Full*51
$GNGGA,195343.000,4910.424598,N,12304.401222,W,2,28,0.54,-4.112,M,-16.817,M,,*67
$GNGLL,4910.424598,N,12304.401222,W,195343.000,A,D*50
$GNGSA,A,3,07,09,30,04,20,27,16,08,05,,,,0.95,0.54,0.78,1*07
$GNGSA,A,3,69,79,78,68,80,87,,,,,,,0.95,0.54,0.78,2*07
$GNGSA,A,3,09,31,05,06,24,04,,,,,,,0.95,0.54,0.78,3*0B
$GNGSA,A,3,37,20,23,32,19,38,34,,,,,,0.95,0.54,0.78,4*04
$GPGSV,3,1,11,07,75,284,30,09,66,144,29,30,38,265,30,04,36,130,28,1*6E
$GPGSV,3,2,11,44,33,171,27,20,29,297,23,27,25,083,20,16,25,048,24,1*62
$GPGSV,3,3,11,08,22,119,22,05,13,327,23,14,04,210,17,1*51
$GLGSV,2,1,07,69,83,254,39,79,78,240,38,78,44,042,26,68,37,154,31,1*78
$GLGSV,2,2,07,80,22,227,30,70,20,324,,87,11,029,26,1*43
$GAGSV,3,1,09,09,69,132,24,31,65,094,24,05,53,300,24,06,44,128,22,7*79
$GAGSV,3,2,09,24,42,189,24,04,18,126,19,15,08,321,15,03,04,304,13,7*77
$GAGSV,3,3,09,13,01,008,,7*41
$GBGSV,4,1,15,37,83,211,35,20,66,254,36,58,66,253,,23,40,061,30,1*70
$GBGSV,4,2,15,32,33,168,29,19,29,313,30,46,27,236,,38,17,331,23,1*7D
$GBGSV,4,3,15,08,13,341,22,31,09,335,,43,06,075,16,34,06,032,20,1*71
$GBGSV,4,4,15,11,06,054,19,13,04,346,17,12,02,006,,1*4B
$GNRMC,195343.000,A,4910.424598,N,12304.401222,W,0.07,51.88,051224,,,D,V*2E
$GNVTG,51.88,T,,M,0.07,N,0.12,K,D*16
$PAIRLOG,Full*51
$GNGGA,195344.000,4910.424484,N,12304.401270,W,2,28,0.54,-4.450,M,-16.816,M,,*69
$GNGLL,4910.424484,N,12304.401270,W,195344.000,A,D*5C
$GNGSA,A,3,07,09,30,04,20,27,16,08,05,,,,0.95,0.54,0.78,1*07
$GNGSA,A,3,69,79,78,68,80,87,,,,,,,0.95,0.54,0.78,2*07
$GNGSA,A,3,09,31,05,06,24,04,,,,,,,0.95,0.54,0.78,3*0B
$GNGSA,A,3,37,20,23,32,19,38,34,,,,,,0.95,0.54,0.78,4*04
$GPGSV,3,1,11,07,75,284,30,09,66,144,29,30,38,265,30,04,36,130,28,1*6E
$GPGSV,3,2,11,44,33,171,27,20,29,297,25,27,25,083,19,16,25,048,24,1*6E
$GPGSV,3,3,11,08,22,119,21,05,13,327,23,14,04,210,17,1*52
$GLGSV,2,1,07,69,83,254,39,79,78,240,38,78,44,042,26,68,37,154,31,1*78
$GLGSV,2,2,07,80,22,227,30,70,20,324,,87,11,029,26,1*43
$GAGSV,3,1,10,09,69,132,24,31,65,094,25,05,53,300,24,06,44,128,22,7*70
$GAGSV,3,2,10,24,42,189,24,04,18,126,20,15,08,321,15,03,04,304,13,7*75
$GAGSV,3,3,10,34,03,274,,13,01,008,,7*7C
$GBGSV,4,1,14,37,83,211,35,20,66,254,36,58,66,253,,23,40,061,30,1*71
$GBGSV,4,2,14,32,33,168,29,19,29,313,30,46,27,236,,38,17,331,23,1*7C
$GBGSV,4,3,14,08,13,341,22,31,09,335,,43,06,075,16,11,06,054,19,1*7D
$GBGSV,4,4,14,34,06,032,21,13,04,346,17,1*71
$GNRMC,195344.000,A,4910.424484,N,12304.401270,W,0.06,51.88,051224,,,D,V*23
$GNVTG,51.88,T,,M,0.06,N,0.11,K,D*14
$PAIRLOG,Full*51
$GNGGA,195345.000,4910.424466,N,12304.401348,W,2,28,0.54,-4.566,M,-16.816,M,,*6A
$GNGLL,4910.424466,N,12304.401348,W,195345.000,A,D*5B
$GNGSA,A,3,07,09,30,04,20,16,27,08,05,,,,0.95,0.54,0.78,1*07
$GNGSA,A,3,69,79,78,68,80,87,,,,,,,0.95,0.54,0.78,2*07
$GNGSA,A,3,09,31,05,06,24,04,,,,,,,0.95,0.54,0.78,3*0B
$GNGSA,A,3,37,20,23,32,19,38,34,,,,,,0.95,0.54,0.78,4*04
$GPGSV,3,1,11,07,75,284,30,09,66,144,30,30,38,265,30,04,36,130,28,1*66
$GPGSV,3,2,11,44,33,171,27,20,29,297,24,16,25,048,24,27,25,083,20,1*65
$GPGSV,3,3,11,08,22,119,21,05,13,327,23,14,04,210,17,1*52
$GLGSV,2,1,06,69,83,254,39,79,78,240,38,78,44,042,26,68,37,154,31,1*79
$GLGSV,2,2,06,80,22,227,30,87,11,029,26,1*72
$GAGSV,3,1,10,09,69,132,24,31,65,094,25,05,53,300,24,06,44,128,23,7*71
$GAGSV,3,2,10,24,42,189,24,04,18,126,20,15,08,321,15,03,04,304,13,7*75
$GAGSV,3,3,10,34,03,274,,13,01,008,,7*7C
$GBGSV,4,1,14,37,83,211,35,20,66,254,36,58,66,253,,23,40,061,30,1*71
$GBGSV,4,2,14,32,33,168,29,19,29,313,30,46,27,236,,38,17,331,23,1*7C
$GBGSV,4,3,14,08,13,341,21,31,09,335,,43,06,075,16,34,06,032,21,1*72
$GBGSV,4,4,14,11,06,054,19,13,04,346,17,1*7D
$GNRMC,195345.000,A,4910.424466,N,12304.401348,W,0.05,51.88,051224,,,D,V*27
$GNVTG,51.88,T,,M,0.05,N,0.10,K,D*16
$PAIRLOG,Full*51
$GNGGA,195346.000,4910.424412,N,12304.401330,W,2,28,0.54,-4.655,M,-16.816,M,,*66
$GNGLL,4910.424412,N,12304.401330,W,195346.000,A,D*54
$GNGSA,A,3,07,09,30,04,20,27,16,08,05,,,,0.95,0.54,0.78,1*07
$GNGSA,A,3,69,79,78,68,80,87,,,,,,,0.95,0.54,0.78,2*07
$GNGSA,A,3,09,31,05,06,24,04,,,,,,,0.95,0.54,0.78,3*0B
$GNGSA,A,3,37,20,23,32,19,38,34,,,,,,0.95,0.54,0.78,4*04
$GPGSV,3,1,11,07,75,285,29,09,66,144,29,30,38,265,30,04,36,130,28,1*67
$GPGSV,3,2,11,44,33,171,26,20,29,297,24,27,25,083,18,16,25,048,24,1*6F
$GPGSV,3,3,11,08,22,119,21,05,13,327,22,14,04,210,17,1*53
$GLGSV,2,1,07,69,83,251,39,79,78,241,38,78,44,042,26,68,37,154,31,1*7C
$GLGSV,2,2,07,80,22,228,30,70,21,324,,87,11,029,26,1*4D
$GAGSV,3,1,09,09,69,132,24,31,65,094,25,05,53,300,24,06,43,128,23,7*7E
$GAGSV,3,2,09,24,42,189,23,04,18,126,20,15,08,321,15,03,04,304,13,7*7A
$GAGSV,3,3,09,34,03,274,,7*4F
$GBGSV,4,1,15,37,84,210,35,58,67,253,,20,66,253,36,23,40,061,30,1*70
$GBGSV,4,2,15,32,32,168,29,19,29,313,30,46,27,236,,38,18,331,23,1*73
$GBGSV,4,3,15,08,13,341,21,31,09,335,,43,07,074,16,11,07,054,19,1*7E
$GBGSV,4,4,15,34,06,031,21,13,04,346,17,12,02,006,,1*44
$GNRMC,195346.000,A,4910.424412,N,12304.401330,W,0.06,51.88,051224,,,D,V*2B
$GNVTG,51.88,T,,M,0.06,N,0.11,K,D*14
$PAIRLOG,Full*51
$GNGGA,195347.000,4910.424454,N,12304.401456,W,2,28,0.54,-4.583,M,-16.816,M,,*6A
$GNGLL,4910.424454,N,12304.401456,W,195347.000,A,D*50
$GNGSA,A,3,07,09,30,04,20,27,16,08,05,,,,0.95,0.54,0.78,1*07
$GNGSA,A,3,69,79,78,68,80,87,,,,,,,0.95,0.54,0.78,2*07
$GNGSA,A,3,09,31,05,06,24,04,,,,,,,0.95,0.54,0.78,3*0B
$GNGSA,A,3,37,20,23,32,19,38,34,,,,,,0.95,0.54,0.78,4*04
$GPGSV,3,1,11,07,75,285,29,09,66,144,29,30,38,265,30,04,36,130,28,1*67
$GPGSV,3,2,11,44,33,171,26,20,29,297,24,27,25,083,18,16,25,048,24,1*6F
$GPGSV,3,3,11,08,22,119,21,05,13,327,22,14,04,210,17,1*53
$GLGSV,2,1,07,69,83,251,39,79,78,241,38,78,44,042,25,68,37,154,31,1*7F
$GLGSV,2,2,07,80,22,228,30,70,21,324,,87,11,029,26,1*4D
$GAGSV,3,1,09,09,69,132,24,31,65,094,25,05,53,300,24,06,43,128,23,7*7E
$GAGSV,3,2,09,24,42,189,23,04,18,126,20,15,08,321,14,03,04,304,13,7*7B
$GAGSV,3,3,09,34,03,274,,7*4F
$GBGSV,4,1,15,37,84,210,35,58,67,253,,20,66,253,36,23,40,061,30,1*70
$GBGSV,4,2,15,32,32,168,29,19,29,313,30,46,27,236,,38,18,331,23,1*73
$GBGSV,4,3,15,08,13,341,21,31,09,335,,43,07,074,16,11,07,054,19,1*7E
$GBGSV,4,4,15,34,06,031,22,13,04,346,17,12,02,006,,1*47
$GNRMC,195347.000,A,4910.424454,N,12304.401456,W,0.06,51.88,051224,,,D,V*2F
$GNVTG,51.88,T,,M,0.06,N,0.11,K,D*14
$PAIRLOG,Full*51
$GNGGA,195348.000,4910.424400,N,12304.401486,W,2,28,0.54,-4.695,M,-16.816,M,,*6D
$GNGLL,4910.424400,N,12304.401486,W,195348.000,A,D*53
$GNGSA,A,3,07,09,30,04,20,27,16,08,05,,,,0.95,0.54,0.78,1*07
$GNGSA,A,3,69,79,78,68,80,87,,,,,,,0.95,0.54,0.78,2*07
$GNGSA,A,3,09,31,05,06,24,04,,,,,,,0.95,0.54,0.78,3*0B
$GNGSA,A,3,37,20,23,32,19,38,34,,,,,,0.95,0.54,0.78,4*04
$GPGSV,3,1,11,07,75,285,28,09,66,144,28,30,38,265,30,04,36,130,28,1*67
$GPGSV,3,2,11,44,33,171,26,20,29,297,23,27,25,083,17,16,25,048,24,1*67
$GPGSV,3,3,11,08,22,119,20,05,13,327,22,14,04,210,17,1*52
$GLGSV,2,1,07,69,83,251,39,79,78,241,38,78,44,042,24,68,37,154,31,1*7E
$GLGSV,2,2,07,80,22,228,30,70,21,324,,87,11,029,26,1*4D
$GAGSV,3,1,09,09,69,132,24,31,65,094,25,05,53,300,24,06,43,128,22,7*7F
$GAGSV,3,2,09,24,42,189,23,04,18,126,20,15,08,321,14,03,04,304,13,7*7B
$GAGSV,3,3,09,34,03,274,,7*4F
$GBGSV,4,1,15,37,84,210,35,58,67,253,,20,66,253,36,23,40,061,30,1*70
$GBGSV,4,2,15,32,32,168,29,19,29,313,30,46,27,236,,38,18,331,23,1*73
$GBGSV,4,3,15,08,13,341,21,31,09,335,,43,07,074,16,11,07,054,20,1*74
$GBGSV,4,4,15,34,06,031,21,13,04,346,17,12,02,006,,1*44
$GNRMC,195348.000,A,4910.424400,N,12304.401486,W,0.06,51.88,051224,,,D,V*2C
$GNVTG,51.88,T,,M,0.06,N,0.11,K,D*14
$PAIRLOG,Full*51
$GNGGA,195349.000,4910.424316,N,12304.401468,W,2,28,0.54,-4.712,M,-16.816,M,,*62
$GNGLL,4910.424316,N,12304.401468,W,195349.000,A,D*52
$GNGSA,A,3,07,09,30,04,20,27,16,08,05,,,,0.95,0.54,0.78,1*07
$GNGSA,A,3,69,79,78,68,80,87,,,,,,,0.95,0.54,0.78,2*07
$GNGSA,A,3,09,31,05,06,24,04,,,,,,,0.95,0.54,0.78,3*0B
$GNGSA,A,3,37,20,23,32,19,38,34,,,,,,0.95,0.54,0.78,4*04
$GPGSV,3,1,11,07,75,285,28,09,66,144,28,30,38,265,30,04,36,130,28,1*67
$GPGSV,3,2,11,44,33,171,26,20,29,297,22,27,25,083,18,16,25,048,23,1*6E
$GPGSV,3,3,11,08,22,119,19,05,13,327,22,14,04,210,17,1*58
$GLGSV,2,1,07,69,83,251,39,79,78,241,38,78,44,042,24,68,37,154,31,1*7E
$GLGSV,2,2,07,80,22,228,30,70,21,324,,87,11,029,26,1*4D
$GAGSV,3,1,09,09,69,132,23,31,65,094,24,05,53,300,23,06,43,128,21,7*7D
$GAGSV,3,2,09,24,42,189,23,04,18,126,20,15,08,321,14,03,04,304,13,7*7B
$GAGSV,3,3,09,34,03,274,,7*4F
$GBGSV,4,1,15,37,84,210,35,58,67,253,,20,66,253,36,23,40,061,30,1*70
$GBGSV,4,2,15,32,32,168,29,19,29,313,30,46,27,236,,38,18,331,23,1*73
$GBGSV,4,3,15,08,13,341,21,31,09,335,,43,07,074,16,11,07,054,20,1*74
$GBGSV,4,4,15,34,06,031,21,13,04,346,17,12,02,006,,1*44
$GNRMC,195349.000,A,4910.424316,N,12304.401468,W,0.06,51.88,051224,,,D,V*2D
$GNVTG,51.88,T,,M,0.06,N,0.11,K,D*14
$PAIRLOG,Full*51
$GNGGA,195350.000,4910.424232,N,12304.401576,W,2,28,0.54,-4.874,M,-16.817,M,,*6D
$GNGLL,4910.424232,N,12304.401576,W,195350.000,A,D*53
$GNGSA,A,3,07,09,30,04,20,27,16,08,05,,,,0.95,0.54,0.78,1*07
$GNGSA,A,3,69,79,78,68,80,87,,,,,,,0.95,0.54,0.78,2*07
$GNGSA,A,3,09,31,05,06,24,04,,,,,,,0.95,0.54,0.78,3*0B
$GNGSA,A,3,37,20,23,32,19,38,34,,,,,,0.95,0.54,0.78,4*04
$GPGSV,3,1,11,07,75,285,28,09,66,144,28,30,38,265,30,04,36,130,28,1*67
$GPGSV,3,2,11,44,33,171,26,20,29,297,23,27,25,083,19,16,25,048,23,1*6E
$GPGSV,3,3,11,08,22,119,18,05,13,327,22,14,04,210,17,1*59
$GLGSV,2,1,07,69,83,251,39,79,78,241,38,78,44,042,24,68,37,154,31,1*7E
$GLGSV,2,2,07,80,22,228,30,70,21,324,,87,11,029,26,1*4D
$GAGSV,3,1,09,09,69,132,23,31,65,094,24,05,53,300,23,06,43,128,21,7*7D
$GAGSV,3,2,09,24,42,189,23,04,18,126,20,15,08,321,14,03,04,304,13,7*7B
$GAGSV,3,3,09,34,03,274,,7*4F
$GBGSV,4,1,15,37,84,210,35,58,67,253,,20,66,253,36,23,40,061,30,1*70
$GBGSV,4,2,15,32,32,168,29,19,29,313,30,46,27,236,,38,18,331,23,1*73
$GBGSV,4,3,15,08,13,341,21,31,09,335,,43,07,074,16,11,07,054,20,1*74
$GBGSV,4,4,15,34,06,031,21,13,04,346,17,12,02,006,,1*44
$GNRMC,195350.000,A,4910.424232,N,12304.401576,W,0.06,51.88,051224,,,D,V*2C
$GNVTG,51.88,T,,M,0.06,N,0.11,K,D*14
$PAIRLOG,Full*51
$GNGGA,195351.000,4910.424226,N,12304.401612,W,2,28,0.54,-4.734,M,-16.816,M,,*62
$GNGLL,4910.424226,N,12304.401612,W,195351.000,A,D*56
$GNGSA,A,3,07,09,30,04,20,27,16,08,05,,,,0.95,0.54,0.78,1*07
$GNGSA,A,3,69,79,78,68,80,87,,,,,,,0.95,0.54,0.78,2*07
$GNGSA,A,3,09,31,05,06,24,04,,,,,,,0.95,0.54,0.78,3*0B
$GNGSA,A,3,37,20,23,32,19,38,34,,,,,,0.95,0.54,0.78,4*04
$GPGSV,3,1,11,07,75,285,27,09,66,144,28,30,38,265,30,04,36,130,27,1*67
$GPGSV,3,2,11,44,33,171,26,20,29,297,21,27,25,083,18,16,25,048,22,1*6C
$GPGSV,3,3,11,08,22,119,18,05,13,327,21,14,04,210,17,1*5A
$GLGSV,2,1,07,69,83,251,39,79,78,241,38,78,44,042,24,68,37,154,31,1*7E
$GLGSV,2,2,07,80,22,228,30,70,21,324,,87,11,029,26,1*4D
$GAGSV,3,1,09,09,69,132,22,31,65,094,24,05,53,300,23,06,43,128,22,7*7F
$GAGSV,3,2,09,24,42,189,23,04,18,126,20,15,08,321,14,03,04,304,13,7*7B
$GAGSV,3,3,09,13,01,008,,7*41
$GBGSV,4,1,15,37,84,210,35,58,67,253,,20,66,253,36,23,40,061,30,1*70
$GBGSV,4,2,15,32,32,168,29,19,29,313,30,46,27,236,,38,18,331,23,1*73
$GBGSV,4,3,15,08,13,341,21,31,09,335,,43,07,074,16,11,07,054,20,1*74
$GBGSV,4,4,15,34,06,031,21,13,04,346,17,12,02,006,,1*44
$GNRMC,195351.000,A,4910.424226,N,12304.401612,W,0.05,51.88,051224,,,D,V*2A
$GNVTG,51.88,T,,M,0.05,N,0.10,K,D*16
$PAIRLOG,Full*51
$GNGGA,195352.000,4910.424148,N,12304.401630,W,2,28,0.54,-4.938,M,-16.817,M,,*69
$GNGLL,4910.424148,N,12304.401630,W,195352.000,A,D*5E
$GNGSA,A,3,07,09,30,04,20,27,16,08,05,,,,0.95,0.54,0.78,1*07
$GNGSA,A,3,69,79,78,68,80,87,,,,,,,0.95,0.54,0.78,2*07
$GNGSA,A,3,09,31,05,06,24,04,,,,,,,0.95,0.54,0.78,3*0B
$GNGSA,A,3,37,20,23,32,19,38,34,,,,,,0.95,0.54,0.78,4*04
$GPGSV,3,1,11,07,75,285,28,09,66,144,28,30,38,265,30,04,36,130,28,1*67
$GPGSV,3,2,11,44,33,171,26,20,29,297,23,27,25,083,21,16,25,048,24,1*62
$GPGSV,3,3,11,08,22,119,18,05,13,327,22,14,04,210,17,1*59
$GLGSV,2,1,07,69,83,251,39,79,78,241,38,78,44,042,24,68,37,154,31,1*7E
$GLGSV,2,2,07,80,22,228,31,70,21,324,,87,11,029,26,1*4C
$GAGSV,3,1,09,09,69,132,22,31,65,094,25,05,53,300,24,06,43,128,23,7*78
$GAGSV,3,2,09,24,42,189,23,04,18,126,20,15,08,321,14,03,04,304,12,7*7A
$GAGSV,3,3,09,34,03,274,,7*4F
$GBGSV,4,1,15,37,84,210,35,58,67,253,,20,66,253,36,23,40,061,30,1*70
$GBGSV,4,2,15,32,32,168,29,19,29,313,30,46,27,236,,38,18,331,22,1*72
$GBGSV,4,3,15,08,13,341,21,31,09,335,,43,07,074,16,11,07,054,20,1*74
$GBGSV,4,4,15,34,06,031,21,13,04,346,17,12,02,006,,1*44
$GNRMC,195352.000,A,4910.424148,N,12304.401630,W,0.05,51.88,051224,,,D,V*22
$GNVTG,51.88,T,,M,0.05,N,0.10,K,D*16
$PAIRLOG,Full*51
$GNGGA,195353.000,4910.424118,N,12304.401726,W,2,28,0.54,-4.940,M,-16.816,M,,*65
$GNGLL,4910.424118,N,12304.401726,W,195353.000,A,D*5C
$GNGSA,A,3,07,09,30,04,20,16,27,08,05,,,,0.95,0.54,0.78,1*07
$GNGSA,A,3,69,79,78,68,80,87,,,,,,,0.95,0.54,0.78,2*07
$GNGSA,A,3,09,31,05,06,24,04,,,,,,,0.95,0.54,0.78,3*0B
$GNGSA,A,3,37,20,23,32,19,38,34,,,,,,0.95,0.54,0.78,4*04
$GPGSV,3,1,11,07,75,285,29,09,66,144,28,30,38,265,30,04,36,130,28,1*66
$GPGSV,3,2,11,44,33,171,26,20,29,297,23,16,25,048,24,27,25,083,19,1*69
$GPGSV,3,3,11,08,22,119,18,05,13,327,22,14,04,210,17,1*59
$GLGSV,2,1,07,69,83,251,39,79,78,241,38,78,44,042,24,68,37,154,31,1*7E
$GLGSV,2,2,07,80,22,228,31,70,21,324,,87,11,029,25,1*4F
$GAGSV,3,1,09,09,69,132,22,31,65,094,25,05,53,300,24,06,43,128,24,7*7F
$GAGSV,3,2,09,24,42,189,24,04,18,126,20,15,08,321,14,03,04,304,12,7*7D
$GAGSV,3,3,09,13,01,008,,7*41
$GBGSV,4,1,14,37,84,210,35,58,67,253,,20,66,253,36,23,40,061,30,1*71
$GBGSV,4,2,14,32,32,168,29,19,29,313,30,46,27,236,,38,18,331,22,1*73
$GBGSV,4,3,14,08,13,341,21,31,09,335,,43,07,074,16,11,07,054,20,1*75
$GBGSV,4,4,14,34,06,031,21,13,04,346,17,1*72
$GNRMC,195353.000,A,4910.424118,N,12304.401726,W,0.05,51.88,051224,,,D,V*20
$GNVTG,51.88,T,,M,0.05,N,0.10,K,D*16
$PAIRLOG,Full*51
$GNGGA,195354.000,4910.424040,N,12304.401630,W,2,28,0.54,-4.990,M,-16.817,M,,*64
$GNGLL,4910.424040,N,12304.401630,W,195354.000,A,D*51
$GNGSA,A,3,07,09,30,04,20,27,16,08,05,,,,0.95,0.54,0.78,1*07
$GNGSA,A,3,69,79,78,68,80,87,,,,,,,0.95,0.54,0.78,2*07
$GNGSA,A,3,09,31,05,06,24,04,,,,,,,0.95,0.54,0.78,3*0B
$GNGSA,A,3,37,20,23,32,19,38,34,,,,,,0.95,0.54,0.78,4*04
$GPGSV,3,1,11,07,75,285,29,09,66,144,29,30,38,265,30,04,36,130,28,1*67
$GPGSV,3,2,11,44,33,171,26,20,29,297,22,27,25,083,20,16,25,048,23,1*65
$GPGSV,3,3,11,08,22,119,18,05,13,327,22,14,04,210,17,1*59
$GLGSV,2,1,07,69,83,251,39,79,78,241,38,78,44,042,24,68,37,154,31,1*7E
$GLGSV,2,2,07,80,22,228,31,70,21,324,,87,11,029,25,1*4F
$GAGSV,3,1,09,09,69,132,22,31,65,094,25,05,53,300,24,06,43,128,24,7*7F
$GAGSV,3,2,09,24,42,189,24,04,18,126,20,15,08,321,15,03,04,304,12,7*7C
$GAGSV,3,3,09,13,01,008,,7*41
$GBGSV,4,1,15,37,84,210,34,58,67,253,,20,66,253,36,23,40,061,30,1*71
$GBGSV,4,2,15,32,32,168,29,19,29,313,30,46,27,236,,38,18,331,22,1*72
$GBGSV,4,3,15,08,13,341,21,31,09,335,,43,07,074,16,11,07,054,20,1*74
$GBGSV,4,4,15,34,06,031,21,13,04,346,17,12,02,006,,1*44
$GNRMC,195354.000,A,4910.424040,N,12304.401630,W,0.05,51.88,051224,,,D,V*2D
$GNVTG,51.88,T,,M,0.05,N,0.10,K,D*16
$PAIRLOG,Full*51
$GNGGA,195355.000,4910.424034,N,12304.401744,W,2,28,0.54,-4.940,M,-16.816,M,,*68
$GNGLL,4910.424034,N,12304.401744,W,195355.000,A,D*51
$GNGSA,A,3,07,09,30,04,20,27,16,08,05,,,,0.95,0.54,0.78,1*07
$GNGSA,A,3,69,79,78,68,80,87,,,,,,,0.95,0.54,0.78,2*07
$GNGSA,A,3,09,31,05,06,24,04,,,,,,,0.95,0.54,0.78,3*0B
$GNGSA,A,3,37,20,23,32,19,38,34,,,,,,0.95,0.54,0.78,4*04
$GPGSV,3,1,11,07,75,285,29,09,66,144,29,30,38,265,30,04,36,130,28,1*67
$GPGSV,3,2,11,44,33,171,26,20,29,297,22,27,25,083,21,16,25,048,25,1*62
$GPGSV,3,3,11,08,22,119,18,05,13,327,22,14,04,210,17,1*59
$GLGSV,2,1,07,69,83,251,39,79,78,241,39,78,44,042,24,68,37,154,31,1*7F
$GLGSV,2,2,07,80,22,228,31,70,21,324,,87,11,029,25,1*4F
$GAGSV,3,1,09,09,69,132,22,31,65,094,25,05,53,300,24,06,43,128,24,7*7F
$GAGSV,3,2,09,24,42,189,24,04,18,126,20,15,08,321,15,03,04,304,12,7*7C
$GAGSV,3,3,09,13,01,008,,7*41
$GBGSV,4,1,15,37,84,210,34,58,67,253,,20,66,253,36,23,40,061,30,1*71
$GBGSV,4,2,15,32,32,168,29,19,29,313,30,46,27,236,,38,18,331,22,1*72
$GBGSV,4,3,15,08,13,341,22,31,09,335,,43,07,074,16,11,07,054,20,1*77
$GBGSV,4,4,15,34,06,031,21,13,04,346,17,12,02,006,,1*44
$GNRMC,195355.000,A,4910.424034,N,12304.401744,W,0.05,51.88,051224,,,D,V*2D
$GNVTG,51.88,T,,M,0.05,N,0.09,K,D*1E
$PAIRLOG,Full*51
$GNGGA,195356.000,4910.423938,N,12304.401726,W,2,28,0.54,-5.104,M,-16.817,M,,*65
$GNGLL,4910.423938,N,12304.401726,W,195356.000,A,D*54
$GNGSA,A,3,07,09,30,04,20,27,16,08,05,,,,0.95,0.54,0.78,1*07
$GNGSA,A,3,69,79,78,68,80,87,,,,,,,0.95,0.54,0.78,2*07
$GNGSA,A,3,09,31,05,06,24,04,,,,,,,0.95,0.54,0.78,3*0B
$GNGSA,A,3,37,20,23,32,19,38,34,,,,,,0.95,0.54,0.78,4*04
$GPGSV,3,1,11,07,75,285,29,09,66,144,29,30,38,265,30,04,36,130,28,1*67
$GPGSV,3,2,11,44,33,171,26,20,29,297,20,27,25,083,21,16,25,048,24,1*61
$GPGSV,3,3,11,08,22,119,18,05,13,327,22,14,04,210,18,1*56
$GLGSV,2,1,07,69,83,251,39,79,78,241,39,78,44,042,24,68,37,154,31,1*7F
$GLGSV,2,2,07,80,22,228,31,70,21,324,,87,11,029,25,1*4F
$GAGSV,3,1,09,09,69,132,22,31,65,094,25,05,53,300,25,06,43,128,24,7*7E
$GAGSV,3,2,09,24,42,189,24,04,18,126,21,15,08,321,15,03,04,304,12,7*7D
$GAGSV,3,3,09,13,01,008,,7*41
$GBGSV,4,1,15,37,84,210,35,58,67,253,,20,66,253,36,23,40,061,30,1*70
$GBGSV,4,2,15,32,32,168,29,19,29,313,30,46,27,236,,38,18,331,22,1*72
$GBGSV,4,3,15,08,13,341,22,31,09,335,,43,07,074,17,11,07,054,21,1*77
$GBGSV,4,4,15,34,06,031,21,13,04,346,17,12,02,006,,1*44
$GNRMC,195356.000,A,4910.423938,N,12304.401726,W,0.05,51.88,051224,,,D,V*28
$GNVTG,51.88,T,,M,0.05,N,0.10,K,D*16
$PAIRLOG,Full*51
$GNGGA,195357.000,4910.423920,N,12304.401882,W,2,28,0.54,-5.148,M,-16.817,M,,*64
$GNGLL,4910.423920,N,12304.401882,W,195357.000,A,D*5D
$GNGSA,A,3,07,09,30,04,20,27,16,08,05,,,,0.95,0.54,0.78,1*07
$GNGSA,A,3,69,79,78,68,80,87,,,,,,,0.95,0.54,0.78,2*07
$GNGSA,A,3,09,31,05,06,24,04,,,,,,,0.95,0.54,0.78,3*0B
$GNGSA,A,3,37,20,23,32,19,38,34,,,,,,0.95,0.54,0.78,4*04
$GPGSV,3,1,11,07,75,285,29,09,66,144,29,30,38,265,30,04,36,130,28,1*67
$GPGSV,3,2,11,44,33,171,26,20,29,297,23,27,25,083,21,16,25,048,24,1*62
$GPGSV,3,3,11,08,22,119,18,05,13,327,23,14,04,210,16,1*59
$GLGSV,2,1,07,69,83,251,39,79,78,241,39,78,44,042,24,68,37,154,31,1*7F
$GLGSV,2,2,07,80,22,228,31,70,21,324,,87,11,029,25,1*4F
$GAGSV,3,1,09,09,69,132,23,31,65,094,25,05,53,300,26,06,43,128,25,7*7D
$GAGSV,3,2,09,24,42,189,24,04,18,126,21,15,08,321,15,03,04,304,12,7*7D
$GAGSV,3,3,09,13,01,008,,7*41
$GBGSV,4,1,15,37,84,210,35,58,67,253,,20,66,253,36,23,40,061,30,1*70
$GBGSV,4,2,15,32,32,168,29,19,29,313,30,46,27,236,,38,18,331,22,1*72
$GBGSV,4,3,15,08,13,341,22,31,09,335,,43,07,074,18,11,07,054,21,1*78
$GBGSV,4,4,15,34,06,031,21,13,04,346,17,12,02,006,,1*44
$GNRMC,195357.000,A,4910.423920,N,12304.401882,W,0.06,51.88,051224,,,D,V*22
$GNVTG,51.88,T,,M,0.06,N,0.11,K,D*14
$PAIRLOG,Full*51
$GNGGA,195358.000,4910.423896,N,12304.402050,W,2,28,0.54,-5.128,M,-16.817,M,,*65
$GNGLL,4910.423896,N,12304.402050,W,195358.000,A,D*5A
$GNGSA,A,3,07,09,30,04,20,27,16,08,05,,,,0.95,0.54,0.78,1*07
$GNGSA,A,3,69,79,78,68,80,87,,,,,,,0.95,0.54,0.78,2*07
$GNGSA,A,3,09,31,05,06,24,04,,,,,,,0.95,0.54,0.78,3*0B
$GNGSA,A,3,37,20,23,32,19,38,34,,,,,,0.95,0.54,0.78,4*04
$GPGSV,3,1,11,07,75,285,30,09,66,144,29,30,38,265,30,04,36,130,28,1*6F
$GPGSV,3,2,11,44,33,171,26,20,29,297,22,27,25,083,21,16,25,048,24,1*63
$GPGSV,3,3,11,08,22,119,18,05,13,327,23,14,04,210,17,1*58
$GLGSV,2,1,07,69,83,251,40,79,78,241,39,78,44,042,24,68,37,154,31,1*71
$GLGSV,2,2,07,80,22,228,31,70,21,324,,87,11,029,25,1*4F
$GAGSV,3,1,09,09,69,132,23,31,65,094,25,05,53,300,26,06,43,128,25,7*7D
$GAGSV,3,2,09,24,42,189,24,04,18,126,21,15,08,321,16,03,04,304,12,7*7E
$GAGSV,3,3,09,13,01,008,,7*41
$GBGSV,4,1,15,37,84,210,35,58,67,253,,20,66,253,36,23,40,061,30,1*70
$GBGSV,4,2,15,32,32,168,29,19,29,313,30,46,27,236,,38,18,331,22,1*72
$GBGSV,4,3,15,08,13,341,22,31,09,335,,43,07,074,18,11,07,054,21,1*78
$GBGSV,4,4,15,34,06,031,21,13,04,346,17,12,02,006,,1*44
$GNRMC,195358.000,A,4910.423896,N,12304.402050,W,0.06,51.88,051224,,,D,V*25
$GNVTG,51.88,T,,M,0.06,N,0.11,K,D*14
$PAIRLOG,Full*51
$GNGGA,195359.000,4910.423866,N,12304.402284,W,2,28,0.54,-4.911,M,-16.816,M,,*62
$GNGLL,4910.423866,N,12304.402284,W,195359.000,A,D*5F
$GNGSA,A,3,07,09,30,04,20,16,27,08,05,,,,0.95,0.54,0.78,1*07
$GNGSA,A,3,69,79,78,68,80,87,,,,,,,0.95,0.54,0.78,2*07
$GNGSA,A,3,09,31,05,06,24,04,,,,,,,0.95,0.54,0.78,3*0B
$GNGSA,A,3,37,20,23,32,19,38,34,,,,,,0.95,0.54,0.78,4*04
$GPGSV,3,1,11,07,75,285,31,09,66,144,29,30,38,265,30,04,36,130,28,1*6E
$GPGSV,3,2,11,44,33,171,26,20,29,297,23,16,25,048,24,27,25,083,21,1*62
$GPGSV,3,3,11,08,22,119,18,05,13,327,24,14,04,210,16,1*5E
$GLGSV,2,1,07,69,83,251,40,79,78,241,38,78,44,042,24,68,37,154,31,1*70
$GLGSV,2,2,07,80,22,228,31,70,21,324,,87,11,029,24,1*4E
$GAGSV,3,1,10,09,69,132,24,31,65,094,25,05,53,300,27,06,43,128,25,7*73
$GAGSV,3,2,10,24,42,189,25,04,18,126,21,15,08,321,17,03,04,304,12,7*76
$GAGSV,3,3,10,34,03,274,,13,01,008,,7*7C
$GBGSV,4,1,14,37,84,210,35,20,66,253,36,23,40,061,30,32,32,168,29,1*7D
$GBGSV,4,2,14,19,29,313,30,46,27,236,,38,18,331,22,08,13,341,22,1*7B
$GBGSV,4,3,14,31,09,335,,43,07,074,18,11,07,054,21,34,06,031,21,1*75
$GBGSV,4,4,14,13,04,346,17,12,02,006,,1*75
$GNRMC,195359.000,A,4910.423866,N,12304.402284,W,0.06,51.88,051224,,,D,V*20
$GNVTG,51.88,T,,M,0.06,N,0.11,K,D*14
$PAIRLOG,Full*51
$GNGGA,195400.000,4910.423896,N,12304.402416,W,2,28,0.54,-4.795,M,-16.816,M,,*69
$GNGLL,4910.423896,N,12304.402416,W,195400.000,A,D*56
$GNGSA,A,3,07,09,30,04,20,27,16,08,05,,,,0.95,0.54,0.78,1*07
$GNGSA,A,3,69,79,78,68,80,87,,,,,,,0.95,0.54,0.78,2*07
$GNGSA,A,3,09,31,05,06,24,04,,,,,,,0.95,0.54,0.78,3*0B
$GNGSA,A,3,37,20,23,32,19,38,34,,,,,,0.95,0.54,0.78,4*04
$GPGSV,3,1,11,07,75,285,31,09,66,144,30,30,38,265,30,04,36,130,28,1*66
$GPGSV,3,2,11,44,33,171,26,20,29,297,23,27,25,083,21,16,25,048,24,1*62
$GPGSV,3,3,11,08,22,119,18,05,13,327,24,14,04,210,17,1*5F
$GLGSV,2,1,07,69,83,251,40,79,78,241,38,78,44,042,24,68,37,154,31,1*70
$GLGSV,2,2,07,80,22,228,31,70,21,324,,87,11,029,24,1*4E
$GAGSV,3,1,09,09,69,132,24,31,65,094,25,05,53,300,27,06,43,128,25,7*7B
$GAGSV,3,2,09,24,42,189,25,04,18,126,21,15,08,321,17,03,04,304,12,7*7E
$GAGSV,3,3,09,13,01,008,,7*41
$GBGSV,4,1,15,37,84,210,35,58,67,253,,20,66,253,36,23,40,061,30,1*70
$GBGSV,4,2,15,32,32,168,29,19,29,313,30,46,27,236,,38,18,331,22,1*72
$GBGSV,4,3,15,08,13,341,22,31,09,335,,43,07,074,17,11,07,054,22,1*74
$GBGSV,4,4,15,34,06,031,21,13,04,346,17,12,02,006,,1*44
$GNRMC,195400.000,A,4910.423896,N,12304.402416,W,0.06,51.88,051224,,,D,V*29
$GNVTG,51.88,T,,M,0.06,N,0.10,K,D*15
$PAIRLOG,Full*51
$GNGGA,195401.000,4910.423884,N,12304.402500,W,2,28,0.54,-4.871,M,-16.816,M,,*68
$GNGLL,4910.423884,N,12304.402500,W,195401.000,A,D*52
$GNGSA,A,3,07,09,30,04,20,27,16,08,05,,,,0.95,0.54,0.78,1*07
$GNGSA,A,3,69,79,78,68,80,87,,,,,,,0.95,0.54,0.78,2*07
$GNGSA,A,3,09,31,05,06,24,04,,,,,,,0.95,0.54,0.78,3*0B
$GNGSA,A,3,37,20,23,32,19,38,34,,,,,,0.95,0.54,0.78,4*04
$GPGSV,3,1,11,07,75,285,31,09,66,144,30,30,38,265,30,04,36,130,28,1*66
$GPGSV,3,2,11,44,33,171,26,20,29,297,21,27,25,083,21,16,25,048,24,1*60
$GPGSV,3,3,11,08,22,119,18,05,13,327,24,14,04,210,17,1*5F
$GLGSV,2,1,07,69,83,251,40,79,78,241,38,78,44,042,24,68,37,154,31,1*70
$GLGSV,2,2,07,80,22,228,31,70,21,324,,87,11,029,24,1*4E
$GAGSV,3,1,09,09,69,132,24,31,65,094,25,05,53,300,27,06,43,128,25,7*7B
$GAGSV,3,2,09,24,42,189,25,04,18,126,21,15,08,321,17,03,04,304,12,7*7E
$GAGSV,3,3,09,13,01,008,,7*41
$GBGSV,4,1,15,37,84,210,35,58,67,253,,20,66,253,36,23,40,061,30,1*70
$GBGSV,4,2,15,32,32,168,29,19,29,313,30,46,27,236,,38,18,331,21,1*71
$GBGSV,4,3,15,08,13,341,22,31,09,335,,43,07,074,17,11,07,054,22,1*74
$GBGSV,4,4,15,34,06,031,21,13,04,346,17,12,02,006,,1*44
$GNRMC,195401.000,A,4910.423884,N,12304.402500,W,0.04,51.88,051224,,,D,V*2F
$GNVTG,51.88,T,,M,0.04,N,0.08,K,D*1E
$PAIRLOG,Full*51
$GNGGA,195402.000,4910.423836,N,12304.402476,W,2,28,0.54,-4.844,M,-16.817,M,,*65
$GNGLL,4910.423836,N,12304.402476,W,195402.000,A,D*58
$GNGSA,A,3,07,09,30,04,20,27,16,08,05,,,,0.95,0.54,0.78,1*07
$GNGSA,A,3,69,79,78,68,80,87,,,,,,,0.95,0.54,0.78,2*07
$GNGSA,A,3,09,31,05,06,24,04,,,,,,,0.95,0.54,0.78,3*0B
$GNGSA,A,3,37,20,23,32,19,38,34,,,,,,0.95,0.54,0.78,4*04
$GPGSV,3,1,11,07,75,285,30,09,66,144,30,30,38,265,30,04,36,130,28,1*67
$GPGSV,3,2,11,44,33,171,26,20,29,297,22,27,25,083,21,16,25,048,24,1*63
$GPGSV,3,3,11,08,22,119,18,05,13,327,23,14,04,210,15,1*5A
$GLGSV,2,1,07,69,83,251,40,79,78,241,39,78,44,042,24,68,37,154,31,1*71
$GLGSV,2,2,07,80,22,228,31,70,21,324,,87,11,029,24,1*4E
$GAGSV,3,1,09,09,69,132,24,31,65,094,26,05,53,300,26,06,43,128,25,7*79
$GAGSV,3,2,09,24,42,189,25,04,18,126,21,15,08,321,17,03,04,304,12,7*7E
$GAGSV,3,3,09,13,01,008,,7*41
$GBGSV,4,1,15,37,84,210,35,58,67,253,,20,66,253,36,23,40,061,30,1*70
$GBGSV,4,2,15,32,32,168,29,19,29,313,30,46,27,236,,38,18,331,21,1*71
$GBGSV,4,3,15,08,13,341,22,31,09,335,,43,07,074,17,11,07,054,23,1*75
$GBGSV,4,4,15,34,06,031,21,13,04,346,17,12,02,006,,1*44
$GNRMC,195402.000,A,4910.423836,N,12304.402476,W,0.04,51.88,051224,,,D,V*25
$GNVTG,51.88,T,,M,0.04,N,0.07,K,D*11
$PAIRLOG,Full*51
$GNGGA,195403.000,4910.423806,N,12304.402458,W,2,28,0.54,-4.687,M,-16.816,M,,*6B
$GNGLL,4910.423806,N,12304.402458,W,195403.000,A,D*56
$GNGSA,A,3,07,09,30,04,20,27,16,08,05,,,,0.95,0.54,0.78,1*07
$GNGSA,A,3,69,79,78,68,80,87,,,,,,,0.95,0.54,0.78,2*07
$GNGSA,A,3,09,31,05,06,24,04,,,,,,,0.95,0.54,0.78,3*0B
$GNGSA,A,3,37,20,23,32,19,38,34,,,,,,0.95,0.54,0.78,4*04
$GPGSV,3,1,11,07,75,285,29,09,66,144,29,30,38,265,30,04,36,130,27,1*68
$GPGSV,3,2,11,44,33,171,26,20,29,297,20,27,25,083,19,16,25,048,23,1*6D
$GPGSV,3,3,11,08,22,119,17,05,13,327,20,14,04,210,15,1*56
$GLGSV,2,1,07,69,83,251,40,79,78,241,39,78,44,042,24,68,37,154,31,1*71
$GLGSV,2,2,07,80,22,228,31,70,21,324,,87,11,029,24,1*4E
$GAGSV,3,1,09,09,69,132,23,31,65,094,25,05,53,300,25,06,43,128,25,7*7E
$GAGSV,3,2,09,24,42,189,24,04,18,126,20,15,08,321,17,03,04,304,12,7*7E
$GAGSV,3,3,09,34,03,274,,7*4F
$GBGSV,4,1,15,37,84,210,35,58,67,253,,20,66,253,36,23,40,061,30,1*70
$GBGSV,4,2,15,32,32,168,29,19,29,313,30,46,27,236,,38,18,331,21,1*71
$GBGSV,4,3,15,08,13,341,22,31,09,335,,43,07,074,17,11,07,054,23,1*75
$GBGSV,4,4,15,34,06,031,21,13,04,346,17,12,02,006,,1*44
$GNRMC,195403.000,A,4910.423806,N,12304.402458,W,0.04,51.88,051224,,,D,V*2B
$GNVTG,51.88,T,,M,0.04,N,0.07,K,D*11
$PAIRLOG,Full*51
$GNGGA,195404.000,4910.423836,N,12304.402392,W,2,28,0.54,-4.557,M,-16.816,M,,*60
$GNGLL,4910.423836,N,12304.402392,W,195404.000,A,D*53
$GNGSA,A,3,07,09,30,04,20,27,16,08,05,,,,0.95,0.54,0.78,1*07
$GNGSA,A,3,69,79,78,68,80,87,,,,,,,0.95,0.54,0.78,2*07
$GNGSA,A,3,09,31,05,06,24,04,,,,,,,0.95,0.54,0.78,3*0B
$GNGSA,A,3,37,20,23,32,19,38,34,,,,,,0.95,0.54,0.78,4*04
$GPGSV,3,1,11,07,75,285,29,09,66,144,29,30,38,265,30,04,36,130,24,1*6B
$GPGSV,3,2,11,44,33,171,26,20,29,297,20,27,25,083,19,16,25,048,23,1*6D
$GPGSV,3,3,11,08,22,119,17,05,13,327,20,14,04,210,16,1*55
$GLGSV,2,1,07,69,83,251,40,79,78,241,39,78,44,042,24,68,37,154,31,1*71
$GLGSV,2,2,07,80,22,228,31,70,21,324,,87,11,029,24,1*4E
$GAGSV,3,1,09,09,69,132,22,31,65,094,25,05,53,300,25,06,43,128,25,7*7F
$GAGSV,3,2,09,24,42,189,23,04,18,126,19,15,08,321,17,03,04,304,12,7*73
$GAGSV,3,3,09,34,03,274,,7*4F
$GBGSV,4,1,15,37,84,210,35,58,67,253,,20,66,253,37,23,40,061,30,1*71
$GBGSV,4,2,15,32,32,168,29,19,29,313,30,46,27,236,,38,18,331,21,1*71
$GBGSV,4,3,15,08,13,341,22,31,09,335,,43,07,074,17,11,07,054,23,1*75
$GBGSV,4,4,15,34,06,031,22,13,04,346,18,12,02,006,,1*48
$GNRMC,195404.000,A,4910.423836,N,12304.402392,W,0.04,51.88,051224,,,D,V*2E
$GNVTG,51.88,T,,M,0.04,N,0.07,K,D*11
$PAIRLOG,Full*51
$GNGGA,195405.000,4910.423848,N,12304.402404,W,2,28,0.54,-4.404,M,-16.816,M,,*67
$GNGLL,4910.423848,N,12304.402404,W,195405.000,A,D*53
$GNGSA,A,3,07,09,30,04,20,27,16,08,05,,,,0.95,0.54,0.78,1*07
$GNGSA,A,3,69,79,78,68,80,87,,,,,,,0.95,0.54,0.78,2*07
$GNGSA,A,3,09,31,05,06,24,04,,,,,,,0.95,0.54,0.78,3*0B
$GNGSA,A,3,37,20,23,32,19,38,34,,,,,,0.95,0.54,0.78,4*04
$GPGSV,3,1,11,07,75,285,28,09,66,144,28,30,38,265,29,04,36,130,23,1*64
$GPGSV,3,2,11,44,33,171,25,20,29,297,20,27,25,083,18,16,25,048,22,1*6E
$GPGSV,3,3,11,08,22,119,14,05,13,327,20,14,04,210,16,1*56
$GLGSV,2,1,07,69,83,251,40,79,78,241,39,78,44,042,24,68,37,154,31,1*71
$GLGSV,2,2,07,80,22,228,31,70,21,324,,87,11,029,24,1*4E
$GAGSV,3,1,09,09,69,132,21,31,65,094,25,05,53,300,25,06,43,128,25,7*7C
$GAGSV,3,2,09,24,42,189,23,04,18,126,19,15,08,321,17,03,04,304,12,7*73
$GAGSV,3,3,09,34,03,274,,7*4F
$GBGSV,4,1,15,37,84,210,35,58,67,253,,20,66,253,37,23,40,061,30,1*71
$GBGSV,4,2,15,32,32,168,29,19,29,313,30,46,27,236,,38,18,331,21,1*71
$GBGSV,4,3,15,08,13,341,22,31,09,335,,43,07,074,17,11,07,054,23,1*75
$GBGSV,4,4,15,34,06,031,22,13,04,346,18,12,02,006,,1*48
$GNRMC,195405.000,A,4910.423848,N,12304.402404,W,0.04,51.88,051224,,,D,V*2E
$GNVTG,51.88,T,,M,0.04,N,0.08,K,D*1E
$PAIRLOG,Full*51
$GNGGA,195406.000,4910.423800,N,12304.402350,W,2,28,0.54,-4.327,M,-16.816,M,,*68
$GNGLL,4910.423800,N,12304.402350,W,195406.000,A,D*5A
$GNGSA,A,3,07,09,30,04,20,27,16,08,05,,,,0.95,0.54,0.78,1*07
$GNGSA,A,3,69,79,78,68,80,87,,,,,,,0.95,0.54,0.78,2*07
$GNGSA,A,3,09,31,05,06,24,04,,,,,,,0.95,0.54,0.78,3*0B
$GNGSA,A,3,37,20,23,32,19,38,34,,,,,,0.95,0.54,0.78,4*04
$GPGSV,3,1,11,07,75,285,28,09,66,144,28,30,38,265,29,04,36,130,24,1*63
$GPGSV,3,2,11,44,33,171,25,20,29,297,20,27,25,083,18,16,25,048,22,1*6E
$GPGSV,3,3,11,08,22,119,13,05,13,327,20,14,04,210,16,1*51
$GLGSV,2,1,07,69,83,251,40,79,78,241,39,78,44,042,24,68,37,154,31,1*71
$GLGSV,2,2,07,80,22,228,31,70,21,324,,87,11,029,24,1*4E
$GAGSV,3,1,09,09,69,132,21,31,65,094,24,05,53,300,24,06,43,128,25,7*7C
$GAGSV,3,2,09,24,42,189,23,04,18,126,19,15,08,321,17,03,04,304,12,7*73
$GAGSV,3,3,09,34,03,274,,7*4F
$GBGSV,4,1,15,37,84,210,35,58,67,253,,20,66,253,37,23,40,061,30,1*71
$GBGSV,4,2,15,32,32,168,29,19,29,313,30,46,27,236,,38,18,331,21,1*71
$GBGSV,4,3,15,08,13,341,22,31,09,335,,43,07,074,17,11,07,054,23,1*75
$GBGSV,4,4,15,34,06,031,22,13,04,346,18,12,02,006,,1*48
$GNRMC,195406.000,A,4910.423800,N,12304.402350,W,0.05,51.88,051224,,,D,V*26
$GNVTG,51.88,T,,M,0.05,N,0.09,K,D*1E
$PAIRLOG,Full*51
$GNGGA,195407.000,4910.423764,N,12304.402440,W,2,28,0.54,-4.349,M,-16.816,M,,*6A
$GNGLL,4910.423764,N,12304.402440,W,195407.000,A,D*50
$GNGSA,A,3,07,09,30,04,20,27,16,08,05,,,,0.95,0.54,0.78,1*07
$GNGSA,A,3,69,79,78,68,80,87,,,,,,,0.95,0.54,0.78,2*07
$GNGSA,A,3,09,31,05,06,24,04,,,,,,,0.95,0.54,0.78,3*0B
$GNGSA,A,3,37,20,23,32,19,38,34,,,,,,0.95,0.54,0.78,4*04
$GPGSV,3,1,11,07,75,285,27,09,66,144,27,30,38,265,28,04,36,130,22,1*64
$GPGSV,3,2,11,44,33,171,25,20,29,297,20,27,25,083,18,16,25,048,21,1*6D
$GPGSV,3,3,11,08,22,119,12,05,13,327,20,14,04,210,15,1*53
$GLGSV,2,1,07,69,83,251,40,79,78,241,39,78,44,042,24,68,37,154,31,1*71
$GLGSV,2,2,07,80,22,228,31,70,21,324,,87,11,029,24,1*4E
$GAGSV,3,1,09,09,69,132,21,31,65,094,24,05,53,300,24,06,43,128,25,7*7C
$GAGSV,3,2,09,24,42,189,23,04,18,126,19,15,08,321,17,03,04,304,12,7*73
$GAGSV,3,3,09,34,03,274,,7*4F
$GBGSV,4,1,15,37,84,210,35,58,67,253,,20,66,253,37,23,40,061,30,1*71
$GBGSV,4,2,15,32,32,168,29,19,29,313,30,46,27,236,,38,18,331,21,1*71
$GBGSV,4,3,15,08,13,341,22,31,09,335,,43,07,074,16,11,07,054,23,1*74
$GBGSV,4,4,15,34,06,031,22,13,04,346,18,12,02,006,,1*48
$GNRMC,195407.000,A,4910.423764,N,12304.402440,W,0.04,51.88,051224,,,D,V*2D
$GNVTG,51.88,T,,M,0.04,N,0.08,K,D*1E
$PAIRLOG,Full*51
$GNGGA,195408.000,4910.423758,N,12304.402392,W,2,28,0.54,-4.239,M,-16.817,M,,*65
$GNGLL,4910.423758,N,12304.402392,W,195408.000,A,D*58
$GNGSA,A,3,07,09,30,04,20,27,16,08,05,,,,0.95,0.54,0.78,1*07
$GNGSA,A,3,69,79,78,68,80,87,,,,,,,0.95,0.54,0.78,2*07
$GNGSA,A,3,09,31,05,06,24,04,,,,,,,0.95,0.54,0.78,3*0B
$GNGSA,A,3,37,20,23,32,19,38,34,,,,,,0.95,0.54,0.78,4*04
$GPGSV,3,1,11,07,75,285,27,09,66,144,26,30,38,265,28,04,36,130,22,1*65
$GPGSV,3,2,11,44,33,171,25,20,29,297,20,27,25,083,18,16,25,048,21,1*6D
$GPGSV,3,3,11,08,22,119,11,05,13,327,20,14,04,210,15,1*50
$GLGSV,2,1,07,69,83,251,40,79,78,241,39,78,44,042,24,68,37,154,32,1*72
$GLGSV,2,2,07,80,22,228,31,70,21,324,,87,11,029,24,1*4E
$GAGSV,3,1,09,09,69,132,21,31,65,094,23,05,53,300,24,06,43,128,24,7*7A
$GAGSV,3,2,09,24,42,189,22,04,18,126,19,15,08,321,16,03,04,304,12,7*73
$GAGSV,3,3,09,34,03,274,,7*4F
$GBGSV,4,1,15,37,84,210,35,58,67,253,,20,66,253,37,23,40,061,30,1*71
$GBGSV,4,2,15,32,32,168,29,19,29,313,30,46,27,236,,38,18,331,21,1*71
$GBGSV,4,3,15,08,13,341,22,31,09,335,,43,07,074,16,11,07,054,23,1*74
$GBGSV,4,4,15,34,06,031,23,13,04,346,18,12,02,006,,1*49
$GNRMC,195408.000,A,4910.423758,N,12304.402392,W,0.04,51.88,051224,,,D,V*25
$GNVTG,51.88,T,,M,0.04,N,0.08,K,D*1E
$PAIRLOG,Full*51
$GNGGA,195409.000,4910.423698,N,12304.402464,W,2,28,0.54,-4.253,M,-16.817,M,,*6B
$GNGLL,4910.423698,N,12304.402464,W,195409.000,A,D*5A
$GNGSA,A,3,07,09,30,04,20,27,16,08,05,,,,0.95,0.54,0.78,1*07
$GNGSA,A,3,69,79,78,68,80,87,,,,,,,0.95,0.54,0.78,2*07
$GNGSA,A,3,09,31,05,06,24,04,,,,,,,0.95,0.54,0.78,3*0B
$GNGSA,A,3,37,20,23,32,19,38,34,,,,,,0.95,0.54,0.78,4*04
$GPGSV,3,1,11,07,75,285,24,09,66,144,25,30,38,265,27,04,36,130,20,1*68
$GPGSV,3,2,11,44,33,171,25,20,29,297,20,27,25,083,18,16,25,048,20,1*6C
$GPGSV,3,3,11,08,22,119,11,05,13,327,19,14,04,210,15,1*5A
$GLGSV,2,1,07,69,83,251,40,79,78,241,39,78,44,042,24,68,37,154,32,1*72
$GLGSV,2,2,07,80,22,228,31,70,21,324,,87,11,029,24,1*4E
$GAGSV,3,1,09,09,69,132,20,31,65,094,22,05,53,300,24,06,43,128,24,7*7A
$GAGSV,3,2,09,24,42,189,21,04,18,126,19,15,08,321,16,03,04,304,12,7*70
$GAGSV,3,3,09,34,03,274,,7*4F
$GBGSV,4,1,15,37,84,210,35,58,67,253,,20,66,253,37,23,40,061,30,1*71
$GBGSV,4,2,15,32,32,168,29,19,29,313,30,46,27,236,,38,18,331,21,1*71
$GBGSV,4,3,15,08,13,341,22,31,09,335,,43,07,074,16,11,07,054,23,1*74
$GBGSV,4,4,15,34,06,031,23,13,04,346,18,12,02,006,,1*49
$GNRMC,195409.000,A,4910.423698,N,12304.402464,W,0.03,51.88,051224,,,D,V*20
$GNVTG,51.88,T,,M,0.03,N,0.06,K,D*17
$PAIRLOG,Full*51
$GNGGA,195410.000,4910.423698,N,12304.402434,W,2,28,0.54,-4.177,M,-16.816,M,,*62
$GNGLL,4910.423698,N,12304.402434,W,195410.000,A,D*57
$GNGSA,A,3,07,09,30,04,20,27,16,08,05,,,,0.95,0.54,0.78,1*07
$GNGSA,A,3,69,79,78,68,80,87,,,,,,,0.95,0.54,0.78,2*07
$GNGSA,A,3,09,31,05,06,24,04,,,,,,,0.95,0.54,0.78,3*0B
$GNGSA,A,3,37,20,23,32,19,38,34,,,,,,0.95,0.54,0.78,4*04
$GPGSV,3,1,11,07,75,285,28,09,66,144,25,30,38,265,27,04,36,130,20,1*64
$GPGSV,3,2,11,44,33,171,25,20,29,297,20,27,25,083,18,16,25,048,20,1*6C
$GPGSV,3,3,11,08,22,119,14,05,13,327,19,14,04,210,15,1*5F
$GLGSV,2,1,07,69,83,251,40,79,78,241,39,78,44,042,24,68,37,154,32,1*72
$GLGSV,2,2,07,80,22,228,31,70,21,324,,87,11,029,25,1*4F
$GAGSV,3,1,09,09,69,132,20,31,65,094,22,05,53,300,24,06,43,128,24,7*7A
$GAGSV,3,2,09,24,42,189,21,04,18,126,19,15,08,321,16,03,04,304,13,7*71
$GAGSV,3,3,09,13,01,008,,7*41
$GBGSV,4,1,15,37,84,210,35,58,67,253,,20,66,253,37,23,40,061,30,1*71
$GBGSV,4,2,15,32,32,168,29,19,29,313,30,46,27,236,,38,18,331,21,1*71
$GBGSV,4,3,15,08,13,341,21,31,09,335,,43,07,074,16,11,07,054,23,1*77
$GBGSV,4,4,15,34,06,031,23,13,04,346,18,12,02,006,,1*49
$GNRMC,195410.000,A,4910.423698,N,12304.402434,W,0.03,51.88,051224,,,D,V*2D
$GNVTG,51.88,T,,M,0.03,N,0.05,K,D*14
$PAIRLOG,Full*51
$GNGGA,195411.000,4910.423716,N,12304.402374,W,2,28,0.54,-4.000,M,-16.816,M,,*66
