$GNGGA,222109.000,4910.428462,N,12304.402200,W,2,27,0.51,3.221,M,-16.817,M,,*4C
$GNGLL,4910.428462,N,12304.402200,W,222109.000,A,D*58
$GNGSA,A,3,09,04,07,16,26,30,20,03,11,27,06,,0.84,0.51,0.66,1*01
$GNGSA,A,3,75,72,,,,,,,,,,,0.84,0.51,0.66,2*0D
$GNGSA,A,3,03,08,25,02,24,05,13,26,07,,,,0.84,0.51,0.66,3*07
$GNGSA,A,3,22,36,19,45,21,,,,,,,,0.84,0.51,0.66,4*03
$GPGSV,4,1,14,09,81,301,40,04,63,110,37,07,49,251,37,16,45,070,36,1*6B
$GPGSV,4,2,14,46,33,187,32,26,19,046,31,30,17,249,28,20,16,321,29,1*68
$GPGSV,4,3,14,03,16,174,30,11,12,301,32,27,10,107,31,06,08,261,24,1*6E
$GPGSV,4,4,14,31,04,067,15,08,01,136,,1*6F
$GLGSV,1,1,03,75,70,052,23,76,44,207,,72,17,136,24,1*4D
$GAGSV,3,1,09,03,68,107,35,08,56,298,35,25,56,096,33,02,36,173,30,7*71
$GAGSV,3,2,09,24,21,042,28,05,16,112,27,13,15,271,17,26,13,322,27,7*73
$GAGSV,3,3,09,07,05,294,25,7*40
$GBGSV,3,1,10,22,71,275,34,36,71,193,30,46,48,060,,19,44,154,26,1*7B
$GBGSV,3,2,10,45,22,221,21,21,22,312,22,38,14,332,21,08,05,341,14,1*77
$GBGSV,3,3,10,57,02,007,,04,01,261,,1*70
$GNRMC,222109.000,A,4910.428462,N,12304.402200,W,0.01,348.30,151024,,,D,V*1B
$GNVTG,348.30,T,,M,0.01,N,0.02,K,D*29
$GNGGA,222110.000,4910.428498,N,12304.402134,W,2,27,0.51,3.060,M,-16.816,M,,*43
$GNGLL,4910.428498,N,12304.402134,W,222110.000,A,D*51
$GNGSA,A,3,09,04,07,16,26,30,20,03,11,27,06,,0.84,0.51,0.66,1*01
$GNGSA,A,3,75,72,,,,,,,,,,,0.84,0.51,0.66,2*0D
$GNGSA,A,3,03,25,08,02,24,05,13,26,07,,,,0.84,0.51,0.66,3*07
$GNGSA,A,3,22,36,19,21,45,,,,,,,,0.84,0.51,0.66,4*03
$GPGSV,4,1,14,09,81,301,40,04,63,110,37,07,49,251,37,16,45,070,36,1*6B
$GPGSV,4,2,14,46,33,187,32,26,19,046,31,30,17,249,28,20,16,321,29,1*68
$GPGSV,4,3,14,03,16,174,30,11,12,301,31,27,10,107,31,06,08,261,24,1*6D
$GPGSV,4,4,14,31,04,067,15,08,01,136,,1*6F
$GLGSV,2,1,07,65,76,134,,75,70,052,22,66,48,320,,76,44,207,,1*73
$GLGSV,2,2,07,72,17,136,24,74,16,037,,83,11,000,,1*45
$GAGSV,3,1,09,03,68,107,34,25,56,096,33,08,56,298,35,02,36,173,30,7*70
$GAGSV,3,2,09,24,21,042,28,05,16,112,27,13,15,271,17,26,13,322,27,7*73
$GAGSV,3,3,09,07,05,294,25,7*40
$GBGSV,3,1,10,22,71,275,34,36,71,193,30,46,48,060,,19,44,154,26,1*7B
$GBGSV,3,2,10,21,22,312,22,45,22,221,21,38,14,332,21,08,05,341,14,1*77
$GBGSV,3,3,10,57,02,007,,04,01,261,,1*70
$GNRMC,222110.000,A,4910.428498,N,12304.402134,W,0.01,348.30,151024,,,D,V*12
$GNVTG,348.30,T,,M,0.01,N,0.03,K,D*28
$GNGGA,222111.000,4910.428480,N,12304.402098,W,2,27,0.51,2.925,M,-16.816,M,,*45
$GNGLL,4910.428480,N,12304.402098,W,222111.000,A,D*5E
$GNGSA,A,3,09,04,07,16,26,30,20,03,11,27,06,,0.84,0.51,0.66,1*01
$GNGSA,A,3,75,72,,,,,,,,,,,0.84,0.51,0.66,2*0D
$GNGSA,A,3,03,25,08,02,24,05,13,26,07,,,,0.84,0.51,0.66,3*07
$GNGSA,A,3,22,36,19,21,45,,,,,,,,0.84,0.51,0.66,4*03
$GPGSV,4,1,14,09,81,301,40,04,63,110,37,07,49,251,37,16,45,070,36,1*6B
$GPGSV,4,2,14,46,33,187,32,26,19,046,31,30,17,249,28,20,16,321,29,1*68
$GPGSV,4,3,14,03,16,174,30,11,12,301,31,27,10,107,31,06,08,261,23,1*6A
$GPGSV,4,4,14,31,04,067,16,08,01,136,,1*6C
$GLGSV,2,1,07,65,76,134,,75,70,052,22,66,48,320,,76,44,207,,1*73
$GLGSV,2,2,07,72,17,136,24,74,16,037,,83,11,000,,1*45
$GAGSV,3,1,09,03,68,107,34,25,56,096,33,08,56,298,35,02,36,173,30,7*70
$GAGSV,3,2,09,24,21,042,28,05,16,112,27,13,15,271,17,26,13,322,27,7*73
$GAGSV,3,3,09,07,05,294,25,7*40
$GBGSV,3,1,10,22,71,275,34,36,71,193,30,46,48,060,,19,44,154,26,1*7B
$GBGSV,3,2,10,21,22,312,22,45,22,221,21,38,14,332,21,08,05,341,14,1*77
$GBGSV,3,3,10,57,02,007,,04,01,261,,1*70
$GNRMC,222111.000,A,4910.428480,N,12304.402098,W,0.01,348.30,151024,,,D,V*1D
$GNVTG,348.30,T,,M,0.01,N,0.03,K,D*28
$GNGGA,222112.000,4910.428384,N,12304.402086,W,2,27,0.51,2.800,M,-16.817,M,,*4D
$GNGLL,4910.428384,N,12304.402086,W,222112.000,A,D*51
$GNGSA,A,3,09,04,07,16,26,30,20,03,11,27,06,,0.84,0.51,0.66,1*01
$GNGSA,A,3,75,72,,,,,,,,,,,0.84,0.51,0.66,2*0D
$GNGSA,A,3,03,08,25,02,24,05,13,26,07,,,,0.84,0.51,0.66,3*07
$GNGSA,A,3,22,36,19,45,21,,,,,,,,0.84,0.51,0.66,4*03
$GPGSV,4,1,14,09,81,301,40,04,63,110,37,07,49,251,37,16,45,070,36,1*6B
$GPGSV,4,2,14,46,33,187,32,26,19,046,31,30,17,249,28,20,16,321,30,1*60
$GPGSV,4,3,14,03,16,174,30,11,12,301,31,27,10,107,31,06,08,261,24,1*6D
$GPGSV,4,4,14,31,04,067,16,08,01,136,,1*6C
$GLGSV,1,1,03,75,70,052,22,76,44,207,,72,17,136,24,1*4C
$GAGSV,3,1,09,03,68,107,34,08,56,298,35,25,56,096,33,02,36,173,30,7*70
$GAGSV,3,2,09,24,21,042,28,05,16,112,27,13,15,271,17,26,13,322,27,7*73
$GAGSV,3,3,09,07,05,294,25,7*40
$GBGSV,3,1,10,22,71,275,34,36,71,193,30,46,48,060,,19,44,154,26,1*7B
$GBGSV,3,2,10,45,22,221,21,21,22,312,22,38,14,332,21,08,05,341,14,1*77
$GBGSV,3,3,10,57,02,007,,04,01,261,,1*70
$GNRMC,222112.000,A,4910.428384,N,12304.402086,W,0.01,348.30,151024,,,D,V*12
$GNVTG,348.30,T,,M,0.01,N,0.03,K,D*28
$GNGGA,222113.000,4910.428264,N,12304.402086,W,2,27,0.51,2.700,M,-16.816,M,,*4D
$GNGLL,4910.428264,N,12304.402086,W,222113.000,A,D*5F
$GNGSA,A,3,09,04,07,16,26,30,20,03,11,27,06,,0.84,0.51,0.66,1*01
$GNGSA,A,3,75,72,,,,,,,,,,,0.84,0.51,0.66,2*0D
$GNGSA,A,3,03,25,08,02,24,05,13,26,07,,,,0.84,0.51,0.66,3*07
$GNGSA,A,3,22,36,19,21,45,,,,,,,,0.84,0.51,0.66,4*03
$GPGSV,4,1,14,09,81,301,40,04,63,110,37,07,49,251,37,16,45,070,36,1*6B
$GPGSV,4,2,14,46,33,187,32,26,19,046,31,30,17,249,28,20,16,321,30,1*60
$GPGSV,4,3,14,03,16,174,30,11,12,301,31,27,10,107,31,06,08,261,23,1*6A
$GPGSV,4,4,14,31,04,067,16,08,01,136,,1*6C
$GLGSV,2,1,07,65,76,134,,75,70,052,23,66,48,320,,76,44,207,,1*72
$GLGSV,2,2,07,72,17,136,23,74,16,037,,83,11,000,,1*42
$GAGSV,3,1,09,03,68,107,34,25,56,096,33,08,56,298,35,02,36,173,30,7*70
$GAGSV,3,2,09,24,21,042,28,05,16,112,27,13,15,271,17,26,13,322,27,7*73
$GAGSV,3,3,09,07,05,294,25,7*40
$GBGSV,3,1,10,22,71,275,34,36,71,193,30,46,48,060,,19,44,154,26,1*7B
$GBGSV,3,2,10,21,22,312,22,45,22,221,21,38,14,332,21,08,05,341,14,1*77
$GBGSV,3,3,10,57,02,007,,04,01,261,,1*70
$GNRMC,222113.000,A,4910.428264,N,12304.402086,W,0.02,348.30,151024,,,D,V*1F
$GNVTG,348.30,T,,M,0.02,N,0.03,K,D*2B
$GNGGA,222114.000,4910.428180,N,12304.402134,W,2,27,0.51,2.667,M,-16.816,M,,*4B
$GNGLL,4910.428180,N,12304.402134,W,222114.000,A,D*59
$GNGSA,A,3,09,04,07,16,26,30,20,03,11,27,06,,0.84,0.51,0.66,1*01
$GNGSA,A,3,75,72,,,,,,,,,,,0.84,0.51,0.66,2*0D
$GNGSA,A,3,03,25,08,02,24,05,13,26,07,,,,0.84,0.51,0.66,3*07
$GNGSA,A,3,22,36,19,21,45,,,,,,,,0.84,0.51,0.66,4*03
$GPGSV,4,1,14,09,81,301,40,04,63,110,37,07,49,251,37,16,45,070,36,1*6B
$GPGSV,4,2,14,46,33,187,32,26,19,046,31,30,17,249,28,20,16,321,30,1*60
$GPGSV,4,3,14,03,16,174,30,11,12,301,31,27,10,107,31,06,08,261,23,1*6A
$GPGSV,4,4,14,31,04,067,16,08,01,136,,1*6C
$GLGSV,2,1,07,65,76,134,,75,70,052,23,66,48,320,,76,44,207,,1*72
$GLGSV,2,2,07,72,17,136,24,74,16,037,,83,11,000,,1*45
$GAGSV,3,1,09,03,68,107,34,25,56,096,33,08,56,298,35,02,36,173,30,7*70
$GAGSV,3,2,09,24,21,042,28,05,16,112,27,13,15,271,17,26,13,322,27,7*73
$GAGSV,3,3,09,07,05,294,25,7*40
$GBGSV,3,1,10,22,71,275,34,36,71,193,30,46,48,060,,19,44,154,26,1*7B
$GBGSV,3,2,10,21,22,312,22,45,22,221,21,38,14,332,21,08,05,341,14,1*77
$GBGSV,3,3,10,57,02,007,,04,01,261,,1*70
$GNRMC,222114.000,A,4910.428180,N,12304.402134,W,0.02,348.30,151024,,,D,V*19
$GNVTG,348.30,T,,M,0.02,N,0.04,K,D*2C
$GNGGA,222115.000,4910.428078,N,12304.402194,W,2,27,0.51,2.594,M,-16.816,M,,*49
$GNGLL,4910.428078,N,12304.402194,W,222115.000,A,D*54
$GNGSA,A,3,09,04,07,16,26,30,20,03,11,27,06,,0.84,0.51,0.66,1*01
$GNGSA,A,3,75,72,,,,,,,,,,,0.84,0.51,0.66,2*0D
$GNGSA,A,3,03,25,08,02,24,05,13,26,07,,,,0.84,0.51,0.66,3*07
$GNGSA,A,3,22,36,19,21,45,,,,,,,,0.84,0.51,0.66,4*03
$GPGSV,4,1,14,09,81,301,40,04,63,110,37,07,49,251,37,16,45,070,36,1*6B
$GPGSV,4,2,14,46,33,187,32,26,19,046,31,30,17,249,28,20,16,321,30,1*60
$GPGSV,4,3,14,03,16,174,30,11,12,301,31,27,10,107,31,06,08,261,23,1*6A
$GPGSV,4,4,14,31,04,067,16,08,01,136,,1*6C
$GLGSV,2,1,07,65,76,134,,75,70,052,23,66,48,320,,76,44,207,,1*72
$GLGSV,2,2,07,72,17,136,22,74,16,037,,83,11,000,,1*43
$GAGSV,3,1,09,03,68,107,35,25,56,096,33,08,56,298,35,02,36,173,30,7*71
$GAGSV,3,2,09,24,21,042,29,05,16,112,27,13,15,271,17,26,13,322,27,7*72
$GAGSV,3,3,09,07,05,294,25,7*40
$GBGSV,3,1,10,22,71,275,34,36,71,193,30,46,48,060,,19,44,154,26,1*7B
$GBGSV,3,2,10,21,22,312,22,45,22,221,21,38,14,332,21,08,05,341,14,1*77
$GBGSV,3,3,10,57,02,007,,04,01,261,,1*70
$GNRMC,222115.000,A,4910.428078,N,12304.402194,W,0.02,348.30,151024,,,D,V*14
$GNVTG,348.30,T,,M,0.02,N,0.04,K,D*2C
$GNGGA,222116.000,4910.427952,N,12304.402170,W,2,27,0.51,2.496,M,-16.816,M,,*4D
$GNGLL,4910.427952,N,12304.402170,W,222116.000,A,D*53
$GNGSA,A,3,09,04,07,16,26,30,20,03,11,27,06,,0.84,0.51,0.66,1*01
$GNGSA,A,3,75,72,,,,,,,,,,,0.84,0.51,0.66,2*0D
$GNGSA,A,3,03,25,08,02,24,05,13,26,07,,,,0.84,0.51,0.66,3*07
$GNGSA,A,3,22,36,19,21,45,,,,,,,,0.84,0.51,0.66,4*03
$GPGSV,4,1,14,09,81,301,40,04,63,110,37,07,49,251,37,16,45,070,36,1*6B
$GPGSV,4,2,14,46,33,187,32,26,19,046,31,30,17,249,28,20,16,321,30,1*60
$GPGSV,4,3,14,03,16,174,30,11,12,301,31,27,10,107,31,06,08,261,23,1*6A
$GPGSV,4,4,14,31,04,067,16,08,01,136,,1*6C
$GLGSV,2,1,07,65,76,134,,75,70,052,23,66,48,320,,76,44,207,,1*72
$GLGSV,2,2,07,72,17,136,22,74,16,037,,83,11,000,,1*43
$GAGSV,3,1,09,03,68,107,35,25,56,096,33,08,56,298,35,02,36,173,30,7*71
$GAGSV,3,2,09,24,21,042,29,05,16,112,27,13,15,271,18,26,13,322,27,7*7D
$GAGSV,3,3,09,07,05,294,25,7*40
$GBGSV,3,1,10,22,71,275,34,36,71,193,31,46,48,060,,19,44,154,26,1*7A
$GBGSV,3,2,10,21,22,312,22,45,22,221,21,38,14,332,21,08,05,341,15,1*76
$GBGSV,3,3,10,57,02,007,,04,01,261,,1*70
$GNRMC,222116.000,A,4910.427952,N,12304.402170,W,0.02,348.30,151024,,,D,V*13
$GNVTG,348.30,T,,M,0.02,N,0.04,K,D*2C
$GNGGA,222117.000,4910.427898,N,12304.402212,W,2,27,0.51,2.473,M,-16.816,M,,*47
$GNGLL,4910.427898,N,12304.402212,W,222117.000,A,D*52
$GNGSA,A,3,09,04,07,16,26,30,20,03,11,27,06,,0.84,0.51,0.66,1*01
$GNGSA,A,3,75,72,,,,,,,,,,,0.84,0.51,0.66,2*0D
$GNGSA,A,3,03,25,08,02,24,05,13,26,07,,,,0.84,0.51,0.66,3*07
$GNGSA,A,3,22,36,19,21,45,,,,,,,,0.84,0.51,0.66,4*03
$GPGSV,4,1,14,09,81,301,40,04,63,110,37,07,49,251,37,16,45,070,36,1*6B
$GPGSV,4,2,14,46,33,187,32,26,19,046,31,30,17,249,28,20,16,321,30,1*60
$GPGSV,4,3,14,03,16,174,30,11,12,301,31,27,10,107,31,06,08,261,23,1*6A
$GPGSV,4,4,14,31,04,067,16,08,01,136,,1*6C
$GLGSV,2,1,07,65,76,134,,75,70,052,23,66,48,320,,76,44,207,,1*72
$GLGSV,2,2,07,72,17,136,24,74,16,037,,83,11,000,,1*45
$GAGSV,3,1,09,03,68,107,35,25,56,096,33,08,56,298,35,02,36,173,30,7*71
$GAGSV,3,2,09,24,21,042,29,05,16,112,27,13,15,271,18,26,13,322,27,7*7D
$GAGSV,3,3,09,07,05,294,25,7*40
$GBGSV,3,1,10,22,71,275,34,36,71,193,31,46,48,060,,19,44,154,26,1*7A
$GBGSV,3,2,10,21,22,312,22,45,22,221,21,38,14,332,21,08,05,341,15,1*76
$GBGSV,3,3,10,57,02,007,,04,01,261,,1*70
$GNRMC,222117.000,A,4910.427898,N,12304.402212,W,0.03,348.30,151024,,,D,V*13
$GNVTG,348.30,T,,M,0.03,N,0.05,K,D*2C
$GNGGA,222118.000,4910.427784,N,12304.402254,W,2,27,0.51,2.419,M,-16.816,M,,*44
$GNGLL,4910.427784,N,12304.402254,W,222118.000,A,D*5D
$GNGSA,A,3,09,04,07,16,26,30,20,03,11,27,06,,0.84,0.51,0.66,1*01
$GNGSA,A,3,75,72,,,,,,,,,,,0.84,0.51,0.66,2*0D
$GNGSA,A,3,03,25,08,02,24,05,13,26,07,,,,0.84,0.51,0.66,3*07
$GNGSA,A,3,22,36,19,21,45,,,,,,,,0.84,0.51,0.66,4*03
$GPGSV,4,1,14,09,81,301,40,04,63,110,37,07,49,251,37,16,45,070,36,1*6B
$GPGSV,4,2,14,46,33,187,31,26,19,046,31,30,17,249,28,20,16,321,30,1*63
$GPGSV,4,3,14,03,16,174,30,11,12,301,31,27,10,107,31,06,08,261,23,1*6A
$GPGSV,4,4,14,31,04,067,16,08,01,136,,1*6C
$GLGSV,2,1,07,65,76,134,,75,70,052,23,66,48,320,,76,44,207,,1*72
$GLGSV,2,2,07,72,17,136,21,74,16,037,,83,11,000,,1*40
$GAGSV,3,1,09,03,68,107,35,25,56,096,33,08,56,298,35,02,36,173,31,7*70
$GAGSV,3,2,09,24,21,042,29,05,16,112,27,13,15,271,18,26,13,322,27,7*7D
$GAGSV,3,3,09,07,05,294,25,7*40
$GBGSV,3,1,10,22,71,275,34,36,71,193,31,46,48,060,,19,44,154,26,1*7A
$GBGSV,3,2,10,21,22,312,22,45,22,221,21,38,14,332,21,08,05,341,15,1*76
$GBGSV,3,3,10,57,02,007,,04,01,261,,1*70
$GNRMC,222118.000,A,4910.427784,N,12304.402254,W,0.03,348.30,151024,,,D,V*1C
$GNVTG,348.30,T,,M,0.03,N,0.05,K,D*2C
$GNGGA,222119.000,4910.427760,N,12304.402182,W,2,27,0.51,2.456,M,-16.816,M,,*4C
