$GNGGA,222109.000,4910.425545,N,12304.401628,W,1,25,0.63,4.102,M,-16.816,M,,*4C
$GNRMC,222109.000,A,4910.425545,N,12304.401628,W,0.004,126.46,151024,,,A,V*24
$GNGLL,4910.425545,N,12304.401628,W,222109.000,A,A*59
$GNVTG,126.46,T,,M,0.004,N,0.008,K,A*28
$GNGSA,A,3,03,04,06,07,09,11,16,20,26,27,30,31,0.93,0.63,0.68,1*0A
$GNGSA,A,3,,,,,,,,,,,,,0.93,0.63,0.68,2*03
$GNGSA,A,3,02,03,05,08,13,24,25,,,,,,0.93,0.63,0.68,3*0D
$GNGSA,A,3,19,21,22,36,38,45,,,,,,,0.93,0.63,0.68,4*01
$GNGSA,A,3,,,,,,,,,,,,,0.93,0.63,0.68,5*04
$GPGSV,4,1,13,03,15,174,28,04,62,110,35,06,07,260,18,07,49,251,35,1*6C
$GPGSV,4,2,13,09,80,301,38,11,12,301,29,16,45,069,35,20,16,321,29,1*63
$GPGSV,4,3,13,26,18,045,29,27,10,107,29,30,17,249,28,31,04,066,16,1*6E
$GPGSV,4,4,13,44,33,172,33,1*52
$GPGSV,1,1,03,04,62,110,23,09,80,301,23,11,12,301,12,8*5F
$GLGSV,1,1,01,68,,,21,1*74
$GAGSV,3,1,09,02,35,173,29,03,68,106,34,05,16,112,25,07,,,23,7*4E
$GAGSV,3,2,09,08,55,298,34,13,14,270,19,24,21,042,25,25,55,095,32,7*73
$GAGSV,3,3,09,26,,,25,7*79
$GAGSV,1,1,04,02,35,173,17,03,68,106,19,08,55,298,20,25,55,095,20,1*74
$GBGSV,2,1,07,08,,,21,19,44,153,36,21,22,312,29,22,71,274,41,1*49
$GBGSV,2,2,07,36,71,192,39,38,13,331,30,45,22,221,30,1*4A
$GBGSV,1,1,03,19,44,153,21,22,71,274,19,36,71,192,24,5*4D
$GQGSV,1,1,00,1*65
$GQGSV,1,1,00,8*6C
$PAIR010,0,1,2336,253287*37
$GNGGA,222110.000,4910.425546,N,12304.401629,W,1,25,0.64,4.101,M,-16.816,M,,*42
$GNRMC,222110.000,A,4910.425546,N,12304.401629,W,0.006,126.46,151024,,,A,V*2C
$GNGLL,4910.425546,N,12304.401629,W,222110.000,A,A*53
$GNVTG,126.46,T,,M,0.006,N,0.011,K,A*22
$GNGSA,A,3,03,04,06,07,09,11,16,20,26,27,30,31,0.96,0.64,0.71,1*00
$GNGSA,A,3,,,,,,,,,,,,,0.96,0.64,0.71,2*09
$GNGSA,A,3,02,03,05,08,13,24,25,,,,,,0.96,0.64,0.71,3*07
$GNGSA,A,3,19,21,22,36,38,45,,,,,,,0.96,0.64,0.71,4*0B
$GNGSA,A,3,,,,,,,,,,,,,0.96,0.64,0.71,5*0E
$GPGSV,4,1,13,03,15,174,26,04,62,110,35,06,07,260,20,07,49,251,34,1*68
$GPGSV,4,2,13,09,80,301,37,11,12,301,27,16,45,069,33,20,16,321,29,1*64
$GPGSV,4,3,13,26,18,045,29,27,10,107,29,30,17,249,26,31,04,066,15,1*63
$GPGSV,4,4,13,44,33,172,33,1*52
$GPGSV,1,1,03,04,62,110,23,09,80,301,23,11,12,301,12,8*5F
$GLGSV,1,1,01,68,,,20,1*75
$GAGSV,3,1,09,02,35,173,28,03,68,106,33,05,16,112,25,07,,,21,7*4A
$GAGSV,3,2,09,08,55,298,32,13,14,270,20,24,21,042,26,25,55,095,30,7*7E
$GAGSV,3,3,09,26,,,23,7*7F
$GAGSV,1,1,04,02,35,173,17,03,68,106,20,08,55,298,20,25,55,095,19,1*74
$GBGSV,2,1,07,08,,,22,19,44,153,36,21,22,312,30,22,71,274,41,1*42
$GBGSV,2,2,07,36,71,192,39,38,13,331,30,45,22,221,31,1*4B
$GBGSV,1,1,03,19,44,153,20,22,71,274,19,36,71,192,23,5*4B
$GQGSV,1,1,00,1*65
$GQGSV,1,1,00,8*6C
$GNGGA,222111.000,4910.425548,N,12304.401631,W,1,25,0.64,4.100,M,-16.816,M,,*45
$GNRMC,222111.000,A,4910.425548,N,12304.401631,W,0.004,126.46,151024,,,A,V*28
$GNGLL,4910.425548,N,12304.401631,W,222111.000,A,A*55
$GNVTG,126.46,T,,M,0.004,N,0.007,K,A*27
$GNGSA,A,3,03,04,06,07,09,11,16,20,26,27,30,31,0.96,0.64,0.71,1*00
$GNGSA,A,3,,,,,,,,,,,,,0.96,0.64,0.71,2*09
$GNGSA,A,3,02,03,05,08,13,24,25,,,,,,0.96,0.64,0.71,3*07
$GNGSA,A,3,19,21,22,36,38,45,,,,,,,0.96,0.64,0.71,4*0B
$GNGSA,A,3,,,,,,,,,,,,,0.96,0.64,0.71,5*0E
$GPGSV,4,1,13,03,15,174,28,04,62,110,35,06,07,260,20,07,49,251,35,1*67
$GPGSV,4,2,13,09,80,301,38,11,12,301,28,16,45,069,34,20,16,320,30,1*6A
$GPGSV,4,3,13,26,18,045,30,27,10,106,29,30,17,249,27,31,04,066,16,1*68
$GPGSV,4,4,13,44,33,172,33,1*52
$GPGSV,1,1,03,04,62,110,23,09,80,301,23,11,12,301,11,8*5C
$GLGSV,1,1,01,68,,,22,1*77
$GAGSV,3,1,09,02,35,173,30,03,67,106,35,05,16,112,28,07,,,23,7*45
$GAGSV,3,2,09,08,55,298,34,13,14,270,21,24,21,042,27,25,55,095,31,7*79
$GAGSV,3,3,09,26,,,24,7*78
$GAGSV,1,1,04,02,35,173,17,03,67,106,21,08,55,298,20,25,55,095,22,1*72
$GBGSV,2,1,07,08,,,22,19,44,153,37,21,22,312,31,22,71,274,42,1*41
$GBGSV,2,2,07,36,71,192,39,38,13,331,31,45,22,221,31,1*4A
$GBGSV,1,1,03,19,44,153,22,22,71,274,20,36,71,192,24,5*44
$GQGSV,1,1,00,1*65
$GQGSV,1,1,00,8*6C
$GNGGA,222112.000,4910.425549,N,12304.401633,W,1,25,0.63,4.100,M,-16.817,M,,*43
$GNRMC,222112.000,A,4910.425549,N,12304.401633,W,0.003,126.46,151024,,,A,V*2F
$GNGLL,4910.425549,N,12304.401633,W,222112.000,A,A*55
$GNVTG,126.46,T,,M,0.003,N,0.006,K,A*21
$GNGSA,A,3,03,04,06,07,09,11,16,20,26,27,30,31,0.94,0.63,0.70,1*04
$GNGSA,A,3,,,,,,,,,,,,,0.94,0.63,0.70,2*0D
$GNGSA,A,3,02,03,05,08,13,24,25,,,,,,0.94,0.63,0.70,3*03
$GNGSA,A,3,19,21,22,36,38,45,,,,,,,0.94,0.63,0.70,4*0F
$GNGSA,A,3,,,,,,,,,,,,,0.94,0.63,0.70,5*0A
$GPGSV,4,1,13,03,15,174,28,04,62,110,35,06,07,260,19,07,49,251,36,1*6E
$GPGSV,4,2,13,09,80,301,38,11,12,301,28,16,45,069,35,20,16,320,29,1*63
$GPGSV,4,3,13,26,18,045,30,27,10,106,29,30,17,249,27,31,04,066,17,1*69
$GPGSV,4,4,13,44,33,172,33,1*52
$GPGSV,1,1,03,04,62,110,25,09,80,301,24,11,12,301,12,8*5E
$GLGSV,1,1,01,68,,,20,1*75
$GAGSV,3,1,09,02,35,173,30,03,67,106,34,05,16,112,27,07,,,22,7*4A
$GAGSV,3,2,09,08,55,298,33,13,14,270,21,24,21,042,25,25,55,095,33,7*7E
$GAGSV,3,3,09,26,,,26,7*7A
$GAGSV,1,1,04,02,35,173,17,03,67,106,21,08,55,298,22,25,55,095,21,1*73
$GBGSV,2,1,07,08,,,22,19,44,153,37,21,22,312,31,22,71,274,42,1*41
$GBGSV,2,2,07,36,71,192,39,38,13,331,31,45,22,221,32,1*49
$GBGSV,1,1,03,19,44,153,21,22,71,274,20,36,71,192,24,5*47
$GQGSV,1,1,00,1*65
$GQGSV,1,1,00,8*6C
$GNGGA,222113.000,4910.425548,N,12304.401636,W,1,25,0.52,4.102,M,-16.817,M,,*46
$GNRMC,222113.000,A,4910.425548,N,12304.401636,W,0.009,126.46,151024,,,A,V*20
$GNGLL,4910.425548,N,12304.401636,W,222113.000,A,A*50
$GNVTG,126.46,T,,M,0.009,N,0.016,K,A*2A
$GNGSA,A,3,03,04,06,07,09,11,16,20,26,27,30,31,0.81,0.52,0.62,1*01
$GNGSA,A,3,,,,,,,,,,,,,0.81,0.52,0.62,2*08
$GNGSA,A,3,02,03,05,08,13,24,25,,,,,,0.81,0.52,0.62,3*06
$GNGSA,A,3,19,21,22,36,38,45,,,,,,,0.81,0.52,0.62,4*0A
$GNGSA,A,3,,,,,,,,,,,,,0.81,0.52,0.62,5*0F
$GPGSV,4,1,13,03,15,174,28,04,62,110,35,06,07,260,20,07,49,251,35,1*67
$GPGSV,4,2,13,09,80,301,39,11,12,301,28,16,45,069,35,20,16,320,29,1*62
$GPGSV,4,3,13,26,18,045,30,27,10,106,27,30,17,249,27,31,04,066,15,1*65
$GPGSV,4,4,13,44,33,172,33,1*52
$GPGSV,1,1,02,04,62,110,23,09,80,301,23,8*6C
$GLGSV,1,1,01,68,,,20,1*75
$GAGSV,3,1,09,02,35,173,30,03,67,107,34,05,16,112,25,07,,,24,7*4F
$GAGSV,3,2,09,08,55,298,34,13,14,270,20,24,20,042,26,25,55,095,32,7*7B
$GAGSV,3,3,09,26,,,26,7*7A
$GAGSV,1,1,04,02,35,173,16,03,67,107,20,08,55,298,21,25,55,095,21,1*71
$GBGSV,2,1,07,08,,,22,19,44,153,37,21,22,312,32,22,71,274,41,1*41
$GBGSV,2,2,07,36,71,192,39,38,13,331,31,45,22,221,31,1*4A
$GBGSV,1,1,03,19,44,153,22,22,71,274,20,36,71,192,23,5*43
$GQGSV,1,1,00,1*65
$GQGSV,1,1,00,8*6C
$GNGGA,222114.000,4910.425547,N,12304.401640,W,1,25,0.52,4.101,M,-16.816,M,,*4D
$GNRMC,222114.000,A,4910.425547,N,12304.401640,W,0.008,126.46,151024,,,A,V*28
$GNGLL,4910.425547,N,12304.401640,W,222114.000,A,A*59
$GNVTG,126.46,T,,M,0.008,N,0.016,K,A*2B
$GNGSA,A,3,03,04,06,07,09,11,16,20,26,27,30,31,0.81,0.52,0.62,1*01
$GNGSA,A,3,,,,,,,,,,,,,0.81,0.52,0.62,2*08
$GNGSA,A,3,02,03,05,08,13,24,25,,,,,,0.81,0.52,0.62,3*06
$GNGSA,A,3,19,21,22,36,38,45,,,,,,,0.81,0.52,0.62,4*0A
$GNGSA,A,3,,,,,,,,,,,,,0.81,0.52,0.62,5*0F
$GPGSV,4,1,13,03,15,174,27,04,62,110,34,06,07,260,20,07,49,251,35,1*69
$GPGSV,4,2,13,09,80,301,38,11,12,301,28,16,45,069,35,20,16,320,28,1*62
$GPGSV,4,3,13,26,18,045,29,27,10,106,29,30,17,249,26,31,04,066,16,1*61
$GPGSV,4,4,13,44,33,172,33,1*52
$GPGSV,1,1,02,04,62,110,24,09,80,301,23,8*6B
$GLGSV,1,1,01,68,,,20,1*75
$GAGSV,3,1,09,02,35,173,30,03,67,107,34,05,16,112,24,07,,,24,7*4E
$GAGSV,3,2,09,08,55,298,33,13,14,270,20,24,20,042,25,25,55,095,30,7*7D
$GAGSV,3,3,09,26,,,24,7*78
$GAGSV,1,1,04,02,35,173,17,03,67,107,20,08,55,298,21,25,55,095,21,1*70
$GBGSV,2,1,07,08,,,22,19,44,153,37,21,22,312,29,22,71,274,41,1*4B
$GBGSV,2,2,07,36,71,192,39,38,13,331,30,45,22,221,31,1*4B
$GBGSV,1,1,03,19,44,153,20,22,71,274,20,36,71,192,23,5*41
$GQGSV,1,1,00,1*65
$GQGSV,1,1,00,8*6C
$GNGGA,222115.000,4910.425543,N,12304.401643,W,1,25,0.52,4.103,M,-16.817,M,,*48
$GNRMC,222115.000,A,4910.425543,N,12304.401643,W,0.004,126.46,151024,,,A,V*22
$GNGLL,4910.425543,N,12304.401643,W,222115.000,A,A*5F
$GNVTG,126.46,T,,M,0.004,N,0.007,K,A*27
$GNGSA,A,3,03,04,06,07,09,11,16,20,26,27,30,31,0.81,0.52,0.62,1*01
$GNGSA,A,3,,,,,,,,,,,,,0.81,0.52,0.62,2*08
$GNGSA,A,3,02,03,05,08,13,24,25,,,,,,0.81,0.52,0.62,3*06
$GNGSA,A,3,19,21,22,36,38,45,,,,,,,0.81,0.52,0.62,4*0A
$GNGSA,A,3,,,,,,,,,,,,,0.81,0.52,0.62,5*0F
$GPGSV,4,1,13,03,15,174,26,04,62,110,35,06,07,260,20,07,49,251,35,1*69
$GPGSV,4,2,13,09,80,301,38,11,12,301,28,16,45,069,35,20,16,320,29,1*63
$GPGSV,4,3,13,26,18,045,29,27,10,106,29,30,17,249,26,31,04,066,15,1*62
$GPGSV,4,4,13,44,33,172,33,1*52
$GPGSV,1,1,02,04,62,110,24,09,80,301,23,8*6B
$GLGSV,1,1,01,68,,,21,1*74
$GAGSV,3,1,09,02,35,173,29,03,67,107,33,05,16,112,28,07,,,23,7*4A
$GAGSV,3,2,09,08,55,298,33,13,14,270,20,24,20,042,28,25,55,095,30,7*70
$GAGSV,3,3,09,26,,,24,7*78
$GAGSV,1,1,04,02,35,173,16,03,67,107,19,08,55,298,21,25,55,095,21,1*7B
$GBGSV,2,1,07,08,,,20,19,44,153,36,21,22,312,29,22,71,274,41,1*48
$GBGSV,2,2,07,36,71,192,39,38,13,331,30,45,22,221,30,1*4A
$GBGSV,1,1,03,19,44,153,21,22,71,274,20,36,71,192,23,5*40
$GQGSV,1,1,00,1*65
$GQGSV,1,1,00,8*6C
$GNGGA,222116.000,4910.425539,N,12304.401645,W,1,25,0.52,4.102,M,-16.816,M,,*40
$GNRMC,222116.000,A,4910.425539,N,12304.401645,W,0.004,126.46,151024,,,A,V*2A
$GNGLL,4910.425539,N,12304.401645,W,222116.000,A,A*57
$GNVTG,126.46,T,,M,0.004,N,0.007,K,A*27
$GNGSA,A,3,03,04,06,07,09,11,16,20,26,27,30,31,0.81,0.52,0.62,1*01
$GNGSA,A,3,,,,,,,,,,,,,0.81,0.52,0.62,2*08
$GNGSA,A,3,02,03,05,08,13,24,25,,,,,,0.81,0.52,0.62,3*06
$GNGSA,A,3,19,21,22,36,38,45,,,,,,,0.81,0.52,0.62,4*0A
$GNGSA,A,3,,,,,,,,,,,,,0.81,0.52,0.62,5*0F
$GPGSV,4,1,13,03,15,174,29,04,62,110,36,06,07,260,21,07,49,251,36,1*67
$GPGSV,4,2,13,09,80,301,38,11,12,301,30,16,45,069,35,20,16,320,29,1*6A
$GPGSV,4,3,13,26,18,045,30,27,10,106,30,30,17,249,27,31,04,066,15,1*63
$GPGSV,4,4,13,44,33,172,33,1*52
$GPGSV,1,1,02,04,62,110,22,09,80,301,22,8*6C
$GLGSV,1,1,01,68,,,20,1*75
$GAGSV,3,1,09,02,35,173,30,03,67,107,34,05,16,112,26,07,,,24,7*4C
$GAGSV,3,2,09,08,55,298,34,13,14,270,20,24,20,042,25,25,55,095,31,7*7B
$GAGSV,3,3,09,26,,,25,7*79
$GAGSV,1,1,04,02,35,173,16,03,67,107,18,08,55,298,19,25,55,095,21,1*71
$GBGSV,2,1,07,08,,,21,19,44,153,37,21,22,312,30,22,71,274,41,1*40
$GBGSV,2,2,07,36,71,192,39,38,13,331,31,45,22,221,31,1*4A
$GBGSV,1,1,03,19,44,153,20,22,71,274,18,36,71,192,22,5*4B
$GQGSV,1,1,00,1*65
$GQGSV,1,1,00,8*6C
$GNGGA,222117.000,4910.425536,N,12304.401644,W,1,25,0.51,4.105,M,-16.817,M,,*4A
$GNRMC,222117.000,A,4910.425536,N,12304.401644,W,0.010,126.46,151024,,,A,V*20
$GNGLL,4910.425536,N,12304.401644,W,222117.000,A,A*58
$GNVTG,126.46,T,,M,0.010,N,0.018,K,A*2C
$GNGSA,A,3,03,04,06,07,09,11,16,20,26,27,30,31,0.80,0.51,0.61,1*00
$GNGSA,A,3,,,,,,,,,,,,,0.80,0.51,0.61,2*09
$GNGSA,A,3,02,03,05,08,13,24,25,,,,,,0.80,0.51,0.61,3*07
$GNGSA,A,3,19,21,22,36,38,45,,,,,,,0.80,0.51,0.61,4*0B
$GNGSA,A,3,,,,,,,,,,,,,0.80,0.51,0.61,5*0E
$GPGSV,4,1,13,03,15,174,28,04,62,110,35,06,07,260,21,07,49,251,36,1*65
$GPGSV,4,2,13,09,80,301,38,11,12,301,29,16,45,069,35,20,16,320,29,1*62
$GPGSV,4,3,13,26,18,045,30,27,10,106,29,30,17,249,27,31,04,066,14,1*6A
$GPGSV,4,4,13,44,33,172,33,1*52
$GPGSV,1,1,02,04,62,110,24,09,80,301,24,8*6C
$GLGSV,1,1,01,68,,,19,1*7F
$GAGSV,3,1,09,02,35,173,29,03,67,107,34,05,16,112,26,07,,,24,7*44
$GAGSV,3,2,09,08,56,298,33,13,14,270,19,24,20,042,25,25,55,095,32,7*76
$GAGSV,3,3,09,26,,,25,7*79
$GAGSV,1,1,04,02,35,173,17,03,67,107,20,08,56,298,21,25,55,095,21,1*73
$GBGSV,2,1,07,08,,,22,19,44,153,37,21,22,312,31,22,71,274,41,1*42
$GBGSV,2,2,07,36,71,192,39,38,13,331,30,45,22,221,31,1*4B
$GBGSV,1,1,03,19,44,153,22,22,71,274,20,36,71,192,23,5*43
$GQGSV,1,1,00,1*65
$GQGSV,1,1,00,8*6C
$GNGGA,222118.000,4910.425532,N,12304.401640,W,1,25,0.50,4.106,M,-16.817,M,,*47
$GNRMC,222118.000,A,4910.425532,N,12304.401640,W,0.005,126.46,151024,,,A,V*2B
$GNGLL,4910.425532,N,12304.401640,W,222118.000,A,A*57
$GNVTG,126.46,T,,M,0.005,N,0.009,K,A*28
$GNGSA,A,3,03,04,06,07,09,11,16,20,26,27,30,31,0.80,0.50,0.62,1*02
$GNGSA,A,3,,,,,,,,,,,,,0.80,0.50,0.62,2*0B
$GNGSA,A,3,02,03,05,08,13,24,25,,,,,,0.80,0.50,0.62,3*05
$GNGSA,A,3,19,21,22,36,38,45,,,,,,,0.80,0.50,0.62,4*09
$GNGSA,A,3,,,,,,,,,,,,,0.80,0.50,0.62,5*0C
$GPGSV,4,1,13,03,15,174,28,04,62,110,35,06,07,260,20,07,49,251,36,1*64
$GPGSV,4,2,13,09,80,301,39,11,12,301,28,16,45,069,35,20,16,320,29,1*62
$GPGSV,4,3,13,26,18,045,31,27,10,106,30,30,17,249,25,31,04,066,16,1*63
$GPGSV,4,4,13,44,33,172,33,1*52
$GPGSV,1,1,02,04,62,110,24,09,80,301,24,8*6C
$GLGSV,1,1,01,68,,,21,1*74
$GAGSV,3,1,09,02,35,173,30,03,67,107,33,05,16,112,26,07,,,23,7*4C
$GAGSV,3,2,09,08,56,298,34,13,14,270,20,24,20,042,25,25,55,095,31,7*78
$GAGSV,3,3,09,26,,,25,7*79
$GAGSV,1,1,04,02,35,173,16,03,67,107,21,08,56,298,21,25,55,095,21,1*73
$GBGSV,2,1,07,08,,,22,19,44,153,37,21,22,312,30,22,71,274,41,1*43
$GBGSV,2,2,07,36,71,192,39,38,13,331,30,45,22,221,31,1*4B
$GBGSV,1,1,03,19,44,153,21,22,71,274,18,36,71,192,23,5*4B
$GQGSV,1,1,00,1*65
$GQGSV,1,1,00,8*6C
$GNGGA,222119.000,4910.425531,N,12304.401640,W,1,25,0.53,4.103,M,-16.816,M,,*42
$GNRMC,222119.000,A,4910.425531,N,12304.401640,W,0.006,126.46,151024,,,A,V*2A
$GNGLL,4910.425531,N,12304.401640,W,222119.000,A,A*55
$GNVTG,126.46,T,,M,0.006,N,0.011,K,A*22
$GNGSA,A,3,03,04,06,07,09,11,16,20,26,27,30,31,0.83,0.53,0.64,1*04
$GNGSA,A,3,,,,,,,,,,,,,0.83,0.53,0.64,2*0D
$GNGSA,A,3,02,03,05,08,13,24,25,,,,,,0.83,0.53,0.64,3*03
$GNGSA,A,3,19,21,22,36,38,45,,,,,,,0.83,0.53,0.64,4*0F
$GNGSA,A,3,,,,,,,,,,,,,0.83,0.53,0.64,5*0A
$GPGSV,4,1,13,03,15,174,27,04,62,110,34,06,07,260,19,07,49,251,34,1*62
$GPGSV,4,2,13,09,80,301,37,11,12,301,28,16,45,069,34,20,16,320,29,1*6D
$GPGSV,4,3,13,26,18,045,29,27,10,106,29,30,17,249,26,31,04,066,16,1*61
$GPGSV,4,4,13,44,33,172,33,1*52
$GPGSV,1,1,02,04,62,110,22,09,80,301,20,8*6E
$GLGSV,1,1,01,68,,,20,1*75
$GAGSV,3,1,09,02,35,173,29,03,67,107,33,05,16,112,25,07,,,25,7*41
$GAGSV,3,2,09,08,56,298,32,13,14,270,17,24,20,042,25,25,55,095,30,7*7B
$GAGSV,3,3,09,26,,,24,7*78
$GAGSV,1,1,04,02,35,173,14,03,67,107,18,08,56,298,18,25,55,095,20,1*70
$GBGSV,2,1,07,08,,,22,19,44,153,36,21,22,312,29,22,71,274,41,1*4A
$GBGSV,2,2,07,36,71,192,39,38,13,331,30,45,22,221,31,1*4B
$GBGSV,1,1,03,19,44,153,19,22,71,274,17,36,71,192,22,5*4E
$GQGSV,1,1,00,1*65
$GQGSV,1,1,00,8*6C
$GNGGA,222120.000,4910.425529,N,12304.401641,W,1,25,0.53,4.100,M,-16.816,M,,*43
$GNRMC,222120.000,A,4910.425529,N,12304.401641,W,0.011,126.46,151024,,,A,V*2E
$GNGLL,4910.425529,N,12304.401641,W,222120.000,A,A*57
$GNVTG,126.46,T,,M,0.011,N,0.020,K,A*26
$GNGSA,A,3,03,04,06,07,09,11,16,20,26,27,30,31,0.83,0.53,0.64,1*04
$GNGSA,A,3,,,,,,,,,,,,,0.83,0.53,0.64,2*0D
$GNGSA,A,3,02,03,05,08,13,24,25,,,,,,0.83,0.53,0.64,3*03
$GNGSA,A,3,19,21,22,36,38,45,,,,,,,0.83,0.53,0.64,4*0F
$GNGSA,A,3,,,,,,,,,,,,,0.83,0.53,0.64,5*0A
$GPGSV,4,1,13,03,15,174,28,04,62,110,35,06,07,260,21,07,49,251,36,1*65
$GPGSV,4,2,13,09,80,301,38,11,12,301,29,16,45,069,35,20,16,320,29,1*62
$GPGSV,4,3,13,26,18,045,30,27,10,106,28,30,17,249,27,31,04,066,15,1*6A
$GPGSV,4,4,13,44,33,172,33,1*52
$GPGSV,1,1,02,04,62,110,23,09,80,301,23,8*6C
$GLGSV,1,1,01,68,,,20,1*75
$GAGSV,3,1,09,02,35,173,30,03,67,107,33,05,16,112,26,07,,,24,7*4B
$GAGSV,3,2,09,08,56,298,34,13,14,270,19,24,20,042,26,25,55,095,32,7*72
$GAGSV,3,3,09,26,,,24,7*78
$GAGSV,1,1,04,02,35,173,16,03,67,107,19,08,56,298,20,25,55,095,20,1*78
$GBGSV,2,1,07,08,,,22,19,44,153,37,21,22,312,31,22,71,274,42,1*41
$GBGSV,2,2,07,36,71,192,39,38,13,331,30,45,22,221,31,1*4B
$GBGSV,1,1,03,19,44,153,20,22,71,274,19,36,71,192,22,5*4A
$GQGSV,1,1,00,1*65
$GQGSV,1,1,00,8*6C
$GNGGA,222121.000,4910.425529,N,12304.401641,W,1,25,0.53,4.100,M,-16.817,M,,*43
$GNRMC,222121.000,A,4910.425529,N,12304.401641,W,0.008,126.46,151024,,,A,V*27
$GNGLL,4910.425529,N,12304.401641,W,222121.000,A,A*56
$GNVTG,126.46,T,,M,0.008,N,0.014,K,A*29
$GNGSA,A,3,03,04,06,07,09,11,16,20,26,27,30,31,0.84,0.53,0.64,1*03
$GNGSA,A,3,,,,,,,,,,,,,0.84,0.53,0.64,2*0A
$GNGSA,A,3,02,03,05,08,13,24,25,,,,,,0.84,0.53,0.64,3*04
$GNGSA,A,3,19,21,22,36,38,45,,,,,,,0.84,0.53,0.64,4*08
$GNGSA,A,3,,,,,,,,,,,,,0.84,0.53,0.64,5*0D
$GPGSV,4,1,13,03,15,174,27,04,62,110,34,06,07,260,20,07,49,251,34,1*68
$GPGSV,4,2,13,09,81,301,38,11,12,300,28,16,45,069,34,20,16,320,29,1*62
$GPGSV,4,3,13,26,18,045,30,27,10,106,28,30,17,249,26,31,03,066,15,1*6C
$GPGSV,4,4,13,44,33,172,33,1*52
$GPGSV,1,1,02,04,62,110,24,09,81,301,23,8*6A
$GLGSV,1,1,01,68,,,22,1*77
$GAGSV,3,1,09,02,35,173,28,03,67,107,33,05,16,112,25,07,,,24,7*41
$GAGSV,3,2,09,08,56,298,34,13,14,270,18,24,20,042,26,25,55,095,32,7*73
$GAGSV,3,3,09,26,,,24,7*78
$GAGSV,1,1,04,02,35,173,17,03,67,107,21,08,56,298,20,25,55,095,22,1*70
$GBGSV,2,1,07,08,,,23,19,44,153,36,21,22,312,30,22,71,274,41,1*43
$GBGSV,2,2,07,36,71,192,40,38,13,331,30,45,22,221,31,1*45
$GBGSV,1,1,03,19,44,153,20,22,71,274,20,36,71,192,23,5*41
$GQGSV,1,1,00,1*65
$GQGSV,1,1,00,8*6C
$GNGGA,222122.000,4910.425527,N,12304.401641,W,1,24,0.54,4.097,M,-16.816,M,,*46
$GNRMC,222122.000,A,4910.425527,N,12304.401641,W,0.001,126.46,151024,,,A,V*23
$GNGLL,4910.425527,N,12304.401641,W,222122.000,A,A*5B
$GNVTG,126.46,T,,M,0.001,N,0.003,K,A*26
$GNGSA,A,3,03,04,06,07,09,11,16,20,26,27,30,,0.85,0.54,0.66,1*05
$GNGSA,A,3,,,,,,,,,,,,,0.85,0.54,0.66,2*0E
$GNGSA,A,3,02,03,05,08,13,24,25,,,,,,0.85,0.54,0.66,3*00
$GNGSA,A,3,19,21,22,36,38,45,,,,,,,0.85,0.54,0.66,4*0C
$GNGSA,A,3,,,,,,,,,,,,,0.85,0.54,0.66,5*09
$GPGSV,4,1,13,03,15,174,28,04,62,110,34,06,07,260,20,07,49,251,34,1*67
$GPGSV,4,2,13,09,81,301,38,11,12,300,28,16,45,069,34,20,16,320,29,1*62
$GPGSV,4,3,13,26,18,045,30,27,10,106,29,30,17,249,26,31,03,066,15,1*6D
$GPGSV,4,4,13,44,33,172,33,1*52
$GPGSV,1,1,02,04,62,110,24,09,81,301,25,8*6C
$GLGSV,1,1,01,68,,,22,1*77
$GAGSV,3,1,09,02,35,173,28,03,67,107,33,05,16,112,27,07,,,24,7*43
$GAGSV,3,2,09,08,56,298,33,13,14,270,20,24,20,042,26,25,55,095,32,7*7F
$GAGSV,3,3,09,26,,,25,7*79
$GAGSV,1,1,04,02,35,173,17,03,67,107,21,08,56,298,21,25,55,095,22,1*71
$GBGSV,2,1,07,08,,,22,19,44,153,37,21,22,312,30,22,71,274,42,1*40
$GBGSV,2,2,07,36,71,192,40,38,13,331,30,45,22,221,32,1*46
$GBGSV,1,1,03,19,44,153,21,22,71,274,20,36,71,192,23,5*40
$GQGSV,1,1,00,1*65
$GQGSV,1,1,00,8*6C
$GNGGA,222123.000,4910.425524,N,12304.401640,W,1,24,0.54,4.096,M,-16.817,M,,*45
$GNRMC,222123.000,A,4910.425524,N,12304.401640,W,0.009,126.46,151024,,,A,V*28
$GNGLL,4910.425524,N,12304.401640,W,222123.000,A,A*58
$GNVTG,126.46,T,,M,0.009,N,0.017,K,A*2B
$GNGSA,A,3,03,04,06,07,09,11,16,20,26,27,30,,0.85,0.54,0.66,1*05
$GNGSA,A,3,,,,,,,,,,,,,0.85,0.54,0.66,2*0E
$GNGSA,A,3,02,03,05,08,13,24,25,,,,,,0.85,0.54,0.66,3*00
$GNGSA,A,3,19,21,22,36,38,45,,,,,,,0.85,0.54,0.66,4*0C
$GNGSA,A,3,,,,,,,,,,,,,0.85,0.54,0.66,5*09
$GPGSV,4,1,13,03,15,174,28,04,62,110,34,06,07,260,20,07,49,251,34,1*67
$GPGSV,4,2,13,09,81,301,38,11,12,300,28,16,45,069,35,20,16,320,29,1*63
$GPGSV,4,3,13,26,18,045,30,27,10,106,28,30,17,249,27,31,03,066,17,1*6F
$GPGSV,4,4,13,44,33,172,33,1*52
$GPGSV,1,1,02,04,62,110,23,09,81,301,23,8*6D
$GLGSV,1,1,01,68,,,19,1*7F
$GAGSV,3,1,09,02,35,173,28,03,67,107,33,05,16,112,25,07,,,24,7*41
$GAGSV,3,2,09,08,56,298,33,13,14,270,20,24,20,042,25,25,55,095,32,7*7C
$GAGSV,3,3,09,26,,,26,7*7A
$GAGSV,1,1,04,02,35,173,17,03,67,107,20,08,56,298,20,25,55,095,21,1*72
$GBGSV,2,1,07,08,,,22,19,44,153,37,21,22,312,30,22,71,274,41,1*43
$GBGSV,2,2,07,36,71,192,40,38,13,331,30,45,22,221,31,1*45
$GBGSV,1,1,03,19,44,153,20,22,71,274,18,36,71,192,23,5*4A
$GQGSV,1,1,00,1*65
$GQGSV,1,1,00,8*6C
$GNGGA,222124.000,4910.425522,N,12304.401638,W,1,24,0.57,4.095,M,-16.817,M,,*4B
$GNRMC,222124.000,A,4910.425522,N,12304.401638,W,0.007,126.46,151024,,,A,V*28
$GNGLL,4910.425522,N,12304.401638,W,222124.000,A,A*56
$GNVTG,126.46,T,,M,0.007,N,0.014,K,A*26
$GNGSA,A,3,03,04,06,07,09,11,16,20,26,27,30,,0.99,0.57,0.81,1*02
$GNGSA,A,3,,,,,,,,,,,,,0.99,0.57,0.81,2*09
$GNGSA,A,3,02,03,05,08,13,24,25,,,,,,0.99,0.57,0.81,3*07
$GNGSA,A,3,19,21,22,36,38,45,,,,,,,0.99,0.57,0.81,4*0B
$GNGSA,A,3,,,,,,,,,,,,,0.99,0.57,0.81,5*0E
$GPGSV,4,1,13,03,15,174,27,04,62,110,32,06,07,260,19,07,49,251,34,1*64
$GPGSV,4,2,13,09,81,301,36,11,12,300,28,16,45,069,34,20,16,320,28,1*6D
$GPGSV,4,3,13,26,18,045,29,27,10,106,28,30,17,249,25,31,03,066,16,1*64
$GPGSV,4,4,13,44,33,172,33,1*52
$GPGSV,1,1,02,04,62,110,23,09,81,301,23,8*6D
$GLGSV,1,1,01,68,,,20,1*75
$GAGSV,3,1,09,02,35,173,27,03,67,107,33,05,16,112,25,07,,,22,7*48
$GAGSV,3,2,09,08,56,298,32,13,14,270,19,24,20,042,26,25,55,095,29,7*7E
$GAGSV,3,3,09,26,,,23,7*7F
$GAGSV,1,1,04,02,35,173,15,03,67,107,20,08,56,298,21,25,55,095,21,1*71
$GBGSV,2,1,07,08,,,20,19,44,153,36,21,22,312,30,22,71,274,41,1*40
$GBGSV,2,2,07,36,71,192,39,38,13,331,30,45,22,221,32,1*48
$GBGSV,1,1,03,19,44,153,20,22,71,274,18,36,71,192,21,5*48
$GQGSV,1,1,00,1*65
$GQGSV,1,1,00,8*6C
$GNGGA,222125.000,4910.425518,N,12304.401635,W,1,24,0.52,4.094,M,-16.816,M,,*4B
$GNRMC,222125.000,A,4910.425518,N,12304.401635,W,0.005,126.46,151024,,,A,V*2F
$GNGLL,4910.425518,N,12304.401635,W,222125.000,A,A*53
$GNVTG,126.46,T,,M,0.005,N,0.009,K,A*28
$GNGSA,A,3,03,04,06,07,09,11,16,20,26,27,30,,0.84,0.52,0.66,1*02
$GNGSA,A,3,,,,,,,,,,,,,0.84,0.52,0.66,2*09
$GNGSA,A,3,02,03,05,08,13,24,25,,,,,,0.84,0.52,0.66,3*07
$GNGSA,A,3,19,21,22,36,38,45,,,,,,,0.84,0.52,0.66,4*0B
$GNGSA,A,3,,,,,,,,,,,,,0.84,0.52,0.66,5*0E
$GPGSV,4,1,13,03,15,174,26,04,62,110,32,06,07,260,20,07,49,251,34,1*6F
$GPGSV,4,2,13,09,81,301,36,11,12,300,27,16,45,069,33,20,16,320,29,1*64
$GPGSV,4,3,13,26,18,045,29,27,10,106,27,30,17,249,25,31,03,066,15,1*68
$GPGSV,4,4,13,44,33,172,33,1*52
$GPGSV,1,1,02,04,62,110,24,09,81,301,23,8*6A
$GLGSV,1,1,01,68,,,19,1*7F
$GAGSV,3,1,09,02,35,173,27,03,67,107,31,05,16,112,25,07,,,22,7*4A
$GAGSV,3,2,09,08,56,298,31,13,14,270,19,24,20,042,26,25,55,095,30,7*75
$GAGSV,3,3,09,26,,,24,7*78
$GAGSV,1,1,04,02,35,173,17,03,67,107,20,08,56,298,21,25,55,095,20,1*72
$GBGSV,2,1,07,08,,,22,19,43,153,36,21,22,312,29,22,71,273,41,1*4A
$GBGSV,2,2,07,36,71,192,39,38,13,331,30,45,22,221,31,1*4B
$GBGSV,1,1,03,19,43,153,20,22,71,273,18,36,71,192,22,5*4B
$GQGSV,1,1,00,1*65
$GQGSV,1,1,00,8*6C
$GNGGA,222126.000,4910.425514,N,12304.401630,W,1,24,0.52,4.092,M,-16.817,M,,*46
$GNRMC,222126.000,A,4910.425514,N,12304.401630,W,0.014,126.46,151024,,,A,V*25
$GNGLL,4910.425514,N,12304.401630,W,222126.000,A,A*59
$GNVTG,126.46,T,,M,0.014,N,0.026,K,A*25
$GNGSA,A,3,03,04,06,07,09,11,16,20,26,27,30,,0.84,0.52,0.66,1*02
$GNGSA,A,3,,,,,,,,,,,,,0.84,0.52,0.66,2*09
$GNGSA,A,3,02,03,05,08,13,24,25,,,,,,0.84,0.52,0.66,3*07
$GNGSA,A,3,19,21,22,36,38,45,,,,,,,0.84,0.52,0.66,4*0B
$GNGSA,A,3,,,,,,,,,,,,,0.84,0.52,0.66,5*0E
$GPGSV,4,1,13,03,15,174,28,04,62,110,34,06,07,260,21,07,49,251,35,1*67
$GPGSV,4,2,13,09,81,301,37,11,12,300,29,16,45,069,35,20,16,320,29,1*6D
$GPGSV,4,3,13,26,18,045,30,27,10,106,29,30,17,249,27,31,03,066,15,1*6C
$GPGSV,4,4,13,44,33,172,32,1*53
$GPGSV,1,1,02,04,62,110,23,09,81,301,23,8*6D
$GLGSV,1,1,01,68,,,20,1*75
$GAGSV,3,1,09,02,35,173,29,03,67,107,32,05,16,112,25,07,,,25,7*40
$GAGSV,3,2,09,08,56,298,33,13,14,270,20,24,20,042,25,25,55,095,30,7*7E
$GAGSV,3,3,09,26,,,24,7*78
$GAGSV,1,1,04,02,35,173,17,03,67,107,20,08,56,298,20,25,55,095,19,1*79
$GBGSV,2,1,07,08,,,22,19,43,153,37,21,22,312,29,22,71,273,41,1*4B
$GBGSV,2,2,07,36,71,192,39,38,13,331,30,45,22,221,31,1*4B
$GBGSV,1,1,03,19,43,153,19,22,71,273,19,36,71,192,20,5*42
$GQGSV,1,1,00,1*65
$GQGSV,1,1,00,8*6C
$GNGGA,222127.000,4910.425512,N,12304.401624,W,1,24,0.52,4.088,M,-16.816,M,,*4E
$GNRMC,222127.000,A,4910.425512,N,12304.401624,W,0.008,126.46,151024,,,A,V*2A
$GNGLL,4910.425512,N,12304.401624,W,222127.000,A,A*5B
$GNVTG,126.46,T,,M,0.008,N,0.014,K,A*29
$GNGSA,A,3,03,04,06,07,09,11,16,20,26,27,30,,0.84,0.52,0.66,1*02
$GNGSA,A,3,,,,,,,,,,,,,0.84,0.52,0.66,2*09
$GNGSA,A,3,02,03,05,08,13,24,25,,,,,,0.84,0.52,0.66,3*07
$GNGSA,A,3,19,21,22,36,38,45,,,,,,,0.84,0.52,0.66,4*0B
$GNGSA,A,3,,,,,,,,,,,,,0.84,0.52,0.66,5*0E
$GPGSV,4,1,13,03,15,174,28,04,62,110,33,06,07,260,20,07,49,251,35,1*61
$GPGSV,4,2,13,09,81,301,38,11,12,300,29,16,45,069,35,20,16,320,31,1*6B
$GPGSV,4,3,13,26,18,045,30,27,10,106,29,30,17,249,26,31,03,066,15,1*6D
$GPGSV,4,4,13,44,33,172,32,1*53
$GPGSV,1,1,02,04,62,110,24,09,81,301,24,8*6D
$GLGSV,1,1,01,68,,,19,1*7F
$GAGSV,3,1,09,02,35,173,29,03,67,107,34,05,16,112,27,07,,,26,7*47
$GAGSV,3,2,09,08,56,298,33,13,14,270,21,24,20,042,25,25,55,095,32,7*7D
$GAGSV,3,3,09,26,,,24,7*78
$GAGSV,1,1,04,02,35,173,17,03,67,107,21,08,56,298,21,25,55,095,22,1*71
$GBGSV,2,1,07,08,,,21,19,43,153,36,21,22,312,29,22,71,273,41,1*49
$GBGSV,2,2,07,36,71,192,39,38,13,331,29,45,22,221,30,1*42
$GBGSV,1,1,03,19,43,153,21,22,71,273,19,36,71,192,22,5*4B
$GQGSV,1,1,00,1*65
$GQGSV,1,1,00,8*6C
$GNGGA,222128.000,4910.425508,N,12304.401622,W,1,24,0.54,4.089,M,-16.817,M,,*4A
$GNRMC,222128.000,A,4910.425508,N,12304.401622,W,0.002,126.46,151024,,,A,V*22
$GNGLL,4910.425508,N,12304.401622,W,222128.000,A,A*59
$GNVTG,126.46,T,,M,0.002,N,0.004,K,A*22
$GNGSA,A,3,03,04,06,07,09,11,16,20,26,27,30,,0.84,0.54,0.65,1*07
$GNGSA,A,3,,,,,,,,,,,,,0.84,0.54,0.65,2*0C
$GNGSA,A,3,02,03,05,08,13,24,25,,,,,,0.84,0.54,0.65,3*02
$GNGSA,A,3,19,21,22,36,38,45,,,,,,,0.84,0.54,0.65,4*0E
$GNGSA,A,3,,,,,,,,,,,,,0.84,0.54,0.65,5*0B
$GPGSV,4,1,13,03,15,174,28,04,62,110,34,06,07,260,20,07,49,251,34,1*67
$GPGSV,4,2,13,09,81,301,37,11,12,300,28,16,45,069,35,20,16,320,29,1*6C
$GPGSV,4,3,13,26,18,045,30,27,10,106,29,30,17,249,27,31,03,066,14,1*6D
$GPGSV,4,4,13,44,33,172,32,1*53
$GPGSV,1,1,02,04,62,110,24,09,81,301,24,8*6D
$GLGSV,1,1,01,68,,,20,1*75
$GAGSV,3,1,09,02,35,173,29,03,67,107,33,05,16,112,27,07,,,24,7*42
$GAGSV,3,2,09,08,56,298,33,13,14,270,21,24,20,042,26,25,55,095,32,7*7E
$GAGSV,3,3,09,26,,,24,7*78
$GAGSV,1,1,04,02,35,173,18,03,67,107,20,08,56,298,20,25,55,095,22,1*7E
$GBGSV,2,1,07,08,,,22,19,43,153,37,21,22,312,31,22,71,273,42,1*41
$GBGSV,2,2,07,36,71,192,40,38,13,331,32,45,22,221,31,1*47
$GBGSV,1,1,03,19,43,153,20,22,71,273,19,36,71,192,23,5*4B
$GQGSV,1,1,00,1*65
$GQGSV,1,1,00,8*6C
$GNGGA,222129.000,4910.425503,N,12304.401621,W,1,24,0.55,4.088,M,-16.816,M,,*42
