$GNGGA,001529.000,4910.426050,N,12304.400010,W,2,33,0.46,-1.097,M,-16.816,M,,*61
$GNGLL,4910.426050,N,12304.400010,W,001529.000,A,D*57
$GNGSA,A,3,22,17,14,13,19,30,15,02,24,21,,,0.89,0.46,0.76,1*0A
$GNGSA,A,3,79,88,78,80,69,,,,,,,,0.89,0.46,0.76,2*06
$GNGSA,A,3,21,04,06,13,09,19,31,15,,,,,0.89,0.46,0.76,3*05
$GNGSA,A,3,26,35,29,45,24,33,14,42,44,13,,,0.89,0.46,0.76,4*09
$GPGSV,4,1,13,22,83,009,31,17,68,150,33,14,64,070,33,13,43,226,31,1*6E
$GPGSV,4,2,13,19,42,192,31,46,33,188,31,30,32,136,26,15,32,270,28,1*6F
$GPGSV,4,3,13,02,26,058,28,24,21,307,25,21,16,040,23,10,03,351,15,1*66
$GPGSV,4,4,13,23,01,314,,1*50
$GLGSV,2,1,07,79,71,000,39,88,44,060,38,78,35,087,24,70,28,308,,1*75
$GLGSV,2,2,07,80,27,295,32,69,21,238,34,71,07,352,,1*4A
$GAGSV,3,1,10,21,53,070,29,04,45,257,29,06,38,291,28,13,27,087,27,7*77
$GAGSV,3,2,10,09,25,315,28,19,19,192,17,31,18,262,24,15,15,033,19,7*7F
$GAGSV,3,3,10,26,12,138,25,27,02,078,,7*70
$GBGSV,3,1,12,26,82,312,36,35,43,153,33,29,41,066,33,45,38,104,32,1*7A
$GBGSV,3,2,12,24,29,290,34,33,18,300,28,14,18,273,20,42,13,247,25,1*7F
$GBGSV,3,3,12,44,09,188,27,08,06,309,18,13,05,319,21,41,04,345,23,1*78
$GNRMC,001529.000,A,4910.426050,N,12304.400010,W,0.01,177.05,041224,,,D,V*1E
$GNVTG,177.05,T,,M,0.01,N,0.03,K,D*20
$PAIRLOG,Full*51
$GNGGA,001530.000,4910.426092,N,12304.400046,W,2,33,0.46,-1.087,M,-16.816,M,,*65
$GNGLL,4910.426092,N,12304.400046,W,001530.000,A,D*52
$GNGSA,A,3,22,17,14,13,19,30,15,02,24,21,,,0.89,0.46,0.76,1*0A
$GNGSA,A,3,79,88,78,80,69,,,,,,,,0.89,0.46,0.76,2*06
$GNGSA,A,3,21,04,06,13,09,19,31,15,,,,,0.89,0.46,0.76,3*05
$GNGSA,A,3,26,35,29,45,24,33,14,42,44,13,,,0.89,0.46,0.76,4*09
$GPGSV,4,1,13,22,83,009,30,17,68,150,33,14,64,070,32,13,43,226,30,1*6F
$GPGSV,4,2,13,19,42,192,31,46,33,188,31,30,32,136,25,15,32,270,28,1*6C
$GPGSV,4,3,13,02,26,058,28,24,21,307,25,21,16,040,22,10,03,351,15,1*67
$GPGSV,4,4,13,23,01,314,,1*50
$GLGSV,2,1,07,79,71,000,39,88,44,060,39,78,35,087,24,70,28,308,,1*74
$GLGSV,2,2,07,80,27,295,31,69,21,238,34,71,07,352,,1*49
$GAGSV,3,1,10,21,53,070,28,04,45,257,29,06,38,291,28,13,27,087,27,7*76
$GAGSV,3,2,10,09,25,315,27,19,19,192,17,31,18,262,24,15,15,033,19,7*70
$GAGSV,3,3,10,26,12,138,24,27,02,078,,7*71
$GBGSV,3,1,12,26,82,312,36,35,43,153,32,29,41,066,33,45,38,104,32,1*7B
$GBGSV,3,2,12,24,29,290,34,33,18,300,28,14,18,273,20,42,13,247,25,1*7F
$GBGSV,3,3,12,44,09,188,27,08,06,309,18,13,05,319,21,41,04,345,23,1*78
$GNRMC,001530.000,A,4910.426092,N,12304.400046,W,0.02,177.05,041224,,,D,V*18
$GNVTG,177.05,T,,M,0.02,N,0.03,K,D*23
$PAIRLOG,Full*51
$GNGGA,001531.000,4910.426170,N,12304.400106,W,2,33,0.46,-1.057,M,-16.816,M,,*61
$GNGLL,4910.426170,N,12304.400106,W,001531.000,A,D*5B
$GNGSA,A,3,22,17,14,13,19,30,15,02,24,21,,,0.89,0.46,0.76,1*0A
$GNGSA,A,3,79,88,78,80,69,,,,,,,,0.89,0.46,0.76,2*06
$GNGSA,A,3,21,04,06,13,09,19,31,15,,,,,0.89,0.46,0.76,3*05
$GNGSA,A,3,26,35,29,45,24,33,14,42,44,13,,,0.89,0.46,0.76,4*09
$GPGSV,4,1,13,22,83,009,30,17,68,150,33,14,64,070,32,13,43,226,30,1*6F
$GPGSV,4,2,13,19,42,192,31,46,33,188,31,30,32,136,25,15,32,270,28,1*6C
$GPGSV,4,3,13,02,26,058,28,24,21,307,25,21,16,040,22,10,03,351,15,1*67
$GPGSV,4,4,13,23,01,314,,1*50
$GLGSV,2,1,07,79,71,000,39,88,44,060,39,78,35,087,21,70,28,308,,1*71
$GLGSV,2,2,07,80,27,295,31,69,21,238,34,71,07,352,,1*49
$GAGSV,3,1,10,21,53,070,28,04,45,257,29,06,38,291,28,13,27,087,27,7*76
$GAGSV,3,2,10,09,25,315,27,19,19,192,17,31,18,262,24,15,15,033,19,7*70
$GAGSV,3,3,10,26,12,138,24,27,02,078,,7*71
$GBGSV,3,1,12,26,82,312,36,35,43,153,31,29,41,066,32,45,38,104,32,1*79
$GBGSV,3,2,12,24,29,290,33,33,18,300,27,14,18,273,20,42,13,247,25,1*77
$GBGSV,3,3,12,44,09,188,27,08,06,309,18,13,05,319,21,41,04,345,22,1*79
$GNRMC,001531.000,A,4910.426170,N,12304.400106,W,0.02,177.05,041224,,,D,V*11
$GNVTG,177.05,T,,M,0.02,N,0.03,K,D*23
$PAIRLOG,Full*51
$PAIR010,0,1,2343,260149*34
$GNGGA,001532.000,4910.426212,N,12304.400136,W,2,33,0.46,-0.980,M,-16.817,M,,*65
$GNGLL,4910.426212,N,12304.400136,W,001532.000,A,D*5C
$GNGSA,A,3,22,17,14,13,19,30,15,02,24,21,,,0.89,0.46,0.76,1*0A
$GNGSA,A,3,79,88,78,80,69,,,,,,,,0.89,0.46,0.76,2*06
$GNGSA,A,3,21,04,06,13,09,19,31,15,,,,,0.89,0.46,0.76,3*05
$GNGSA,A,3,26,35,29,45,24,33,14,42,44,13,,,0.89,0.46,0.76,4*09
$GPGSV,4,1,13,22,83,009,30,17,68,150,33,14,64,070,32,13,43,226,30,1*6F
$GPGSV,4,2,13,19,42,192,30,46,33,188,31,30,32,136,25,15,32,270,28,1*6D
$GPGSV,4,3,13,02,26,058,28,24,21,307,25,21,16,040,22,10,03,351,15,1*67
$GPGSV,4,4,13,23,01,314,,1*50
$GLGSV,2,1,07,79,71,000,39,88,44,060,39,78,35,087,21,70,28,308,,1*71
$GLGSV,2,2,07,80,27,295,31,69,21,238,34,71,07,352,,1*49
$GAGSV,3,1,10,21,53,070,28,04,45,257,29,06,38,291,28,13,27,087,27,7*76
$GAGSV,3,2,10,09,25,315,27,19,19,192,17,31,18,262,24,15,15,033,19,7*70
$GAGSV,3,3,10,26,12,138,24,27,02,078,,7*71
$GBGSV,3,1,12,26,82,312,36,35,43,153,31,29,41,066,31,45,38,104,32,1*7A
$GBGSV,3,2,12,24,29,290,33,33,18,300,27,14,18,273,19,42,13,247,25,1*7D
$GBGSV,3,3,12,44,09,188,26,08,06,309,17,13,05,319,21,41,04,345,21,1*74
$GNRMC,001532.000,A,4910.426212,N,12304.400136,W,0.02,177.05,041224,,,D,V*16
$GNVTG,177.05,T,,M,0.02,N,0.04,K,D*24
$PAIRLOG,Full*51
$GNGGA,001533.000,4910.426218,N,12304.400088,W,2,33,0.46,-0.897,M,-16.817,M,,*6D
$GNGLL,4910.426218,N,12304.400088,W,001533.000,A,D*53
$GNGSA,A,3,22,17,14,13,19,30,15,02,24,21,,,0.89,0.46,0.76,1*0A
$GNGSA,A,3,79,88,78,80,69,,,,,,,,0.89,0.46,0.76,2*06
$GNGSA,A,3,21,04,06,13,09,19,31,15,,,,,0.89,0.46,0.76,3*05
$GNGSA,A,3,26,35,29,45,24,33,14,42,44,13,,,0.89,0.46,0.76,4*09
$GPGSV,4,1,13,22,83,009,30,17,68,150,33,14,64,070,32,13,43,226,30,1*6F
$GPGSV,4,2,13,19,42,192,30,46,33,188,31,30,32,136,25,15,32,270,28,1*6D
$GPGSV,4,3,13,02,26,058,28,24,21,307,25,21,16,040,21,10,03,351,15,1*64
$GPGSV,4,4,13,23,01,314,,1*50
$GLGSV,2,1,07,79,71,000,39,88,44,060,39,78,35,087,21,70,28,308,,1*71
$GLGSV,2,2,07,80,27,295,31,69,21,238,34,71,07,352,,1*49
$GAGSV,3,1,10,21,53,070,28,04,45,257,29,06,38,291,28,13,27,087,27,7*76
$GAGSV,3,2,10,09,25,315,27,19,19,192,17,31,18,262,24,15,15,033,19,7*70
$GAGSV,3,3,10,26,12,138,24,27,02,078,,7*71
$GBGSV,3,1,12,26,82,312,36,35,43,153,31,29,41,066,31,45,38,104,32,1*7A
$GBGSV,3,2,12,24,29,290,33,33,18,300,27,14,18,273,19,42,13,247,25,1*7D
$GBGSV,3,3,12,44,09,188,26,08,06,309,17,13,05,319,21,41,04,345,21,1*74
$GNRMC,001533.000,A,4910.426218,N,12304.400088,W,0.02,177.05,041224,,,D,V*19
$GNVTG,177.05,T,,M,0.02,N,0.04,K,D*24
$PAIRLOG,Full*51
$GNGGA,001534.000,4910.426284,N,12304.400070,W,2,33,0.46,-0.733,M,-16.816,M,,*68
$GNGLL,4910.426284,N,12304.400070,W,001534.000,A,D*56
$GNGSA,A,3,22,17,14,13,19,30,15,02,24,21,,,0.89,0.46,0.76,1*0A
$GNGSA,A,3,79,88,78,80,69,,,,,,,,0.89,0.46,0.76,2*06
$GNGSA,A,3,21,04,06,13,09,19,31,15,,,,,0.89,0.46,0.76,3*05
$GNGSA,A,3,26,35,29,45,24,33,14,42,44,13,,,0.89,0.46,0.76,4*09
$GPGSV,4,1,13,22,83,009,30,17,68,150,33,14,64,070,32,13,43,226,31,1*6E
$GPGSV,4,2,13,19,42,192,30,46,33,188,31,30,32,136,25,15,32,270,28,1*6D
$GPGSV,4,3,13,02,26,058,28,24,21,307,25,21,16,040,21,10,03,351,16,1*67
$GPGSV,4,4,13,23,01,314,,1*50
$GLGSV,2,1,07,79,71,000,39,88,44,060,39,78,35,087,21,70,28,308,,1*71
$GLGSV,2,2,07,80,27,295,31,69,21,238,34,71,07,352,,1*49
$GAGSV,3,1,10,21,53,070,28,04,45,257,29,06,38,291,28,13,27,087,27,7*76
$GAGSV,3,2,10,09,25,315,27,19,19,192,17,31,18,262,24,15,15,033,19,7*70
$GAGSV,3,3,10,26,12,138,24,27,02,078,,7*71
$GBGSV,3,1,12,26,82,312,35,35,43,153,30,29,41,066,30,45,38,104,32,1*79
$GBGSV,3,2,12,24,29,290,33,33,18,300,26,14,18,273,19,42,13,247,24,1*7D
$GBGSV,3,3,12,44,09,188,26,08,06,309,17,13,05,319,21,41,04,345,21,1*74
$GNRMC,001534.000,A,4910.426284,N,12304.400070,W,0.02,177.05,041224,,,D,V*1C
$GNVTG,177.05,T,,M,0.02,N,0.04,K,D*24
$PAIRLOG,Full*51
$GNGGA,001535.000,4910.426278,N,12304.400028,W,2,33,0.46,-0.616,M,-16.817,M,,*60
$GNGLL,4910.426278,N,12304.400028,W,001535.000,A,D*59
$GNGSA,A,3,22,17,14,13,19,30,15,02,24,21,,,0.89,0.46,0.76,1*0A
$GNGSA,A,3,79,88,78,80,69,,,,,,,,0.89,0.46,0.76,2*06
$GNGSA,A,3,21,04,06,13,09,19,31,15,,,,,0.89,0.46,0.76,3*05
$GNGSA,A,3,26,35,29,45,24,33,14,42,44,13,,,0.89,0.46,0.76,4*09
$GPGSV,4,1,13,22,83,009,30,17,68,150,32,14,64,070,31,13,43,226,30,1*6D
$GPGSV,4,2,13,19,42,192,30,46,33,188,30,30,32,136,24,15,32,270,27,1*62
$GPGSV,4,3,13,02,26,058,28,24,21,307,24,21,16,040,21,10,03,351,16,1*66
$GPGSV,4,4,13,23,01,314,,1*50
$GLGSV,2,1,07,79,71,000,38,88,44,060,38,78,35,087,20,70,28,308,,1*70
$GLGSV,2,2,07,80,27,295,31,69,21,238,34,71,07,352,,1*49
$GAGSV,3,1,10,21,53,070,28,04,45,257,29,06,38,291,28,13,27,087,27,7*76
$GAGSV,3,2,10,09,25,315,27,19,19,192,17,31,18,262,23,15,15,033,19,7*77
$GAGSV,3,3,10,26,12,138,24,27,02,078,,7*71
$GBGSV,3,1,12,26,82,312,34,35,43,153,30,29,41,066,30,45,38,104,31,1*7B
$GBGSV,3,2,12,24,29,290,32,33,18,300,26,14,18,273,19,42,13,247,24,1*7C
$GBGSV,3,3,12,44,09,188,26,08,06,309,17,13,05,319,21,41,04,345,20,1*75
$GNRMC,001535.000,A,4910.426278,N,12304.400028,W,0.02,177.05,041224,,,D,V*13
$GNVTG,177.05,T,,M,0.02,N,0.04,K,D*24
$PAIRLOG,Full*51
$GNGGA,001536.000,4910.426242,N,12304.400052,W,2,33,0.46,-0.500,M,-16.816,M,,*62
$GNGLL,4910.426242,N,12304.400052,W,001536.000,A,D*5E
$GNGSA,A,3,22,17,14,13,19,30,15,02,24,21,,,0.89,0.46,0.76,1*0A
$GNGSA,A,3,79,88,78,80,69,,,,,,,,0.89,0.46,0.76,2*06
$GNGSA,A,3,21,04,06,13,09,19,31,15,,,,,0.89,0.46,0.76,3*05
$GNGSA,A,3,26,35,29,45,24,33,14,42,44,13,,,0.89,0.46,0.76,4*09
$GPGSV,4,1,13,22,83,009,29,17,68,150,32,14,64,070,31,13,43,226,29,1*6D
$GPGSV,4,2,13,19,42,192,29,46,33,188,30,30,32,136,23,15,32,270,26,1*6C
$GPGSV,4,3,13,02,26,058,27,24,21,307,23,21,16,040,21,10,03,351,15,1*6D
$GPGSV,4,4,13,23,01,314,,1*50
$GLGSV,2,1,07,79,71,000,38,88,44,060,38,78,35,087,20,70,28,308,,1*70
$GLGSV,2,2,07,80,27,295,31,69,21,238,34,71,07,352,,1*49
$GAGSV,3,1,10,21,53,070,28,04,45,257,29,06,38,291,27,13,27,087,27,7*79
$GAGSV,3,2,10,09,25,315,26,19,19,192,17,31,18,262,23,15,15,033,19,7*76
$GAGSV,3,3,10,26,12,138,23,27,02,078,,7*76
$GBGSV,3,1,12,26,82,312,34,35,43,153,30,29,41,066,30,45,38,104,31,1*7B
$GBGSV,3,2,12,24,29,290,32,33,18,300,26,14,18,273,19,42,13,247,24,1*7C
$GBGSV,3,3,12,44,09,188,26,08,06,309,17,13,05,319,20,41,04,345,19,1*7E
$GNRMC,001536.000,A,4910.426242,N,12304.400052,W,0.02,177.05,041224,,,D,V*14
$GNVTG,177.05,T,,M,0.02,N,0.03,K,D*23
$PAIRLOG,Full*51
$GNGGA,001537.000,4910.426170,N,12304.400082,W,2,33,0.46,-0.381,M,-16.816,M,,*63
$GNGLL,4910.426170,N,12304.400082,W,001537.000,A,D*50
$GNGSA,A,3,22,17,14,13,19,30,15,02,24,21,,,0.89,0.46,0.76,1*0A
$GNGSA,A,3,79,88,78,80,69,,,,,,,,0.89,0.46,0.76,2*06
$GNGSA,A,3,21,04,06,13,09,19,31,15,,,,,0.89,0.46,0.76,3*05
$GNGSA,A,3,26,35,29,45,24,33,14,42,44,13,,,0.89,0.46,0.76,4*09
$GPGSV,4,1,13,22,83,009,29,17,68,150,32,14,64,070,31,13,43,226,29,1*6D
$GPGSV,4,2,13,19,42,192,29,46,33,188,30,30,32,136,24,15,32,270,26,1*6B
$GPGSV,4,3,13,02,26,058,27,24,21,307,23,21,16,040,21,10,03,351,15,1*6D
$GPGSV,4,4,13,23,01,314,,1*50
$GLGSV,2,1,07,79,71,000,38,88,44,060,38,78,35,087,20,70,28,308,,1*70
$GLGSV,2,2,07,80,27,295,31,69,21,238,34,71,07,352,,1*49
$GAGSV,3,1,10,21,53,070,28,04,45,257,29,06,38,291,27,13,27,087,26,7*78
$GAGSV,3,2,10,09,25,315,26,19,19,192,17,31,18,262,23,15,15,033,19,7*76
$GAGSV,3,3,10,26,12,138,23,27,02,078,,7*76
$GBGSV,3,1,12,26,82,312,34,35,43,153,30,29,41,066,30,45,38,104,31,1*7B
$GBGSV,3,2,12,24,30,291,32,33,18,300,26,14,18,273,18,42,13,247,24,1*74
$GBGSV,3,3,12,44,09,188,26,08,06,309,17,13,05,319,19,41,04,345,19,1*74
$GNRMC,001537.000,A,4910.426170,N,12304.400082,W,0.02,177.05,041224,,,D,V*1A
$GNVTG,177.05,T,,M,0.02,N,0.04,K,D*24
$PAIRLOG,Full*51
$GNGGA,001538.000,4910.426164,N,12304.400124,W,2,33,0.46,-0.293,M,-16.816,M,,*66
$GNGLL,4910.426164,N,12304.400124,W,001538.000,A,D*57
$GNGSA,A,3,22,17,14,13,19,30,15,02,24,21,,,0.89,0.46,0.76,1*0A
$GNGSA,A,3,79,88,78,80,69,,,,,,,,0.89,0.46,0.76,2*06
$GNGSA,A,3,21,04,06,13,09,19,31,15,,,,,0.89,0.46,0.76,3*05
$GNGSA,A,3,26,35,29,45,24,33,14,42,44,13,,,0.89,0.46,0.76,4*09
$GPGSV,4,1,13,22,83,009,28,17,68,150,31,14,64,070,30,13,43,226,29,1*6E
$GPGSV,4,2,13,19,42,192,28,46,33,188,29,30,32,136,23,15,32,270,26,1*65
$GPGSV,4,3,13,02,26,058,26,24,21,307,22,21,16,040,20,10,03,351,16,1*6F
$GPGSV,4,4,13,23,01,314,,1*50
$GLGSV,2,1,07,79,71,000,39,88,44,060,38,78,35,087,19,70,28,308,,1*7B
$GLGSV,2,2,07,80,27,295,31,69,21,238,34,71,07,352,,1*49
$GAGSV,3,1,10,21,53,070,27,04,45,257,28,06,38,291,26,13,27,087,26,7*77
$GAGSV,3,2,10,09,25,315,26,19,19,192,17,31,18,262,22,15,15,033,19,7*77
$GAGSV,3,3,10,26,12,138,23,27,02,078,,7*76
$GBGSV,3,1,12,26,82,312,34,35,43,153,30,29,41,066,30,45,38,104,31,1*7B
$GBGSV,3,2,12,24,30,291,32,33,18,300,26,14,18,273,18,42,13,247,24,1*74
$GBGSV,3,3,12,44,09,188,26,08,06,309,17,13,05,319,19,41,04,345,19,1*74
$GNRMC,001538.000,A,4910.426164,N,12304.400124,W,0.02,177.05,041224,,,D,V*1D
$GNVTG,177.05,T,,M,0.02,N,0.03,K,D*23
$PAIRLOG,Full*51
$GNGGA,001539.000,4910.426122,N,12304.400100,W,2,33,0.46,-0.202,M,-16.816,M,,*6B
$GNGLL,4910.426122,N,12304.400100,W,001539.000,A,D*52
$GNGSA,A,3,22,17,14,13,19,30,15,02,24,21,,,0.89,0.46,0.76,1*0A
$GNGSA,A,3,79,88,78,80,69,,,,,,,,0.89,0.46,0.76,2*06
$GNGSA,A,3,21,04,06,13,09,19,31,15,,,,,0.89,0.46,0.76,3*05
$GNGSA,A,3,26,35,29,45,24,33,14,42,44,13,,,0.89,0.46,0.76,4*09
$GPGSV,4,1,13,22,83,009,27,17,68,150,30,14,64,070,29,13,43,226,28,1*69
$GPGSV,4,2,13,19,42,192,27,46,33,188,28,30,32,136,21,15,32,270,25,1*6A
$GPGSV,4,3,13,02,26,058,26,24,21,307,21,21,16,040,18,10,03,351,16,1*67
$GPGSV,4,4,13,23,01,314,,1*50
$GLGSV,2,1,07,79,71,000,39,88,44,060,38,78,35,087,18,70,28,308,,1*7A
$GLGSV,2,2,07,80,27,295,31,69,21,238,34,71,07,352,,1*49
$GAGSV,3,1,10,21,53,070,26,04,45,257,27,06,38,291,25,13,27,087,25,7*79
$GAGSV,3,2,10,09,25,315,25,19,19,192,17,31,18,262,21,15,15,033,18,7*76
$GAGSV,3,3,10,26,12,138,22,27,02,078,,7*77
$GBGSV,3,1,12,26,83,315,34,35,43,153,30,29,41,066,30,45,38,104,31,1*7D
$GBGSV,3,2,12,24,30,291,32,33,18,300,26,14,18,273,18,42,13,247,24,1*74
$GBGSV,3,3,12,44,09,188,26,08,06,309,17,13,05,319,19,41,04,345,19,1*74
$GNRMC,001539.000,A,4910.426122,N,12304.400100,W,0.02,177.05,041224,,,D,V*18
$GNVTG,177.05,T,,M,0.02,N,0.03,K,D*23
$PAIRLOG,Full*51
$GNGGA,001540.000,4910.426074,N,12304.400028,W,2,33,0.46,-0.063,M,-16.817,M,,*68
$GNGLL,4910.426074,N,12304.400028,W,001540.000,A,D*55
$GNGSA,A,3,22,17,14,13,19,30,15,02,24,21,,,0.89,0.46,0.76,1*0A
$GNGSA,A,3,79,88,78,80,69,,,,,,,,0.89,0.46,0.76,2*06
$GNGSA,A,3,21,04,06,13,09,19,31,15,,,,,0.89,0.46,0.76,3*05
$GNGSA,A,3,26,35,29,45,24,33,14,42,44,13,,,0.89,0.46,0.76,4*09
$GPGSV,4,1,13,22,83,009,28,17,68,150,30,14,64,070,29,13,43,226,28,1*66
$GPGSV,4,2,13,19,42,192,27,46,33,188,28,30,32,136,21,15,32,270,25,1*6A
$GPGSV,4,3,13,02,26,058,27,24,21,307,21,21,16,040,17,10,03,351,15,1*6A
$GPGSV,4,4,13,23,01,314,,1*50
$GLGSV,2,1,07,79,71,000,39,88,44,060,38,78,35,087,18,70,28,308,,1*7A
$GLGSV,2,2,07,80,27,295,31,69,21,238,34,71,07,352,,1*49
$GAGSV,3,1,10,21,53,070,26,04,45,257,27,06,38,291,25,13,27,087,25,7*79
$GAGSV,3,2,10,09,25,315,25,19,19,192,17,31,18,262,21,15,15,033,18,7*76
$GAGSV,3,3,10,26,12,138,22,27,02,078,,7*77
$GBGSV,3,1,12,26,83,315,34,35,43,153,30,29,41,066,30,45,38,104,31,1*7D
$GBGSV,3,2,12,24,30,291,32,33,18,300,26,14,18,273,18,42,13,247,24,1*74
$GBGSV,3,3,12,44,09,188,26,08,06,309,17,13,05,319,19,41,04,345,19,1*74
$GNRMC,001540.000,A,4910.426074,N,12304.400028,W,0.02,177.05,041224,,,D,V*1F
$GNVTG,177.05,T,,M,0.02,N,0.04,K,D*24
$PAIRLOG,Full*51
$GNGGA,001541.000,4910.426026,N,12304.400058,W,2,33,0.46,0.150,M,-16.816,M,,*44
$GNGLL,4910.426026,N,12304.400058,W,001541.000,A,D*54
$GNGSA,A,3,22,17,14,13,19,30,15,02,24,21,,,0.89,0.46,0.76,1*0A
$GNGSA,A,3,79,88,78,80,69,,,,,,,,0.89,0.46,0.76,2*06
$GNGSA,A,3,21,04,06,13,09,19,31,15,,,,,0.89,0.46,0.76,3*05
$GNGSA,A,3,26,35,29,45,24,33,14,42,44,13,,,0.89,0.46,0.76,4*09
$GPGSV,4,1,13,22,83,009,28,17,68,150,31,14,64,070,29,13,43,226,29,1*66
$GPGSV,4,2,13,19,42,192,27,46,33,188,29,30,32,136,22,15,32,270,27,1*6A
$GPGSV,4,3,13,02,26,058,27,24,21,307,22,21,16,040,17,10,03,351,16,1*6A
$GPGSV,4,4,13,23,01,314,,1*50
$GLGSV,2,1,07,79,71,000,39,88,44,060,38,78,35,087,18,70,28,308,,1*7A
$GLGSV,2,2,07,80,27,295,31,69,21,238,34,71,07,352,,1*49
$GAGSV,3,1,10,21,53,070,26,04,45,257,27,06,38,291,25,13,27,087,25,7*79
$GAGSV,3,2,10,09,25,315,25,19,19,192,17,31,18,262,21,15,15,033,18,7*76
$GAGSV,3,3,10,26,12,138,22,27,02,078,,7*77
$GBGSV,3,1,12,26,83,315,34,35,43,153,30,29,41,066,30,45,38,104,30,1*7C
$GBGSV,3,2,12,24,30,291,31,33,18,300,26,14,18,273,18,42,13,247,24,1*77
$GBGSV,3,3,12,44,09,188,26,08,06,309,17,13,05,319,19,41,04,345,19,1*74
$GNRMC,001541.000,A,4910.426026,N,12304.400058,W,0.02,177.05,041224,,,D,V*1E
$GNVTG,177.05,T,,M,0.02,N,0.04,K,D*24
$PAIRLOG,Full*51
$GNGGA,001542.000,4910.425990,N,12304.400112,W,2,33,0.46,0.343,M,-16.816,M,,*4F
$GNGLL,4910.425990,N,12304.400112,W,001542.000,A,D*5F
$GNGSA,A,3,22,17,14,13,19,30,15,02,24,21,,,0.89,0.46,0.76,1*0A
$GNGSA,A,3,79,88,78,80,69,,,,,,,,0.89,0.46,0.76,2*06
$GNGSA,A,3,21,04,06,13,09,19,31,15,,,,,0.89,0.46,0.76,3*05
$GNGSA,A,3,26,35,29,45,24,33,14,42,44,13,,,0.89,0.46,0.76,4*09
$GPGSV,4,1,13,22,83,009,29,17,68,150,31,14,64,070,29,13,43,226,29,1*67
$GPGSV,4,2,13,19,42,192,27,46,33,188,29,30,32,136,22,15,32,270,26,1*6B
$GPGSV,4,3,13,02,26,058,27,24,21,307,22,21,16,040,16,10,03,351,16,1*6B
$GPGSV,4,4,13,23,01,314,,1*50
$GLGSV,2,1,07,79,71,000,39,88,44,060,38,78,35,087,18,70,28,308,,1*7A
$GLGSV,2,2,07,80,27,295,31,69,21,238,34,71,07,352,,1*49
$GAGSV,3,1,10,21,53,070,26,04,45,257,27,06,38,291,25,13,27,087,25,7*79
$GAGSV,3,2,10,09,25,315,25,19,19,192,17,31,18,262,21,15,15,033,18,7*76
$GAGSV,3,3,10,26,12,138,22,27,02,078,,7*77
$GBGSV,3,1,12,26,83,315,34,35,43,153,30,29,41,064,30,45,38,104,29,1*76
$GBGSV,3,2,12,24,30,291,31,33,18,300,26,14,18,273,18,42,13,247,24,1*77
$GBGSV,3,3,12,44,09,188,26,08,06,309,17,13,05,319,19,41,04,345,19,1*74
$GNRMC,001542.000,A,4910.425990,N,12304.400112,W,0.02,177.05,041224,,,D,V*15
$GNVTG,177.05,T,,M,0.02,N,0.04,K,D*24
$PAIRLOG,Full*51
$GNGGA,001543.000,4910.425966,N,12304.400190,W,2,33,0.46,0.442,M,-16.816,M,,*4B
$GNGLL,4910.425966,N,12304.400190,W,001543.000,A,D*5D
$GNGSA,A,3,22,17,14,13,19,30,15,02,24,21,,,0.89,0.46,0.76,1*0A
$GNGSA,A,3,79,88,78,80,69,,,,,,,,0.89,0.46,0.76,2*06
$GNGSA,A,3,21,04,06,13,09,19,31,15,,,,,0.89,0.46,0.76,3*05
$GNGSA,A,3,26,35,29,45,24,33,14,42,44,13,,,0.89,0.46,0.76,4*09
$GPGSV,4,1,13,22,83,009,29,17,68,150,31,14,64,070,29,13,43,226,29,1*67
$GPGSV,4,2,13,19,42,192,27,46,33,188,29,30,32,136,23,15,32,270,26,1*6A
$GPGSV,4,3,13,02,26,058,26,24,21,307,22,21,16,040,16,10,03,351,16,1*6A
$GPGSV,4,4,13,23,01,314,,1*50
$GLGSV,2,1,07,79,71,000,38,88,44,060,38,78,35,087,18,70,28,308,,1*7B
$GLGSV,2,2,07,80,27,295,31,69,21,238,34,71,07,352,,1*49
$GAGSV,3,1,10,21,53,070,26,04,45,257,27,06,38,291,25,13,27,087,25,7*79
$GAGSV,3,2,10,09,25,315,25,19,19,192,17,31,18,262,21,15,15,033,18,7*76
$GAGSV,3,3,10,26,12,138,22,27,02,078,,7*77
$GBGSV,3,1,12,26,83,315,34,35,43,153,30,29,41,064,30,45,38,104,29,1*76
$GBGSV,3,2,12,24,30,291,31,33,18,300,26,14,18,273,18,42,13,247,24,1*77
$GBGSV,3,3,12,44,09,188,26,08,06,309,17,13,05,319,19,41,04,345,19,1*74
$GNRMC,001543.000,A,4910.425966,N,12304.400190,W,0.03,177.05,041224,,,D,V*16
$GNVTG,177.05,T,,M,0.03,N,0.05,K,D*24
$PAIRLOG,Full*51
$GNGGA,001544.000,4910.425930,N,12304.400214,W,2,33,0.46,0.471,M,-16.816,M,,*40
$GNGLL,4910.425930,N,12304.400214,W,001544.000,A,D*56
$GNGSA,A,3,22,17,14,13,19,30,15,02,24,21,,,0.89,0.46,0.76,1*0A
$GNGSA,A,3,79,88,78,80,69,,,,,,,,0.89,0.46,0.76,2*06
$GNGSA,A,3,21,04,06,13,09,19,31,15,,,,,0.89,0.46,0.76,3*05
$GNGSA,A,3,26,35,29,45,24,33,14,42,44,13,,,0.89,0.46,0.76,4*09
$GPGSV,4,1,13,22,83,009,29,17,68,150,31,14,64,070,29,13,43,226,30,1*6F
$GPGSV,4,2,13,19,42,192,28,46,33,188,29,30,32,136,24,15,32,270,26,1*62
$GPGSV,4,3,13,02,26,058,26,24,21,307,22,21,16,040,16,10,03,351,16,1*6A
$GPGSV,4,4,13,23,01,314,,1*50
$GLGSV,2,1,07,79,71,000,38,88,44,060,38,78,35,087,18,70,28,308,,1*7B
$GLGSV,2,2,07,80,27,295,31,69,21,238,34,71,07,352,,1*49
$GAGSV,3,1,10,21,53,070,27,04,45,257,27,06,38,291,25,13,27,087,25,7*78
$GAGSV,3,2,10,09,25,315,25,19,19,192,17,31,18,262,22,15,15,033,19,7*74
$GAGSV,3,3,10,26,12,138,22,27,02,078,,7*77
$GBGSV,3,1,12,26,83,315,35,35,43,153,30,29,41,064,30,45,38,104,30,1*7F
$GBGSV,3,2,12,24,30,291,31,33,18,300,26,14,18,273,18,42,13,247,24,1*77
$GBGSV,3,3,12,44,09,188,26,08,06,309,17,13,05,319,20,41,04,345,19,1*7E
$GNRMC,001544.000,A,4910.425930,N,12304.400214,W,0.02,177.05,041224,,,D,V*1C
$GNVTG,177.05,T,,M,0.02,N,0.04,K,D*24
$PAIRLOG,Full*51
$GNGGA,001545.000,4910.425942,N,12304.400262,W,2,33,0.46,0.474,M,-16.816,M,,*40
$GNGLL,4910.425942,N,12304.400262,W,001545.000,A,D*53
$GNGSA,A,3,22,17,14,13,19,30,15,02,24,21,,,0.89,0.46,0.76,1*0A
$GNGSA,A,3,79,88,78,80,69,,,,,,,,0.89,0.46,0.76,2*06
$GNGSA,A,3,21,04,06,13,09,19,31,15,,,,,0.89,0.46,0.76,3*05
$GNGSA,A,3,26,35,29,45,24,33,14,42,44,13,,,0.89,0.46,0.76,4*09
$GPGSV,4,1,13,22,83,009,29,17,68,150,31,14,64,070,29,13,43,226,30,1*6F
$GPGSV,4,2,13,19,42,192,28,46,33,188,29,30,32,136,24,15,32,270,25,1*61
$GPGSV,4,3,13,02,26,058,26,24,21,307,22,21,16,040,16,10,03,351,16,1*6A
$GPGSV,4,4,13,23,01,314,,1*50
$GLGSV,2,1,07,79,71,000,38,88,44,060,38,78,35,087,18,70,28,308,,1*7B
$GLGSV,2,2,07,80,27,295,31,69,21,238,34,71,07,352,,1*49
$GAGSV,3,1,10,21,53,070,27,04,45,257,27,06,38,291,25,13,27,087,25,7*78
$GAGSV,3,2,10,09,25,315,25,19,19,192,17,31,18,262,22,15,15,033,19,7*74
$GAGSV,3,3,10,26,12,138,22,27,02,078,,7*77
$GBGSV,3,1,12,26,83,315,35,35,43,153,30,29,41,064,30,45,38,104,30,1*7F
$GBGSV,3,2,12,24,30,291,31,33,18,300,26,14,18,273,18,42,13,247,24,1*77
$GBGSV,3,3,12,44,09,188,26,08,06,309,17,13,05,319,20,41,04,345,19,1*7E
$GNRMC,001545.000,A,4910.425942,N,12304.400262,W,0.02,177.05,041224,,,D,V*19
$GNVTG,177.05,T,,M,0.02,N,0.03,K,D*23
$PAIRLOG,Full*51
$GNGGA,001546.000,4910.425966,N,12304.400334,W,2,33,0.46,0.478,M,-16.816,M,,*4B
$GNGLL,4910.425966,N,12304.400334,W,001546.000,A,D*54
$GNGSA,A,3,22,17,14,13,19,30,15,02,24,21,,,0.89,0.46,0.76,1*0A
$GNGSA,A,3,79,88,78,80,69,,,,,,,,0.89,0.46,0.76,2*06
$GNGSA,A,3,21,04,06,13,09,19,31,15,,,,,0.89,0.46,0.76,3*05
$GNGSA,A,3,26,35,29,45,24,33,14,42,44,13,,,0.89,0.46,0.76,4*09
$GPGSV,4,1,13,22,83,009,28,17,68,150,31,14,64,070,29,13,43,226,30,1*6E
$GPGSV,4,2,13,19,42,192,27,46,33,188,29,30,32,136,24,15,32,270,26,1*6D
$GPGSV,4,3,13,02,26,058,26,24,21,307,22,21,16,040,16,10,03,351,16,1*6A
$GPGSV,4,4,13,23,01,314,,1*50
$GLGSV,2,1,07,79,71,000,39,88,44,060,38,78,35,087,17,70,28,308,,1*75
$GLGSV,2,2,07,80,27,295,31,69,21,238,34,71,07,352,,1*49
$GAGSV,3,1,10,21,53,070,27,04,45,257,26,06,38,291,25,13,27,087,25,7*79
$GAGSV,3,2,10,09,25,315,25,19,19,192,16,31,18,262,22,15,15,033,19,7*75
$GAGSV,3,3,10,26,12,138,22,27,02,078,,7*77
$GBGSV,3,1,12,26,83,315,35,35,43,153,30,29,41,064,30,45,38,104,30,1*7F
$GBGSV,3,2,12,24,30,291,31,33,18,299,26,14,18,273,18,42,13,247,25,1*77
$GBGSV,3,3,12,44,09,188,26,08,06,309,17,13,05,319,20,41,04,345,19,1*7E
$GNRMC,001546.000,A,4910.425966,N,12304.400334,W,0.02,177.05,041224,,,D,V*1E
$GNVTG,177.05,T,,M,0.02,N,0.03,K,D*23
$PAIRLOG,Full*51
$GNGGA,001547.000,4910.425984,N,12304.400370,W,2,33,0.46,0.560,M,-16.817,M,,*4F
$GNGLL,4910.425984,N,12304.400370,W,001547.000,A,D*59
$GNGSA,A,3,22,17,14,13,19,30,15,02,24,21,,,0.89,0.46,0.76,1*0A
$GNGSA,A,3,79,88,78,80,69,,,,,,,,0.89,0.46,0.76,2*06
$GNGSA,A,3,21,04,06,13,09,19,31,15,,,,,0.89,0.46,0.76,3*05
$GNGSA,A,3,26,35,29,45,24,33,14,42,44,13,,,0.89,0.46,0.76,4*09
$GPGSV,4,1,13,22,83,009,28,17,68,150,31,14,64,070,29,13,43,226,30,1*6E
$GPGSV,4,2,13,19,42,192,27,46,33,188,29,30,32,136,24,15,32,270,26,1*6D
$GPGSV,4,3,13,02,26,058,26,24,21,307,22,21,16,040,16,10,03,351,17,1*6B
$GPGSV,4,4,13,23,01,314,,1*50
$GLGSV,2,1,07,79,71,000,39,88,44,060,38,78,35,087,16,70,28,308,,1*74
$GLGSV,2,2,07,80,27,295,31,69,21,238,34,71,07,352,,1*49
$GAGSV,3,1,10,21,53,070,26,04,45,257,26,06,38,291,25,13,27,087,25,7*78
$GAGSV,3,2,10,09,25,315,25,19,19,192,16,31,18,262,21,15,15,033,19,7*76
$GAGSV,3,3,10,26,12,138,22,27,02,078,,7*77
$GBGSV,3,1,12,26,83,315,34,35,43,153,29,29,41,064,29,45,38,104,29,1*76
$GBGSV,3,2,12,24,30,291,30,33,18,299,25,14,18,273,18,42,13,247,24,1*74
$GBGSV,3,3,12,44,09,188,26,08,06,309,17,13,05,319,20,41,04,345,18,1*7F
$GNRMC,001547.000,A,4910.425984,N,12304.400370,W,0.01,177.05,041224,,,D,V*10
$GNVTG,177.05,T,,M,0.01,N,0.02,K,D*21
$PAIRLOG,Full*51
$GNGGA,001548.000,4910.426032,N,12304.400382,W,2,33,0.46,0.569,M,-16.817,M,,*43
$GNGLL,4910.426032,N,12304.400382,W,001548.000,A,D*5C
$GNGSA,A,3,22,17,14,13,19,30,15,02,24,21,,,0.89,0.46,0.76,1*0A
$GNGSA,A,3,79,88,78,80,69,,,,,,,,0.89,0.46,0.76,2*06
$GNGSA,A,3,21,04,06,13,09,19,31,15,,,,,0.89,0.46,0.76,3*05
$GNGSA,A,3,26,35,29,45,24,33,14,42,44,13,,,0.89,0.46,0.76,4*09
$GPGSV,4,1,13,22,83,009,29,17,68,150,32,14,64,070,30,13,43,226,30,1*64
$GPGSV,4,2,13,19,42,192,28,46,33,188,29,30,32,136,24,15,32,270,26,1*62
$GPGSV,4,3,13,02,26,058,28,24,21,307,23,21,16,040,16,10,03,351,17,1*64
$GPGSV,4,4,13,23,01,314,,1*50
$GLGSV,2,1,07,79,71,000,39,88,44,060,38,78,35,087,15,70,28,308,,1*77
$GLGSV,2,2,07,80,27,295,31,69,21,238,34,71,07,352,,1*49
$GAGSV,3,1,10,21,53,070,27,04,45,257,27,06,38,291,25,13,27,087,25,7*78
$GAGSV,3,2,10,09,25,315,25,19,19,192,17,31,18,262,21,15,15,033,19,7*77
$GAGSV,3,3,10,26,12,138,23,27,02,078,,7*76
$GBGSV,3,1,12,26,83,315,34,35,44,152,29,29,41,064,29,45,38,104,29,1*70
$GBGSV,3,2,12,24,30,291,30,33,18,299,25,14,18,273,18,42,13,247,24,1*74
$GBGSV,3,3,12,44,09,188,26,08,06,309,17,13,05,319,20,41,04,345,18,1*7F
$GNRMC,001548.000,A,4910.426032,N,12304.400382,W,0.01,177.05,041224,,,D,V*15
$GNVTG,177.05,T,,M,0.01,N,0.02,K,D*21
$PAIRLOG,Full*51
$GNGGA,001549.000,4910.426110,N,12304.400424,W,2,33,0.46,0.579,M,-16.817,M,,*49
$GNGLL,4910.426110,N,12304.400424,W,001549.000,A,D*57
$GNGSA,A,3,22,17,14,13,19,30,15,02,24,21,,,0.89,0.46,0.76,1*0A
$GNGSA,A,3,79,88,78,80,69,,,,,,,,0.89,0.46,0.76,2*06
$GNGSA,A,3,21,04,06,13,09,19,31,15,,,,,0.89,0.46,0.76,3*05
$GNGSA,A,3,26,35,29,45,24,33,14,42,44,13,,,0.89,0.46,0.76,4*09
$GPGSV,4,1,13,22,83,009,29,17,68,150,32,14,64,070,30,13,43,226,30,1*64
$GPGSV,4,2,13,19,42,192,28,46,33,188,29,30,32,136,24,15,32,270,26,1*62
$GPGSV,4,3,13,02,26,058,28,24,21,307,23,21,16,040,16,10,03,351,17,1*64
$GPGSV,4,4,13,23,01,314,,1*50
$GLGSV,2,1,07,79,71,000,38,88,44,060,39,78,35,087,14,70,28,308,,1*76
$GLGSV,2,2,07,80,27,295,31,69,21,238,34,71,07,352,,1*49
$GAGSV,3,1,10,21,53,070,27,04,45,257,27,06,38,291,25,13,27,087,24,7*79
$GAGSV,3,2,10,09,25,315,25,19,19,192,17,31,18,262,21,15,15,033,19,7*77
$GAGSV,3,3,10,26,12,138,23,27,02,078,,7*76
$GBGSV,3,1,12,26,83,315,34,35,44,152,29,29,41,064,29,45,38,104,29,1*70
$GBGSV,3,2,12,24,30,291,30,33,18,299,25,14,18,273,18,42,13,247,24,1*74
$GBGSV,3,3,12,44,09,188,26,08,06,309,17,13,05,319,19,41,04,345,18,1*75
$GNRMC,001549.000,A,4910.426110,N,12304.400424,W,0.01,177.05,041224,,,D,V*1E
$GNVTG,177.05,T,,M,0.01,N,0.02,K,D*21
$PAIRLOG,Full*51
$GNGGA,001550.000,4910.426284,N,12304.400520,W,2,33,0.46,0.607,M,-16.816,M,,*41
$GNGLL,4910.426284,N,12304.400520,W,001550.000,A,D*54
$GNGSA,A,3,22,17,14,13,19,30,15,02,24,21,,,0.89,0.46,0.76,1*0A
$GNGSA,A,3,79,88,78,80,69,,,,,,,,0.89,0.46,0.76,2*06
$GNGSA,A,3,21,04,06,13,09,19,31,15,,,,,0.89,0.46,0.76,3*05
$GNGSA,A,3,26,35,29,45,24,33,14,42,44,13,,,0.89,0.46,0.76,4*09
$GPGSV,4,1,13,22,83,009,29,17,68,150,32,14,64,070,30,13,43,226,30,1*64
$GPGSV,4,2,13,19,42,192,28,46,33,188,29,30,32,136,24,15,32,270,25,1*61
$GPGSV,4,3,13,02,26,058,27,24,21,307,23,21,16,040,16,10,03,351,17,1*6B
$GPGSV,4,4,13,23,01,314,,1*50
$GLGSV,2,1,07,79,71,000,38,88,44,060,39,78,35,087,13,70,28,308,,1*71
$GLGSV,2,2,07,80,27,295,31,69,21,238,34,71,07,352,,1*49
$GAGSV,3,1,10,21,53,070,27,04,45,257,27,06,38,291,25,13,27,087,24,7*79
$GAGSV,3,2,10,09,25,315,25,19,19,192,17,31,18,262,21,15,15,033,19,7*77
$GAGSV,3,3,10,26,12,138,23,27,02,078,,7*76
$GBGSV,3,1,12,26,83,315,34,35,44,152,29,29,41,064,29,45,38,104,29,1*70
$GBGSV,3,2,12,24,30,291,30,33,18,299,25,14,18,273,18,42,13,247,24,1*74
$GBGSV,3,3,12,44,09,188,26,08,06,309,17,13,05,319,19,41,04,345,18,1*75
$GNRMC,001550.000,A,4910.426284,N,12304.400520,W,0.02,177.05,041224,,,D,V*1E
$GNVTG,177.05,T,,M,0.02,N,0.04,K,D*24
$PAIRLOG,Full*51
$GNGGA,001551.000,4910.426446,N,12304.400610,W,2,33,0.46,0.709,M,-16.816,M,,*47
$GNGLL,4910.426446,N,12304.400610,W,001551.000,A,D*5D
$GNGSA,A,3,22,17,14,13,19,30,15,02,24,21,,,0.89,0.46,0.76,1*0A
$GNGSA,A,3,79,88,78,80,69,,,,,,,,0.89,0.46,0.76,2*06
$GNGSA,A,3,21,04,06,13,09,19,31,15,,,,,0.89,0.46,0.76,3*05
$GNGSA,A,3,26,35,29,45,24,33,14,42,44,13,,,0.89,0.46,0.76,4*09
$GPGSV,4,1,13,22,83,009,29,17,68,150,33,14,64,070,31,13,43,226,30,1*64
$GPGSV,4,2,13,19,42,192,29,46,33,188,29,30,32,136,25,15,32,270,25,1*61
$GPGSV,4,3,13,02,26,058,28,24,21,307,23,21,16,040,17,10,03,351,18,1*6A
$GPGSV,4,4,13,23,01,314,,1*50
$GLGSV,2,1,07,79,71,000,38,88,44,060,39,78,35,087,12,70,28,308,,1*70
$GLGSV,2,2,07,80,27,295,31,69,21,238,34,71,07,352,,1*49
$GAGSV,3,1,10,21,53,070,27,04,45,257,27,06,38,291,25,13,27,087,24,7*79
$GAGSV,3,2,10,09,25,315,25,19,19,192,17,31,18,262,22,15,15,033,19,7*74
$GAGSV,3,3,10,26,12,138,23,27,02,078,,7*76
$GBGSV,3,1,12,26,83,315,34,35,44,152,29,29,41,064,28,45,38,104,28,1*70
$GBGSV,3,2,12,24,30,291,30,33,18,299,25,14,18,273,17,42,13,247,24,1*7B
$GBGSV,3,3,12,44,09,188,26,08,06,309,16,13,05,319,18,41,04,345,18,1*75
$GNRMC,001551.000,A,4910.426446,N,12304.400610,W,0.03,177.05,041224,,,D,V*16
$GNVTG,177.05,T,,M,0.03,N,0.05,K,D*24
$PAIRLOG,Full*51
$GNGGA,001552.000,4910.426494,N,12304.400670,W,2,33,0.46,0.772,M,-16.816,M,,*41
$GNGLL,4910.426494,N,12304.400670,W,001552.000,A,D*57
$GNGSA,A,3,22,17,14,13,19,30,15,02,24,21,,,0.89,0.46,0.76,1*0A
$GNGSA,A,3,79,88,78,80,69,,,,,,,,0.89,0.46,0.76,2*06
$GNGSA,A,3,21,04,06,13,09,19,31,15,,,,,0.89,0.46,0.76,3*05
$GNGSA,A,3,26,35,29,45,24,33,14,42,44,13,,,0.89,0.46,0.76,4*09
$GPGSV,4,1,13,22,83,009,29,17,68,150,33,14,64,070,31,13,43,226,30,1*64
$GPGSV,4,2,13,19,42,192,29,46,33,188,29,30,32,136,25,15,32,270,25,1*61
$GPGSV,4,3,13,02,26,058,28,24,21,307,24,21,16,040,17,10,03,351,18,1*6D
$GPGSV,4,4,13,23,01,314,,1*50
$GLGSV,2,1,07,79,71,000,38,88,44,060,39,78,35,087,11,70,28,308,,1*73
$GLGSV,2,2,07,80,27,295,31,69,21,238,34,71,07,352,,1*49
$GAGSV,3,1,10,21,53,070,27,04,45,257,27,06,38,291,25,13,27,087,24,7*79
$GAGSV,3,2,10,09,25,315,25,19,19,192,17,31,18,262,22,15,15,033,20,7*7E
$GAGSV,3,3,10,26,12,138,23,27,02,078,,7*76
$GBGSV,3,1,12,26,83,315,34,35,44,152,30,29,41,064,28,45,38,104,29,1*79
$GBGSV,3,2,12,24,30,291,30,33,18,299,25,14,18,273,17,42,13,247,24,1*7B
$GBGSV,3,3,12,44,09,188,26,08,06,309,16,13,05,319,18,41,04,345,19,1*74
$GNRMC,001552.000,A,4910.426494,N,12304.400670,W,0.03,177.05,041224,,,D,V*1C
$GNVTG,177.05,T,,M,0.03,N,0.05,K,D*24
$PAIRLOG,Full*51
$GNGGA,001553.000,4910.426542,N,12304.400772,W,2,33,0.46,0.838,M,-16.816,M,,*48
$GNGLL,4910.426542,N,12304.400772,W,001553.000,A,D*5F
$GNGSA,A,3,22,17,14,13,19,30,15,02,24,21,,,0.89,0.46,0.76,1*0A
$GNGSA,A,3,79,88,78,80,69,,,,,,,,0.89,0.46,0.76,2*06
$GNGSA,A,3,21,04,06,13,09,19,31,15,,,,,0.89,0.46,0.76,3*05
$GNGSA,A,3,26,35,29,45,24,33,14,42,44,13,,,0.89,0.46,0.76,4*09
$GPGSV,4,1,13,22,83,009,29,17,68,150,32,14,64,070,30,13,43,226,30,1*64
$GPGSV,4,2,13,19,42,192,28,46,33,188,29,30,32,136,25,15,32,270,25,1*60
$GPGSV,4,3,13,02,26,058,25,24,21,307,24,21,16,040,17,10,03,351,18,1*60
$GPGSV,4,4,13,23,01,314,,1*50
$GLGSV,2,1,07,79,71,000,38,88,44,060,39,78,35,087,12,70,28,308,,1*70
$GLGSV,2,2,07,80,27,295,32,69,21,238,34,71,07,352,,1*4A
$GAGSV,3,1,10,21,53,070,27,04,45,257,27,06,38,291,25,13,27,087,24,7*79
$GAGSV,3,2,10,09,25,315,25,19,19,192,17,31,18,262,21,15,15,033,20,7*7D
$GAGSV,3,3,10,26,12,138,23,27,02,078,,7*76
$GBGSV,3,1,12,26,83,315,35,35,44,152,30,29,41,064,28,45,38,104,29,1*78
$GBGSV,3,2,12,24,30,291,30,33,18,299,25,14,18,273,17,42,13,247,25,1*7A
$GBGSV,3,3,12,44,09,188,26,08,06,309,16,13,05,319,19,41,04,345,19,1*75
$GNRMC,001553.000,A,4910.426542,N,12304.400772,W,0.02,177.05,041224,,,D,V*15
$GNVTG,177.05,T,,M,0.02,N,0.04,K,D*24
$PAIRLOG,Full*51
$GNGGA,001554.000,4910.426566,N,12304.400832,W,2,33,0.46,0.829,M,-16.817,M,,*43
$GNGLL,4910.426566,N,12304.400832,W,001554.000,A,D*55
$GNGSA,A,3,22,17,14,13,19,30,15,02,24,21,,,0.89,0.46,0.76,1*0A
$GNGSA,A,3,79,88,78,80,69,,,,,,,,0.89,0.46,0.76,2*06
$GNGSA,A,3,21,04,06,13,09,19,31,15,,,,,0.89,0.46,0.76,3*05
$GNGSA,A,3,26,35,29,45,24,33,14,42,44,13,,,0.89,0.46,0.76,4*09
$GPGSV,4,1,13,22,83,009,29,17,68,150,33,14,64,070,31,13,43,226,31,1*65
$GPGSV,4,2,13,19,42,192,29,46,33,188,29,30,32,136,26,15,32,270,25,1*62
$GPGSV,4,3,13,02,26,058,26,24,21,307,24,21,16,040,17,10,03,351,18,1*63
$GPGSV,4,4,13,23,01,314,,1*50
$GLGSV,2,1,07,79,71,000,39,88,44,060,39,78,35,087,13,70,28,308,,1*70
$GLGSV,2,2,07,80,27,295,32,69,21,238,34,71,07,352,,1*4A
$GAGSV,3,1,10,21,53,070,27,04,45,257,27,06,38,291,26,13,27,087,23,7*7D
$GAGSV,3,2,10,09,25,315,26,19,19,192,17,31,18,262,21,15,15,033,21,7*7F
$GAGSV,3,3,10,26,12,138,23,27,02,078,,7*76
$GBGSV,3,1,12,26,83,315,35,35,44,152,30,29,41,064,29,45,38,104,29,1*79
$GBGSV,3,2,12,24,30,291,30,33,18,299,25,14,18,273,18,42,13,247,26,1*76
$GBGSV,3,3,12,44,09,188,26,08,06,309,16,13,05,319,19,41,04,345,20,1*7F
$GNRMC,001554.000,A,4910.426566,N,12304.400832,W,0.02,177.05,041224,,,D,V*1F
$GNVTG,177.05,T,,M,0.02,N,0.03,K,D*23
$PAIRLOG,Full*51
$GNGGA,001555.000,4910.426692,N,12304.400910,W,2,33,0.46,0.825,M,-16.816,M,,*46
$GNGLL,4910.426692,N,12304.400910,W,001555.000,A,D*5D
$GNGSA,A,3,22,17,14,13,19,30,15,02,24,21,,,0.89,0.46,0.76,1*0A
$GNGSA,A,3,79,88,78,80,69,,,,,,,,0.89,0.46,0.76,2*06
$GNGSA,A,3,21,04,06,13,09,19,31,15,,,,,0.89,0.46,0.76,3*05
$GNGSA,A,3,26,35,29,45,24,33,14,42,44,13,,,0.89,0.46,0.76,4*09
$GPGSV,4,1,13,22,83,009,29,17,68,150,33,14,64,070,31,13,43,226,31,1*65
$GPGSV,4,2,13,19,42,192,29,46,33,188,29,30,32,136,27,15,32,270,25,1*63
$GPGSV,4,3,13,02,26,058,26,24,21,307,25,21,16,040,18,10,03,351,18,1*6D
$GPGSV,4,4,13,23,01,314,,1*50
$GLGSV,2,1,07,79,71,000,39,88,44,060,39,78,35,087,17,70,28,308,,1*74
$GLGSV,2,2,07,80,27,295,32,69,21,238,34,71,07,352,,1*4A
$GAGSV,3,1,10,21,53,070,28,04,45,257,27,06,38,291,26,13,27,087,23,7*72
$GAGSV,3,2,10,09,25,315,26,19,19,192,17,31,18,262,22,15,15,033,22,7*7F
$GAGSV,3,3,10,26,12,138,23,27,02,078,,7*76
$GBGSV,3,1,12,26,83,315,35,35,44,152,31,29,41,064,30,45,38,104,29,1*70
$GBGSV,3,2,12,24,30,291,30,33,18,299,26,14,18,273,18,42,13,247,26,1*75
$GBGSV,3,3,12,44,09,188,26,08,06,309,16,13,05,319,19,41,04,345,20,1*7F
$GNRMC,001555.000,A,4910.426692,N,12304.400910,W,0.02,177.05,041224,,,D,V*17
$GNVTG,177.05,T,,M,0.02,N,0.03,K,D*23
$PAIRLOG,Full*51
$GNGGA,001556.000,4910.426824,N,12304.400934,W,2,33,0.46,0.845,M,-16.816,M,,*46
$GNGLL,4910.426824,N,12304.400934,W,001556.000,A,D*5B
$GNGSA,A,3,22,17,14,13,19,30,15,02,24,21,,,0.89,0.46,0.76,1*0A
$GNGSA,A,3,79,88,78,80,69,,,,,,,,0.89,0.46,0.76,2*06
$GNGSA,A,3,21,04,06,13,09,19,31,15,,,,,0.89,0.46,0.76,3*05
$GNGSA,A,3,26,35,29,45,24,33,14,42,44,13,,,0.89,0.46,0.76,4*09
$GPGSV,4,1,13,22,83,009,30,17,68,150,34,14,64,070,32,13,43,226,31,1*69
$GPGSV,4,2,13,19,42,192,29,46,33,188,30,30,32,136,27,15,32,270,25,1*6B
$GPGSV,4,3,13,02,26,058,26,24,21,307,25,21,16,040,18,10,03,351,18,1*6D
$GPGSV,4,4,13,23,01,314,,1*50
$GLGSV,2,1,07,79,71,000,39,88,44,060,39,78,35,087,16,70,28,308,,1*75
$GLGSV,2,2,07,80,27,295,32,69,21,238,34,71,07,352,,1*4A
$GAGSV,3,1,10,21,53,070,28,04,45,257,27,06,38,291,26,13,27,087,23,7*72
$GAGSV,3,2,10,09,25,315,26,19,19,192,17,31,18,262,22,15,15,033,22,7*7F
$GAGSV,3,3,10,26,12,138,23,27,02,078,,7*76
$GBGSV,3,1,12,26,83,315,34,35,44,152,30,29,41,064,29,45,38,104,28,1*79
$GBGSV,3,2,12,24,30,291,29,33,18,299,25,14,18,273,18,42,13,247,26,1*7E
$GBGSV,3,3,12,44,09,188,25,08,06,309,16,13,05,319,19,41,04,345,20,1*7C
$GNRMC,001556.000,A,4910.426824,N,12304.400934,W,0.02,177.05,041224,,,D,V*11
$GNVTG,177.05,T,,M,0.02,N,0.04,K,D*24
$PAIRLOG,Full*51
$GNGGA,001557.000,4910.426914,N,12304.401030,W,2,33,0.46,0.887,M,-16.816,M,,*47
$GNGLL,4910.426914,N,12304.401030,W,001557.000,A,D*54
$GNGSA,A,3,22,17,14,13,19,30,15,02,24,21,,,0.89,0.46,0.76,1*0A
$GNGSA,A,3,79,88,78,80,69,,,,,,,,0.89,0.46,0.76,2*06
$GNGSA,A,3,21,04,06,13,09,19,31,15,,,,,0.89,0.46,0.76,3*05
$GNGSA,A,3,26,35,29,45,24,33,14,42,44,13,,,0.89,0.46,0.76,4*09
$GPGSV,4,1,13,22,83,009,30,17,68,150,34,14,64,070,32,13,43,226,31,1*69
$GPGSV,4,2,13,19,42,192,29,46,33,188,30,30,32,136,27,15,32,270,25,1*6B
$GPGSV,4,3,13,02,26,058,26,24,21,307,25,21,16,040,18,10,03,351,18,1*6D
$GPGSV,4,4,13,23,01,314,,1*50
$GLGSV,2,1,07,79,71,000,39,88,44,060,39,78,35,087,16,70,28,308,,1*75
$GLGSV,2,2,07,80,27,295,32,69,21,238,34,71,07,352,,1*4A
$GAGSV,3,1,10,21,53,070,28,04,45,257,27,06,38,291,26,13,27,087,23,7*72
$GAGSV,3,2,10,09,25,315,26,19,19,192,17,31,18,262,22,15,15,033,22,7*7F
$GAGSV,3,3,10,26,12,138,23,27,02,078,,7*76
$GBGSV,3,1,12,26,83,315,34,35,44,152,30,29,41,064,29,45,38,104,28,1*79
$GBGSV,3,2,12,24,30,291,29,33,18,299,26,14,18,273,18,42,13,247,26,1*7D
$GBGSV,3,3,12,44,10,188,25,08,06,309,16,13,05,319,19,41,04,345,21,1*75
$GNRMC,001557.000,A,4910.426914,N,12304.401030,W,0.02,177.05,041224,,,D,V*1E
$GNVTG,177.05,T,,M,0.02,N,0.04,K,D*24
$PAIRLOG,Full*51
$GNGGA,001558.000,4910.426980,N,12304.401054,W,2,33,0.46,0.874,M,-16.817,M,,*4A
$GNGLL,4910.426980,N,12304.401054,W,001558.000,A,D*54
$GNGSA,A,3,22,17,14,13,19,30,15,02,24,21,,,0.89,0.46,0.76,1*0A
$GNGSA,A,3,79,88,78,80,69,,,,,,,,0.89,0.46,0.76,2*06
$GNGSA,A,3,21,04,06,13,09,19,31,15,,,,,0.89,0.46,0.76,3*05
$GNGSA,A,3,26,35,29,45,24,33,14,42,44,13,,,0.89,0.46,0.76,4*09
$GPGSV,4,1,13,22,83,009,30,17,68,150,34,14,64,070,32,13,43,226,31,1*69
$GPGSV,4,2,13,19,42,192,29,46,33,188,30,30,32,136,27,15,32,270,25,1*6B
$GPGSV,4,3,13,02,26,058,26,24,21,307,25,21,16,040,18,10,03,351,19,1*6C
$GPGSV,4,4,13,23,01,314,,1*50
$GLGSV,2,1,07,79,71,000,39,88,44,060,39,78,35,087,13,70,28,308,,1*70
$GLGSV,2,2,07,80,27,295,32,69,21,238,34,71,07,352,,1*4A
$GAGSV,3,1,10,21,53,070,28,04,45,257,27,06,38,291,26,13,27,087,23,7*72
$GAGSV,3,2,10,09,25,315,26,19,19,192,17,31,18,262,22,15,15,033,22,7*7F
$GAGSV,3,3,10,26,12,138,23,27,02,078,,7*76
$GBGSV,3,1,12,26,83,315,35,35,44,152,31,29,41,064,29,45,37,105,29,1*76
$GBGSV,3,2,12,24,30,291,29,33,18,299,26,14,18,273,19,42,13,247,26,1*7C
$GBGSV,3,3,12,44,10,188,26,08,06,309,16,13,05,319,19,41,04,345,22,1*75
$GNRMC,001558.000,A,4910.426980,N,12304.401054,W,0.02,177.05,041224,,,D,V*1E
$GNVTG,177.05,T,,M,0.02,N,0.04,K,D*24
$PAIRLOG,Full*51
$GNGGA,001559.000,4910.426968,N,12304.401114,W,2,33,0.46,0.878,M,-16.816,M,,*45
