1,107,19,7*75
$GAGSV,3,2,10,05,29,293,19,34,19,296,17,24,14,186,17,36,11,246,15,7*72
$GAGSV,3,3,10,15,07,343,15,21,02,029,,7*7B
$GBGSV,3,1,12,23,67,078,36,32,66,165,35,37,51,208,33,20,49,303,34,1*7A
$GBGSV,3,2,12,58,37,228,,25,17,051,26,41,14,142,24,38,08,334,25,1*75
$GBGSV,3,3,12,31,07,342,,19,03,314,,08,01,340,,44,01,008,,1*7F
$GNRMC,184114.000,A,4910.426554,N,12304.395582,W,0.00,46.95,051224,,,D,V*26
$GNVTG,46.95,T,,M,0.00,N,0.01,K,D*19
$PAIRLOG,Full*51
$GNGGA,184115.000,4910.426542,N,12304.395564,W,2,31,0.50,8.066,M,-16.816,M,,*42
$GNGLL,4910.426542,N,12304.395564,W,184115.000,A,D*5B
$GNGSA,A,3,09,04,16,07,26,03,11,20,06,30,,,0.80,0.50,0.63,1*04
$GNGSA,A,3,78,68,69,79,67,85,86,,,,,,0.80,0.50,0.63,2*08
$GNGSA,A,3,09,06,31,04,05,34,36,,,,,,0.80,0.50,0.63,3*05
$GNGSA,A,3,23,32,37,20,25,41,38,,,,,,0.80,0.50,0.63,4*03
$GPGSV,4,1,13,09,78,304,31,04,69,103,30,16,47,077,28,07,46,248,27,1*6A
$GPGSV,4,2,13,48,33,182,,26,24,048,20,03,20,174,24,11,14,304,20,1*6E
$GPGSV,4,3,13,20,13,323,21,06,12,266,18,30,11,247,19,31,06,064,,1*62
$GPGSV,4,4,13,27,06,111,,1*54
$GLGSV,2,1,07,78,80,092,29,68,76,112,35,69,47,320,39,79,38,204,38,1*7F
$GLGSV,2,2,07,67,25,132,26,85,11,327,24,86,05,017,22,1*4D
$GAGSV,3,1,10,09,84,332,24,06,68,102,25,31,50,142,21,04,41,107,19,7*71
$GAGSV,3,2,10,05,29,293,19,34,19,296,17,24,14,186,17,36,11,246,15,7*72
$GAGSV,3,3,10,15,07,343,16,21,02,029,,7*78
$GBGSV,3,1,12,23,67,078,36,32,66,165,35,37,51,208,33,20,49,303,34,1*7A
$GBGSV,3,2,12,58,37,228,,25,17,051,26,41,14,142,24,38,08,334,25,1*75
$GBGSV,3,3,12,19,03,314,,08,01,340,,04,01,262,,44,01,008,,1*7C
$GNRMC,184115.000,A,4910.426542,N,12304.395564,W,0.01,46.95,051224,,,D,V*29
$GNVTG,46.95,T,,M,0.01,N,0.01,K,D*18
$PAIRLOG,Full*51
$GNGGA,184116.000,4910.426554,N,12304.395558,W,2,31,0.50,8.349,M,-16.817,M,,*46
$GNGLL,4910.426554,N,12304.395558,W,184116.000,A,D*50
$GNGSA,A,3,09,04,16,07,26,03,11,20,06,30,,,0.80,0.50,0.63,1*04
$GNGSA,A,3,78,68,69,79,67,85,86,,,,,,0.80,0.50,0.63,2*08
$GNGSA,A,3,09,06,31,04,05,34,36,,,,,,0.80,0.50,0.63,3*05
$GNGSA,A,3,23,32,37,20,25,41,38,,,,,,0.80,0.50,0.63,4*03
$GPGSV,4,1,13,09,78,304,31,04,69,103,30,16,47,077,26,07,46,248,27,1*64
$GPGSV,4,2,13,48,33,182,,26,24,048,20,03,20,174,23,11,14,304,20,1*69
$GPGSV,4,3,13,20,13,323,21,06,12,266,19,30,11,247,19,31,06,064,,1*63
$GPGSV,4,4,13,27,06,111,,1*54
$GLGSV,2,1,07,78,80,092,29,68,76,112,35,69,47,320,39,79,38,204,38,1*7F
$GLGSV,2,2,07,67,25,132,26,85,11,327,24,86,05,017,23,1*4C
$GAGSV,3,1,10,09,84,332,24,06,68,102,23,31,50,142,20,04,41,107,19,7*76
$GAGSV,3,2,10,05,29,293,19,34,19,296,17,24,14,186,17,36,11,246,15,7*72
$GAGSV,3,3,10,15,07,343,16,21,02,029,,7*78
$GBGSV,3,1,12,23,67,078,36,32,66,165,35,37,51,208,33,20,49,303,34,1*7A
$GBGSV,3,2,12,58,37,228,,25,17,051,26,41,14,142,24,38,08,334,25,1*75
$GBGSV,3,3,12,19,03,314,,08,01,340,,04,01,262,,44,01,008,,1*7C
$GNRMC,184116.000,A,4910.426554,N,12304.395558,W,0.01,46.95,051224,,,D,V*22
$GNVTG,46.95,T,,M,0.01,N,0.01,K,D*18
$PAIRLOG,Full*51
$GNGGA,184117.000,4910.426560,N,12304.395468,W,2,31,0.50,8.741,M,-16.816,M,,*4F
$GNGLL,4910.426560,N,12304.395468,W,184117.000,A,D*54
$GNGSA,A,3,09,04,16,07,26,03,11,20,06,30,,,0.80,0.50,0.63,1*04
$GNGSA,A,3,78,68,69,79,67,85,86,,,,,,0.80,0.50,0.63,2*08
$GNGSA,A,3,09,06,31,04,05,34,36,,,,,,0.80,0.50,0.63,3*05
$GNGSA,A,3,23,32,37,20,25,41,38,,,,,,0.80,0.50,0.63,4*03
$GPGSV,3,1,12,09,78,304,31,04,69,103,30,16,47,077,26,07,46,248,28,1*6D
$GPGSV,3,2,12,26,24,048,20,03,20,174,23,11,14,304,20,20,13,323,21,1*69
$GPGSV,3,3,12,06,12,266,18,30,11,247,20,31,06,064,,27,06,111,,1*6D
$GLGSV,2,1,07,78,80,092,29,68,76,112,35,69,47,320,39,79,38,204,38,1*7F
$GLGSV,2,2,07,67,25,132,26,85,11,327,24,86,05,017,23,1*4C
$GAGSV,3,1,10,09,84,332,24,06,68,102,24,31,50,142,20,04,41,107,19,7*71
$GAGSV,3,2,10,05,29,293,19,34,19,296,17,24,14,186,17,36,11,246,16,7*71
$GAGSV,3,3,10,15,07,343,16,21,02,029,,7*78
$GBGSV,3,1,12,23,67,078,36,32,66,165,35,37,51,208,33,20,49,303,34,1*7A
$GBGSV,3,2,12,58,37,228,,25,17,051,26,41,14,142,24,38,08,334,25,1*75
$GBGSV,3,3,12,31,07,342,,19,03,314,,04,01,262,,44,01,008,,1*72
$GNRMC,184117.000,A,4910.426560,N,12304.395468,W,0.01,46.95,051224,,,D,V*26
$GNVTG,46.95,T,,M,0.01,N,0.02,K,D*1B
$PAIRLOG,Full*51
$GNGGA,184118.000,4910.426578,N,12304.395408,W,2,29,0.50,9.025,M,-16.816,M,,*42
$GNGLL,4910.426578,N,12304.395408,W,184118.000,A,D*54
$GNGSA,A,3,09,04,16,07,26,03,11,20,06,30,,,0.81,0.50,0.64,1*02
$GNGSA,A,3,78,68,69,79,67,85,86,,,,,,0.81,0.50,0.64,2*0E
$GNGSA,A,3,09,04,05,34,36,,,,,,,,0.81,0.50,0.64,3*07
$GNGSA,A,3,23,32,37,20,25,41,38,,,,,,0.81,0.50,0.64,4*05
$GPGSV,4,1,13,09,78,304,31,04,69,103,29,16,47,077,27,07,46,248,28,1*62
$GPGSV,4,2,13,44,33,171,,26,24,048,20,03,20,174,22,11,14,304,19,1*62
$GPGSV,4,3,13,20,13,323,20,06,12,266,17,30,11,247,20,31,06,064,,1*66
$GPGSV,4,4,13,27,06,111,,1*54
$GLGSV,2,1,07,78,80,092,29,68,76,112,35,69,47,320,39,79,38,204,37,1*70
$GLGSV,2,2,07,67,25,132,26,85,11,327,24,86,05,017,23,1*4C
$GAGSV,3,1,10,09,84,332,24,06,68,102,,31,50,142,,04,41,107,20,7*7F
$GAGSV,3,2,10,05,29,293,19,34,19,296,17,24,14,186,17,36,11,246,16,7*71
$GAGSV,3,3,10,15,07,343,15,21,02,029,,7*7B
$GBGSV,3,1,12,23,67,078,36,32,66,165,35,37,51,208,33,20,49,303,34,1*7A
$GBGSV,3,2,12,58,37,228,,25,17,051,26,41,14,142,24,38,08,334,25,1*75
$GBGSV,3,3,12,31,07,342,,19,03,314,,08,01,340,,44,01,008,,1*7F
$GNRMC,184118.000,A,4910.426578,N,12304.395408,W,0.01,46.95,051224,,,D,V*26
$GNVTG,46.95,T,,M,0.01,N,0.02,K,D*1B
$PAIRLOG,Full*51
$GNGGA,184119.000,4910.426578,N,12304.395336,W,2,29,0.50,9.194,M,-16.817,M,,*43
$GNGLL,4910.426578,N,12304.395336,W,184119.000,A,D*5F
$GNGSA,A,3,09,04,16,07,26,03,11,20,06,30,,,0.81,0.50,0.64,1*02
$GNGSA,A,3,78,68,69,79,67,85,86,,,,,,0.81,0.50,0.64,2*0E
$GNGSA,A,3,09,04,05,34,36,,,,,,,,0.81,0.50,0.64,3*07
$GNGSA,A,3,23,32,37,20,25,41,38,,,,,,0.81,0.50,0.64,4*05
$GPGSV,3,1,11,09,79,304,30,04,68,104,29,16,47,076,25,07,47,248,27,1*6C
$GPGSV,3,2,11,44,33,171,,26,24,048,19,03,20,174,22,11,14,303,19,1*6A
$GPGSV,3,3,11,20,14,323,20,06,12,266,17,30,11,247,19,1*58
$GLGSV,2,1,08,78,79,089,29,68,75,114,35,69,48,320,39,79,38,204,37,1*79
$GLGSV,2,2,08,67,24,132,24,85,11,326,24,86,05,016,23,84,02,279,,1*72
$GAGSV,2,1,07,09,84,333,23,04,41,107,19,05,30,293,19,34,18,295,17,7*7F
$GAGSV,2,2,07,24,14,186,16,36,11,245,16,15,07,343,15,7*4D
$GBGSV,2,1,07,23,66,077,36,32,65,165,35,37,52,208,32,20,49,303,34,1*70
$GBGSV,2,2,07,25,17,051,26,41,13,142,24,38,08,334,25,1*46
$GNRMC,184119.000,A,4910.426578,N,12304.395336,W,0.01,46.95,051224,,,D,V*2D
$GNVTG,46.95,T,,M,0.01,N,0.02,K,D*1B
$PAIRLOG,Full*51
$GNGGA,184120.000,4910.426584,N,12304.395348,W,2,29,0.50,9.320,M,-16.816,M,,*4F
$GNGLL,4910.426584,N,12304.395348,W,184120.000,A,D*5F
$GNGSA,A,3,09,04,16,07,26,03,11,20,06,30,,,0.81,0.50,0.64,1*02
$GNGSA,A,3,78,68,69,79,67,85,86,,,,,,0.81,0.50,0.64,2*0E
$GNGSA,A,3,09,04,05,34,36,,,,,,,,0.81,0.50,0.64,3*07
$GNGSA,A,3,23,32,37,20,25,41,38,,,,,,0.81,0.50,0.64,4*05
$GPGSV,3,1,11,09,79,304,30,04,68,104,29,16,47,076,26,07,47,248,27,1*6F
$GPGSV,3,2,11,44,33,171,,26,24,048,19,03,20,174,21,11,14,303,18,1*68
$GPGSV,3,3,11,20,14,323,20,06,12,266,17,30,11,247,19,1*58
$GLGSV,2,1,08,78,79,089,29,68,75,114,35,69,48,320,39,79,38,204,37,1*79
$GLGSV,2,2,08,67,24,132,23,85,11,326,24,86,05,016,23,84,02,279,,1*75
$GAGSV,2,1,07,09,84,333,23,04,41,107,19,05,30,293,18,34,18,295,16,7*7F
$GAGSV,2,2,07,24,14,186,16,36,11,245,15,15,07,343,15,7*4E
$GBGSV,2,1,07,23,66,077,36,32,65,165,35,37,52,208,32,20,49,303,34,1*70
$GBGSV,2,2,07,25,17,051,26,41,13,142,24,38,08,334,25,1*46
$GNRMC,184120.000,A,4910.426584,N,12304.395348,W,0.01,46.95,051224,,,D,V*2D
$GNVTG,46.95,T,,M,0.01,N,0.02,K,D*1B
$PAIRLOG,Full*51
$GNGGA,184121.000,4910.426614,N,12304.395300,W,2,29,0.50,9.457,M,-16.816,M,,*4F
$GNGLL,4910.426614,N,12304.395300,W,184121.000,A,D*58
$GNGSA,A,3,09,04,07,16,26,03,11,20,06,30,,,0.81,0.50,0.64,1*02
$GNGSA,A,3,78,68,69,79,67,85,86,,,,,,0.81,0.50,0.64,2*0E
$GNGSA,A,3,09,04,05,34,36,,,,,,,,0.81,0.50,0.64,3*07
$GNGSA,A,3,23,32,37,20,25,41,38,,,,,,0.81,0.50,0.64,4*05
$GPGSV,4,1,13,09,79,304,30,04,68,104,29,07,47,248,27,16,47,076,25,1*69
$GPGSV,4,2,13,44,33,171,,26,24,048,19,03,20,174,22,11,14,303,20,1*65
$GPGSV,4,3,13,20,14,323,21,06,12,266,17,30,11,247,19,27,07,111,,1*6F
$GPGSV,4,4,13,31,06,065,,1*51
$GLGSV,2,1,08,78,79,089,30,68,75,114,35,69,48,320,39,79,38,204,37,1*71
$GLGSV,2,2,08,67,24,132,22,85,11,326,24,86,05,016,24,84,02,279,,1*73
$GAGSV,3,1,10,09,84,333,23,06,68,102,,31,50,142,,04,41,107,19,7*73
$GAGSV,3,2,10,05,30,293,18,34,18,295,16,24,14,186,16,36,11,245,15,7*7A
$GAGSV,3,3,10,15,07,343,15,21,02,029,,7*7B
$GBGSV,3,1,12,23,66,077,36,32,65,165,35,37,52,208,32,20,49,303,34,1*75
$GBGSV,3,2,12,58,38,228,,25,17,051,26,41,13,142,24,38,08,334,25,1*7D
$GBGSV,3,3,12,31,07,342,,19,04,315,,44,01,008,,08,01,341,,1*78
$GNRMC,184121.000,A,4910.426614,N,12304.395300,W,0.01,46.95,051224,,,D,V*2A
$GNVTG,46.95,T,,M,0.01,N,0.02,K,D*1B
$PAIRLOG,Full*51
$GNGGA,184122.000,4910.426650,N,12304.395234,W,2,29,0.50,9.747,M,-16.816,M,,*48
$GNGLL,4910.426650,N,12304.395234,W,184122.000,A,D*5D
$GNGSA,A,3,09,04,07,16,26,03,11,20,06,30,,,0.81,0.50,0.64,1*02
$GNGSA,A,3,78,68,69,79,67,85,86,,,,,,0.81,0.50,0.64,2*0E
$GNGSA,A,3,09,04,05,34,36,,,,,,,,0.81,0.50,0.64,3*07
$GNGSA,A,3,23,32,37,20,25,41,38,,,,,,0.81,0.50,0.64,4*05
$GPGSV,4,1,13,09,79,304,31,04,68,104,30,07,47,248,28,16,47,076,27,1*6D
$GPGSV,4,2,13,44,33,171,,26,24,048,19,03,20,174,23,11,14,303,21,1*65
$GPGSV,4,3,13,20,14,323,20,06,12,266,17,30,11,247,19,27,07,111,,1*6E
$GPGSV,4,4,13,31,06,065,,1*51
$GLGSV,2,1,08,78,79,089,30,68,75,114,34,69,48,320,39,79,38,204,37,1*70
$GLGSV,2,2,08,67,24,132,22,85,11,326,25,86,05,016,24,84,02,279,,1*72
$GAGSV,3,1,10,09,84,333,24,06,68,102,,31,50,142,,04,41,107,19,7*74
$GAGSV,3,2,10,05,30,293,18,34,18,295,16,24,14,186,17,36,11,245,15,7*7B
$GAGSV,3,3,10,15,07,343,15,21,02,029,,7*7B
$GBGSV,3,1,12,23,66,077,36,32,65,165,35,37,52,208,32,20,49,303,34,1*75
$GBGSV,3,2,12,58,38,228,,25,17,051,26,41,13,142,24,38,08,334,25,1*7D
$GBGSV,3,3,12,31,07,342,,19,04,315,,44,01,008,,08,01,341,,1*78
$GNRMC,184122.000,A,4910.426650,N,12304.395234,W,0.01,46.95,051224,,,D,V*2F
$GNVTG,46.95,T,,M,0.01,N,0.02,K,D*1B
$PAIRLOG,Full*51
$GNGGA,184123.000,4910.426674,N,12304.395276,W,2,31,0.50,10.036,M,-16.816,M,,*79
$GNGLL,4910.426674,N,12304.395276,W,184123.000,A,D*5C
$GNGSA,A,3,09,04,16,07,26,03,11,20,06,30,,,0.80,0.50,0.63,1*04
$GNGSA,A,3,78,68,69,79,67,85,86,,,,,,0.80,0.50,0.63,2*08
$GNGSA,A,3,09,06,31,04,05,34,36,,,,,,0.80,0.50,0.63,3*05
$GNGSA,A,3,23,32,37,20,25,41,38,,,,,,0.80,0.50,0.63,4*03
$GPGSV,4,1,13,09,79,304,31,04,68,104,30,16,47,076,26,07,47,248,28,1*6C
$GPGSV,4,2,13,44,33,171,,26,24,048,19,03,20,174,23,11,14,303,20,1*64
$GPGSV,4,3,13,20,14,323,20,06,12,266,18,30,11,247,19,27,07,111,,1*61
$GPGSV,4,4,13,31,06,065,,1*51
$GLGSV,2,1,07,78,79,089,30,68,75,114,34,69,48,320,39,79,38,204,37,1*7F
$GLGSV,2,2,07,67,24,132,22,85,11,326,25,86,05,016,24,1*4F
$GAGSV,3,1,10,09,84,333,24,06,68,102,22,31,50,142,20,04,41,107,19,7*76
$GAGSV,3,2,10,05,30,293,18,34,18,295,17,24,14,186,17,36,11,245,15,7*7A
$GAGSV,3,3,10,15,07,343,15,21,02,029,,7*7B
$GBGSV,3,1,12,23,66,077,36,32,65,165,35,37,52,208,32,20,49,303,34,1*75
$GBGSV,3,2,12,58,38,228,,25,17,051,26,41,13,142,24,38,08,334,25,1*7D
$GBGSV,3,3,12,31,07,342,,19,04,315,,44,01,008,,08,01,341,,1*78
$GNRMC,184123.000,A,4910.426674,N,12304.395276,W,0.02,46.95,051224,,,D,V*2D
$GNVTG,46.95,T,,M,0.02,N,0.03,K,D*19
$PAIRLOG,Full*51
$GNGGA,184124.000,4910.426650,N,12304.395234,W,2,31,0.50,9.748,M,-16.817,M,,*49
$GNGLL,4910.426650,N,12304.395234,W,184124.000,A,D*5B
$GNGSA,A,3,09,04,16,07,26,03,11,20,06,30,,,0.80,0.50,0.63,1*04
$GNGSA,A,3,78,68,69,79,67,85,86,,,,,,0.80,0.50,0.63,2*08
$GNGSA,A,3,09,06,31,04,05,34,36,,,,,,0.80,0.50,0.63,3*05
$GNGSA,A,3,23,32,37,20,25,41,38,,,,,,0.80,0.50,0.63,4*03
$GPGSV,4,1,13,09,79,304,31,04,68,104,30,16,47,076,27,07,47,248,28,1*6D
$GPGSV,4,2,13,44,33,171,,26,24,048,19,03,20,174,23,11,14,303,21,1*65
$GPGSV,4,3,13,20,14,323,21,06,12,266,18,30,11,247,20,27,07,111,,1*6A
$GPGSV,4,4,13,31,06,065,,1*51
$GLGSV,2,1,07,78,79,089,30,68,75,114,34,69,48,320,39,79,38,204,37,1*7F
$GLGSV,2,2,07,67,24,132,22,85,11,326,25,86,05,016,23,1*48
$GAGSV,3,1,10,09,84,333,24,06,68,102,22,31,50,142,22,04,41,107,19,7*74
$GAGSV,3,2,10,05,30,293,18,34,18,295,17,24,14,186,17,36,11,245,16,7*79
$GAGSV,3,3,10,15,07,343,16,21,02,029,,7*78
$GBGSV,3,1,12,23,66,077,36,32,65,165,36,37,52,208,32,20,49,303,35,1*77
$GBGSV,3,2,12,58,38,228,,25,17,051,26,41,13,142,25,38,08,334,25,1*7C
$GBGSV,3,3,12,31,07,342,,19,04,315,,44,01,008,,08,01,341,,1*78
$GNRMC,184124.000,A,4910.426650,N,12304.395234,W,0.00,46.95,051224,,,D,V*28
$GNVTG,46.95,T,,M,0.00,N,0.01,K,D*19
$PAIRLOG,Full*51
$GNGGA,184125.000,4910.426674,N,12304.395270,W,2,29,0.50,9.967,M,-16.816,M,,*45
$GNGLL,4910.426674,N,12304.395270,W,184125.000,A,D*5C
$GNGSA,A,3,09,04,16,07,26,03,11,20,06,30,,,0.81,0.50,0.64,1*02
$GNGSA,A,3,78,68,69,79,67,85,86,,,,,,0.81,0.50,0.64,2*0E
$GNGSA,A,3,09,04,05,34,36,,,,,,,,0.81,0.50,0.64,3*07
$GNGSA,A,3,23,32,37,20,25,41,38,,,,,,0.81,0.50,0.64,4*05
$GPGSV,3,1,10,09,79,304,31,04,68,104,30,16,47,076,29,07,47,248,28,1*67
$GPGSV,3,2,10,26,24,048,19,03,20,174,21,11,14,303,21,20,14,323,21,1*62
$GPGSV,3,3,10,06,12,266,18,30,11,247,21,1*6A
$GLGSV,2,1,07,78,79,089,30,68,75,114,34,69,48,320,39,79,38,204,37,1*7F
$GLGSV,2,2,07,67,24,132,22,85,11,326,25,86,05,016,23,1*48
$GAGSV,2,1,07,09,84,333,24,04,41,107,19,05,30,293,18,34,18,295,17,7*79
$GAGSV,2,2,07,24,14,186,17,36,11,245,16,15,07,343,16,7*4F
$GBGSV,2,1,07,23,66,077,36,32,65,165,36,37,52,208,32,20,49,303,35,1*72
$GBGSV,2,2,07,25,17,051,26,41,13,142,26,38,08,334,25,1*44
$GNRMC,184125.000,A,4910.426674,N,12304.395270,W,0.06,46.95,051224,,,D,V*29
$GNVTG,46.95,T,,M,0.06,N,0.11,K,D*1E
$PAIRLOG,Full*51
$GNGGA,184126.000,4910.426698,N,12304.395240,W,2,29,0.50,9.953,M,-16.816,M,,*40
$GNGLL,4910.426698,N,12304.395240,W,184126.000,A,D*5E
$GNGSA,A,3,09,04,16,07,26,03,11,20,06,30,,,0.81,0.50,0.64,1*02
$GNGSA,A,3,78,68,69,79,67,85,86,,,,,,0.81,0.50,0.64,2*0E
$GNGSA,A,3,09,04,05,34,36,,,,,,,,0.81,0.50,0.64,3*07
$GNGSA,A,3,23,32,37,20,25,41,38,,,,,,0.81,0.50,0.64,4*05
$GPGSV,3,1,10,09,79,304,31,04,68,104,29,16,47,076,28,07,47,248,28,1*6E
$GPGSV,3,2,10,26,24,048,19,03,20,174,22,11,14,303,21,20,14,323,21,1*61
$GPGSV,3,3,10,06,12,266,18,30,11,247,21,1*6A
$GLGSV,2,1,08,78,79,089,31,68,75,114,34,69,48,320,39,79,38,204,37,1*71
$GLGSV,2,2,08,67,24,132,21,85,11,326,24,86,05,016,23,84,01,279,,1*74
$GAGSV,2,1,07,09,84,333,23,04,41,107,19,05,30,293,18,34,18,295,18,7*71
$GAGSV,2,2,07,24,14,186,17,36,11,245,15,15,07,343,16,7*4C
$GBGSV,2,1,07,23,66,077,36,32,65,165,36,37,52,208,32,20,49,303,35,1*72
$GBGSV,2,2,07,25,17,051,26,41,13,142,26,38,08,334,25,1*44
$GNRMC,184126.000,A,4910.426698,N,12304.395240,W,0.09,46.95,051224,,,D,V*24
$GNVTG,46.95,T,,M,0.09,N,0.17,K,D*17
$PAIRLOG,Full*51
$GNGGA,184127.000,4910.426698,N,12304.395246,W,2,29,0.50,9.970,M,-16.816,M,,*46
$GNGLL,4910.426698,N,12304.395246,W,184127.000,A,D*59
$GNGSA,A,3,09,04,07,16,26,03,11,20,06,30,,,0.81,0.50,0.64,1*02
$GNGSA,A,3,78,68,69,79,67,85,86,,,,,,0.81,0.50,0.64,2*0E
$GNGSA,A,3,09,04,05,34,36,,,,,,,,0.81,0.50,0.64,3*07
$GNGSA,A,3,23,32,37,20,25,41,38,,,,,,0.81,0.50,0.64,4*05
$GPGSV,4,1,13,09,79,304,30,04,68,104,28,07,47,248,27,16,47,076,27,1*6A
$GPGSV,4,2,13,51,31,159,,26,24,048,19,03,20,174,21,11,14,303,21,1*6B
$GPGSV,4,3,13,20,14,323,20,06,12,266,17,30,11,247,20,27,07,111,,1*64
$GPGSV,4,4,13,31,06,065,,1*51
$GLGSV,2,1,08,78,79,089,31,68,75,114,35,69,48,320,39,79,38,204,37,1*70
$GLGSV,2,2,08,67,24,132,21,85,11,326,23,86,05,016,23,84,01,279,,1*73
$GAGSV,3,1,10,09,84,333,22,06,68,102,,31,50,142,,04,41,107,19,7*72
$GAGSV,3,2,10,05,30,293,18,34,18,295,18,24,14,186,17,36,11,245,15,7*75
$GAGSV,3,3,10,15,07,343,16,21,02,029,,7*78
$GBGSV,3,1,12,23,66,077,36,32,65,165,36,37,52,208,32,20,49,303,35,1*77
$GBGSV,3,2,12,58,38,228,,25,17,051,26,41,13,142,26,38,08,334,25,1*7F
$GBGSV,3,3,12,31,07,342,,19,04,315,,08,01,341,,44,01,008,,1*78
$GNRMC,184127.000,A,4910.426698,N,12304.395246,W,0.10,46.95,051224,,,D,V*2B
$GNVTG,46.95,T,,M,0.10,N,0.19,K,D*11
$PAIRLOG,Full*51
$GNGGA,184128.000,4910.426698,N,12304.395240,W,2,29,0.50,9.952,M,-16.817,M,,*4E
$GNGLL,4910.426698,N,12304.395240,W,184128.000,A,D*50
$GNGSA,A,3,09,04,16,07,26,03,11,20,06,30,,,0.81,0.50,0.64,1*02
$GNGSA,A,3,78,68,69,79,67,85,86,,,,,,0.81,0.50,0.64,2*0E
$GNGSA,A,3,09,04,05,34,36,,,,,,,,0.81,0.50,0.64,3*07
$GNGSA,A,3,23,32,37,20,25,41,38,,,,,,0.81,0.50,0.64,4*05
$GPGSV,3,1,11,09,79,304,30,04,68,104,28,16,47,076,27,07,47,248,26,1*6E
$GPGSV,3,2,11,51,31,159,,26,24,048,19,03,20,174,21,11,14,303,21,1*6E
$GPGSV,3,3,11,20,14,323,20,06,12,266,18,30,11,247,19,1*57
$GLGSV,2,1,08,78,79,089,31,68,75,114,34,69,48,320,39,79,38,204,37,1*71
$GLGSV,2,2,08,67,24,132,21,85,11,326,23,86,05,016,23,84,01,279,,1*73
$GAGSV,2,1,07,09,84,333,22,04,41,107,19,05,30,293,17,34,18,295,18,7*7F
$GAGSV,2,2,07,24,14,186,17,36,11,245,15,15,07,343,16,7*4C
$GBGSV,2,1,07,23,66,077,36,32,65,165,36,37,52,208,32,20,49,303,35,1*72
$GBGSV,2,2,07,25,17,051,26,41,13,142,27,38,08,334,25,1*45
$GNRMC,184128.000,A,4910.426698,N,12304.395240,W,0.11,46.95,051224,,,D,V*23
$GNVTG,46.95,T,,M,0.11,N,0.20,K,D*1A
$PAIRLOG,Full*51
$GNGGA,184129.000,4910.426662,N,12304.395180,W,2,29,0.50,9.956,M,-16.816,M,,*40
$GNGLL,4910.426662,N,12304.395180,W,184129.000,A,D*5B
$GNGSA,A,3,09,04,16,07,26,03,11,20,06,30,,,0.81,0.50,0.64,1*02
$GNGSA,A,3,78,68,69,79,67,85,86,,,,,,0.81,0.50,0.64,2*0E
$GNGSA,A,3,09,04,05,34,36,,,,,,,,0.81,0.50,0.64,3*07
$GNGSA,A,3,23,32,37,20,25,41,38,,,,,,0.81,0.50,0.64,4*05
$GPGSV,3,1,11,09,79,304,30,04,68,104,28,16,47,076,26,07,47,248,26,1*6F
$GPGSV,3,2,11,51,31,159,,26,24,048,19,03,20,174,21,11,14,303,21,1*6E
$GPGSV,3,3,11,20,14,323,20,06,12,266,17,30,11,247,19,1*58
$GLGSV,2,1,08,78,79,089,31,68,75,114,34,69,48,320,39,79,38,204,37,1*71
$GLGSV,2,2,08,67,24,132,20,85,11,326,23,86,05,016,22,84,01,279,,1*73
$GAGSV,2,1,07,09,84,333,22,04,41,107,19,05,30,293,17,34,18,295,18,7*7F
$GAGSV,2,2,07,24,14,186,17,36,11,245,15,15,07,343,16,7*4C
$GBGSV,2,1,07,23,66,077,36,32,65,165,36,37,52,208,32,20,49,303,35,1*72
$GBGSV,2,2,07,25,17,051,26,41,13,142,27,38,08,334,25,1*45
$GNRMC,184129.000,A,4910.426662,N,12304.395180,W,0.11,46.95,051224,,,D,V*28
$GNVTG,46.95,T,,M,0.11,N,0.21,K,D*1B
$PAIRLOG,Full*51
$GNGGA,184130.000,4910.426656,N,12304.395126,W,2,29,0.50,9.991,M,-16.816,M,,*48
$GNGLL,4910.426656,N,12304.395126,W,184130.000,A,D*58
$GNGSA,A,3,09,04,07,16,26,03,11,20,06,30,,,0.81,0.50,0.64,1*02
$GNGSA,A,3,78,68,69,79,67,85,86,,,,,,0.81,0.50,0.64,2*0E
$GNGSA,A,3,09,04,05,34,36,,,,,,,,0.81,0.50,0.64,3*07
$GNGSA,A,3,23,32,37,20,25,41,38,,,,,,0.81,0.50,0.64,4*05
$GPGSV,4,1,13,09,79,304,29,04,68,104,27,07,47,248,25,16,47,076,25,1*6D
$GPGSV,4,2,13,51,31,159,,26,24,048,19,03,20,174,21,11,14,303,21,1*6B
$GPGSV,4,3,13,20,14,323,20,06,12,266,18,30,11,247,19,27,07,111,,1*61
$GPGSV,4,4,13,31,06,065,,1*51
$GLGSV,2,1,08,78,79,089,31,68,75,114,34,69,48,320,39,79,38,204,37,1*71
$GLGSV,2,2,08,67,24,132,19,85,11,326,23,86,05,016,24,84,01,279,,1*7F
$GAGSV,3,1,10,09,84,333,22,06,68,102,,31,50,142,,04,41,107,19,7*72
$GAGSV,3,2,10,05,30,293,17,34,18,295,17,24,14,186,16,36,11,245,15,7*74
$GAGSV,3,3,10,15,07,343,16,21,02,029,,7*78
$GBGSV,3,1,12,23,66,077,36,32,65,165,36,37,52,208,32,20,49,303,35,1*77
$GBGSV,3,2,12,58,38,228,,25,17,051,26,41,13,142,27,38,08,334,24,1*7F
$GBGSV,3,3,12,31,07,342,,19,04,315,,08,01,341,,44,01,008,,1*78
$GNRMC,184130.000,A,4910.426656,N,12304.395126,W,0.13,46.95,051224,,,D,V*29
$GNVTG,46.95,T,,M,0.13,N,0.24,K,D*1C
$PAIRLOG,Full*51
$GNGGA,184131.000,4910.426674,N,12304.395126,W,2,29,0.50,9.981,M,-16.816,M,,*48
$GNGLL,4910.426674,N,12304.395126,W,184131.000,A,D*59
$GNGSA,A,3,09,04,07,16,26,03,11,20,06,30,,,0.81,0.50,0.64,1*02
$GNGSA,A,3,78,68,69,79,67,85,86,,,,,,0.81,0.50,0.64,2*0E
$GNGSA,A,3,09,04,05,34,36,,,,,,,,0.81,0.50,0.64,3*07
$GNGSA,A,3,23,32,37,20,25,41,38,,,,,,0.81,0.50,0.64,4*05
$GPGSV,4,1,13,09,79,304,29,04,68,104,28,07,47,248,25,16,47,076,25,1*62
$GPGSV,4,2,13,51,31,159,,26,24,048,19,03,20,174,21,11,14,303,21,1*6B
$GPGSV,4,3,13,20,14,323,20,06,12,266,17,30,11,247,19,27,07,111,,1*6E
$GPGSV,4,4,13,31,06,065,,1*51
$GLGSV,2,1,08,78,79,089,32,68,75,114,34,69,48,320,39,79,38,204,37,1*72
$GLGSV,2,2,08,67,24,132,19,85,11,326,23,86,05,016,25,84,01,279,,1*7E
$GAGSV,3,1,10,09,84,333,23,06,68,102,,31,50,142,,04,41,107,19,7*73
$GAGSV,3,2,10,05,30,293,17,34,18,295,17,24,14,186,16,36,11,245,15,7*74
$GAGSV,3,3,10,15,07,343,15,21,02,029,,7*7B
$GBGSV,3,1,12,23,66,077,36,32,65,165,36,37,52,208,32,20,49,303,35,1*77
$GBGSV,3,2,12,58,38,228,,25,17,051,26,41,13,142,27,38,08,334,25,1*7E
$GBGSV,3,3,12,31,07,342,,19,04,315,,08,01,341,,44,01,008,,1*78
$GNRMC,184131.000,A,4910.426674,N,12304.395126,W,0.14,46.95,051224,,,D,V*2F
$GNVTG,46.95,T,,M,0.14,N,0.25,K,D*1A
$PAIRLOG,Full*51
$GNGGA,184132.000,4910.426698,N,12304.395102,W,2,30,0.50,10.011,M,-16.816,M,,*7F
$GNGLL,4910.426698,N,12304.395102,W,184132.000,A,D*5E
$GNGSA,A,3,09,04,07,16,26,03,11,20,06,30,,,0.81,0.50,0.63,1*05
$GNGSA,A,3,78,68,69,79,67,85,86,,,,,,0.81,0.50,0.63,2*09
$GNGSA,A,3,09,06,04,05,34,36,,,,,,,0.81,0.50,0.63,3*06
$GNGSA,A,3,23,32,37,20,25,41,38,,,,,,0.81,0.50,0.63,4*02
$GPGSV,4,1,13,09,79,304,29,04,68,104,28,07,47,248,25,16,47,076,26,1*61
$GPGSV,4,2,13,51,31,159,,26,24,048,19,03,20,174,21,11,14,303,21,1*6B
$GPGSV,4,3,13,20,14,323,21,06,12,266,19,30,11,247,20,27,07,111,,1*6B
$GPGSV,4,4,13,31,06,065,,1*51
$GLGSV,2,1,08,78,79,089,32,68,75,114,34,69,48,320,39,79,38,204,37,1*72
$GLGSV,2,2,08,67,24,132,19,85,11,326,23,86,05,016,25,84,01,279,,1*7E
$GAGSV,3,1,10,09,84,333,23,06,68,102,21,31,50,142,,04,41,107,19,7*70
$GAGSV,3,2,10,05,30,293,17,34,18,295,17,24,14,186,17,36,11,245,15,7*75
$GAGSV,3,3,10,15,07,343,15,21,02,029,,7*7B
$GBGSV,3,1,12,23,66,077,36,32,65,165,36,37,52,208,32,20,49,303,35,1*77
$GBGSV,3,2,12,58,38,228,,25,17,051,26,41,13,142,27,38,08,334,24,1*7F
$GBGSV,3,3,12,31,07,342,,19,04,315,,08,01,341,,46,01,222,,1*70
$GNRMC,184132.000,A,4910.426698,N,12304.395102,W,0.14,46.95,051224,,,D,V*28
$GNVTG,46.95,T,,M,0.14,N,0.27,K,D*18
$PAIRLOG,Full*51
$GNGGA,184133.000,4910.426692,N,12304.395102,W,2,31,0.50,10.025,M,-16.816,M,,*72
$GNGLL,4910.426692,N,12304.395102,W,184133.000,A,D*55
$GNGSA,A,3,09,04,16,07,26,03,11,20,06,30,,,0.80,0.50,0.63,1*04
$GNGSA,A,3,78,68,69,79,67,85,86,,,,,,0.80,0.50,0.63,2*08
$GNGSA,A,3,09,06,31,04,05,34,36,,,,,,0.80,0.50,0.63,3*05
$GNGSA,A,3,23,32,37,20,25,41,38,,,,,,0.80,0.50,0.63,4*03
$GPGSV,4,1,13,09,79,304,30,04,68,104,29,16,47,076,26,07,47,248,26,1*6B
$GPGSV,4,2,13,51,31,159,,26,24,048,19,03,20,174,22,11,14,303,21,1*68
$GPGSV,4,3,13,20,14,323,21,06,12,266,19,30,11,247,20,27,07,111,,1*6B
$GPGSV,4,4,13,31,06,065,,1*51
$GLGSV,2,1,07,78,79,089,32,68,75,114,34,69,48,320,39,79,38,204,37,1*7D
$GLGSV,2,2,07,67,24,132,19,85,11,326,23,86,05,016,25,1*40
$GAGSV,3,1,10,09,84,333,24,06,68,102,23,31,50,142,19,04,41,107,19,7*7D
$GAGSV,3,2,10,05,30,293,17,34,18,295,17,24,14,186,17,36,11,245,15,7*75
$GAGSV,3,3,10,15,07,343,16,21,02,029,,7*78
$GBGSV,3,1,12,23,66,077,35,32,65,165,35,37,52,208,31,20,49,303,34,1*75
$GBGSV,3,2,12,58,38,228,,25,17,051,26,41,13,142,26,38,08,334,24,1*7E
$GBGSV,3,3,12,31,07,342,,19,04,315,,46,01,222,,44,01,008,,1*76
$GNRMC,184133.000,A,4910.426692,N,12304.395102,W,0.15,46.95,051224,,,D,V*22
$GNVTG,46.95,T,,M,0.15,N,0.28,K,D*16
$PAIRLOG,Full*51
$GNGGA,184134.000,4910.426722,N,12304.395018,W,2,31,0.50,10.179,M,-16.816,M,,*7D
$GNGLL,4910.426722,N,12304.395018,W,184134.000,A,D*52
$GNGSA,A,3,09,04,16,07,26,03,11,20,06,30,,,0.80,0.50,0.63,1*04
$GNGSA,A,3,78,68,69,79,67,85,86,,,,,,0.80,0.50,0.63,2*08
$GNGSA,A,3,09,06,31,04,05,34,36,,,,,,0.80,0.50,0.63,3*05
$GNGSA,A,3,23,32,37,20,25,41,38,,,,,,0.80,0.50,0.63,4*03
$GPGSV,3,1,12,09,79,304,31,04,68,104,29,16,47,076,26,07,47,248,27,1*6D
$GPGSV,3,2,12,26,24,048,20,03,20,174,22,11,14,303,21,20,14,323,21,1*69
$GPGSV,3,3,12,06,12,266,19,30,11,247,20,27,07,111,,31,06,065,,1*6C
$GLGSV,2,1,07,78,79,089,32,68,75,114,34,69,48,320,39,79,38,204,37,1*7D
$GLGSV,2,2,07,67,24,132,19,85,11,326,23,86,05,016,25,1*40
$GAGSV,3,1,10,09,84,333,25,06,68,102,24,31,50,142,20,04,41,107,19,7*71
$GAGSV,3,2,10,05,30,293,18,34,18,295,18,24,14,186,17,36,11,245,15,7*75
$GAGSV,3,3,10,15,07,343,16,21,02,029,,7*78
$GBGSV,3,1,12,23,66,077,35,32,65,165,35,37,52,208,32,20,49,303,34,1*76
$GBGSV,3,2,12,58,38,228,,25,17,051,26,41,13,142,27,38,08,334,25,1*7E
$GBGSV,3,3,12,31,07,342,,19,04,315,18,46,01,222,,08,01,341,,1*79
$GNRMC,184134.000,A,4910.426722,N,12304.395018,W,0.16,46.95,051224,,,D,V*26
$GNVTG,46.95,T,,M,0.16,N,0.30,K,D*1C
$PAIRLOG,Full*51
$GNGGA,184135.000,4910.426734,N,12304.395006,W,2,29,0.50,10.376,M,-16.816,M,,*70
$GNGLL,4910.426734,N,12304.395006,W,184135.000,A,D*5B
$GNGSA,A,3,09,04,16,07,26,03,11,20,06,30,,,0.81,0.50,0.64,1*02
$GNGSA,A,3,78,68,69,79,67,85,86,,,,,,0.81,0.50,0.64,2*0E
$GNGSA,A,3,09,04,05,34,36,,,,,,,,0.81,0.50,0.64,3*07
$GNGSA,A,3,23,32,37,20,25,41,38,,,,,,0.81,0.50,0.64,4*05
$GPGSV,3,1,10,09,79,304,31,04,68,104,29,16,47,076,26,07,47,248,25,1*6D
$GPGSV,3,2,10,26,24,048,20,03,20,174,22,11,14,303,21,20,14,323,21,1*6B
$GPGSV,3,3,10,06,12,266,19,30,11,247,20,1*6A
$GLGSV,2,1,07,78,79,089,32,68,75,114,34,69,48,320,39,79,38,204,37,1*7D
$GLGSV,2,2,07,67,24,132,19,85,11,326,23,86,05,016,24,1*41
$GAGSV,2,1,07,09,84,333,25,04,41,107,19,05,30,293,18,34,18,295,18,7*77
$GAGSV,2,2,07,24,14,186,17,36,11,245,15,15,07,343,16,7*4C
$GBGSV,2,1,07,23,66,077,35,32,65,165,35,37,52,208,32,20,49,303,34,1*73
$GBGSV,2,2,07,25,17,051,26,41,13,142,27,38,08,334,25,1*45
$GNRMC,184135.000,A,4910.426734,N,12304.395006,W,0.17,46.95,051224,,,D,V*2E
$GNVTG,46.95,T,,M,0.17,N,0.31,K,D*1C
$PAIRLOG,Full*51
$GNGGA,184136.000,4910.426740,N,12304.395000,W,2,29,0.50,10.337,M,-16.817,M,,*72
$GNGLL,4910.426740,N,12304.395000,W,184136.000,A,D*5D
$GNGSA,A,3,09,04,16,07,26,03,11,20,06,30,,,0.81,0.50,0.64,1*02
$GNGSA,A,3,78,68,69,79,67,85,86,,,,,,0.81,0.50,0.64,2*0E
$GNGSA,A,3,09,04,05,34,36,,,,,,,,0.81,0.50,0.64,3*07
$GNGSA,A,3,23,32,37,20,25,41,38,,,,,,0.81,0.50,0.64,4*05
$GPGSV,4,1,13,09,79,304,31,04,68,104,29,16,47,076,26,07,47,248,27,1*6B
$GPGSV,4,2,13,26,24,048,21,03,20,174,22,11,14,303,21,20,14,323,21,1*6E
$GPGSV,4,3,13,06,12,266,19,30,11,247,20,27,07,111,,31,06,065,,1*6A
$GPGSV,4,4,13,33,,,,1*66
$GLGSV,2,1,08,78,79,089,32,68,75,114,34,69,48,320,39,79,38,204,37,1*72
$GLGSV,2,2,08,67,24,132,19,85,11,326,23,86,05,016,23,84,01,278,,1*79
$GAGSV,3,1,10,09,84,333,25,06,68,102,,31,50,142,,04,41,107,19,7*75
$GAGSV,3,2,10,05,30,293,18,34,18,295,18,24,14,186,17,36,11,245,15,7*75
$GAGSV,3,3,10,15,07,343,16,21,02,029,,7*78
$GBGSV,3,1,12,23,66,077,35,32,65,165,35,37,52,208,32,20,49,303,34,1*76
$GBGSV,3,2,12,58,38,228,,25,17,051,26,41,13,142,27,38,08,334,25,1*7E
$GBGSV,3,3,12,31,07,342,,19,04,315,,08,01,341,,44,01,008,,1*78
$GNRMC,184136.000,A,4910.426740,N,12304.395000,W,0.17,46.95,051224,,,D,V*28
$GNVTG,46.95,T,,M,0.17,N,0.32,K,D*1F
$PAIRLOG,Full*51
$GNGGA,184137.000,4910.426764,N,12304.394964,W,2,29,0.50,10.335,M,-16.816,M,,*7C
$GNGLL,4910.426764,N,12304.394964,W,184137.000,A,D*50
$GNGSA,A,3,09,04,16,07,26,03,11,20,06,30,,,0.81,0.50,0.64,1*02
$GNGSA,A,3,78,68,69,79,67,85,86,,,,,,0.81,0.50,0.64,2*0E
$GNGSA,A,3,09,04,05,34,36,,,,,,,,0.81,0.50,0.64,3*07
$GNGSA,A,3,23,32,37,20,25,41,38,,,,,,0.81,0.50,0.64,4*05
$GPGSV,3,1,11,09,79,304,30,04,68,104,28,16,47,076,26,07,47,248,25,1*6C
$GPGSV,3,2,11,26,24,048,21,03,20,174,22,11,14,303,21,20,14,323,21,1*6B
$GPGSV,3,3,11,06,12,266,19,30,11,247,20,33,,,,1*6B
$GLGSV,2,1,08,78,79,089,32,68,75,114,34,69,48,320,39,79,38,204,37,1*72
$GLGSV,2,2,08,67,24,132,19,85,11,326,23,86,05,016,23,84,01,278,,1*79
$GAGSV,2,1,07,09,84,333,25,04,41,107,19,05,30,293,18,34,18,295,18,7*77
$GAGSV,2,2,07,24,14,186,17,36,11,245,14,15,07,343,16,7*4D
$GBGSV,2,1,07,23,66,077,35,32,65,165,35,37,52,208,32,20,49,303,34,1*73
$GBGSV,2,2,07,25,17,051,25,41,13,142,27,38,08,334,25,1*46
$GNRMC,184137.000,A,4910.426764,N,12304.394964,W,0.18,46.95,051224,,,D,V*2A
$GNVTG,46.95,T,,M,0.18,N,0.33,K,D*11
$PAIRLOG,Full*51
$GNGGA,184138.000,4910.426770,N,12304.394928,W,2,29,0.50,10.411,M,-16.816,M,,*7F
$GNGLL,4910.426770,N,12304.394928,W,184138.000,A,D*52
$GNGSA,A,3,09,04,16,07,26,03,11,20,06,30,,,0.81,0.50,0.64,1*02
$GNGSA,A,3,78,68,69,79,67,85,86,,,,,,0.81,0.50,0.64,2*0E
$GNGSA,A,3,09,04,05,34,36,,,,,,,,0.81,0.50,0.64,3*07
$GNGSA,A,3,23,32,37,20,25,41,38,,,,,,0.81,0.50,0.64,4*05
$GPGSV,3,1,11,09,79,304,30,04,68,104,28,16,47,076,25,07,47,248,25,1*6F
$GPGSV,3,2,11,26,24,048,20,03,20,174,22,11,14,303,21,20,14,323,21,1*6A
$GPGSV,3,3,11,06,12,266,18,30,11,247,20,33,,,,1*6A
$GLGSV,2,1,08,78,79,089,32,68,75,114,34,69,48,320,39,79,38,204,37,1*72
$GLGSV,2,2,08,67,24,132,19,85,11,326,23,86,05,016,23,84,01,278,,1*79
$GAGSV,2,1,07,09,84,333,24,04,41,107,19,05,30,293,18,34,18,295,18,7*76
$GAGSV,2,2,07,24,14,186,16,36,11,245,14,15,07,343,16,7*4C
$GBGSV,2,1,07,23,66,077,35,32,65,165,35,37,52,208,32,20,49,303,34,1*73
$GBGSV,2,2,07,25,17,051,24,41,13,142,27,38,08,334,24,1*46
$GNRMC,184138.000,A,4910.426770,N,12304.394928,W,0.19,46.95,051224,,,D,V*29
$GNVTG,46.95,T,,M,0.19,N,0.35,K,D*16
$PAIRLOG,Full*51
$GNGGA,184139.000,4910.426788,N,12304.394910,W,2,29,0.50,10.481,M,-16.816,M,,*7B
$GNGLL,4910.426788,N,12304.394910,W,184139.000,A,D*5F
$GNGSA,A,3,09,04,16,07,26,03,11,20,06,30,,,0.81,0.50,0.64,1*02
$GNGSA,A,3,78,68,69,79,67,85,86,,,,,,0.81,0.50,0.64,2*0E
$GNGSA,A,3,09,04,05,34,36,,,,,,,,0.81,0.50,0.64,3*07
$GNGSA,A,3,23,32,37,20,25,41,38,,,,,,0.81,0.50,0.64,4*05
$GPGSV,3,1,11,09,79,304,30,04,68,104,28,16,47,076,25,07,47,248,25,1*6F
$GPGSV,3,2,11,26,24,048,19,03,20,174,22,11,14,303,21,20,14,323,21,1*60
$GPGSV,3,3,11,06,12,266,18,30,11,247,20,33,,,,1*6A
$GLGSV,2,1,08,78,79,089,32,68,75,114,35,69,48,320,39,79,38,204,37,1*73
$GLGSV,2,2,08,67,24,132,19,85,11,326,22,86,05,016,22,84,01,278,,1*79
$GAGSV,2,1,07,09,84,333,24,04,41,107,18,05,30,293,18,34,18,295,18,7*77
$GAGSV,2,2,07,24,14,186,16,36,11,245,12,15,07,343,16,7*4A
$GBGSV,2,1,07,23,66,077,35,32,65,165,35,37,52,208,32,20,49,303,34,1*73
$GBGSV,2,2,07,25,17,051,24,41,13,142,27,38,08,334,24,1*46
$GNRMC,184139.000,A,4910.426788,N,12304.394910,W,0.19,65.43,051224,,,D,V*2E
$GNVTG,65.43,T,,M,0.19,N,0.35,K,D*1C
$PAIRLOG,Full*51
$GNGGA,184140.000,4910.426812,N,12304.394886,W,2,29,0.50,10.630,M,-16.816,M,,*7F
$GNGLL,4910.426812,N,12304.394886,W,184140.000,A,D*53
$GNGSA,A,3,09,04,16,07,26,03,11,20,06,30,,,0.81,0.50,0.64,1*02
$GNGSA,A,3,78,68,69,79,67,85,86,,,,,,0.81,0.50,0.64,2*0E
$GNGSA,A,3,09,04,05,34,36,,,,,,,,0.81,0.50,0.64,3*07
$GNGSA,A,3,23,32,37,20,25,41,38,,,,,,0.81,0.50,0.64,4*05
$GPGSV,4,1,13,09,79,304,30,04,68,104,27,16,47,076,25,07,47,248,25,1*65
$GPGSV,4,2,13,26,24,048,19,03,20,174,22,11,14,303,21,20,14,323,21,1*65
$GPGSV,4,3,13,06,12,266,18,30,11,247,20,27,07,111,,31,06,065,,1*6B
$GPGSV,4,4,13,33,,,,1*66
$GLGSV,2,1,08,78,79,089,32,68,75,114,35,69,48,320,39,79,38,204,37,1*73
$GLGSV,2,2,08,67,24,132,19,85,11,326,22,86,05,016,21,84,01,278,,1*7A
$GAGSV,3,1,10,09,84,333,24,06,68,102,,31,50,142,,04,41,107,18,7*75
$GAGSV,3,2,10,05,30,293,18,34,18,295,18,24,14,186,16,36,11,245,11,7*70
$GAGSV,3,3,10,15,07,343,15,21,02,029,,7*7B
$GBGSV,3,1,12,23,66,077,35,32,65,165,35,37,52,208,32,20,49,303,34,1*76
$GBGSV,3,2,12,58,38,228,,25,17,051,24,41,13,142,27,38,08,334,24,1*7D
$GBGSV,3,3,12,31,07,342,,19,04,315,,08,01,341,,44,01,008,,1*78
$GNRMC,184140.000,A,4910.426812,N,12304.394886,W,0.19,64.64,051224,,,D,V*26
$GNVTG,64.64,T,,M,0.19,N,0.36,K,D*1B
$PAIRLOG,Full*51
$GNGGA,184141.000,4910.426812,N,12304.394928,W,2,31,0.50,10.714,M,-16.816,M,,*75
$GNGLL,4910.426812,N,12304.394928,W,184141.000,A,D*57
$GNGSA,A,3,09,04,16,07,26,03,11,20,06,30,,,0.80,0.50,0.63,1*04
$GNGSA,A,3,78,68,69,79,67,85,86,,,,,,0.80,0.50,0.63,2*08
$GNGSA,A,3,09,06,31,04,05,34,36,,,,,,0.80,0.50,0.63,3*05
$GNGSA,A,3,23,32,37,20,25,41,38,,,,,,0.80,0.50,0.63,4*03
$GPGSV,3,1,12,09,79,304,31,04,68,104,27,16,47,076,25,07,47,248,25,1*62
$GPGSV,3,2,12,26,24,048,19,03,20,174,22,11,14,303,21,20,14,323,21,1*63
$GPGSV,3,3,12,06,12,266,18,30,11,247,18,27,07,111,,31,06,065,,1*66
$GLGSV,2,1,07,78,79,089,32,68,75,114,35,69,48,320,39,79,38,204,37,1*7C
$GLGSV,2,2,07,67,24,132,18,85,11,326,22,86,05,016,21,1*44
$GAGSV,3,1,10,09,84,333,24,06,68,102,25,31,50,142,22,04,41,107,18,7*72
$GAGSV,3,2,10,05,30,293,18,34,18,295,18,24,14,186,16,36,11,245,12,7*73
$GAGSV,3,3,10,15,07,343,16,21,02,029,,7*78
$GBGSV,3,1,12,23,66,077,35,32,65,165,35,37,52,208,32,20,49,303,34,1*76
$GBGSV,3,2,12,58,38,228,,25,17,051,24,41,13,142,27,38,08,334,24,1*7D
$GBGSV,3,3,12,31,07,342,,19,04,315,,44,01,008,,08,01,341,,1*78
$GNRMC,184141.000,A,4910.426812,N,12304.394928,W,0.19,63.56,051224,,,D,V*24
$GNVTG,63.56,T,,M,0.19,N,0.35,K,D*1E
$PAIRLOG,Full*51
$GNGGA,184142.000,4910.426842,N,12304.394880,W,2,29,0.50,10.949,M,-16.816,M,,*7F
$GNGLL,4910.426842,N,12304.394880,W,184142.000,A,D*52
$GNGSA,A,3,09,04,16,07,26,03,11,20,06,30,,,0.81,0.50,0.64,1*02
$GNGSA,A,3,78,68,69,79,67,85,86,,,,,,0.81,0.50,0.64,2*0E
$GNGSA,A,3,09,04,05,34,36,,,,,,,,0.81,0.50,0.64,3*07
$GNGSA,A,3,23,32,37,20,25,41,38,,,,,,0.81,0.50,0.64,4*05
$GPGSV,4,1,13,09,79,304,31,04,68,104,27,16,47,076,25,07,47,248,25,1*64
$GPGSV,4,2,13,26,24,048,19,03,20,174,22,11,14,303,21,20,14,323,21,1*65
$GPGSV,4,3,13,06,12,266,18,30,11,247,19,27,07,111,,31,06,065,,1*61
$GPGSV,4,4,13,34,,,,1*61
$GLGSV,2,1,07,78,79,089,32,68,75,114,34,69,48,320,39,79,38,204,38,1*72
$GLGSV,2,2,07,67,24,132,18,85,11,326,22,86,05,016,21,1*44
$GAGSV,3,1,10,09,84,333,24,06,68,102,,31,50,142,,04,41,107,19,7*74
$GAGSV,3,2,10,05,30,293,18,34,18,295,19,24,14,186,16,36,11,245,12,7*72
$GAGSV,3,3,10,15,07,343,16,21,02,029,,7*78
$GBGSV,3,1,12,23,66,077,35,32,65,165,35,37,52,208,32,20,49,303,34,1*76
$GBGSV,3,2,12,58,38,228,,25,17,051,24,41,13,142,27,38,08,334,24,1*7D
$GBGSV,3,3,12,31,07,342,,19,04,315,,44,01,008,,08,01,341,,1*78
$GNRMC,184142.000,A,4910.426842,N,12304.394880,W,0.19,62.59,051224,,,D,V*2F
$GNVTG,62.59,T,,M,0.19,N,0.35,K,D*10
$PAIRLOG,Full*51
$GNGGA,184143.000,4910.426872,N,12304.394838,W,2,29,0.50,11.038,M,-16.817,M,,*71
$GNGLL,4910.426872,N,12304.394838,W,184143.000,A,D*53
$GNGSA,A,3,09,04,16,07,26,03,11,20,06,30,,,0.81,0.50,0.64,1*02
$GNGSA,A,3,78,68,69,79,67,85,86,,,,,,0.81,0.50,0.64,2*0E
$GNGSA,A,3,09,04,05,34,36,,,,,,,,0.81,0.50,0.64,3*07
$GNGSA,A,3,23,32,37,20,25,41,38,,,,,,0.81,0.50,0.64,4*05
$GPGSV,4,1,13,09,79,304,31,04,68,104,28,16,47,076,26,07,47,248,25,1*68
$GPGSV,4,2,13,26,24,048,19,03,20,174,22,11,14,303,21,20,14,323,22,1*66
$GPGSV,4,3,13,06,12,266,18,30,11,247,20,27,07,111,,31,06,065,,1*6B
$GPGSV,4,4,13,34,,,,1*61
$GLGSV,2,1,08,78,79,089,32,68,75,114,34,69,48,320,39,79,38,204,38,1*7D
$GLGSV,2,2,08,67,24,132,18,85,11,326,22,86,05,016,21,84,01,278,,1*7B
$GAGSV,3,1,10,09,84,333,24,06,68,102,,31,50,142,,04,41,107,19,7*74
$GAGSV,3,2,10,05,30,293,18,34,18,295,19,24,14,186,17,36,11,245,13,7*72
$GAGSV,3,3,10,15,07,343,16,21,02,029,,7*78
$GBGSV,3,1,12,23,66,077,35,32,65,165,35,37,52,208,32,20,49,303,34,1*76
$GBGSV,3,2,12,58,38,228,,25,17,051,24,41,13,142,27,38,08,334,24,1*7D
$GBGSV,3,3,12,31,07,342,,19,04,315,,08,01,341,,44,01,008,,1*78
$GNRMC,184143.000,A,4910.426872,N,12304.394838,W,0.19,61.25,051224,,,D,V*26
$GNVTG,61.25,T,,M,0.19,N,0.35,K,D*18
$PAIRLOG,Full*51
$GNGGA,184144.000,4910.426896,N,12304.394796,W,2,29,0.50,11.334,M,-16.816,M,,*79
$GNGLL,4910.426896,N,12304.394796,W,184144.000,A,D*55
$GNGSA,A,3,09,04,16,07,26,03,11,20,06,30,,,0.81,0.50,0.64,1*02
$GNGSA,A,3,78,68,69,79,67,85,86,,,,,,0.81,0.50,0.64,2*0E
$GNGSA,A,3,09,04,05,34,36,,,,,,,,0.81,0.50,0.64,3*07
$GNGSA,A,3,23,32,37,20,25,41,38,,,,,,0.81,0.50,0.64,4*05
$GPGSV,3,1,11,09,79,304,31,04,68,104,28,16,47,076,27,07,47,248,25,1*6C
$GPGSV,3,2,11,26,24,048,19,03,20,174,22,11,14,303,21,20,14,323,23,1*62
$GPGSV,3,3,11,06,12,266,18,30,11,247,21,34,,,,1*6C
$GLGSV,2,1,08,78,79,089,32,68,75,114,34,69,48,320,39,79,38,204,38,1*7D
$GLGSV,2,2,08,67,24,132,18,85,11,326,22,86,05,016,22,84,01,278,,1*78
$GAGSV,2,1,07,09,84,333,24,04,41,107,20,05,30,293,19,34,18,295,19,7*7C
$GAGSV,2,2,07,24,14,186,17,36,11,245,14,15,07,343,16,7*4D
$GBGSV,2,1,07,23,66,077,36,32,65,165,35,37,52,208,32,20,49,303,34,1*70
$GBGSV,2,2,07,25,17,051,24,41,13,142,27,38,08,334,24,1*46
$GNRMC,184144.000,A,4910.426896,N,12304.394796,W,0.19,60.13,051224,,,D,V*24
$GNVTG,60.13,T,,M,0.19,N,0.35,K,D*1C
$PAIRLOG,Full*51
$GNGGA,184145.000,4910.426914,N,12304.394706,W,2,29,0.50,11.462,M,-16.816,M,,*7E
$GNGLL,4910.426914,N,12304.394706,W,184145.000,A,D*56
$GNGSA,A,3,09,04,16,07,26,03,11,20,06,30,,,0.81,0.50,0.64,1*02
$GNGSA,A,3,78,68,69,79,67,85,86,,,,,,0.81,0.50,0.64,2*0E
$GNGSA,A,3,09,04,05,34,36,,,,,,,,0.81,0.50,0.64,3*07
$GNGSA,A,3,23,32,37,20,25,41,38,,,,,,0.81,0.50,0.64,4*05
$GPGSV,3,1,11,09,79,304,31,04,68,104,28,16,47,076,27,07,47,248,25,1*6C
$GPGSV,3,2,11,26,24,048,19,03,20,174,22,11,14,303,22,20,14,323,23,1*61
$GPGSV,3,3,11,06,12,266,18,30,11,247,20,34,,,,1*6D
$GLGSV,2,1,08,78,79,089,32,68,75,114,34,69,48,320,39,79,38,204,38,1*7D
$GLGSV,2,2,08,67,24,132,18,85,11,326,22,86,05,016,23,84,01,278,,1*79
$GAGSV,2,1,07,09,84,333,24,04,41,107,20,05,30,293,19,34,18,295,19,7*7C
$GAGSV,2,2,07,24,14,186,17,36,11,245,14,15,07,343,16,7*4D
$GBGSV,2,1,07,23,66,077,36,32,65,165,35,37,52,208,32,20,49,303,34,1*70
$GBGSV,2,2,07,25,17,051,24,41,13,142,27,38,08,334,24,1*46
$GNRMC,184145.000,A,4910.426914,N,12304.394706,W,0.19,59.85,051224,,,D,V*22
$GNVTG,59.85,T,,M,0.19,N,0.36,K,D*1A
$PAIRLOG,Full*51
$GNGGA,184146.000,4910.426962,N,12304.394700,W,2,29,0.50,11.721,M,-16.816,M,,*7E
$GNGLL,4910.426962,N,12304.394700,W,184146.000,A,D*52
$GNGSA,A,3,09,04,16,07,26,03,11,20,06,30,,,0.81,0.50,0.64,1*02
$GNGSA,A,3,78,68,69,79,67,85,86,,,,,,0.81,0.50,0.64,2*0E
$GNGSA,A,3,09,04,05,34,36,,,,,,,,0.81,0.50,0.64,3*07
$GNGSA,A,3,23,32,37,20,25,41,38,,,,,,0.81,0.50,0.64,4*05
$GPGSV,4,1,13,09,79,304,31,04,68,104,28,16,47,076,27,07,47,248,25,1*69
$GPGSV,4,2,13,26,24,048,19,03,20,174,22,11,14,303,22,20,14,323,23,1*64
$GPGSV,4,3,13,06,12,266,18,30,11,247,20,27,07,111,,31,06,065,,1*6B
$GPGSV,4,4,13,34,,,,1*61
$GLGSV,2,1,08,78,79,089,32,68,75,114,34,69,48,320,39,79,38,204,38,1*7D
$GLGSV,2,2,08,67,24,132,18,85,11,326,22,86,05,016,23,84,01,278,,1*79
$GAGSV,3,1,10,09,84,333,24,06,68,102,,31,50,142,,04,41,107,21,7*7F
$GAGSV,3,2,10,05,30,293,19,34,18,295,19,24,14,186,17,36,11,245,14,7*74
$GAGSV,3,3,10,15,07,343,16,21,02,029,,7*78
$GBGSV,3,1,12,23,66,077,36,32,65,165,35,37,52,208,32,20,49,303,34,1*75
$GBGSV,3,2,12,58,38,228,,25,17,051,24,41,13,142,27,38,08,334,24,1*7D
$GBGSV,3,3,12,31,07,342,,19,04,315,,08,01,341,,44,01,008,,1*78
$GNRMC,184146.000,A,4910.426962,N,12304.394700,W,0.20,58.78,051224,,,D,V*2F
$GNVTG,58.78,T,,M,0.20,N,0.36,K,D*13
$PAIRLOG,Full*51
$GNGGA,184147.000,4910.426968,N,12304.394718,W,2,31,0.50,11.868,M,-16.816,M,,*77
$GNGLL,4910.426968,N,12304.394718,W,184147.000,A,D*50
$GNGSA,A,3,09,04,16,07,26,03,11,20,06,30,,,0.80,0.50,0.63,1*04
$GNGSA,A,3,78,68,69,79,67,85,86,,,,,,0.80,0.50,0.63,2*08
$GNGSA,A,3,09,06,31,04,05,34,36,,,,,,0.80,0.50,0.63,3*05
$GNGSA,A,3,23,32,37,20,25,41,38,,,,,,0.80,0.50,0.63,4*03
$GPGSV,3,1,12,09,79,304,31,04,68,104,28,16,47,076,27,07,47,248,25,1*6F
$GPGSV,3,2,12,26,24,048,19,03,20,174,23,11,14,303,22,20,14,323,23,1*63
$GPGSV,3,3,12,06,12,266,18,30,11,247,20,27,07,111,,31,06,065,,1*6D
$GLGSV,2,1,07,78,79,089,32,68,75,114,34,69,48,320,39,79,38,204,38,1*72
$GLGSV,2,2,07,67,24,132,18,85,11,326,22,86,05,016,23,1*46
$GAGSV,3,1,10,09,84,333,25,06,68,102,26,31,50,142,23,04,41,107,22,7*78
$GAGSV,3,2,10,05,30,293,20,34,18,295,19,24,14,186,17,36,11,245,15,7*7F
$GAGSV,3,3,10,15,07,343,16,21,02,029,,7*78
$GBGSV,3,1,12,23,66,077,36,32,65,165,35,37,52,208,32,20,49,303,34,1*75
$GBGSV,3,2,12,58,38,228,,25,17,051,24,41,13,142,26,38,08,334,24,1*7C
$GBGSV,3,3,12,31,07,342,,19,04,315,,44,01,008,,08,01,341,,1*78
$GNRMC,184147.000,A,4910.426968,N,12304.394718,W,0.19,57.68,051224,,,D,V*29
$GNVTG,57.68,T,,M,0.19,N,0.36,K,D*17
$PAIRLOG,Full*51
$GNGGA,184148.000,4910.426968,N,12304.394682,W,2,29,0.50,12.067,M,-16.816,M,,*77
$GNGLL,4910.426968,N,12304.394682,W,184148.000,A,D*5D
$GNGSA,A,3,09,04,16,07,26,03,11,20,06,30,,,0.81,0.50,0.64,1*02
$GNGSA,A,3,78,68,69,79,67,85,86,,,,,,0.81,0.50,0.64,2*0E
$GNGSA,A,3,09,04,05,34,36,,,,,,,,0.81,0.50,0.64,3*07
$GNGSA,A,3,23,32,37,20,25,41,38,,,,,,0.81,0.50,0.64,4*05
$GPGSV,4,1,13,09,79,304,31,04,68,104,28,16,47,076,27,07,47,248,25,1*69
$GPGSV,4,2,13,26,24,048,19,03,20,174,22,11,14,303,22,20,14,323,23,1*64
$GPGSV,4,3,13,06,12,266,18,30,11,247,20,27,07,111,,31,06,065,,1*6B
$GPGSV,4,4,13,37,,,,1*62
$GLGSV,2,1,07,78,79,089,32,68,75,114,34,69,48,320,39,79,38,204,38,1*72
$GLGSV,2,2,07,67,24,132,18,85,11,326,22,86,05,016,23,1*46
$GAGSV,3,1,10,09,84,333,25,06,68,102,,31,50,142,,04,41,107,22,7*7D
$GAGSV,3,2,10,05,30,293,20,34,18,295,19,24,14,186,17,36,11,245,15,7*7F
$GAGSV,3,3,10,15,07,343,17,21,02,029,,7*79
$GBGSV,3,1,12,23,66,077,36,32,65,165,35,37,52,208,32,20,49,303,34,1*75
$GBGSV,3,2,12,58,38,228,,25,17,051,24,41,13,142,26,38,08,334,24,1*7C
$GBGSV,3,3,12,31,07,342,,19,04,315,,44,01,008,,08,01,341,,1*78
$GNRMC,184148.000,A,4910.426968,N,12304.394682,W,0.19,56.89,051224,,,D,V*2A
$GNVTG,56.89,T,,M,0.19,N,0.35,K,D*1A
$PAIRLOG,Full*51
$GNGGA,184149.000,4910.426950,N,12304.394646,W,2,29,0.50,12.157,M,-16.816,M,,*77
$GNGLL,4910.426950,N,12304.394646,W,184149.000,A,D*5F
$GNGSA,A,3,09,04,16,07,26,03,11,20,06,30,,,0.81,0.50,0.64,1*02
$GNGSA,A,3,78,68,69,79,67,85,86,,,,,,0.81,0.50,0.64,2*0E
$GNGSA,A,3,09,04,05,34,36,,,,,,,,0.81,0.50,0.64,3*07
$GNGSA,A,3,23,32,37,20,25,41,38,,,,,,0.81,0.50,0.64,4*05
$GPGSV,3,1,11,09,79,304,31,04,68,104,29,16,47,076,27,07,47,248,25,1*6D
$GPGSV,3,2,11,26,24,048,19,03,20,174,24,11,14,303,22,20,14,323,23,1*67
$GPGSV,3,3,11,06,12,266,18,30,11,247,20,37,,,,1*6E
$GLGSV,2,1,08,78,79,089,32,68,75,114,34,69,48,320,39,79,38,204,38,1*7D
$GLGSV,2,2,08,67,24,132,18,85,11,326,22,86,05,016,23,84,01,278,,1*79
$GAGSV,2,1,07,09,84,333,26,04,41,107,21,05,30,293,20,34,18,295,20,7*7F
$GAGSV,2,2,07,24,14,186,17,36,11,245,16,15,07,343,17,7*4E
$GBGSV,2,1,07,23,66,077,36,32,65,165,35,37,52,208,32,20,49,303,34,1*70
$GBGSV,2,2,07,25,17,051,24,41,13,142,26,38,08,334,24,1*47
$GNRMC,184149.000,A,4910.426950,N,12304.394646,W,0.18,57.54,051224,,,D,V*28
$GNVTG,57.54,T,,M,0.18,N,0.34,K,D*1B
$PAIRLOG,Full*51
$GNGGA,184150.000,4910.426920,N,12304.394652,W,2,29,0.50,12.222,M,-16.816,M,,*7C
$GNGLL,4910.426920,N,12304.394652,W,184150.000,A,D*55
$GNGSA,A,3,09,04,16,07,26,03,11,20,06,30,,,0.81,0.50,0.64,1*02
$GNGSA,A,3,78,68,69,79,67,85,86,,,,,,0.81,0.50,0.64,2*0E
$GNGSA,A,3,09,04,05,34,36,,,,,,,,0.81,0.50,0.64,3*07
$GNGSA,A,3,23,32,37,20,25,41,38,,,,,,0.81,0.50,0.64,4*05
$GPGSV,3,1,11,09,79,304,31,04,68,104,29,16,47,076,27,07,47,248,25,1*6D
$GPGSV,3,2,11,26,24,048,20,03,20,174,23,11,14,303,22,20,14,323,23,1*6A
$GPGSV,3,3,11,06,12,266,18,30,11,247,20,37,,,,1*6E
$GLGSV,2,1,08,78,79,089,32,68,75,114,34,69,48,320,39,79,38,204,38,1*7D
$GLGSV,2,2,08,67,24,132,18,85,11,326,22,86,05,016,22,84,01,278,,1*78
$GAGSV,2,1,07,09,84,333,26,04,41,107,21,05,30,293,20,34,18,295,20,7*7F
$GAGSV,2,2,07,24,14,186,17,36,11,245,16,15,07,343,17,7*4E
$GBGSV,2,1,07,23,66,077,36,32,65,165,35,37,52,208,32,20,49,303,34,1*70
$GBGSV,2,2,07,25,17,051,24,41,13,142,26,38,08,334,24,1*47
$GNRMC,184150.000,A,4910.426920,N,12304.394652,W,0.18,59.07,051224,,,D,V*2A
$GNVTG,59.07,T,,M,0.18,N,0.33,K,D*14
$PAIRLOG,Full*51
$GNGGA,184151.000,4910.426914,N,12304.394610,W,2,29,0.50,12.388,M,-16.816,M,,*7D
$GNGLL,4910.426914,N,12304.394610,W,184151.000,A,D*55
$GNGSA,A,3,09,04,16,07,26,03,11,20,06,30,,,0.81,0.50,0.64,1*02
$GNGSA,A,3,78,68,69,79,67,85,86,,,,,,0.81,0.50,0.64,2*0E
$GNGSA,A,3,09,04,05,34,36,,,,,,,,0.81,0.50,0.64,3*07
$GNGSA,A,3,23,32,37,20,25,41,38,,,,,,0.81,0.50,0.64,4*05
$GPGSV,3,1,11,09,79,304,31,04,68,104,29,16,47,076,27,07,47,248,25,1*6D
$GPGSV,3,2,11,26,24,048,20,03,20,174,23,11,14,303,20,20,14,323,22,1*69
$GPGSV,3,3,11,06,12,266,18,30,11,247,20,37,,,,1*6E
$GLGSV,2,1,08,78,79,089,32,68,75,114,34,69,48,320,39,79,38,204,38,1*7D
$GLGSV,2,2,08,67,24,132,18,85,11,326,21,86,05,016,22,84,01,278,,1*7B
$GAGSV,2,1,07,09,84,333,26,04,41,107,21,05,30,293,20,34,18,295,20,7*7F
$GAGSV,2,2,07,24,14,186,17,36,11,245,16,15,07,343,17,7*4E
$GBGSV,2,1,07,23,66,077,36,32,65,165,35,37,52,208,32,20,49,303,34,1*70
$GBGSV,2,2,07,25,17,051,24,41,13,142,26,38,08,334,24,1*47
$GNRMC,184151.000,A,4910.426914,N,12304.394610,W,0.17,59.07,051224,,,D,V*25
$GNVTG,59.07,T,,M,0.17,N,0.31,K,D*19
$PAIRLOG,Full*51
$GNGGA,184152.000,4910.426932,N,12304.394514,W,2,31,0.50,12.523,M,-16.816,M,,*73
$GNGLL,4910.426932,N,12304.394514,W,184152.000,A,D*55
$GNGSA,A,3,09,04,16,07,26,03,11,20,06,30,,,0.80,0.50,0.63,1*04
$GNGSA,A,3,78,68,69,79,67,85,86,,,,,,0.80,0.50,0.63,2*08
$GNGSA,A,3,09,06,31,04,05,34,36,,,,,,0.80,0.50,0.63,3*05
$GNGSA,A,3,23,32,37,20,25,41,38,,,,,,0.80,0.50,0.63,4*03
$GPGSV,4,1,13,09,79,304,31,04,68,104,29,16,47,076,27,07,47,248,25,1*68
$GPGSV,4,2,13,26,24,048,20,03,20,174,24,11,14,303,22,20,14,323,22,1*69
$GPGSV,4,3,13,06,12,266,18,30,11,247,20,27,07,111,,31,06,065,,1*6B
$GPGSV,4,4,13,37,,,,1*62
$GLGSV,2,1,07,78,79,089,32,68,75,114,34,69,48,320,39,79,38,204,38,1*72
$GLGSV,2,2,07,67,24,132,18,85,11,326,21,86,05,016,22,1*44
$GAGSV,3,1,10,09,84,333,26,06,68,102,25,31,50,142,24,04,41,107,21,7*7C
$GAGSV,3,2,10,05,30,293,21,34,18,295,20,24,14,186,17,36,11,245,15,7*74
$GAGSV,3,3,10,15,07,343,17,21,02,029,,7*79
$GBGSV,3,1,12,23,66,077,36,32,65,165,35,37,52,208,31,20,49,303,34,1*76
$GBGSV,3,2,12,58,38,228,,25,17,051,24,41,13,142,26,38,08,334,24,1*7C
$GBGSV,3,3,12,31,07,342,,19,04,315,,44,01,008,,08,01,341,,1*78
$GNRMC,184152.000,A,4910.426932,N,12304.394514,W,0.17,59.07,051224,,,D,V*25
$GNVTG,59.07,T,,M,0.17,N,0.31,K,D*19
$PAIRLOG,Full*51
$GNGGA,184153.000,4910.426938,N,12304.394460,W,2,31,0.50,12.621,M,-16.817,M,,*7A
$GNGLL,4910.426938,N,12304.394460,W,184153.000,A,D*5C
$GNGSA,A,3,09,04,16,07,26,03,11,20,06,30,,,0.80,0.50,0.63,1*04
$GNGSA,A,3,78,68,69,79,67,85,86,,,,,,0.80,0.50,0.63,2*08
$GNGSA,A,3,09,06,31,04,05,34,36,,,,,,0.80,0.50,0.63,3*05
$GNGSA,A,3,23,32,37,20,25,41,38,,,,,,0.80,0.50,0.63,4*03
$GPGSV,3,1,12,09,79,304,31,04,68,104,28,16,47,076,27,07,47,248,25,1*6F
$GPGSV,3,2,12,26,24,048,20,03,20,174,23,11,14,303,22,20,14,323,22,1*68
$GPGSV,3,3,12,06,12,266,18,30,11,247,20,27,07,111,,31,06,065,,1*6D
$GLGSV,2,1,07,78,79,089,32,68,75,114,34,69,48,320,39,79,38,204,38,1*72
$GLGSV,2,2,07,67,24,132,19,85,11,326,21,86,05,016,22,1*45
$GAGSV,3,1,10,09,84,333,26,06,68,102,25,31,50,142,23,04,41,107,21,7*7B
$GAGSV,3,2,10,05,30,293,20,34,18,295,20,24,14,186,17,36,11,245,16,7*76
$GAGSV,3,3,10,15,07,343,17,21,02,029,,7*79
$GBGSV,3,1,12,23,66,077,36,32,65,165,35,37,52,208,31,20,49,303,34,1*76
$GBGSV,3,2,12,58,38,228,,25,17,051,24,41,13,142,26,38,08,334,24,1*7C
$GBGSV,3,3,12,31,07,342,,19,04,315,,46,01,222,,44,01,008,,1*76
$GNRMC,184153.000,A,4910.426938,N,12304.394460,W,0.17,59.07,051224,,,D,V*2C
$GNVTG,59.07,T,,M,0.17,N,0.31,K,D*19
$PAIRLOG,Full*51
$GNGGA,184154.000,4910.426920,N,12304.394484,W,2,29,0.50,12.712,M,-16.816,M,,*77
$GNGLL,4910.426920,N,12304.394484,W,184154.000,A,D*58
$GNGSA,A,3,09,04,16,07,26,03,11,20,06,30,,,0.81,0.50,0.64,1*02
$GNGSA,A,3,78,68,69,79,67,85,86,,,,,,0.81,0.50,0.64,2*0E
$GNGSA,A,3,09,04,05,34,36,,,,,,,,0.81,0.50,0.64,3*07
$GNGSA,A,3,23,32,37,20,25,41,38,,,,,,0.81,0.50,0.64,4*05
$GPGSV,4,1,13,09,79,304,31,04,68,104,28,16,47,076,27,07,47,248,25,1*69
$GPGSV,4,2,13,26,24,048,20,03,20,174,22,11,14,303,22,20,14,323,22,1*6F
$GPGSV,4,3,13,06,12,266,17,30,11,247,20,27,07,111,,31,06,065,,1*64
$GPGSV,4,4,13,42,,,,1*60
$GLGSV,2,1,07,78,79,089,32,68,75,114,34,69,48,320,39,79,38,204,38,1*72
$GLGSV,2,2,07,67,24,132,19,85,11,326,20,86,05,016,22,1*44
$GAGSV,3,1,10,09,84,333,26,06,68,102,,31,50,142,,04,41,107,21,7*7D
$GAGSV,3,2,10,05,30,293,19,34,18,295,20,24,14,186,17,36,11,245,15,7*7F
$GAGSV,3,3,10,15,07,343,16,21,02,029,,7*78
$GBGSV,3,1,12,23,66,077,36,32,65,165,35,37,52,208,31,20,49,303,34,1*76
$GBGSV,3,2,12,58,38,228,,25,17,051,24,41,13,142,27,38,08,334,24,1*7D
$GBGSV,3,3,12,31,07,342,,19,04,315,,44,01,008,,08,01,341,,1*78
$GNRMC,184154.000,A,4910.426920,N,12304.394484,W,0.16,59.07,051224,,,D,V*29
$GNVTG,59.07,T,,M,0.16,N,0.30,K,D*19
$PAIRLOG,Full*51
$GNGGA,184155.000,4910.426896,N,12304.394478,W,2,29,0.50,12.763,M,-16.817,M,,*7E
$GNGLL,4910.426896,N,12304.394478,W,184155.000,A,D*56
$GNGSA,A,3,09,04,16,07,26,03,11,20,06,30,,,0.81,0.50,0.64,1*02
$GNGSA,A,3,78,68,69,79,67,85,86,,,,,,0.81,0.50,0.64,2*0E
$GNGSA,A,3,09,04,05,34,36,,,,,,,,0.81,0.50,0.64,3*07
$GNGSA,A,3,23,32,37,20,25,41,38,,,,,,0.81,0.50,0.64,4*05
$GPGSV,4,1,13,09,79,304,32,04,68,104,28,16,47,076,27,07,47,248,24,1*6B
$GPGSV,4,2,13,26,24,048,20,03,20,174,22,11,14,303,22,20,14,323,22,1*6F
$GPGSV,4,3,13,06,12,266,17,30,11,247,20,27,07,111,,31,06,065,,1*64
$GPGSV,4,4,13,42,,,,1*60
$GLGSV,2,1,08,78,79,089,31,68,75,114,34,69,48,320,39,79,38,204,38,1*7E
$GLGSV,2,2,08,67,24,132,19,85,11,326,19,86,05,016,23,84,01,278,,1*70
$GAGSV,3,1,10,09,84,333,26,06,68,102,,31,50,142,,04,41,107,21,7*7D
$GAGSV,3,2,10,05,30,293,19,34,18,295,20,24,14,186,17,36,11,245,15,7*7F
$GAGSV,3,3,10,15,07,343,16,21,02,029,,7*78
$GBGSV,3,1,12,23,66,077,36,32,65,165,35,37,52,208,31,20,49,303,34,1*76
$GBGSV,3,2,12,58,38,228,,25,17,051,24,41,13,142,27,38,08,334,24,1*7D
$GBGSV,3,3,12,31,07,342,,19,04,315,,08,01,341,,44,01,008,,1*78
$GNRMC,184155.000,A,4910.426896,N,12304.394478,W,0.16,59.07,051224,,,D,V*27
$GNVTG,59.07,T,,M,0.16,N,0.29,K,D*11
$PAIRLOG,Full*51
$GNGGA,184156.000,4910.426920,N,12304.394478,W,2,29,0.50,12.724,M,-16.816,M,,*73
$GNGLL,4910.426920,N,12304.394478,W,184156.000,A,D*59
$GNGSA,A,3,09,04,16,07,26,03,11,20,06,30,,,0.81,0.50,0.64,1*02
$GNGSA,A,3,78,68,69,79,67,85,86,,,,,,0.81,0.50,0.64,2*0E
$GNGSA,A,3,09,04,05,34,36,,,,,,,,0.81,0.50,0.64,3*07
$GNGSA,A,3,23,32,37,20,25,41,38,,,,,,0.81,0.50,0.64,4*05
$GPGSV,3,1,11,09,79,304,32,04,68,104,28,16,47,076,25,07,47,248,23,1*6B
$GPGSV,3,2,11,26,24,048,20,03,20,174,21,11,14,303,21,20,14,323,21,1*69
$GPGSV,3,3,11,06,12,266,17,30,11,247,19,42,,,,1*69
$GLGSV,2,1,08,78,79,089,31,68,75,114,35,69,48,320,39,79,38,204,38,1*7F
$GLGSV,2,2,08,67,24,132,19,85,11,326,18,86,05,016,23,84,01,278,,1*71
$GAGSV,2,1,07,09,84,333,26,04,41,107,21,05,30,293,19,34,18,295,20,7*75
$GAGSV,2,2,07,24,14,186,17,36,11,245,16,15,07,343,16,7*4F
$GBGSV,2,1,07,23,66,077,36,32,65,165,35,37,52,208,31,20,49,303,34,1*73
$GBGSV,2,2,07,25,17,051,24,41,13,142,27,38,08,334,24,1*46
$GNRMC,184156.000,A,4910.426920,N,12304.394478,W,0.06,59.07,051224,,,D,V*29
$GNVTG,59.07,T,,M,0.06,N,0.11,K,D*1B
$PAIRLOG,Full*51
$GNGGA,184157.000,4910.426896,N,12304.394478,W,2,29,0.50,12.772,M,-16.816,M,,*7D
$GNGLL,4910.426896,N,12304.394478,W,184157.000,A,D*54
$GNGSA,A,3,09,04,16,07,26,03,11,20,06,30,,,0.81,0.50,0.64,1*02
$GNGSA,A,3,78,68,69,79,67,85,86,,,,,,0.81,0.50,0.64,2*0E
$GNGSA,A,3,09,04,05,34,36,,,,,,,,0.81,0.50,0.64,3*07
$GNGSA,A,3,23,32,37,20,25,41,38,,,,,,0.81,0.50,0.64,4*05
$GPGSV,3,1,11,09,79,304,32,04,68,104,28,16,47,076,26,07,47,248,24,1*6F
$GPGSV,3,2,11,26,24,048,20,03,20,174,22,11,14,303,21,20,14,323,21,1*6A
$GPGSV,3,3,11,06,12,266,17,30,11,247,19,42,,,,1*69
$GLGSV,2,1,08,78,79,089,31,68,75,114,35,69,48,320,39,79,38,204,38,1*7F
$GLGSV,2,2,08,67,24,132,20,85,11,326,18,86,05,016,23,84,01,278,,1*7B
$GAGSV,2,1,07,09,84,333,26,04,41,107,21,05,30,293,19,34,18,295,20,7*75
$GAGSV,2,2,07,24,14,186,17,36,11,245,16,15,07,343,17,7*4E
$GBGSV,2,1,07,23,66,077,36,32,65,165,35,37,52,208,31,20,49,303,34,1*73
$GBGSV,2,2,07,25,17,051,24,41,13,142,27,38,08,334,24,1*46
$GNRMC,184157.000,A,4910.426896,N,12304.394478,W,0.05,59.07,051224,,,D,V*27
$GNVTG,59.07,T,,M,0.05,N,0.10,K,D*19
$PAIRLOG,Full*51
$GNGGA,184158.000,4910.426896,N,12304.394502,W,2,29,0.50,12.797,M,-16.816,M,,*75
$GNGLL,4910.426896,N,12304.394502,W,184158.000,A,D*57
$GNGSA,A,3,09,04,16,07,26,03,11,20,06,30,,,0.81,0.50,0.64,1*02
$GNGSA,A,3,78,68,69,79,67,85,86,,,,,,0.81,0.50,0.64,2*0E
$GNGSA,A,3,09,04,05,34,36,,,,,,,,0.81,0.50,0.64,3*07
$GNGSA,A,3,23,32,37,20,25,41,38,,,,,,0.81,0.50,0.64,4*05
$GPGSV,4,1,13,09,79,304,32,04,68,104,28,16,47,076,28,07,47,248,23,1*63
$GPGSV,4,2,13,26,24,048,20,03,20,174,23,11,14,303,21,20,14,323,21,1*6E
$GPGSV,4,3,13,06,12,266,17,30,11,247,19,27,07,111,,31,06,065,,1*6E
$GPGSV,4,4,13,42,,,,1*60
$GLGSV,2,1,08,78,79,089,31,68,75,114,35,69,48,320,39,79,38,204,38,1*7F
$GLGSV,2,2,08,67,24,132,21,85,11,326,19,86,05,016,23,84,01,278,,1*7B
$GAGSV,3,1,10,09,84,333,26,06,68,102,,31,50,142,,04,41,107,21,7*7D
$GAGSV,3,2,10,05,30,293,19,34,18,295,20,24,14,186,17,36,11,245,16,7*7C
$GAGSV,3,3,10,15,07,343,17,21,02,029,,7*79
$GBGSV,3,1,12,23,66,077,36,32,65,165,35,37,52,208,31,20,49,303,34,1*76
$GBGSV,3,2,12,58,38,228,,25,17,051,24,41,13,142,27,38,08,334,24,1*7D
$GBGSV,3,3,12,31,07,342,,19,04,315,,08,01,341,,44,01,008,,1*78
$GNRMC,184158.000,A,4910.426896,N,12304.394502,W,0.04,59.07,051224,,,D,V*25
$GNVTG,59.07,T,,M,0.04,N,0.07,K,D*1E
$PAIRLOG,Full*51
$GNGGA,184159.000,4910.426896,N,12304.394496,W,2,31,0.50,12.761,M,-16.816,M,,*78
$GNGLL,4910.426896,N,12304.394496,W,184159.000,A,D*5A
$GNGSA,A,3,09,04,16,07,26,03,11,20,06,30,,,0.80,0.50,0.63,1*04
$GNGSA,A,3,78,68,69,79,67,85,86,,,,,,0.80,0.50,0.63,2*08
$GNGSA,A,3,09,06,31,04,05,34,36,,,,,,0.80,0.50,0.63,3*05
$GNGSA,A,3,23,32,37,20,25,41,38,,,,,,0.80,0.50,0.63,4*03
$GPGSV,3,1,12,09,79,304,32,04,68,104,28,16,47,076,25,07,47,248,23,1*68
$GPGSV,3,2,12,26,24,048,20,03,20,174,22,11,14,303,21,20,14,323,21,1*69
$GPGSV,3,3,12,06,12,266,17,30,11,247,19,27,07,111,,31,06,065,,1*68
$GLGSV,2,1,07,78,79,089,31,68,75,114,35,69,48,320,39,79,38,204,38,1*70
$GLGSV,2,2,07,67,24,132,22,85,11,326,19,86,05,016,23,1*47
$GAGSV,3,1,10,09,84,333,26,06,68,102,25,31,50,142,23,04,41,107,20,7*7A
$GAGSV,3,2,10,05,30,293,19,34,18,295,20,24,14,186,17,36,11,245,16,7*7C
$GAGSV,3,3,10,15,07,343,17,21,02,029,,7*79
$GBGSV,3,1,12,23,66,077,36,32,65,165,35,37,52,208,31,20,49,303,34,1*76
$GBGSV,3,2,12,58,38,228,,25,17,051,23,41,13,142,27,38,08,334,24,1*7A
$GBGSV,3,3,12,31,07,342,,19,04,315,,44,01,008,,08,01,341,,1*78
$GNRMC,184159.000,A,4910.426896,N,12304.394496,W,0.03,59.07,051224,,,D,V*2F
$GNVTG,59.07,T,,M,0.03,N,0.05,K,D*1B
$PAIRLOG,Full*51
$GNGGA,184200.000,4910.426878,N,12304.394496,W,2,29,0.50,12.734,M,-16.816,M,,*7E
$GNGLL,4910.426878,N,12304.394496,W,184200.000,A,D*55
$GNGSA,A,3,09,04,16,07,26,03,11,20,06,30,,,0.81,0.50,0.64,1*02
$GNGSA,A,3,78,68,69,79,67,85,86,,,,,,0.81,0.50,0.64,2*0E
$GNGSA,A,3,09,04,05,34,36,,,,,,,,0.81,0.50,0.64,3*07
$GNGSA,A,3,23,32,37,20,25,41,38,,,,,,0.81,0.50,0.64,4*05
$GPGSV,4,1,13,09,79,304,31,04,68,104,27,16,47,076,25,07,47,248,22,1*63
$GPGSV,4,2,13,26,24,048,20,03,20,174,21,11,14,303,21,20,14,323,20,1*6D
$GPGSV,4,3,13,06,12,266,17,30,11,247,19,27,07,111,,31,06,065,,1*6E
$GPGSV,4,4,13,43,,,,1*61
$GLGSV,2,1,07,78,79,089,31,68,75,114,35,69,48,320,39,79,38,204,38,1*70
$GLGSV,2,2,07,67,24,132,22,85,11,326,18,86,05,016,23,1*46
$GAGSV,3,1,10,09,84,333,25,06,68,102,,31,50,142,,04,41,107,20,7*7F
$GAGSV,3,2,10,05,30,293,19,34,18,295,19,24,14,186,16,36,11,245,16,7*77
$GAGSV,3,3,10,15,07,343,17,21,02,029,,7*79
$GBGSV,3,1,12,23,66,077,36,32,65,165,35,37,52,208,31,20,49,303,34,1*76
$GBGSV,3,2,12,58,38,228,,25,17,051,23,41,13,142,27,38,08,334,24,1*7A
$GBGSV,3,3,12,31,07,342,,19,04,315,,44,01,008,,08,01,341,,1*78
$GNRMC,184200.000,A,4910.426878,N,12304.394496,W,0.03,59.07,051224,,,D,V*20
$GNVTG,59.07,T,,M,0.03,N,0.06,K,D*18
$PAIRLOG,Full*51
$GNGGA,184201.000,4910.426884,N,12304.394484,W,2,29,0.50,12.717,M,-16.817,M,,*7F
$GNGLL,4910.426884,N,12304.394484,W,184201.000,A,D*54
$GNGSA,A,3,09,04,16,07,26,03,11,20,06,30,,,0.81,0.50,0.64,1*02
$GNGSA,A,3,78,68,69,79,67,85,86,,,,,,0.81,0.50,0.64,2*0E
$GNGSA,A,3,09,04,05,34,36,,,,,,,,0.81,0.50,0.64,3*07
$GNGSA,A,3,23,32,37,20,25,41,38,,,,,,0.81,0.50,0.64,4*05
$GPGSV,3,1,11,09,79,304,31,04,68,104,27,16,47,076,27,07,47,248,22,1*64
$GPGSV,3,2,11,26,24,048,20,03,20,174,20,11,14,303,20,20,14,323,20,1*68
$GPGSV,3,3,11,06,12,266,17,30,11,247,19,43,,,,1*68
$GLGSV,2,1,08,78,79,089,31,68,75,114,35,69,48,320,39,79,38,204,38,1*7F
$GLGSV,2,2,08,67,24,132,22,85,11,326,18,86,05,016,23,84,01,278,,1*79
$GAGSV,2,1,07,09,84,333,24,04,41,107,19,05,30,293,19,34,18,295,19,7*76
$GAGSV,2,2,07,24,14,186,16,36,11,245,16,15,07,343,17,7*4F
$GBGSV,2,1,07,23,66,077,36,32,65,165,35,37,52,208,31,20,49,303,33,1*74
$GBGSV,2,2,07,25,17,051,23,41,13,142,27,38,08,334,24,1*41
$GNRMC,184201.000,A,4910.426884,N,12304.394484,W,0.03,59.07,051224,,,D,V*21
$GNVTG,59.07,T,,M,0.03,N,0.06,K,D*18
$PAIRLOG,Full*51
$GNGGA,184202.000,4910.426878,N,12304.394454,W,2,29,0.50,12.709,M,-16.816,M,,*7C
$GNGLL,4910.426878,N,12304.394454,W,184202.000,A,D*59
$GNGSA,A,3,09,04,16,07,26,03,11,20,06,30,,,0.81,0.50,0.64,1*02
$GNGSA,A,3,78,68,69,79,67,85,86,,,,,,0.81,0.50,0.64,2*0E
$GNGSA,A,3,09,04,05,34,36,,,,,,,,0.81,0.50,0.64,3*07
$GNGSA,A,3,23,32,37,20,25,41,38,,,,,,0.81,0.50,0.64,4*05
$GPGSV,3,1,11,09,79,304,31,04,68,104,27,16,47,076,26,07,47,248,24,1*63
$GPGSV,3,2,11,26,24,048,20,03,20,174,20,11,14,303,20,20,14,323,20,1*68
$GPGSV,3,3,11,06,12,266,17,30,11,247,19,43,,,,1*68
$GLGSV,2,1,08,78,79,089,31,68,75,114,35,69,48,320,39,79,38,204,38,1*7F
$GLGSV,2,2,08,67,24,132,23,85,11,326,18,86,05,016,23,84,01,278,,1*78
$GAGSV,2,1,07,09,84,333,24,04,41,108,19,05,30,293,19,34,18,295,19,7*79
$GAGSV,2,2,07,24,14,186,16,36,11,245,16,15,07,343,17,7*4F
$GBGSV,2,1,07,23,66,077,36,32,65,165,35,37,52,208,31,20,49,303,33,1*74
$GBGSV,2,2,07,25,17,051,23,41,13,142,27,38,08,334,24,1*41
$GNRMC,184202.000,A,4910.426878,N,12304.394454,W,0.03,59.07,051224,,,D,V*2C
$GNVTG,59.07,T,,M,0.03,N,0.05,K,D*1B
$PAIRLOG,Full*51
$GNGGA,184203.000,4910.426890,N,12304.394466,W,2,29,0.50,12.762,M,-16.816,M,,*77
$GNGLL,4910.426890,N,12304.394466,W,184203.000,A,D*5F
$GNGSA,A,3,09,04,16,07,26,03,11,20,06,30,,,0.81,0.50,0.64,1*02
$GNGSA,A,3,78,68,69,79,67,85,86,,,,,,0.81,0.50,0.64,2*0E
$GNGSA,A,3,09,04,05,34,36,,,,,,,,0.81,0.50,0.64,3*07
$GNGSA,A,3,23,32,37,20,25,41,38,,,,,,0.81,0.50,0.64,4*05
$GPGSV,4,1,13,09,79,304,31,04,68,104,27,16,47,076,26,07,47,248,24,1*66
$GPGSV,4,2,13,26,24,048,20,03,20,174,20,11,14,303,20,20,14,323,20,1*6D
$GPGSV,4,3,13,06,12,266,17,30,11,247,19,27,07,111,,31,06,065,,1*6E
$GPGSV,4,4,13,43,,,,1*61
$GLGSV,2,1,08,78,79,089,31,68,75,114,35,69,48,320,39,79,38,204,38,1*7F
$GLGSV,2,2,08,67,24,132,23,85,11,326,18,86,05,016,23,84,01,278,,1*78
$GAGSV,3,1,10,09,84,333,24,06,68,102,,31,50,142,,04,41,108,20,7*71
$GAGSV,3,2,10,05,30,294,19,34,18,295,19,24,14,186,16,36,11,245,16,7*70
$GAGSV,3,3,10,15,07,343,17,21,02,029,,7*79
$GBGSV,3,1,12,23,66,077,36,32,65,165,35,37,52,208,31,20,49,303,33,1*71
$GBGSV,3,2,12,58,38,228,,25,17,051,23,41,13,142,27,38,08,334,24,1*7A
$GBGSV,3,3,12,31,07,342,,19,04,315,,08,01,341,,44,01,008,,1*78
$GNRMC,184203.000,A,4910.426890,N,12304.394466,W,0.03,59.07,051224,,,D,V*2A
$GNVTG,59.07,T,,M,0.03,N,0.05,K,D*1B
$PAIRLOG,Full*51
$GNGGA,184204.000,4910.426908,N,12304.394448,W,2,30,0.50,12.739,M,-16.817,M,,*7B
$GNGLL,4910.426908,N,12304.394448,W,184204.000,A,D*54
$GNGSA,A,3,09,04,16,07,26,03,11,20,06,30,,,0.81,0.50,0.63,1*05
$GNGSA,A,3,78,68,69,79,67,85,86,,,,,,0.81,0.50,0.63,2*09
$GNGSA,A,3,09,06,04,05,34,36,,,,,,,0.81,0.50,0.63,3*06
$GNGSA,A,3,23,32,37,20,25,41,38,,,,,,0.81,0.50,0.63,4*02
$GPGSV,4,1,13,09,79,304,31,04,68,104,27,16,47,076,26,07,47,248,23,1*61
$GPGSV,4,2,13,26,24,048,20,03,20,174,20,11,14,303,20,20,14,323,20,1*6D
$GPGSV,4,3,13,06,12,266,17,30,11,247,19,27,07,111,,31,06,065,,1*6E
$GPGSV,4,4,13,43,,,,1*61
$GLGSV,2,1,08,78,79,089,31,68,75,114,35,69,48,320,39,79,38,204,38,1*7F
$GLGSV,2,2,08,67,24,132,23,85,11,326,18,86,05,016,23,84,01,278,,1*78
$GAGSV,3,1,10,09,84,333,24,06,68,103,23,31,50,142,,04,41,108,20,7*71
$GAGSV,3,2,10,05,30,294,19,34,18,295,19,24,14,186,16,36,11,245,16,7*70
$GAGSV,3,3,10,15,07,343,17,21,02,029,,7*79
$GBGSV,3,1,12,23,66,077,36,32,65,165,35,37,52,208,31,20,49,303,33,1*71
$GBGSV,3,2,12,58,38,228,,25,17,051,22,41,13,142,27,38,08,334,24,1*7B
$GBGSV,3,3,12,31,07,342,,19,04,315,,08,01,341,,44,01,008,,1*78
$GNRMC,184204.000,A,4910.426908,N,12304.394448,W,0.03,59.07,051224,,,D,V*21
$GNVTG,59.07,T,,M,0.03,N,0.05,K,D*1B
$PAIRLOG,Full*51
$GNGGA,184205.000,4910.426914,N,12304.394424,W,2,31,0.50,12.757,M,-16.816,M,,*75
$GNGLL,4910.426914,N,12304.394424,W,184205.000,A,D*52
$GNGSA,A,3,09,04,16,07,26,03,11,20,06,30,,,0.80,0.50,0.63,1*04
$GNGSA,A,3,78,68,69,79,67,85,86,,,,,,0.80,0.50,0.63,2*08
