38,N,12304.400898,W,0.02,0.00,051224,,,D,V*1A
$GNVTG,0.00,T,,M,0.02,N,0.03,K,D*27
$GNGGA,184115.000,4910.425156,N,12304.400916,W,2,32,0.48,15.454,M,-16.817,M,,*70
$GNGLL,4910.425156,N,12304.400916,W,184115.000,A,D*5B
$GNGSA,A,3,09,04,07,16,26,03,11,20,06,30,27,31,0.75,0.48,0.58,1*08
$GNGSA,A,3,78,68,69,79,67,85,,,,,,,0.75,0.48,0.58,2*0D
$GNGSA,A,3,09,06,31,04,05,34,36,,,,,,0.75,0.48,0.58,3*0E
$GNGSA,A,3,23,32,37,20,25,41,38,,,,,,0.75,0.48,0.58,4*08
$GPGSV,4,1,13,09,79,304,38,04,68,104,36,07,47,248,35,16,47,077,35,1*6C
$GPGSV,4,2,13,48,33,182,31,26,24,048,30,03,20,174,26,11,14,303,25,1*6D
$GPGSV,4,3,13,20,13,323,25,06,12,266,25,30,11,247,28,27,06,111,21,1*6D
$GPGSV,4,4,13,31,06,065,21,1*52
$GLGSV,2,1,07,78,79,089,18,68,76,113,31,69,48,320,26,79,38,204,27,1*7B
$GLGSV,2,2,07,67,24,132,21,85,11,326,18,86,05,016,,1*44
$GAGSV,3,1,10,09,84,332,33,06,68,102,32,31,50,142,30,04,41,107,29,7*72
$GAGSV,3,2,10,05,29,293,26,34,19,295,25,24,14,186,24,36,11,245,20,7*79
$GAGSV,3,3,10,15,07,343,22,21,02,029,,7*7F
$GBGSV,3,1,12,23,67,077,37,32,65,165,38,37,51,208,34,20,49,303,36,1*7F
$GBGSV,3,2,12,25,17,051,27,41,13,142,27,38,08,334,26,19,04,314,18,1*71
$GBGSV,3,3,12,44,01,008,,04,01,262,,46,01,222,,08,01,340,,1*70
$GNRMC,184115.000,A,4910.425156,N,12304.400916,W,0.02,0.00,051224,,,D,V*14
$GNVTG,0.00,T,,M,0.02,N,0.03,K,D*27
$GNGGA,184116.000,4910.425192,N,12304.400880,W,2,33,0.46,15.543,M,-16.816,M,,*7C
$GNGLL,4910.425192,N,12304.400880,W,184116.000,A,D*5E
$GNGSA,A,3,09,04,16,07,26,03,11,20,06,30,31,27,0.73,0.46,0.57,1*0F
$GNGSA,A,3,78,68,69,79,67,85,,,,,,,0.73,0.46,0.57,2*0A
$GNGSA,A,3,09,06,31,04,05,34,24,36,,,,,0.73,0.46,0.57,3*0F
$GNGSA,A,3,23,32,37,20,25,41,38,,,,,,0.73,0.46,0.57,4*0F
$GPGSV,4,1,13,09,79,304,38,04,68,104,36,16,47,077,35,07,47,248,35,1*6C
$GPGSV,4,2,13,48,33,182,31,26,24,048,30,03,20,174,26,11,14,303,25,1*6D
$GPGSV,4,3,13,20,13,323,25,06,12,266,25,30,11,247,28,31,06,065,20,1*69
$GPGSV,4,4,13,27,06,111,21,1*57
$GLGSV,2,1,07,78,79,089,18,68,76,113,30,69,48,320,26,79,38,204,27,1*7A
$GLGSV,2,2,07,67,24,132,21,85,11,326,18,86,05,016,,1*44
$GAGSV,3,1,10,09,84,332,33,06,68,102,32,31,50,142,30,04,41,107,29,7*72
$GAGSV,3,2,10,05,29,293,26,34,19,295,25,24,14,186,24,36,11,245,20,7*79
$GAGSV,3,3,10,15,07,343,21,21,02,029,,7*7C
$GBGSV,3,1,12,23,67,077,37,32,65,165,38,37,51,208,34,20,49,303,36,1*7F
$GBGSV,3,2,12,25,17,051,27,41,13,142,27,38,08,334,26,19,04,314,19,1*70
$GBGSV,3,3,12,46,01,222,,04,01,262,,08,01,340,,44,01,008,,1*70
$GNRMC,184116.000,A,4910.425192,N,12304.400880,W,0.02,0.00,051224,,,D,V*11
$GNVTG,0.00,T,,M,0.02,N,0.03,K,D*27
$GNGGA,184117.000,4910.425330,N,12304.400760,W,2,33,0.46,15.613,M,-16.816,M,,*70
$GNGLL,4910.425330,N,12304.400760,W,184117.000,A,D*54
$GNGSA,A,3,09,04,16,07,26,03,11,20,06,30,31,27,0.73,0.46,0.57,1*0F
$GNGSA,A,3,78,68,69,79,67,85,,,,,,,0.73,0.46,0.57,2*0A
$GNGSA,A,3,09,06,31,04,05,34,24,36,,,,,0.73,0.46,0.57,3*0F
$GNGSA,A,3,23,32,37,20,25,41,38,,,,,,0.73,0.46,0.57,4*0F
$GPGSV,4,1,13,09,79,304,38,04,68,104,36,16,47,077,35,07,47,248,35,1*6C
$GPGSV,4,2,13,48,33,182,31,26,24,048,30,03,20,174,27,11,14,303,26,1*6F
$GPGSV,4,3,13,20,13,323,25,06,12,266,25,30,11,247,28,31,06,065,20,1*69
$GPGSV,4,4,13,27,06,111,21,1*57
$GLGSV,2,1,07,78,79,089,18,68,76,113,30,69,48,320,26,79,38,204,27,1*7A
$GLGSV,2,2,07,67,24,132,21,85,11,326,18,86,05,016,,1*44
$GAGSV,3,1,10,09,84,332,33,06,68,102,32,31,50,142,31,04,41,107,29,7*73
$GAGSV,3,2,10,05,29,293,26,34,19,295,25,24,14,186,24,36,11,245,20,7*79
$GAGSV,3,3,10,15,07,343,21,21,02,029,,7*7C
$GBGSV,3,1,12,23,67,077,37,32,65,165,38,37,51,208,34,20,49,303,36,1*7F
$GBGSV,3,2,12,25,17,051,27,41,13,142,28,38,08,334,26,19,04,314,19,1*7F
$GBGSV,3,3,12,46,01,222,,04,01,262,,08,01,340,,44,01,008,,1*70
$GNRMC,184117.000,A,4910.425330,N,12304.400760,W,0.02,0.00,051224,,,D,V*1B
$GNVTG,0.00,T,,M,0.02,N,0.03,K,D*27
$GNGGA,184118.000,4910.425300,N,12304.400604,W,2,33,0.46,15.585,M,-16.816,M,,*73
$GNGLL,4910.425300,N,12304.400604,W,184118.000,A,D*5B
$GNGSA,A,3,09,04,16,07,26,03,11,20,06,30,31,27,0.73,0.46,0.57,1*0F
$GNGSA,A,3,78,68,69,79,67,85,,,,,,,0.73,0.46,0.57,2*0A
$GNGSA,A,3,09,06,31,04,05,34,24,36,,,,,0.73,0.46,0.57,3*0F
$GNGSA,A,3,23,32,37,20,25,41,38,,,,,,0.73,0.46,0.57,4*0F
$GPGSV,4,1,13,09,79,304,38,04,68,104,35,16,47,077,35,07,47,248,35,1*6F
$GPGSV,4,2,13,48,33,182,31,26,24,048,29,03,20,174,25,11,14,303,25,1*66
$GPGSV,4,3,13,20,13,323,24,06,12,266,25,30,11,247,28,31,06,065,20,1*68
$GPGSV,4,4,13,27,06,111,21,1*57
$GLGSV,2,1,07,78,79,089,18,68,76,113,31,69,48,320,26,79,38,204,27,1*7B
$GLGSV,2,2,07,67,24,132,21,85,11,326,18,86,05,016,,1*44
$GAGSV,3,1,10,09,84,332,33,06,68,102,32,31,50,142,31,04,41,107,29,7*73
$GAGSV,3,2,10,05,29,293,26,34,19,295,25,24,14,186,24,36,11,245,19,7*73
$GAGSV,3,3,10,15,07,343,21,21,02,029,,7*7C
$GBGSV,3,1,12,23,67,077,37,32,65,165,38,37,51,208,34,20,49,303,36,1*7F
$GBGSV,3,2,12,25,17,051,26,41,13,142,28,38,08,334,26,19,04,314,19,1*7E
$GBGSV,3,3,12,46,01,222,,04,01,262,,08,01,340,,44,01,008,,1*70
$GNRMC,184118.000,A,4910.425300,N,12304.400604,W,0.02,0.00,051224,,,D,V*14
$GNVTG,0.00,T,,M,0.02,N,0.03,K,D*27
$GNGGA,184119.000,4910.425276,N,12304.400478,W,2,33,0.46,15.589,M,-16.817,M,,*76
$GNGLL,4910.425276,N,12304.400478,W,184119.000,A,D*53
$GNGSA,A,3,09,04,16,07,26,03,11,20,06,30,31,27,0.73,0.46,0.57,1*0F
$GNGSA,A,3,78,68,69,79,67,85,,,,,,,0.73,0.46,0.57,2*0A
$GNGSA,A,3,09,06,31,04,05,34,24,36,,,,,0.73,0.46,0.57,3*0F
$GNGSA,A,3,23,32,37,20,25,41,38,,,,,,0.73,0.46,0.57,4*0F
$GPGSV,4,1,13,09,79,304,38,04,68,104,35,16,47,077,35,07,47,248,35,1*6F
$GPGSV,4,2,13,48,33,182,30,26,24,048,29,03,20,174,25,11,14,303,25,1*67
$GPGSV,4,3,13,20,13,323,25,06,12,266,24,30,11,247,28,31,06,065,20,1*68
$GPGSV,4,4,13,27,06,111,21,1*57
$GLGSV,2,1,07,78,79,089,18,68,76,113,31,69,48,320,26,79,38,204,27,1*7B
$GLGSV,2,2,07,67,24,132,21,85,11,326,18,86,05,016,,1*44
$GAGSV,3,1,10,09,84,332,33,06,68,102,32,31,50,142,31,04,41,107,29,7*73
$GAGSV,3,2,10,05,29,293,26,34,19,295,25,24,14,186,24,36,11,245,19,7*73
$GAGSV,3,3,10,15,07,343,21,21,02,029,,7*7C
$GBGSV,3,1,12,23,67,077,37,32,65,165,38,37,51,208,34,20,49,303,36,1*7F
$GBGSV,3,2,12,25,17,051,26,41,13,142,28,38,08,334,26,19,04,314,19,1*7E
$GBGSV,3,3,12,46,01,222,,04,01,262,,08,01,340,,44,01,008,,1*70
$GNRMC,184119.000,A,4910.425276,N,12304.400478,W,0.02,0.00,051224,,,D,V*1C
$GNVTG,0.00,T,,M,0.02,N,0.03,K,D*27
$GNGGA,184120.000,4910.425282,N,12304.400370,W,2,33,0.46,15.571,M,-16.817,M,,*7F
$GNGLL,4910.425282,N,12304.400370,W,184120.000,A,D*5D
$GNGSA,A,3,09,04,16,07,26,03,11,20,06,30,31,27,0.73,0.46,0.57,1*0F
$GNGSA,A,3,78,68,69,79,67,85,,,,,,,0.73,0.46,0.57,2*0A
$GNGSA,A,3,09,06,31,04,05,34,24,36,,,,,0.73,0.46,0.57,3*0F
$GNGSA,A,3,23,32,37,20,25,41,38,,,,,,0.73,0.46,0.57,4*0F
$GPGSV,4,1,13,09,79,304,38,04,68,104,35,16,47,076,35,07,47,248,34,1*6F
$GPGSV,4,2,13,48,33,182,30,26,24,048,29,03,20,174,24,11,14,303,24,1*67
$GPGSV,4,3,13,20,13,323,23,06,12,266,24,30,11,247,28,31,06,065,20,1*6E
$GPGSV,4,4,13,27,06,111,20,1*56
$GLGSV,2,1,07,78,79,089,18,68,76,113,31,69,48,320,26,79,38,204,27,1*7B
$GLGSV,2,2,07,67,24,132,21,85,11,326,18,86,05,016,,1*44
$GAGSV,3,1,10,09,84,332,32,06,68,102,31,31,50,142,30,04,41,107,28,7*71
$GAGSV,3,2,10,05,29,293,25,34,19,295,24,24,14,186,23,36,11,245,19,7*76
$GAGSV,3,3,10,15,07,343,21,21,02,029,,7*7C
$GBGSV,3,1,12,23,67,077,37,32,65,165,38,37,51,208,34,20,49,303,36,1*7F
$GBGSV,3,2,12,25,17,051,26,41,13,142,28,38,08,334,25,19,04,314,19,1*7D
$GBGSV,3,3,12,46,01,222,,04,01,262,,08,01,340,,44,01,008,,1*70
$GNRMC,184120.000,A,4910.425282,N,12304.400370,W,0.02,0.00,051224,,,D,V*12
$GNVTG,0.00,T,,M,0.02,N,0.03,K,D*27
$GNGGA,184121.000,4910.425312,N,12304.400274,W,2,33,0.46,15.577,M,-16.816,M,,*74
$GNGLL,4910.425312,N,12304.400274,W,184121.000,A,D*51
$GNGSA,A,3,09,04,16,07,26,03,11,20,06,30,31,27,0.73,0.46,0.57,1*0F
$GNGSA,A,3,78,68,69,79,67,85,,,,,,,0.73,0.46,0.57,2*0A
$GNGSA,A,3,09,06,31,04,05,34,24,36,,,,,0.73,0.46,0.57,3*0F
$GNGSA,A,3,23,32,37,20,25,41,38,,,,,,0.73,0.46,0.57,4*0F
$GPGSV,4,1,13,09,79,304,38,04,68,104,35,16,47,076,35,07,47,248,34,1*6F
$GPGSV,4,2,13,48,33,182,30,26,24,048,29,03,20,174,25,11,14,303,24,1*66
$GPGSV,4,3,13,20,13,323,23,06,12,266,23,30,11,247,28,31,06,065,19,1*63
$GPGSV,4,4,13,27,06,111,20,1*56
$GLGSV,2,1,07,78,79,089,18,68,76,113,31,69,48,320,26,79,38,204,27,1*7B
$GLGSV,2,2,07,67,24,132,21,85,11,326,18,86,05,016,,1*44
$GAGSV,3,1,10,09,84,332,32,06,68,102,31,31,50,142,30,04,41,107,28,7*71
$GAGSV,3,2,10,05,29,293,25,34,19,295,24,24,14,186,23,36,11,245,19,7*76
$GAGSV,3,3,10,15,07,343,21,21,02,029,,7*7C
$GBGSV,3,1,12,23,67,077,37,32,65,165,38,37,51,208,34,20,49,303,36,1*7F
$GBGSV,3,2,12,25,17,051,26,41,13,142,28,38,08,334,25,19,04,314,19,1*7D
$GBGSV,3,3,12,46,01,222,,04,01,262,,08,01,340,,44,01,008,,1*70
$GNRMC,184121.000,A,4910.425312,N,12304.400274,W,0.02,0.00,051224,,,D,V*1E
$GNVTG,0.00,T,,M,0.02,N,0.03,K,D*27
$GNGGA,184122.000,4910.425378,N,12304.400178,W,2,33,0.46,15.707,M,-16.816,M,,*71
$GNGLL,4910.425378,N,12304.400178,W,184122.000,A,D*51
$GNGSA,A,3,09,04,16,07,26,03,11,20,06,30,31,27,0.73,0.46,0.57,1*0F
$GNGSA,A,3,78,68,69,79,67,85,,,,,,,0.73,0.46,0.57,2*0A
$GNGSA,A,3,09,06,31,04,05,34,24,36,,,,,0.73,0.46,0.57,3*0F
$GNGSA,A,3,23,32,37,20,25,41,38,,,,,,0.73,0.46,0.57,4*0F
$GPGSV,4,1,13,09,79,304,38,04,68,104,35,16,47,076,34,07,47,248,34,1*6E
$GPGSV,4,2,13,48,33,182,30,26,24,048,28,03,20,174,24,11,14,303,24,1*66
$GPGSV,4,3,13,20,13,323,23,06,12,266,24,30,11,247,27,31,06,065,18,1*6A
$GPGSV,4,4,13,27,06,111,20,1*56
$GLGSV,2,1,07,78,79,089,18,68,76,113,30,69,48,320,26,79,38,204,26,1*7B
$GLGSV,2,2,07,67,24,132,21,85,11,326,18,86,05,016,,1*44
$GAGSV,3,1,10,09,84,332,32,06,68,102,31,31,50,142,30,04,41,107,28,7*71
$GAGSV,3,2,10,05,29,293,25,34,19,295,24,24,14,186,23,36,11,245,18,7*77
$GAGSV,3,3,10,15,07,343,20,21,02,029,,7*7D
$GBGSV,3,1,12,23,67,077,37,32,65,165,38,37,51,208,34,20,49,303,36,1*7F
$GBGSV,3,2,12,25,17,051,26,41,13,142,28,38,08,334,25,19,04,314,19,1*7D
$GBGSV,3,3,12,46,01,222,,04,01,262,,08,01,340,,44,01,008,,1*70
$GNRMC,184122.000,A,4910.425378,N,12304.400178,W,0.02,0.00,051224,,,D,V*1E
$GNVTG,0.00,T,,M,0.02,N,0.04,K,D*20
$GNGGA,184123.000,4910.425384,N,12304.400112,W,2,33,0.46,15.812,M,-16.816,M,,*74
$GNGLL,4910.425384,N,12304.400112,W,184123.000,A,D*5F
$GNGSA,A,3,09,04,16,07,26,03,11,20,06,30,31,27,0.73,0.46,0.57,1*0F
$GNGSA,A,3,78,68,69,79,67,85,,,,,,,0.73,0.46,0.57,2*0A
$GNGSA,A,3,09,06,31,04,05,34,24,36,,,,,0.73,0.46,0.57,3*0F
$GNGSA,A,3,23,32,37,20,25,41,38,,,,,,0.73,0.46,0.57,4*0F
$GPGSV,4,1,13,09,79,304,38,04,68,104,35,16,47,076,34,07,47,248,34,1*6E
$GPGSV,4,2,13,48,33,182,30,26,24,048,28,03,20,174,24,11,14,303,24,1*66
$GPGSV,4,3,13,20,13,323,23,06,12,266,25,30,11,247,27,31,06,065,18,1*6B
$GPGSV,4,4,13,27,06,111,20,1*56
$GLGSV,2,1,07,78,79,089,19,68,76,113,30,69,48,320,26,79,38,204,26,1*7A
$GLGSV,2,2,07,67,24,132,21,85,11,326,18,86,05,016,,1*44
$GAGSV,3,1,10,09,84,332,32,06,68,102,31,31,50,142,30,04,41,107,28,7*71
$GAGSV,3,2,10,05,29,293,25,34,19,295,24,24,14,186,23,36,11,245,18,7*77
$GAGSV,3,3,10,15,07,343,20,21,02,029,,7*7D
$GBGSV,3,1,12,23,67,077,37,32,65,165,38,37,51,208,34,20,49,303,36,1*7F
$GBGSV,3,2,12,25,17,051,26,41,13,142,28,38,08,334,25,19,04,314,19,1*7D
$GBGSV,3,3,12,46,01,222,,04,01,262,,08,01,340,,44,01,008,,1*70
$GNRMC,184123.000,A,4910.425384,N,12304.400112,W,0.02,0.00,051224,,,D,V*10
$GNVTG,0.00,T,,M,0.02,N,0.04,K,D*20
$GNGGA,184124.000,4910.425444,N,12304.399998,W,2,33,0.46,16.019,M,-16.816,M,,*75
$GNGLL,4910.425444,N,12304.399998,W,184124.000,A,D*5E
$GNGSA,A,3,09,04,16,07,26,03,11,20,06,30,31,27,0.73,0.46,0.57,1*0F
$GNGSA,A,3,78,68,69,79,67,85,,,,,,,0.73,0.46,0.57,2*0A
$GNGSA,A,3,09,06,31,04,05,34,24,36,,,,,0.73,0.46,0.57,3*0F
$GNGSA,A,3,23,32,37,20,25,41,38,,,,,,0.73,0.46,0.57,4*0F
$GPGSV,4,1,13,09,79,304,37,04,68,104,34,16,47,076,34,07,47,248,34,1*60
$GPGSV,4,2,13,48,33,182,30,26,24,048,27,03,20,174,24,11,14,303,24,1*69
$GPGSV,4,3,13,20,14,323,23,06,12,266,24,30,11,247,27,31,06,065,18,1*6D
$GPGSV,4,4,13,27,06,111,20,1*56
$GLGSV,2,1,07,78,79,089,19,68,76,113,30,69,48,320,26,79,38,204,26,1*7A
$GLGSV,2,2,07,67,24,132,21,85,11,326,19,86,05,016,,1*45
$GAGSV,3,1,10,09,84,332,31,06,68,102,31,31,50,142,30,04,41,107,28,7*72
$GAGSV,3,2,10,05,29,293,25,34,19,295,24,24,14,186,23,36,11,245,18,7*77
$GAGSV,3,3,10,15,07,343,20,21,02,029,,7*7D
$GBGSV,3,1,12,23,67,077,37,32,65,165,37,37,51,208,34,20,49,303,36,1*70
$GBGSV,3,2,12,25,17,051,26,41,13,142,28,38,08,334,25,19,04,314,19,1*7D
$GBGSV,3,3,12,46,01,222,,04,01,262,,08,01,340,,44,01,008,,1*70
$GNRMC,184124.000,A,4910.425444,N,12304.399998,W,0.02,0.00,051224,,,D,V*11
$GNVTG,0.00,T,,M,0.02,N,0.04,K,D*20
$GNGGA,184125.000,4910.425474,N,12304.399908,W,2,33,0.46,16.200,M,-16.816,M,,*74
$GNGLL,4910.425474,N,12304.399908,W,184125.000,A,D*55
$GNGSA,A,3,09,04,16,07,26,03,11,20,06,30,31,27,0.73,0.46,0.57,1*0F
$GNGSA,A,3,78,68,69,79,67,85,,,,,,,0.73,0.46,0.57,2*0A
$GNGSA,A,3,09,06,31,04,05,34,24,36,,,,,0.73,0.46,0.57,3*0F
$GNGSA,A,3,23,32,37,20,25,41,38,,,,,,0.73,0.46,0.57,4*0F
$GPGSV,4,1,13,09,79,304,37,04,68,104,34,16,47,076,34,07,47,248,33,1*67
$GPGSV,4,2,13,48,33,182,30,26,24,048,27,03,20,174,24,11,14,303,24,1*69
$GPGSV,4,3,13,20,14,323,23,06,12,266,22,30,11,247,27,31,06,065,17,1*64
$GPGSV,4,4,13,27,06,111,20,1*56
$GLGSV,2,1,07,78,79,089,19,68,76,113,30,69,48,320,25,79,38,204,26,1*79
$GLGSV,2,2,07,67,24,132,21,85,11,326,19,86,05,016,,1*45
$GAGSV,3,1,10,09,84,332,31,06,68,102,31,31,50,142,30,04,41,107,28,7*72
$GAGSV,3,2,10,05,29,293,25,34,19,295,23,24,14,186,23,36,11,245,18,7*70
$GAGSV,3,3,10,15,07,343,20,21,02,029,,7*7D
$GBGSV,3,1,12,23,67,077,37,32,65,165,37,37,51,208,34,20,49,303,36,1*70
$GBGSV,3,2,12,25,17,051,25,41,13,142,28,38,08,334,25,19,04,314,19,1*7E
$GBGSV,3,3,12,46,01,222,,04,01,262,,08,01,340,,44,01,008,,1*70
$GNRMC,184125.000,A,4910.425474,N,12304.399908,W,0.02,0.00,051224,,,D,V*1A
$GNVTG,0.00,T,,M,0.02,N,0.04,K,D*20
$GNGGA,184126.000,4910.425564,N,12304.399830,W,2,33,0.46,16.386,M,-16.817,M,,*73
$GNGLL,4910.425564,N,12304.399830,W,184126.000,A,D*5C
$GNGSA,A,3,09,04,16,07,26,03,11,20,06,30,31,27,0.73,0.46,0.57,1*0F
$GNGSA,A,3,78,68,69,79,67,85,,,,,,,0.73,0.46,0.57,2*0A
$GNGSA,A,3,09,06,31,04,05,34,24,36,,,,,0.73,0.46,0.57,3*0F
$GNGSA,A,3,23,32,37,20,25,41,38,,,,,,0.73,0.46,0.57,4*0F
$GPGSV,4,1,13,09,79,304,37,04,68,104,34,16,47,076,34,07,47,248,33,1*67
$GPGSV,4,2,13,48,33,182,30,26,24,048,27,03,20,174,24,11,14,303,24,1*69
$GPGSV,4,3,13,20,14,323,23,06,12,266,26,30,11,247,27,31,06,065,17,1*60
$GPGSV,4,4,13,27,06,111,20,1*56
$GLGSV,2,1,07,78,79,089,19,68,76,113,30,69,48,320,25,79,38,204,26,1*79
$GLGSV,2,2,07,67,24,132,21,85,11,326,20,86,05,016,,1*4F
$GAGSV,3,1,10,09,84,332,31,06,68,102,31,31,50,142,30,04,41,107,28,7*72
$GAGSV,3,2,10,05,29,293,25,34,19,295,23,24,14,186,23,36,11,245,18,7*70
$GAGSV,3,3,10,15,07,343,20,21,02,029,,7*7D
$GBGSV,3,1,12,23,67,077,37,32,65,165,37,37,51,208,34,20,49,303,36,1*70
$GBGSV,3,2,12,25,17,051,26,41,13,142,28,38,08,334,25,19,04,314,20,1*77
$GBGSV,3,3,12,46,01,222,,04,01,262,,08,01,340,,44,01,008,,1*70
$GNRMC,184126.000,A,4910.425564,N,12304.399830,W,0.02,0.00,051224,,,D,V*13
$GNVTG,0.00,T,,M,0.02,N,0.04,K,D*20
$GNGGA,184127.000,4910.425612,N,12304.399764,W,2,33,0.46,16.467,M,-16.817,M,,*76
$GNGLL,4910.425612,N,12304.399764,W,184127.000,A,D*51
$GNGSA,A,3,09,04,16,07,26,03,11,20,06,30,31,27,0.73,0.46,0.57,1*0F
$GNGSA,A,3,78,68,69,79,67,85,,,,,,,0.73,0.46,0.57,2*0A
$GNGSA,A,3,09,06,31,04,05,34,24,36,,,,,0.73,0.46,0.57,3*0F
$GNGSA,A,3,23,32,37,20,25,41,38,,,,,,0.73,0.46,0.57,4*0F
$GPGSV,4,1,13,09,79,304,37,04,68,104,34,16,47,076,34,07,47,248,33,1*67
$GPGSV,4,2,13,48,33,182,30,26,24,048,27,03,20,174,24,11,14,303,24,1*69
$GPGSV,4,3,13,20,14,323,23,06,12,266,23,30,11,247,27,31,06,065,17,1*65
$GPGSV,4,4,13,27,06,111,20,1*56
$GLGSV,2,1,07,78,79,089,19,68,76,113,30,69,48,320,24,79,38,204,25,1*7B
$GLGSV,2,2,07,67,24,132,20,85,11,326,20,86,05,016,,1*4E
$GAGSV,3,1,10,09,84,332,31,06,68,102,31,31,50,142,30,04,41,107,28,7*72
$GAGSV,3,2,10,05,29,293,25,34,19,295,24,24,14,186,23,36,11,245,18,7*77
$GAGSV,3,3,10,15,07,343,20,21,02,029,,7*7D
$GBGSV,3,1,12,23,67,077,37,32,65,165,37,37,51,208,34,20,49,303,36,1*70
$GBGSV,3,2,12,25,17,051,26,41,13,142,28,38,08,334,25,19,04,314,20,1*77
$GBGSV,3,3,12,46,01,222,,04,01,262,,08,01,340,,44,01,008,,1*70
$GNRMC,184127.000,A,4910.425612,N,12304.399764,W,0.02,0.00,051224,,,D,V*1E
$GNVTG,0.00,T,,M,0.02,N,0.04,K,D*20
$GNGGA,184128.000,4910.425696,N,12304.399680,W,2,33,0.46,16.592,M,-16.816,M,,*74
$GNGLL,4910.425696,N,12304.399680,W,184128.000,A,D*59
$GNGSA,A,3,09,04,16,07,26,03,11,20,06,30,31,27,0.73,0.46,0.57,1*0F
$GNGSA,A,3,78,68,69,79,67,85,,,,,,,0.73,0.46,0.57,2*0A
$GNGSA,A,3,09,06,31,04,05,34,24,36,,,,,0.73,0.46,0.57,3*0F
$GNGSA,A,3,23,32,37,20,25,41,38,,,,,,0.73,0.46,0.57,4*0F
$GPGSV,4,1,13,09,79,304,37,04,68,104,34,16,47,076,34,07,47,248,33,1*67
$GPGSV,4,2,13,48,33,182,30,26,24,048,27,03,20,174,24,11,14,303,24,1*69
$GPGSV,4,3,13,20,14,323,23,06,12,266,25,30,11,247,27,31,06,065,17,1*63
$GPGSV,4,4,13,27,06,111,20,1*56
$GLGSV,2,1,07,78,79,089,19,68,76,113,30,69,48,320,24,79,38,204,25,1*7B
$GLGSV,2,2,07,67,24,132,20,85,11,326,20,86,05,016,,1*4E
$GAGSV,3,1,10,09,84,332,31,06,68,102,31,31,50,142,30,04,41,107,28,7*72
$GAGSV,3,2,10,05,29,293,25,34,19,295,24,24,14,186,23,36,11,245,18,7*77
$GAGSV,3,3,10,15,07,343,20,21,02,029,,7*7D
$GBGSV,3,1,12,23,67,077,37,32,65,165,37,37,51,208,34,20,49,303,36,1*70
$GBGSV,3,2,12,25,17,051,26,41,13,142,28,38,08,334,25,19,04,314,19,1*7D
$GBGSV,3,3,12,46,01,222,,04,01,262,,08,01,340,,44,01,008,,1*70
$GNRMC,184128.000,A,4910.425696,N,12304.399680,W,0.02,0.00,051224,,,D,V*16
$GNVTG,0.00,T,,M,0.02,N,0.03,K,D*27
$GNGGA,184129.000,4910.425792,N,12304.399554,W,2,33,0.46,16.688,M,-16.816,M,,*72
$GNGLL,4910.425792,N,12304.399554,W,184129.000,A,D*57
$GNGSA,A,3,09,04,16,07,26,03,11,20,06,30,31,27,0.73,0.46,0.57,1*0F
$GNGSA,A,3,78,68,69,79,67,85,,,,,,,0.73,0.46,0.57,2*0A
$GNGSA,A,3,09,06,31,04,05,34,24,36,,,,,0.73,0.46,0.57,3*0F
$GNGSA,A,3,23,32,37,20,25,41,38,,,,,,0.73,0.46,0.57,4*0F
$GPGSV,4,1,13,09,79,304,37,04,68,104,34,16,47,076,34,07,47,248,33,1*67
$GPGSV,4,2,13,48,33,182,30,26,24,048,27,03,20,174,24,11,14,303,24,1*69
$GPGSV,4,3,13,20,14,323,23,06,12,266,25,30,11,247,27,31,06,065,17,1*63
$GPGSV,4,4,13,27,06,111,20,1*56
$GLGSV,2,1,07,78,79,089,19,68,76,113,30,69,48,320,24,79,38,204,25,1*7B
$GLGSV,2,2,07,67,24,132,20,85,11,326,21,86,05,016,,1*4F
$GAGSV,3,1,10,09,84,332,31,06,68,102,32,31,50,142,30,04,41,107,28,7*71
$GAGSV,3,2,10,05,29,293,25,34,19,295,24,24,14,186,23,36,11,245,18,7*77
$GAGSV,3,3,10,15,07,343,20,21,02,029,,7*7D
$GBGSV,3,1,12,23,67,077,37,32,65,165,37,37,51,208,34,20,49,303,36,1*70
$GBGSV,3,2,12,25,17,051,26,41,13,142,28,38,08,334,25,19,04,314,19,1*7D
$GBGSV,3,3,12,46,01,222,,04,01,262,,08,01,340,,44,01,008,,1*70
$GNRMC,184129.000,A,4910.425792,N,12304.399554,W,0.01,0.00,051224,,,D,V*1B
$GNVTG,0.00,T,,M,0.01,N,0.03,K,D*24
$GNGGA,184130.000,4910.425846,N,12304.399452,W,2,33,0.46,16.678,M,-16.816,M,,*74
$GNGLL,4910.425846,N,12304.399452,W,184130.000,A,D*5E
$GNGSA,A,3,09,04,16,07,26,03,11,20,06,30,31,27,0.73,0.46,0.57,1*0F
$GNGSA,A,3,78,68,69,79,67,85,,,,,,,0.73,0.46,0.57,2*0A
$GNGSA,A,3,09,06,31,04,05,34,24,36,,,,,0.73,0.46,0.57,3*0F
$GNGSA,A,3,23,32,37,20,25,41,38,,,,,,0.73,0.46,0.57,4*0F
$GPGSV,4,1,13,09,79,304,37,04,68,104,34,16,47,076,34,07,47,248,33,1*67
$GPGSV,4,2,13,48,33,182,30,26,24,048,27,03,20,174,24,11,14,303,24,1*69
$GPGSV,4,3,13,20,14,323,23,06,12,266,23,30,11,247,27,31,06,065,17,1*65
$GPGSV,4,4,13,27,06,111,20,1*56
$GLGSV,2,1,07,78,79,089,19,68,76,113,30,69,48,320,24,79,38,204,24,1*7A
$GLGSV,2,2,07,67,24,132,20,85,11,326,21,86,05,016,,1*4F
$GAGSV,3,1,10,09,84,332,31,06,68,102,32,31,50,142,30,04,41,107,28,7*71
$GAGSV,3,2,10,05,29,293,25,34,19,295,24,24,14,186,23,36,11,245,18,7*77
$GAGSV,3,3,10,15,07,343,20,21,02,029,,7*7D
$GBGSV,3,1,12,23,67,077,37,32,65,165,37,37,51,208,34,20,49,303,36,1*70
$GBGSV,3,2,12,25,17,051,26,41,13,142,28,38,08,334,25,19,04,314,19,1*7D
$GBGSV,3,3,12,46,01,222,,04,01,262,,08,01,340,,44,01,008,,1*70
$GNRMC,184130.000,A,4910.425846,N,12304.399452,W,0.01,0.00,051224,,,D,V*12
$GNVTG,0.00,T,,M,0.01,N,0.03,K,D*24
$GNGGA,184131.000,4910.425882,N,12304.399434,W,2,33,0.46,16.715,M,-16.816,M,,*77
$GNGLL,4910.425882,N,12304.399434,W,184131.000,A,D*57
$GNGSA,A,3,09,04,16,07,26,03,11,20,06,30,27,31,0.73,0.46,0.57,1*0F
$GNGSA,A,3,78,68,69,79,67,85,,,,,,,0.73,0.46,0.57,2*0A
$GNGSA,A,3,09,06,31,04,05,34,24,36,,,,,0.73,0.46,0.57,3*0F
$GNGSA,A,3,23,32,37,20,25,41,38,,,,,,0.73,0.46,0.57,4*0F
$GPGSV,4,1,13,09,79,304,37,04,68,104,34,16,47,076,34,07,47,248,33,1*67
$GPGSV,4,2,13,48,33,182,30,26,24,048,27,03,20,174,24,11,14,303,25,1*68
$GPGSV,4,3,13,20,14,323,23,06,12,266,25,30,11,247,27,27,07,111,20,1*63
$GPGSV,4,4,13,31,06,065,17,1*57
$GLGSV,2,1,07,78,79,089,19,68,76,113,30,69,48,320,25,79,38,204,26,1*79
$GLGSV,2,2,07,67,24,132,20,85,11,326,21,86,05,016,,1*4F
$GAGSV,3,1,10,09,84,332,31,06,68,102,32,31,50,142,30,04,41,107,28,7*71
$GAGSV,3,2,10,05,29,293,25,34,19,295,24,24,14,186,23,36,11,245,18,7*77
$GAGSV,3,3,10,15,07,343,20,21,02,029,,7*7D
$GBGSV,3,1,12,23,67,077,37,32,65,165,37,37,51,208,34,20,49,303,36,1*70
$GBGSV,3,2,12,25,17,051,25,41,13,142,28,38,08,334,25,19,04,314,19,1*7E
$GBGSV,3,3,12,46,01,222,,04,01,262,,08,01,340,,44,01,008,,1*70
$GNRMC,184131.000,A,4910.425882,N,12304.399434,W,0.01,0.00,051224,,,D,V*1B
$GNVTG,0.00,T,,M,0.01,N,0.02,K,D*25
$GNGGA,184132.000,4910.425900,N,12304.399296,W,2,33,0.46,16.635,M,-16.816,M,,*72
$GNGLL,4910.425900,N,12304.399296,W,184132.000,A,D*51
$GNGSA,A,3,09,04,16,07,26,03,11,20,06,30,27,31,0.73,0.46,0.57,1*0F
$GNGSA,A,3,78,68,69,79,67,85,,,,,,,0.73,0.46,0.57,2*0A
$GNGSA,A,3,09,06,31,04,05,34,24,36,,,,,0.73,0.46,0.57,3*0F
$GNGSA,A,3,23,32,37,20,25,41,38,,,,,,0.73,0.46,0.57,4*0F
$GPGSV,4,1,13,09,79,304,37,04,68,104,34,16,47,076,34,07,47,248,33,1*67
$GPGSV,4,2,13,48,33,182,30,26,24,048,27,03,20,174,25,11,14,303,25,1*69
$GPGSV,4,3,13,20,14,323,24,06,12,266,25,30,11,247,27,27,07,111,21,1*65
$GPGSV,4,4,13,31,06,065,17,1*57
$GLGSV,2,1,07,78,79,089,18,68,76,113,31,69,48,320,25,79,38,204,25,1*7A
$GLGSV,2,2,07,67,24,132,20,85,11,326,21,86,05,016,,1*4F
$GAGSV,3,1,10,09,84,332,31,06,68,102,32,31,50,142,30,04,41,107,28,7*71
$GAGSV,3,2,10,05,29,293,25,34,19,295,24,24,14,186,23,36,11,245,18,7*77
$GAGSV,3,3,10,15,07,343,20,21,02,029,,7*7D
$GBGSV,3,1,12,23,67,077,37,32,65,165,37,37,51,208,33,20,49,303,36,1*77
$GBGSV,3,2,12,25,17,051,25,41,13,142,28,38,08,334,25,19,04,314,19,1*7E
$GBGSV,3,3,12,46,01,222,,04,01,262,,08,01,340,,44,01,008,,1*70
$GNRMC,184132.000,A,4910.425900,N,12304.399296,W,0.01,0.00,051224,,,D,V*1D
$GNVTG,0.00,T,,M,0.01,N,0.02,K,D*25
$GNGGA,184133.000,4910.425888,N,12304.399248,W,2,33,0.46,16.478,M,-16.816,M,,*7A
$GNGLL,4910.425888,N,12304.399248,W,184133.000,A,D*52
$GNGSA,A,3,09,04,16,07,26,03,11,20,06,30,27,31,0.73,0.46,0.57,1*0F
$GNGSA,A,3,78,68,69,79,67,85,,,,,,,0.73,0.46,0.57,2*0A
$GNGSA,A,3,09,06,31,04,05,34,24,36,,,,,0.73,0.46,0.57,3*0F
$GNGSA,A,3,23,32,37,20,25,41,38,,,,,,0.73,0.46,0.57,4*0F
$GPGSV,4,1,13,09,79,304,37,04,68,104,34,16,47,076,34,07,47,248,33,1*67
$GPGSV,4,2,13,48,33,182,30,26,24,048,27,03,20,174,25,11,14,303,25,1*69
$GPGSV,4,3,13,20,14,323,24,06,12,266,25,30,11,247,27,27,07,111,21,1*65
$GPGSV,4,4,13,31,06,065,17,1*57
$GLGSV,2,1,07,78,79,089,17,68,76,113,30,69,48,320,25,79,38,204,25,1*74
$GLGSV,2,2,07,67,24,132,20,85,11,326,21,86,05,016,,1*4F
$GAGSV,3,1,10,09,84,332,31,06,68,102,32,31,50,142,30,04,41,107,28,7*71
$GAGSV,3,2,10,05,29,293,25,34,19,295,24,24,14,186,23,36,11,245,18,7*77
$GAGSV,3,3,10,15,07,343,20,21,02,029,,7*7D
$GBGSV,3,1,12,23,67,077,37,32,65,165,37,37,51,208,33,20,49,303,36,1*77
$GBGSV,3,2,12,25,17,051,25,41,13,142,28,38,08,334,25,19,04,314,19,1*7E
$GBGSV,3,3,12,46,01,222,,04,01,262,,08,01,340,,44,01,008,,1*70
$GNRMC,184133.000,A,4910.425888,N,12304.399248,W,0.01,0.00,051224,,,D,V*1E
$GNVTG,0.00,T,,M,0.01,N,0.03,K,D*24
$GNGGA,184134.000,4910.425906,N,12304.399290,W,2,33,0.46,16.389,M,-16.817,M,,*77
$GNGLL,4910.425906,N,12304.399290,W,184134.000,A,D*57
$GNGSA,A,3,09,04,16,07,26,03,11,20,06,30,27,31,0.73,0.46,0.57,1*0F
$GNGSA,A,3,78,68,69,79,67,85,,,,,,,0.73,0.46,0.57,2*0A
$GNGSA,A,3,09,06,31,04,05,34,24,36,,,,,0.73,0.46,0.57,3*0F
$GNGSA,A,3,23,32,37,20,25,41,38,,,,,,0.73,0.46,0.57,4*0F
$GPGSV,4,1,13,09,79,304,37,04,68,104,34,16,47,076,34,07,47,248,33,1*67
$GPGSV,4,2,13,48,33,182,30,26,24,048,27,03,20,174,26,11,14,303,25,1*6A
$GPGSV,4,3,13,20,14,323,24,06,12,266,24,30,11,247,27,27,07,111,21,1*64
$GPGSV,4,4,13,31,06,065,17,1*57
$GLGSV,2,1,07,78,79,089,17,68,76,113,30,69,48,320,25,79,38,204,25,1*74
$GLGSV,2,2,07,67,24,132,20,85,11,326,21,86,05,016,,1*4F
$GAGSV,3,1,10,09,84,332,31,06,68,102,32,31,50,142,30,04,41,107,28,7*71
$GAGSV,3,2,10,05,29,293,25,34,19,295,24,24,14,186,23,36,11,245,18,7*77
$GAGSV,3,3,10,15,07,343,20,21,02,029,,7*7D
$GBGSV,3,1,12,23,67,077,37,32,65,165,37,37,51,208,33,20,49,303,36,1*77
$GBGSV,3,2,12,25,17,051,25,41,13,142,28,38,08,334,25,19,04,314,19,1*7E
$GBGSV,3,3,12,46,01,222,,04,01,262,,08,01,340,,44,01,008,,1*70
$GNRMC,184134.000,A,4910.425906,N,12304.399290,W,0.02,0.00,051224,,,D,V*18
$GNVTG,0.00,T,,M,0.02,N,0.03,K,D*27
$GNGGA,184135.000,4910.425900,N,12304.399344,W,2,33,0.46,16.276,M,-16.816,M,,*78
$GNGLL,4910.425900,N,12304.399344,W,184135.000,A,D*58
$GNGSA,A,3,09,04,16,07,26,03,11,20,06,30,27,31,0.73,0.46,0.57,1*0F
$GNGSA,A,3,78,68,69,79,67,85,,,,,,,0.73,0.46,0.57,2*0A
$GNGSA,A,3,09,06,31,04,05,34,24,36,,,,,0.73,0.46,0.57,3*0F
$GNGSA,A,3,23,32,37,20,25,41,38,,,,,,0.73,0.46,0.57,4*0F
$GPGSV,4,1,13,09,79,304,38,04,68,104,34,16,47,076,34,07,47,248,33,1*68
$GPGSV,4,2,13,48,33,182,30,26,24,048,27,03,20,174,27,11,14,303,27,1*69
$GPGSV,4,3,13,20,14,323,25,06,12,266,25,30,11,247,27,27,07,111,21,1*64
$GPGSV,4,4,13,31,06,065,17,1*57
$GLGSV,2,1,07,78,79,089,16,68,76,113,30,69,48,320,25,79,38,204,25,1*75
$GLGSV,2,2,07,67,24,132,20,85,11,326,21,86,05,016,,1*4F
$GAGSV,3,1,10,09,84,332,32,06,68,102,32,31,50,142,30,04,41,107,28,7*72
$GAGSV,3,2,10,05,29,293,26,34,19,295,24,24,14,186,23,36,11,245,18,7*74
$GAGSV,3,3,10,15,07,343,20,21,02,029,,7*7D
$GBGSV,3,1,12,23,67,077,37,32,65,165,37,37,51,208,33,20,49,303,36,1*77
$GBGSV,3,2,12,25,17,051,25,41,13,142,29,38,08,334,25,19,04,314,20,1*75
$GBGSV,3,3,12,46,01,222,,04,01,262,,08,01,340,,44,01,008,,1*70
$GNRMC,184135.000,A,4910.425900,N,12304.399344,W,0.01,0.00,051224,,,D,V*14
$GNVTG,0.00,T,,M,0.01,N,0.03,K,D*24
$GNGGA,184136.000,4910.425900,N,12304.399446,W,2,33,0.46,16.277,M,-16.816,M,,*7F
$GNGLL,4910.425900,N,12304.399446,W,184136.000,A,D*5E
$GNGSA,A,3,09,04,16,07,26,03,11,20,06,30,27,31,0.73,0.46,0.57,1*0F
$GNGSA,A,3,78,68,69,79,67,85,,,,,,,0.73,0.46,0.57,2*0A
$GNGSA,A,3,09,06,31,04,05,34,24,36,,,,,0.73,0.46,0.57,3*0F
$GNGSA,A,3,23,32,37,20,25,41,38,,,,,,0.73,0.46,0.57,4*0F
$GPGSV,4,1,13,09,79,304,38,04,68,104,34,16,47,076,34,07,47,248,33,1*68
$GPGSV,4,2,13,48,33,182,30,26,24,048,27,03,20,174,27,11,14,303,27,1*69
$GPGSV,4,3,13,20,14,323,25,06,11,265,26,30,11,247,27,27,07,111,22,1*64
$GPGSV,4,4,13,31,06,065,17,1*57
$GLGSV,2,1,07,78,79,088,15,68,75,114,30,69,48,320,25,79,38,204,25,1*73
$GLGSV,2,2,07,67,24,132,20,85,11,326,20,86,05,016,,1*4E
$GAGSV,3,1,10,09,84,333,32,06,68,102,32,31,50,141,31,04,41,107,28,7*71
$GAGSV,3,2,10,05,30,294,26,34,18,295,25,24,14,186,23,36,10,245,18,7*7A
$GAGSV,3,3,10,15,07,343,21,21,02,029,,7*7C
$GBGSV,3,1,12,23,66,077,37,32,65,165,37,37,52,208,33,20,49,303,36,1*75
$GBGSV,3,2,12,25,17,051,25,41,13,142,29,38,08,334,25,19,04,315,20,1*74
$GBGSV,3,3,12,46,01,222,,04,01,262,,08,01,341,,44,01,008,,1*71
$GNRMC,184136.000,A,4910.425900,N,12304.399446,W,0.01,0.00,051224,,,D,V*12
$GNVTG,0.00,T,,M,0.01,N,0.03,K,D*24
$GNGGA,184137.000,4910.425900,N,12304.399458,W,2,33,0.46,16.200,M,-16.816,M,,*71
$GNGLL,4910.425900,N,12304.399458,W,184137.000,A,D*50
$GNGSA,A,3,09,04,16,07,26,03,11,20,06,30,27,31,0.73,0.46,0.57,1*0F
$GNGSA,A,3,78,68,69,79,67,85,,,,,,,0.73,0.46,0.57,2*0A
$GNGSA,A,3,09,06,31,04,05,34,24,36,,,,,0.73,0.46,0.57,3*0F
$GNGSA,A,3,23,32,37,20,25,41,38,,,,,,0.73,0.46,0.57,4*0F
$GPGSV,4,1,13,09,79,304,38,04,68,104,34,16,47,076,34,07,47,248,33,1*68
$GPGSV,4,2,13,48,33,182,30,26,24,048,27,03,20,174,25,11,14,303,26,1*6A
$GPGSV,4,3,13,20,14,323,24,06,11,265,25,30,11,247,27,27,07,111,22,1*66
$GPGSV,4,4,13,31,06,065,17,1*57
$GLGSV,2,1,07,78,79,088,16,68,75,114,30,69,48,320,25,79,38,204,25,1*70
$GLGSV,2,2,07,67,24,132,20,85,11,326,20,86,05,016,,1*4E
$GAGSV,3,1,10,09,84,333,32,06,68,102,32,31,50,141,31,04,41,107,28,7*71
$GAGSV,3,2,10,05,30,294,26,34,18,295,25,24,14,186,23,36,10,245,18,7*7A
$GAGSV,3,3,10,15,07,343,21,21,02,029,,7*7C
$GBGSV,3,1,12,23,66,077,37,32,65,165,37,37,52,208,33,20,49,303,36,1*75
$GBGSV,3,2,12,25,17,051,25,41,13,142,29,38,08,334,25,19,04,315,20,1*74
$GBGSV,3,3,12,46,01,222,,04,01,262,,08,01,341,,44,01,008,,1*71
$GNRMC,184137.000,A,4910.425900,N,12304.399458,W,0.01,0.00,051224,,,D,V*1C
$GNVTG,0.00,T,,M,0.01,N,0.02,K,D*25
$GNGGA,184138.000,4910.425954,N,12304.399446,W,2,33,0.46,16.118,M,-16.817,M,,*7B
$GNGLL,4910.425954,N,12304.399446,W,184138.000,A,D*51
$GNGSA,A,3,09,04,16,07,26,03,11,20,06,30,27,31,0.73,0.46,0.57,1*0F
$GNGSA,A,3,78,68,69,79,67,85,,,,,,,0.73,0.46,0.57,2*0A
$GNGSA,A,3,09,06,31,04,05,34,24,36,,,,,0.73,0.46,0.57,3*0F
$GNGSA,A,3,23,32,37,20,25,41,38,,,,,,0.73,0.46,0.57,4*0F
$GPGSV,4,1,13,09,79,304,38,04,68,104,34,16,47,076,34,07,47,248,33,1*68
$GPGSV,4,2,13,48,33,182,30,26,24,048,27,03,20,174,25,11,14,303,26,1*6A
$GPGSV,4,3,13,20,14,323,26,06,11,265,25,30,11,247,27,27,07,111,22,1*64
$GPGSV,4,4,13,31,06,065,17,1*57
$GLGSV,2,1,07,78,79,088,15,68,75,114,30,69,48,320,26,79,38,204,25,1*70
$GLGSV,2,2,07,67,24,132,20,85,11,326,21,86,05,016,,1*4F
$GAGSV,3,1,10,09,84,333,32,06,68,102,32,31,50,141,31,04,41,107,28,7*71
$GAGSV,3,2,10,05,30,294,26,34,18,295,25,24,14,186,23,36,10,245,18,7*7A
$GAGSV,3,3,10,15,07,343,21,21,02,029,,7*7C
$GBGSV,3,1,12,23,66,077,37,32,65,165,37,37,52,208,33,20,49,303,36,1*75
$GBGSV,3,2,12,25,17,051,25,41,13,142,29,38,08,334,25,19,04,315,21,1*75
$GBGSV,3,3,12,46,01,222,,04,01,262,,08,01,341,,44,01,008,,1*71
$GNRMC,184138.000,A,4910.425954,N,12304.399446,W,0.01,0.00,051224,,,D,V*1D
$GNVTG,0.00,T,,M,0.01,N,0.02,K,D*25
$GNGGA,184139.000,4910.425966,N,12304.399452,W,2,33,0.46,15.996,M,-16.817,M,,*73
$GNGLL,4910.425966,N,12304.399452,W,184139.000,A,D*54
$GNGSA,A,3,09,04,16,07,26,03,11,20,06,30,27,31,0.73,0.46,0.57,1*0F
$GNGSA,A,3,78,68,69,79,67,85,,,,,,,0.73,0.46,0.57,2*0A
$GNGSA,A,3,09,06,31,04,05,34,24,36,,,,,0.73,0.46,0.57,3*0F
$GNGSA,A,3,23,32,37,20,25,41,38,,,,,,0.73,0.46,0.57,4*0F
$GPGSV,4,1,13,09,79,304,38,04,68,104,34,16,47,076,34,07,47,248,33,1*68
$GPGSV,4,2,13,48,33,182,30,26,24,048,27,03,20,174,25,11,14,303,26,1*6A
$GPGSV,4,3,13,20,14,323,27,06,11,265,25,30,11,247,27,27,07,111,22,1*65
$GPGSV,4,4,13,31,06,065,17,1*57
$GLGSV,2,1,06,78,79,088,15,68,75,114,30,69,48,320,26,79,38,204,25,1*71
$GLGSV,2,2,06,67,24,132,20,85,11,326,21,1*72
$GAGSV,3,1,10,09,84,333,32,06,68,102,32,31,50,141,31,04,41,107,28,7*71
$GAGSV,3,2,10,05,30,294,26,34,18,295,25,24,14,186,23,36,10,245,18,7*7A
$GAGSV,3,3,10,15,07,343,21,21,02,029,,7*7C
$GBGSV,3,1,12,23,66,077,37,32,65,165,37,37,52,208,33,20,49,303,36,1*75
$GBGSV,3,2,12,25,17,051,25,41,13,142,29,38,08,334,25,19,04,315,21,1*75
$GBGSV,3,3,12,46,01,222,,04,01,262,,08,01,341,,44,01,008,,1*71
$GNRMC,184139.000,A,4910.425966,N,12304.399452,W,0.01,0.00,051224,,,D,V*18
$GNVTG,0.00,T,,M,0.01,N,0.02,K,D*25
$GNGGA,184140.000,4910.425996,N,12304.399446,W,2,33,0.46,15.944,M,-16.816,M,,*79
$GNGLL,4910.425996,N,12304.399446,W,184140.000,A,D*50
$GNGSA,A,3,09,04,16,07,26,03,11,20,06,30,27,31,0.73,0.46,0.57,1*0F
$GNGSA,A,3,78,68,69,79,67,85,,,,,,,0.73,0.46,0.57,2*0A
$GNGSA,A,3,09,06,31,04,05,34,24,36,,,,,0.73,0.46,0.57,3*0F
$GNGSA,A,3,23,32,37,20,25,41,38,,,,,,0.73,0.46,0.57,4*0F
$GPGSV,4,1,13,09,79,304,38,04,68,104,34,16,47,076,34,07,47,248,33,1*68
$GPGSV,4,2,13,48,33,182,30,26,24,048,27,03,20,174,26,11,14,303,26,1*69
$GPGSV,4,3,13,20,14,323,27,06,11,265,23,30,11,247,27,27,07,111,22,1*63
$GPGSV,4,4,13,31,06,065,17,1*57
$GLGSV,2,1,07,78,79,088,16,68,75,114,30,69,48,320,26,79,38,204,25,1*73
$GLGSV,2,2,07,67,24,132,20,85,11,326,21,86,05,016,,1*4F
$GAGSV,3,1,10,09,84,333,32,06,68,102,32,31,50,141,31,04,41,107,28,7*71
$GAGSV,3,2,10,05,30,294,26,34,18,295,25,24,14,186,22,36,10,245,18,7*7B
$GAGSV,3,3,10,15,07,343,21,21,02,029,,7*7C
$GBGSV,3,1,12,23,66,077,37,32,65,165,37,37,52,208,33,20,49,303,36,1*75
$GBGSV,3,2,12,25,17,051,25,41,13,142,29,38,08,334,25,19,04,315,20,1*74
$GBGSV,3,3,12,46,01,222,,04,01,262,,08,01,341,,44,01,008,,1*71
$GNRMC,184140.000,A,4910.425996,N,12304.399446,W,0.01,0.00,051224,,,D,V*1C
$GNVTG,0.00,T,,M,0.01,N,0.03,K,D*24
$GNGGA,184141.000,4910.426044,N,12304.399446,W,2,33,0.46,15.864,M,-16.816,M,,*7E
$GNGLL,4910.426044,N,12304.399446,W,184141.000,A,D*54
$GNGSA,A,3,09,04,16,07,26,03,11,20,06,30,27,31,0.73,0.46,0.57,1*0F
$GNGSA,A,3,78,68,69,79,67,85,,,,,,,0.73,0.46,0.57,2*0A
$GNGSA,A,3,09,06,31,04,05,34,24,36,,,,,0.73,0.46,0.57,3*0F
$GNGSA,A,3,23,32,37,20,25,41,38,,,,,,0.73,0.46,0.57,4*0F
$GPGSV,4,1,13,09,79,304,38,04,68,104,34,16,47,076,34,07,47,248,33,1*68
$GPGSV,4,2,13,48,33,182,30,26,24,048,27,03,20,174,26,11,14,303,26,1*69
$GPGSV,4,3,13,20,14,323,27,06,11,265,25,30,11,247,27,27,07,111,22,1*65
$GPGSV,4,4,13,31,06,065,16,1*56
$GLGSV,2,1,07,78,79,088,17,68,75,114,30,69,48,320,26,79,38,204,25,1*72
$GLGSV,2,2,07,67,24,132,20,85,11,326,21,86,05,016,,1*4F
$GAGSV,3,1,10,09,84,333,32,06,68,102,32,31,50,141,31,04,41,107,28,7*71
$GAGSV,3,2,10,05,30,294,26,34,18,295,25,24,14,186,22,36,10,245,18,7*7B
$GAGSV,3,3,10,15,07,343,21,21,02,029,,7*7C
$GBGSV,3,1,12,23,66,077,37,32,65,165,37,37,52,208,33,20,49,303,36,1*75
$GBGSV,3,2,12,25,17,051,25,41,13,142,29,38,08,334,25,19,04,315,20,1*74
$GBGSV,3,3,12,46,01,222,,04,01,262,,08,01,341,,44,01,008,,1*71
$GNRMC,184141.000,A,4910.426044,N,12304.399446,W,0.02,0.00,051224,,,D,V*1B
$GNVTG,0.00,T,,M,0.02,N,0.03,K,D*27
$GNGGA,184142.000,4910.426116,N,12304.399422,W,2,33,0.46,15.829,M,-16.816,M,,*70
$GNGLL,4910.426116,N,12304.399422,W,184142.000,A,D*53
$GNGSA,A,3,09,04,16,07,26,03,11,20,06,30,27,31,0.73,0.46,0.57,1*0F
$GNGSA,A,3,78,68,69,79,67,85,,,,,,,0.73,0.46,0.57,2*0A
$GNGSA,A,3,09,06,31,04,05,34,24,36,,,,,0.73,0.46,0.57,3*0F
$GNGSA,A,3,23,32,37,20,25,41,38,,,,,,0.73,0.46,0.57,4*0F
$GPGSV,4,1,13,09,79,304,38,04,68,104,34,16,47,076,34,07,47,248,33,1*68
$GPGSV,4,2,13,48,33,182,30,26,24,048,27,03,20,174,26,11,14,303,26,1*69
$GPGSV,4,3,13,20,14,323,27,06,11,265,23,30,11,247,27,27,07,111,22,1*63
$GPGSV,4,4,13,31,06,065,17,1*57
$GLGSV,2,1,07,78,79,088,17,68,75,114,30,69,48,320,26,79,38,204,25,1*72
$GLGSV,2,2,07,67,24,132,20,85,11,326,21,86,05,016,,1*4F
$GAGSV,3,1,10,09,84,333,32,06,68,102,32,31,50,141,31,04,41,107,28,7*71
$GAGSV,3,2,10,05,30,294,26,34,18,295,25,24,14,186,22,36,10,245,18,7*7B
$GAGSV,3,3,10,15,07,343,21,21,02,029,,7*7C
$GBGSV,3,1,12,23,66,077,37,32,65,165,37,37,52,208,33,20,49,303,36,1*75
$GBGSV,3,2,12,25,17,051,25,41,13,142,29,38,08,334,25,19,04,315,20,1*74
$GBGSV,3,3,12,46,01,222,,04,01,262,,08,01,341,,44,01,008,,1*71
$GNRMC,184142.000,A,4910.426116,N,12304.399422,W,0.02,0.00,051224,,,D,V*1C
$GNVTG,0.00,T,,M,0.02,N,0.04,K,D*20
$GNGGA,184143.000,4910.426122,N,12304.399458,W,2,33,0.46,15.770,M,-16.816,M,,*78
$GNGLL,4910.426122,N,12304.399458,W,184143.000,A,D*58
$GNGSA,A,3,09,04,16,07,26,03,11,20,06,30,27,31,0.73,0.46,0.57,1*0F
$GNGSA,A,3,78,68,69,79,67,85,,,,,,,0.73,0.46,0.57,2*0A
$GNGSA,A,3,09,06,31,04,05,34,24,36,,,,,0.73,0.46,0.57,3*0F
$GNGSA,A,3,23,32,37,20,25,41,38,,,,,,0.73,0.46,0.57,4*0F
$GPGSV,4,1,13,09,79,304,38,04,68,104,34,16,47,076,34,07,47,248,33,1*68
$GPGSV,4,2,13,48,33,182,30,26,24,048,27,03,20,174,26,11,14,303,26,1*69
$GPGSV,4,3,13,20,14,323,27,06,11,265,23,30,11,247,27,27,07,111,22,1*63
$GPGSV,4,4,13,31,06,065,17,1*57
$GLGSV,2,1,07,78,79,088,17,68,75,114,30,69,48,320,26,79,38,204,25,1*72
$GLGSV,2,2,07,67,24,132,20,85,11,326,21,86,05,016,,1*4F
$GAGSV,3,1,10,09,84,333,32,06,68,102,32,31,50,141,31,04,41,107,28,7*71
$GAGSV,3,2,10,05,30,294,26,34,18,295,25,24,14,186,23,36,10,245,18,7*7A
$GAGSV,3,3,10,15,07,343,21,21,02,029,,7*7C
$GBGSV,3,1,12,23,66,077,37,32,65,165,37,37,52,208,33,20,49,303,36,1*75
$GBGSV,3,2,12,25,17,051,25,41,13,142,29,38,08,334,25,19,04,315,20,1*74
$GBGSV,3,3,12,46,01,222,,04,01,262,,08,01,341,,44,01,008,,1*71
$GNRMC,184143.000,A,4910.426122,N,12304.399458,W,0.02,0.00,051224,,,D,V*17
$GNVTG,0.00,T,,M,0.02,N,0.04,K,D*20
$GNGGA,184144.000,4910.426098,N,12304.399584,W,2,33,0.46,15.687,M,-16.817,M,,*77
$GNGLL,4910.426098,N,12304.399584,W,184144.000,A,D*5F
$GNGSA,A,3,09,04,16,07,26,03,11,20,06,30,27,31,0.73,0.46,0.57,1*0F
$GNGSA,A,3,78,68,69,79,67,85,,,,,,,0.73,0.46,0.57,2*0A
$GNGSA,A,3,09,06,31,04,05,34,24,36,,,,,0.73,0.46,0.57,3*0F
$GNGSA,A,3,23,32,37,20,25,41,38,,,,,,0.73,0.46,0.57,4*0F
$GPGSV,4,1,13,09,79,304,38,04,68,104,34,16,47,076,34,07,47,248,33,1*68
$GPGSV,4,2,13,48,33,182,30,26,24,048,27,03,20,174,27,11,14,303,26,1*68
$GPGSV,4,3,13,20,14,323,27,06,11,265,23,30,11,247,27,27,07,111,22,1*63
$GPGSV,4,4,13,31,06,065,16,1*56
$GLGSV,2,1,07,78,79,088,17,68,75,114,30,69,48,320,26,79,38,204,25,1*72
$GLGSV,2,2,07,67,24,132,20,85,11,326,21,86,05,016,,1*4F
$GAGSV,3,1,10,09,84,333,32,06,68,102,32,31,50,141,31,04,41,107,28,7*71
$GAGSV,3,2,10,05,30,294,26,34,18,295,25,24,14,186,23,36,10,245,18,7*7A
$GAGSV,3,3,10,15,07,343,21,21,02,029,,7*7C
$GBGSV,3,1,12,23,66,077,37,32,65,165,37,37,52,208,33,20,49,303,36,1*75
$GBGSV,3,2,12,25,17,051,25,41,13,142,29,38,08,334,25,19,04,315,20,1*74
$GBGSV,3,3,12,46,01,222,,04,01,262,,08,01,341,,44,01,008,,1*71
$GNRMC,184144.000,A,4910.426098,N,12304.399584,W,0.02,0.00,051224,,,D,V*10
$GNVTG,0.00,T,,M,0.02,N,0.04,K,D*20
$GNGGA,184145.000,4910.426086,N,12304.399704,W,2,33,0.46,15.542,M,-16.817,M,,*79
$GNGLL,4910.426086,N,12304.399704,W,184145.000,A,D*5B
$GNGSA,A,3,09,04,16,07,26,03,11,20,06,30,27,31,0.73,0.46,0.57,1*0F
$GNGSA,A,3,78,68,69,79,67,85,,,,,,,0.73,0.46,0.57,2*0A
$GNGSA,A,3,09,06,31,04,05,34,24,36,,,,,0.73,0.46,0.57,3*0F
$GNGSA,A,3,23,32,37,20,25,41,38,,,,,,0.73,0.46,0.57,4*0F
$GPGSV,4,1,13,09,79,304,38,04,68,104,34,16,47,076,34,07,47,248,33,1*68
$GPGSV,4,2,13,48,33,182,30,26,24,048,27,03,20,174,27,11,14,303,26,1*68
$GPGSV,4,3,13,20,14,323,27,06,11,265,23,30,11,247,28,27,07,111,23,1*6D
$GPGSV,4,4,13,31,06,065,16,1*56
$GLGSV,2,1,07,78,79,088,17,68,75,114,30,69,48,320,26,79,38,204,25,1*72
$GLGSV,2,2,07,67,24,132,20,85,11,326,21,86,05,016,,1*4F
$GAGSV,3,1,10,09,84,333,32,06,68,102,32,31,50,141,31,04,41,107,28,7*71
$GAGSV,3,2,10,05,30,294,26,34,18,295,25,24,14,186,23,36,10,245,18,7*7A
$GAGSV,3,3,10,15,07,343,21,21,02,029,,7*7C
$GBGSV,3,1,12,23,66,077,37,32,65,165,37,37,52,208,33,20,49,303,36,1*75
$GBGSV,3,2,12,25,17,051,25,41,13,142,29,38,08,334,25,19,04,315,20,1*74
$GBGSV,3,3,12,46,01,222,,04,01,262,,08,01,341,,44,01,008,,1*71
$GNRMC,184145.000,A,4910.426086,N,12304.399704,W,0.02,0.00,051224,,,D,V*14
$GNVTG,0.00,T,,M,0.02,N,0.04,K,D*20
$GNGGA,184146.000,4910.426074,N,12304.399806,W,2,33,0.46,15.401,M,-16.817,M,,*7C
$GNGLL,4910.426074,N,12304.399806,W,184146.000,A,D*58
$GNGSA,A,3,09,04,16,07,26,03,11,20,06,30,27,31,0.73,0.46,0.57,1*0F
$GNGSA,A,3,78,68,69,79,67,85,,,,,,,0.73,0.46,0.57,2*0A
$GNGSA,A,3,09,06,31,04,05,34,24,36,,,,,0.73,0.46,0.57,3*0F
$GNGSA,A,3,23,32,37,20,25,41,38,,,,,,0.73,0.46,0.57,4*0F
$GPGSV,4,1,13,09,79,304,38,04,68,104,34,16,47,076,34,07,47,248,33,1*68
$GPGSV,4,2,13,48,33,182,30,26,24,048,27,03,20,174,27,11,14,303,26,1*68
$GPGSV,4,3,13,20,14,323,27,06,11,265,23,30,11,247,28,27,07,111,23,1*6D
$GPGSV,4,4,13,31,06,065,16,1*56
$GLGSV,2,1,07,78,79,088,17,68,75,114,31,69,48,320,26,79,38,204,25,1*73
$GLGSV,2,2,07,67,24,132,20,85,11,326,21,86,05,016,,1*4F
$GAGSV,3,1,10,09,84,333,32,06,68,102,32,31,50,141,31,04,41,107,28,7*71
$GAGSV,3,2,10,05,30,294,26,34,18,295,25,24,14,186,23,36,10,245,18,7*7A
$GAGSV,3,3,10,15,07,343,21,21,02,029,,7*7C
$GBGSV,3,1,12,23,66,077,37,32,65,165,37,37,52,208,33,20,49,303,36,1*75
$GBGSV,3,2,12,25,17,051,25,41,13,142,29,38,08,334,25,19,04,315,20,1*74
$GBGSV,3,3,12,46,01,222,,04,01,262,,08,01,341,,44,01,008,,1*71
$GNRMC,184146.000,A,4910.426074,N,12304.399806,W,0.02,0.00,051224,,,D,V*17
$GNVTG,0.00,T,,M,0.02,N,0.03,K,D*27
$GNGGA,184147.000,4910.426098,N,12304.399908,W,2,33,0.46,15.239,M,-16.816,M,,*7C
$GNGLL,4910.426098,N,12304.399908,W,184147.000,A,D*54
$GNGSA,A,3,09,04,07,16,26,03,11,20,30,06,27,31,0.73,0.46,0.57,1*0F
$GNGSA,A,3,78,68,69,79,67,85,,,,,,,0.73,0.46,0.57,2*0A
$GNGSA,A,3,09,06,31,04,05,34,24,36,,,,,0.73,0.46,0.57,3*0F
$GNGSA,A,3,23,32,37,20,25,41,38,,,,,,0.73,0.46,0.57,4*0F
$GPGSV,4,1,13,09,79,304,38,04,68,104,34,07,47,248,33,16,47,076,34,1*68
$GPGSV,4,2,13,48,33,182,30,26,24,048,27,03,20,174,28,11,14,303,26,1*67
$GPGSV,4,3,13,20,14,323,27,30,11,247,28,06,11,265,24,27,07,111,22,1*6B
$GPGSV,4,4,13,31,06,065,16,1*56
$GLGSV,2,1,07,78,79,088,18,68,75,114,31,69,48,320,26,79,38,204,25,1*7C
$GLGSV,2,2,07,67,24,132,20,85,11,326,21,86,05,016,,1*4F
$GAGSV,3,1,10,09,84,333,33,06,68,102,32,31,50,141,31,04,41,107,28,7*70
$GAGSV,3,2,10,05,30,294,26,34,18,295,26,24,14,186,23,36,10,245,18,7*79
$GAGSV,3,3,10,15,07,343,21,21,02,029,,7*7C
$GBGSV,3,1,11,23,66,077,37,32,65,165,37,37,52,208,33,20,49,303,37,1*77
$GBGSV,3,2,11,25,17,051,25,41,13,142,29,38,08,334,25,19,04,315,20,1*77
$GBGSV,3,3,11,46,01,222,,08,01,341,,04,01,262,,1*4B
$GNRMC,184147.000,A,4910.426098,N,12304.399908,W,0.01,0.00,051224,,,D,V*18
$GNVTG,0.00,T,,M,0.01,N,0.02,K,D*25
$GNGGA,184148.000,4910.426116,N,12304.400004,W,2,33,0.46,15.020,M,-16.817,M,,*7D
$GNGLL,4910.426116,N,12304.400004,W,184148.000,A,D*5E
$GNGSA,A,3,09,04,16,07,26,03,11,20,06,30,27,31,0.73,0.46,0.57,1*0F
$GNGSA,A,3,78,68,69,79,67,85,,,,,,,0.73,0.46,0.57,2*0A
$GNGSA,A,3,09,06,31,04,05,34,24,36,,,,,0.73,0.46,0.57,3*0F
$GNGSA,A,3,23,32,37,20,25,41,38,,,,,,0.73,0.46,0.57,4*0F
$GPGSV,4,1,13,09,79,304,38,04,68,104,34,16,47,076,34,07,47,248,33,1*68
$GPGSV,4,2,13,48,33,182,30,26,24,048,27,03,20,174,28,11,14,303,26,1*67
$GPGSV,4,3,13,20,14,323,27,06,11,265,23,30,11,247,28,27,07,111,24,1*6A
$GPGSV,4,4,13,31,06,065,16,1*56
$GLGSV,2,1,07,78,79,088,18,68,75,114,31,69,48,320,26,79,38,204,25,1*7C
$GLGSV,2,2,07,67,24,132,20,85,11,326,21,86,05,016,,1*4F
$GAGSV,3,1,10,09,84,333,33,06,68,102,32,31,50,141,30,04,41,107,28,7*71
$GAGSV,3,2,10,05,30,294,26,34,18,295,26,24,14,186,23,36,10,245,18,7*79
$GAGSV,3,3,10,15,07,343,21,21,02,029,,7*7C
$GBGSV,3,1,12,23,66,077,37,32,65,165,37,37,52,208,33,20,49,303,37,1*74
$GBGSV,3,2,12,25,17,051,25,41,13,142,29,38,08,334,26,19,04,315,21,1*76
$GBGSV,3,3,12,46,01,222,,04,01,262,,08,01,341,,44,01,008,,1*71
$GNRMC,184148.000,A,4910.426116,N,12304.400004,W,0.01,0.00,051224,,,D,V*12
$GNVTG,0.00,T,,M,0.01,N,0.03,K,D*24
$GNGGA,184149.000,4910.426086,N,12304.400148,W,2,33,0.46,14.805,M,-16.816,M,,*72
$GNGLL,4910.426086,N,12304.400148,W,184149.000,A,D*5E
$GNGSA,A,3,09,04,16,07,26,03,11,20,06,30,27,31,0.73,0.46,0.57,1*0F
$GNGSA,A,3,78,68,69,79,67,85,,,,,,,0.73,0.46,0.57,2*0A
$GNGSA,A,3,09,06,31,04,05,34,24,36,,,,,0.73,0.46,0.57,3*0F
$GNGSA,A,3,23,32,37,20,25,41,38,,,,,,0.73,0.46,0.57,4*0F
$GPGSV,4,1,13,09,79,304,38,04,68,104,34,16,47,076,34,07,47,248,33,1*68
$GPGSV,4,2,13,48,33,182,30,26,24,048,27,03,20,174,28,11,14,303,26,1*67
$GPGSV,4,3,13,20,14,323,27,06,11,265,23,30,11,247,28,27,07,111,23,1*6D
$GPGSV,4,4,13,31,06,065,16,1*56
$GLGSV,2,1,07,78,79,088,18,68,75,114,31,69,48,320,26,79,38,204,25,1*7C
$GLGSV,2,2,07,67,24,132,20,85,11,326,21,86,05,016,,1*4F
$GAGSV,3,1,10,09,84,333,33,06,68,102,32,31,50,141,30,04,41,107,28,7*71
$GAGSV,3,2,10,05,30,294,27,34,18,295,26,24,14,186,23,36,10,245,18,7*78
$GAGSV,3,3,10,15,07,343,22,21,02,029,,7*7F
$GBGSV,3,1,12,23,66,077,37,32,65,165,37,37,52,208,33,20,49,303,37,1*74
$GBGSV,3,2,12,25,17,051,25,41,13,142,29,38,08,334,26,19,04,315,21,1*76
$GBGSV,3,3,12,46,01,222,,04,01,262,,08,01,341,,44,01,008,,1*71
$GNRMC,184149.000,A,4910.426086,N,12304.400148,W,0.02,0.00,051224,,,D,V*11
$GNVTG,0.00,T,,M,0.02,N,0.04,K,D*20
$GNGGA,184150.000,4910.426104,N,12304.400274,W,2,33,0.46,14.601,M,-16.817,M,,*76
$GNGLL,4910.426104,N,12304.400274,W,184150.000,A,D*51
$GNGSA,A,3,09,04,16,07,26,03,11,20,06,30,27,31,0.73,0.46,0.57,1*0F
$GNGSA,A,3,78,68,69,79,67,85,,,,,,,0.73,0.46,0.57,2*0A
$GNGSA,A,3,09,06,31,04,05,34,24,36,,,,,0.73,0.46,0.57,3*0F
$GNGSA,A,3,23,32,37,20,25,41,38,,,,,,0.73,0.46,0.57,4*0F
$GPGSV,4,1,13,09,79,304,38,04,68,104,34,16,47,076,34,07,47,248,33,1*68
$GPGSV,4,2,13,48,33,182,30,26,24,048,27,03,20,174,28,11,14,303,25,1*64
$GPGSV,4,3,13,20,14,323,26,06,11,265,23,30,11,247,28,27,07,111,24,1*6B
$GPGSV,4,4,13,31,06,065,15,1*55
$GLGSV,2,1,07,78,79,088,18,68,75,114,31,69,48,320,27,79,38,204,25,1*7D
$GLGSV,2,2,07,67,24,132,20,85,11,326,20,86,05,016,,1*4E
$GAGSV,3,1,10,09,84,333,33,06,68,102,32,31,50,141,30,04,41,107,28,7*71
$GAGSV,3,2,10,05,30,294,27,34,18,295,26,24,14,186,23,36,10,245,18,7*78
$GAGSV,3,3,10,15,07,343,22,21,02,029,,7*7F
$GBGSV,3,1,12,23,66,077,37,32,65,165,37,37,52,208,33,20,49,303,37,1*74
$GBGSV,3,2,12,25,17,051,25,41,13,142,29,38,08,334,26,19,04,315,21,1*76
$GBGSV,3,3,12,46,01,222,,04,01,262,,08,01,341,,44,01,008,,1*71
$GNRMC,184150.000,A,4910.426104,N,12304.400274,W,0.02,0.00,051224,,,D,V*1E
$GNVTG,0.00,T,,M,0.02,N,0.04,K,D*20
$GNGGA,184151.000,4910.426068,N,12304.400406,W,2,33,0.46,14.347,M,-16.816,M,,*79
$GNGLL,4910.426068,N,12304.400406,W,184151.000,A,D*58
$GNGSA,A,3,09,04,16,07,26,03,11,20,06,30,27,31,0.73,0.46,0.57,1*0F
$GNGSA,A,3,78,68,69,79,67,85,,,,,,,0.73,0.46,0.57,2*0A
$GNGSA,A,3,09,06,31,04,05,34,24,36,,,,,0.73,0.46,0.57,3*0F
$GNGSA,A,3,23,32,37,20,25,41,38,,,,,,0.73,0.46,0.57,4*0F
$GPGSV,4,1,13,09,79,304,38,04,68,104,34,16,47,076,34,07,47,248,33,1*68
$GPGSV,4,2,13,48,33,182,30,26,24,048,27,03,20,174,28,11,14,303,25,1*64
$GPGSV,4,3,13,20,14,323,25,06,11,265,23,30,11,247,28,27,07,111,24,1*68
$GPGSV,4,4,13,31,06,065,15,1*55
$GLGSV,2,1,07,78,79,088,18,68,75,114,31,69,48,320,27,79,38,204,25,1*7D
$GLGSV,2,2,07,67,24,132,20,85,11,326,20,86,05,016,,1*4E
$GAGSV,3,1,10,09,84,333,33,06,68,102,32,31,50,141,30,04,41,107,28,7*71
$GAGSV,3,2,10,05,30,294,27,34,18,295,26,24,14,186,23,36,10,245,18,7*78
$GAGSV,3,3,10,15,07,343,23,21,02,029,,7*7E
$GBGSV,3,1,12,23,66,077,37,32,65,165,37,37,52,208,33,20,49,303,37,1*74
$GBGSV,3,2,12,25,17,051,25,41,13,142,29,38,08,334,26,19,04,315,21,1*76
$GBGSV,3,3,12,46,01,222,,04,01,262,,08,01,341,,44,01,008,,1*71
$GNRMC,184151.000,A,4910.426068,N,12304.400406,W,0.03,0.00,051224,,,D,V*16
$GNVTG,0.00,T,,M,0.03,N,0.05,K,D*20
$GNGGA,184152.000,4910.426080,N,12304.400532,W,2,33,0.46,14.141,M,-16.816,M,,*7E
$GNGLL,4910.426080,N,12304.400532,W,184152.000,A,D*5B
$GNGSA,A,3,09,04,16,07,26,03,11,20,06,30,27,31,0.73,0.46,0.57,1*0F
$GNGSA,A,3,78,68,69,79,67,85,,,,,,,0.73,0.46,0.57,2*0A
$GNGSA,A,3,09,06,31,04,05,34,24,36,,,,,0.73,0.46,0.57,3*0F
$GNGSA,A,3,23,32,37,20,25,41,38,,,,,,0.73,0.46,0.57,4*0F
$GPGSV,4,1,13,09,79,304,38,04,68,104,34,16,47,076,34,07,47,248,33,1*68
$GPGSV,4,2,13,48,33,182,30,26,24,048,27,03,20,174,28,11,14,303,25,1*64
$GPGSV,4,3,13,20,14,323,26,06,11,265,23,30,11,247,28,27,07,111,23,1*6C
$GPGSV,4,4,13,31,06,065,15,1*55
$GLGSV,2,1,07,78,79,088,18,68,75,114,31,69,48,320,27,79,38,204,25,1*7D
$GLGSV,2,2,07,67,24,132,20,85,11,326,20,86,05,016,,1*4E
$GAGSV,3,1,10,09,84,333,33,06,68,102,32,31,50,141,29,04,41,107,28,7*79
$GAGSV,3,2,10,05,30,294,27,34,18,295,26,24,14,186,23,36,10,245,18,7*78
$GAGSV,3,3,10,15,07,343,23,21,02,029,,7*7E
$GBGSV,3,1,12,23,66,077,37,32,65,165,37,37,52,208,33,20,49,303,37,1*74
$GBGSV,3,2,12,25,17,051,25,41,13,142,29,38,08,334,26,19,04,315,21,1*76
$GBGSV,3,3,12,46,01,222,,04,01,262,,08,01,341,,44,01,008,,1*71
$GNRMC,184152.000,A,4910.426080,N,12304.400532,W,0.03,0.00,051224,,,D,V*15
$GNVTG,0.00,T,,M,0.03,N,0.05,K,D*20
$GNGGA,184153.000,4910.426110,N,12304.400574,W,2,33,0.46,13.843,M,-16.816,M,,*79
$GNGLL,4910.426110,N,12304.400574,W,184153.000,A,D*50
$GNGSA,A,3,09,04,16,07,26,03,11,20,06,30,27,31,0.73,0.46,0.57,1*0F
$GNGSA,A,3,78,68,69,79,67,85,,,,,,,0.73,0.46,0.57,2*0A
$GNGSA,A,3,09,06,31,04,05,34,24,36,,,,,0.73,0.46,0.57,3*0F
$GNGSA,A,3,23,32,37,20,25,41,38,,,,,,0.73,0.46,0.57,4*0F
$GPGSV,4,1,13,09,79,304,38,04,68,104,34,16,47,076,34,07,47,248,33,1*68
$GPGSV,4,2,13,48,33,182,31,26,24,048,27,03,20,174,28,11,14,303,25,1*65
$GPGSV,4,3,13,20,14,323,25,06,11,265,23,30,11,247,28,27,07,111,24,1*68
$GPGSV,4,4,13,31,06,065,14,1*54
$GLGSV,2,1,07,78,79,088,18,68,75,114,31,69,48,320,27,79,38,204,25,1*7D
$GLGSV,2,2,07,67,24,132,20,85,11,326,20,86,05,016,,1*4E
$GAGSV,3,1,10,09,84,333,33,06,68,102,32,31,50,141,29,04,41,107,28,7*79
$GAGSV,3,2,10,05,30,294,27,34,18,295,26,24,14,186,23,36,10,245,18,7*78
$GAGSV,3,3,10,15,07,343,23,21,02,029,,7*7E
$GBGSV,3,1,12,23,66,077,37,32,65,165,37,37,52,208,33,20,49,303,37,1*74
$GBGSV,3,2,12,25,17,051,25,41,13,142,29,38,08,334,26,19,04,315,21,1*76
$GBGSV,3,3,12,46,01,222,,04,01,262,,08,01,341,,44,01,008,,1*71
$GNRMC,184153.000,A,4910.426110,N,12304.400574,W,0.02,0.00,051224,,,D,V*1F
$GNVTG,0.00,T,,M,0.02,N,0.04,K,D*20
$GNGGA,184154.000,4910.426146,N,12304.400658,W,2,33,0.46,13.624,M,-16.816,M,,*7F
$GNGLL,4910.426146,N,12304.400658,W,184154.000,A,D*59
$GNGSA,A,3,09,04,16,07,26,03,11,20,06,30,27,31,0.73,0.46,0.57,1*0F
$GNGSA,A,3,78,68,69,79,67,85,,,,,,,0.73,0.46,0.57,2*0A
$GNGSA,A,3,09,06,31,04,05,34,24,36,,,,,0.73,0.46,0.57,3*0F
$GNGSA,A,3,23,32,37,20,25,41,38,,,,,,0.73,0.46,0.57,4*0F
$GPGSV,4,1,13,09,79,304,38,04,68,104,34,16,47,076,34,07,47,248,33,1*68
$GPGSV,4,2,13,48,33,182,31,26,24,048,27,03,20,174,28,11,14,303,25,1*65
$GPGSV,4,3,13,20,14,323,25,06,11,265,21,30,11,247,28,27,07,111,25,1*6B
$GPGSV,4,4,13,31,06,065,15,1*55
$GLGSV,2,1,07,78,79,088,18,68,75,114,31,69,48,320,27,79,38,204,25,1*7D
$GLGSV,2,2,07,67,24,132,20,85,11,326,20,86,05,016,,1*4E
$GAGSV,3,1,10,09,84,333,33,06,68,102,32,31,50,141,29,04,41,107,28,7*79
$GAGSV,3,2,10,05,30,294,27,34,18,295,26,24,14,186,23,36,10,245,18,7*78
$GAGSV,3,3,10,15,07,343,23,21,02,029,,7*7E
$GBGSV,3,1,12,23,66,077,37,32,65,165,37,37,52,208,33,20,49,303,37,1*74
$GBGSV,3,2,12,25,17,051,25,41,13,142,29,38,08,334,26,19,04,315,21,1*76
$GBGSV,3,3,12,46,01,222,,04,01,262,,08,01,341,,44,01,008,,1*71
$GNRMC,184154.000,A,4910.426146,N,12304.400658,W,0.02,0.00,051224,,,D,V*16
$GNVTG,0.00,T,,M,0.02,N,0.04,K,D*20
$GNGGA,184155.000,4910.426212,N,12304.400682,W,2,33,0.46,13.370,M,-16.816,M,,*7F
$GNGLL,4910.426212,N,12304.400682,W,184155.000,A,D*5D
$GNGSA,A,3,09,04,16,07,26,03,11,20,06,30,27,31,0.73,0.46,0.57,1*0F
$GNGSA,A,3,78,68,69,79,67,85,,,,,,,0.73,0.46,0.57,2*0A
$GNGSA,A,3,09,06,31,04,05,34,24,36,,,,,0.73,0.46,0.57,3*0F
$GNGSA,A,3,23,32,37,20,25,41,38,,,,,,0.73,0.46,0.57,4*0F
$GPGSV,4,1,13,09,79,304,38,04,68,104,35,16,47,076,34,07,47,248,33,1*69
$GPGSV,4,2,13,48,33,182,31,26,24,048,28,03,20,174,28,11,14,303,26,1*69
$GPGSV,4,3,13,20,14,323,26,06,11,265,23,30,11,247,28,27,07,111,25,1*6A
$GPGSV,4,4,13,31,06,065,15,1*55
$GLGSV,2,1,06,78,79,088,18,68,75,114,31,69,48,320,27,79,38,204,26,1*7F
$GLGSV,2,2,06,67,24,132,20,85,11,326,20,1*73
$GAGSV,3,1,10,09,84,333,33,06,68,102,33,31,50,141,29,04,41,107,29,7*79
$GAGSV,3,2,10,05,30,294,28,34,18,295,26,24,14,186,24,36,10,245,19,7*71
$GAGSV,3,3,10,15,07,343,23,21,02,029,,7*7E
$GBGSV,3,1,12,23,66,077,37,32,65,165,37,37,52,208,33,20,49,303,37,1*74
$GBGSV,3,2,12,25,17,051,25,41,13,142,29,38,08,334,26,19,04,315,21,1*76
$GBGSV,3,3,12,46,01,222,,04,01,262,,08,01,341,,44,01,008,,1*71
$GNRMC,184155.000,A,4910.426212,N,12304.400682,W,0.02,0.00,051224,,,D,V*12
$GNVTG,0.00,T,,M,0.02,N,0.03,K,D*27
$GNGGA,184156.000,4910.426266,N,12304.400640,W,2,33,0.46,13.223,M,-16.816,M,,*76
$GNGLL,4910.426266,N,12304.400640,W,184156.000,A,D*53
$GNGSA,A,3,09,04,16,07,26,03,11,20,06,30,27,31,0.73,0.46,0.57,1*0F
$GNGSA,A,3,78,68,69,79,67,85,,,,,,,0.73,0.46,0.57,2*0A
$GNGSA,A,3,09,06,31,04,05,34,24,36,,,,,0.73,0.46,0.57,3*0F
$GNGSA,A,3,23,32,37,20,25,41,38,,,,,,0.73,0.46,0.57,4*0F
$GPGSV,4,1,13,09,79,304,38,04,68,104,35,16,47,076,34,07,47,248,33,1*69
$GPGSV,4,2,13,48,33,182,31,26,24,048,28,03,20,174,29,11,14,303,25,1*6B
$GPGSV,4,3,13,20,14,323,25,06,11,265,23,30,11,247,28,27,07,111,24,1*68
$GPGSV,4,4,13,31,06,065,17,1*57
$GLGSV,2,1,07,78,79,088,18,68,75,114,31,69,48,320,28,79,38,204,26,1*71
$GLGSV,2,2,07,67,24,132,20,85,11,326,19,86,05,016,,1*44
$GAGSV,3,1,10,09,84,333,33,06,68,102,33,31,50,141,29,04,41,107,29,7*79
$GAGSV,3,2,10,05,30,294,28,34,18,295,26,24,14,186,24,36,10,245,19,7*71
$GAGSV,3,3,10,15,07,343,23,21,02,029,,7*7E
$GBGSV,3,1,12,23,66,077,37,32,65,165,37,37,52,208,33,20,49,303,37,1*74
$GBGSV,3,2,12,25,17,051,25,41,13,142,29,38,08,334,26,19,04,315,21,1*76
$GBGSV,3,3,12,46,01,222,,04,01,262,,08,01,341,,44,01,008,,1*71
$GNRMC,184156.000,A,4910.426266,N,12304.400640,W,0.02,0.00,051224,,,D,V*1C
$GNVTG,0.00,T,,M,0.02,N,0.03,K,D*27
$GNGGA,184157.000,4910.426338,N,12304.400532,W,2,33,0.46,13.075,M,-16.816,M,,*7A
$GNGLL,4910.426338,N,12304.400532,W,184157.000,A,D*5E
$GNGSA,A,3,09,04,16,07,26,03,11,20,06,30,27,31,0.73,0.46,0.57,1*0F
$GNGSA,A,3,78,68,69,79,67,85,,,,,,,0.73,0.46,0.57,2*0A
$GNGSA,A,3,09,06,31,04,05,34,24,36,,,,,0.73,0.46,0.57,3*0F
$GNGSA,A,3,23,32,37,20,25,41,38,,,,,,0.73,0.46,0.57,4*0F
$GPGSV,4,1,13,09,79,304,39,04,68,104,35,16,47,076,34,07,47,248,33,1*68
$GPGSV,4,2,13,48,33,182,31,26,24,048,28,03,20,174,29,11,14,303,26,1*68
$GPGSV,4,3,13,20,14,323,26,06,11,265,23,30,11,247,28,27,07,111,25,1*6A
$GPGSV,4,4,13,31,06,065,16,1*56
$GLGSV,2,1,07,78,79,088,17,68,75,114,31,69,48,320,28,79,38,204,26,1*7E
$GLGSV,2,2,07,67,24,132,20,85,11,326,19,86,05,016,,1*44
$GAGSV,3,1,10,09,84,333,33,06,68,102,33,31,50,141,30,04,41,107,29,7*71
$GAGSV,3,2,10,05,30,294,28,34,18,295,26,24,14,186,24,36,10,245,20,7*7B
$GAGSV,3,3,10,15,07,343,23,21,02,029,,7*7E
$GBGSV,3,1,12,23,66,077,37,32,65,165,37,37,52,208,33,20,49,303,37,1*74
$GBGSV,3,2,12,25,17,051,25,41,13,142,29,38,08,334,26,19,04,315,21,1*76
$GBGSV,3,3,12,46,01,222,,04,01,262,,08,01,341,,44,01,008,,1*71
$GNRMC,184157.000,A,4910.426338,N,12304.400532,W,0.01,0.00,051224,,,D,V*12
$GNVTG,0.00,T,,M,0.01,N,0.03,K,D*24
$GNGGA,184158.000,4910.426410,N,12304.400508,W,2,33,0.46,12.979,M,-16.816,M,,*75
$GNGLL,4910.426410,N,12304.400508,W,184158.000,A,D*55
$GNGSA,A,3,09,04,16,07,26,03,11,20,06,30,27,31,0.73,0.46,0.57,1*0F
$GNGSA,A,3,78,68,69,79,67,85,,,,,,,0.73,0.46,0.57,2*0A
$GNGSA,A,3,09,06,31,04,05,34,24,36,,,,,0.73,0.46,0.57,3*0F
$GNGSA,A,3,23,32,37,20,25,41,38,,,,,,0.73,0.46,0.57,4*0F
$GPGSV,4,1,13,09,79,304,39,04,68,104,35,16,47,076,34,07,47,248,33,1*68
$GPGSV,4,2,13,48,33,182,31,26,24,048,28,03,20,174,29,11,14,303,25,1*6B
$GPGSV,4,3,13,20,14,323,25,06,11,265,23,30,11,247,28,27,07,111,25,1*69
$GPGSV,4,4,13,31,06,065,16,1*56
$GLGSV,2,1,07,78,79,088,17,68,75,114,31,69,48,320,28,79,38,204,26,1*7E
$GLGSV,2,2,07,67,24,132,20,85,11,326,19,86,05,016,,1*44
$GAGSV,3,1,10,09,84,333,33,06,68,102,33,31,50,141,30,04,41,107,29,7*71
$GAGSV,3,2,10,05,30,294,27,34,18,295,26,24,14,186,24,36,10,245,21,7*75
$GAGSV,3,3,10,15,07,343,23,21,02,029,,7*7E
$GBGSV,3,1,12,23,66,077,37,32,65,165,37,37,52,208,33,20,49,303,37,1*74
$GBGSV,3,2,12,25,17,051,25,41,13,142,29,38,08,334,26,19,04,315,21,1*76
$GBGSV,3,3,12,46,01,222,,04,01,262,,08,01,341,,44,01,008,,1*71
$GNRMC,184158.000,A,4910.426410,N,12304.400508,W,0.02,0.00,051224,,,D,V*1A
$GNVTG,0.00,T,,M,0.02,N,0.03,K,D*27
$GNGGA,184159.000,4910.426470,N,12304.400484,W,2,33,0.46,12.838,M,-16.816,M,,*73
$GNGLL,4910.426470,N,12304.400484,W,184159.000,A,D*57
$GNGSA,A,3,09,04,16,07,26,03,11,20,06,30,27,31,0.73,0.46,0.57,1*0F
$GNGSA,A,3,78,68,69,79,67,85,,,,,,,0.73,0.46,0.57,2*0A
$GNGSA,A,3,09,06,31,04,05,34,24,36,,,,,0.73,0.46,0.57,3*0F
$GNGSA,A,3,23,32,37,20,25,41,38,,,,,,0.73,0.46,0.57,4*0F
$GPGSV,4,1,13,09,79,304,39,04,68,104,35,16,47,076,34,07,47,248,33,1*68
$GPGSV,4,2,13,48,33,182,31,26,24,048,28,03,20,174,29,11,14,303,24,1*6A
$GPGSV,4,3,13,20,14,323,25,06,11,265,23,30,11,247,28,27,07,111,24,1*68
$GPGSV,4,4,13,31,06,065,17,1*57
$GLGSV,2,1,07,78,79,088,17,68,75,114,31,69,48,320,27,79,38,204,26,1*71
$GLGSV,2,2,07,67,24,132,20,85,11,326,19,86,05,016,,1*44
$GAGSV,3,1,10,09,84,333,33,06,68,102,33,31,50,141,30,04,41,107,29,7*71
$GAGSV,3,2,10,05,30,294,27,34,18,295,26,24,14,186,23,36,10,245,21,7*72
$GAGSV,3,3,10,15,07,343,23,21,02,029,,7*7E
$GBGSV,3,1,12,23,66,077,37,32,65,165,37,37,52,208,33,20,49,303,37,1*74
$GBGSV,3,2,12,25,17,051,25,41,13,142,29,38,08,334,26,19,04,315,21,1*76
$GBGSV,3,3,12,46,01,222,,04,01,262,,08,01,341,,44,01,008,,1*71
$GNRMC,184159.000,A,4910.426470,N,12304.400484,W,0.02,0.00,051224,,,D,V*18
$GNVTG,0.00,T,,M,0.02,N,0.03,K,D*27
$GNGGA,184200.000,4910.426518,N,12304.400520,W,2,33,0.46,12.777,M,-16.816,M,,*78
$GNGLL,4910.426518,N,12304.400520,W,184200.000,A,D*58
$GNGSA,A,3,09,04,16,07,26,03,11,20,06,30,27,31,0.73,0.46,0.57,1*0F
$GNGSA,A,3,78,68,69,79,67,85,,,,,,,0.73,0.46,0.57,2*0A
$GNGSA,A,3,09,06,31,04,05,34,24,36,,,,,0.73,0.46,0.57,3*0F
$GNGSA,A,3,23,32,37,20,25,41,38,,,,,,0.73,0.46,0.57,4*0F
$GPGSV,4,1,13,09,79,304,39,04,68,104,35,16,47,076,33,07,47,248,33,1*6F
$GPGSV,4,2,13,48,33,182,31,26,24,048,28,03,20,174,29,11,14,303,25,1*6B
$GPGSV,4,3,13,20,14,323,25,06,11,265,23,30,11,247,28,27,07,111,24,1*68
$GPGSV,4,4,13,31,06,065,17,1*57
$GLGSV,2,1,07,78,79,088,17,68,75,114,31,69,48,320,27,79,38,204,26,1*71
$GLGSV,2,2,07,67,24,132,20,85,11,326,19,86,05,016,,1*44
$GAGSV,3,1,10,09,84,333,33,06,68,102,33,31,50,141,30,04,41,107,29,7*71
$GAGSV,3,2,10,05,30,294,27,34,18,295,26,24,14,186,23,36,10,245,21,7*72
$GAGSV,3,3,10,15,07,343,23,21,02,029,,7*7E
$GBGSV,3,1,12,23,66,077,37,32,65,165,37,37,52,208,33,20,49,303,37,1*74
$GBGSV,3,2,12,25,17,051,25,41,13,142,29,38,08,334,26,19,04,315,21,1*76
$GBGSV,3,3,12,46,01,222,,04,01,262,,08,01,341,,44,01,008,,1*71
$GNRMC,184200.000,A,4910.426518,N,12304.400520,W,0.02,0.00,051224,,,D,V*17
$GNVTG,0.00,T,,M,0.02,N,0.03,K,D*27
$GNGGA,184201.000,4910.426590,N,12304.400454,W,2,33,0.46,12.656,M,-16.816,M,,*79
$GNGLL,4910.426590,N,12304.400454,W,184201.000,A,D*5B
$GNGSA,A,3,09,04,16,07,26,03,11,20,06,30,27,31,0.73,0.46,0.57,1*0F
$GNGSA,A,3,78,68,69,79,67,85,,,,,,,0.73,0.46,0.57,2*0A
$GNGSA,A,3,09,06,31,04,05,34,24,36,,,,,0.73,0.46,0.57,3*0F
$GNGSA,A,3,23,32,37,20,25,41,38,,,,,,0.73,0.46,0.57,4*0F
$GPGSV,4,1,13,09,79,304,38,04,68,104,35,16,47,076,33,07,47,248,33,1*6E
$GPGSV,4,2,13,48,33,182,31,26,24,048,27,03,20,174,29,11,14,303,24,1*65
$GPGSV,4,3,13,20,14,323,24,06,11,265,23,30,11,247,28,27,07,111,23,1*6E
$GPGSV,4,4,13,31,06,065,17,1*57
$GLGSV,2,1,07,78,79,088,17,68,75,114,31,69,48,320,27,79,38,204,26,1*71
$GLGSV,2,2,07,67,24,132,20,85,11,326,19,86,05,016,,1*44
$GAGSV,3,1,10,09,84,333,33,06,68,102,33,31,50,141,30,04,41,107,28,7*70
$GAGSV,3,2,10,05,30,294,27,34,18,295,26,24,14,186,23,36,10,245,20,7*73
$GAGSV,3,3,10,15,07,343,22,21,02,029,,7*7F
$GBGSV,3,1,12,23,66,077,37,32,65,165,37,37,52,208,33,20,49,303,37,1*74
$GBGSV,3,2,12,25,17,051,25,41,13,142,29,38,08,334,26,19,04,315,21,1*76
$GBGSV,3,3,12,46,01,222,,04,01,262,,08,01,341,,44,01,008,,1*71
$GNRMC,184201.000,A,4910.426590,N,12304.400454,W,0.02,0.00,051224,,,D,V*14
$GNVTG,0.00,T,,M,0.02,N,0.04,K,D*20
$GNGGA,184202.000,4910.426656,N,12304.400394,W,2,33,0.46,12.550,M,-16.817,M,,*7C
$GNGLL,4910.426656,N,12304.400394,W,184202.000,A,D*5A
$GNGSA,A,3,09,04,16,07,26,03,11,20,06,30,27,31,0.73,0.46,0.57,1*0F
$GNGSA,A,3,78,68,69,79,67,85,,,,,,,0.73,0.46,0.57,2*0A
$GNGSA,A,3,09,06,31,04,05,34,24,36,,,,,0.73,0.46,0.57,3*0F
$GNGSA,A,3,23,32,37,20,25,41,38,,,,,,0.73,0.46,0.57,4*0F
$GPGSV,4,1,13,09,79,304,38,04,68,104,35,16,47,076,33,07,47,248,33,1*6E
$GPGSV,4,2,13,48,33,182,31,26,24,048,27,03,20,174,29,11,14,303,24,1*65
$GPGSV,4,3,13,20,14,323,24,06,11,265,23,30,11,247,28,27,07,111,24,1*69
$GPGSV,4,4,13,31,06,065,16,1*56
$GLGSV,2,1,07,78,79,088,17,68,75,114,31,69,48,320,27,79,38,204,26,1*71
$GLGSV,2,2,07,67,24,132,21,85,11,326,19,86,05,016,,1*45
$GAGSV,3,1,10,09,84,333,33,06,68,102,33,31,50,141,30,04,41,107,28,7*70
$GAGSV,3,2,10,05,30,294,27,34,18,295,26,24,14,186,23,36,10,245,20,7*73
$GAGSV,3,3,10,15,07,343,22,21,02,029,,7*7F
$GBGSV,3,1,12,23,66,077,37,32,65,165,37,37,52,208,33,20,49,303,37,1*74
$GBGSV,3,2,12,25,17,051,25,41,13,142,29,38,08,334,26,19,04,315,21,1*76
$GBGSV,3,3,12,46,01,222,,04,01,262,,08,01,341,,44,01,008,,1*71
$GNRMC,184202.000,A,4910.426656,N,12304.400394,W,0.02,0.00,051224,,,D,V*15
$GNVTG,0.00,T,,M,0.02,N,0.04,K,D*20
$GNGGA,184203.000,4910.426668,N,12304.400448,W,2,33,0.46,12.469,M,-16.817,M,,*7D
$GNGLL,4910.426668,N,12304.400448,W,184203.000,A,D*50
