$GNGGA,235131.000,4910.426944,N,12304.400076,W,2,33,0.42,5.896,M,-16.817,M,,*40
$GNGLL,4910.426944,N,12304.400076,W,235131.000,A,D*53
$GNGSA,A,3,17,19,14,24,13,15,02,30,06,21,,,0.82,0.42,0.70,1*05
$GNGSA,A,3,88,79,87,69,81,,,,,,,,0.82,0.42,0.70,2*0E
$GNGSA,A,3,02,25,08,11,07,30,36,10,03,,,,0.82,0.42,0.70,3*06
$GNGSA,A,3,45,29,30,36,26,35,42,14,33,,,,0.82,0.42,0.70,4*02
$GPGSV,4,1,13,17,73,093,34,19,61,190,32,14,48,082,33,24,36,304,29,1*66
$GPGSV,4,2,13,46,33,187,30,13,28,214,27,15,24,253,28,02,21,043,25,1*68
$GPGSV,4,3,13,30,16,142,26,06,10,159,21,21,07,029,20,12,06,269,,1*6A
$GPGSV,4,4,13,10,01,338,,1*5E
$GLGSV,2,1,07,78,69,060,,88,57,118,30,79,43,308,32,87,30,034,22,1*7B
$GLGSV,2,2,07,69,25,276,27,81,20,174,21,77,15,104,,1*4A
$GAGSV,3,1,10,02,80,316,34,25,40,080,29,08,36,239,28,11,33,074,25,7*72
$GAGSV,3,2,10,07,29,303,28,30,28,272,24,36,25,130,22,10,23,044,25,7*7A
$GAGSV,3,3,10,12,10,025,18,03,09,193,22,7*7F
$GBGSV,3,1,12,45,88,086,33,29,57,141,33,30,36,055,29,36,35,114,29,1*74
$GBGSV,3,2,12,26,34,297,27,35,14,194,29,42,13,292,26,14,11,317,23,1*72
$GBGSV,3,3,12,50,10,268,19,57,09,028,,33,05,342,17,21,04,246,20,1*77
$GNRMC,235131.000,A,4910.426944,N,12304.400076,W,0.01,58.05,181224,,,D,V*2B
$GNVTG,58.05,T,,M,0.01,N,0.03,K,D*1C
$PAIRLOG,Full*51
$GNGGA,235132.000,4910.426956,N,12304.400160,W,2,33,0.42,6.017,M,-16.816,M,,*45
$GNGLL,4910.426956,N,12304.400160,W,235132.000,A,D*55
$GNGSA,A,3,17,19,14,24,13,15,02,30,06,21,,,0.82,0.42,0.70,1*05
$GNGSA,A,3,88,79,87,69,81,,,,,,,,0.82,0.42,0.70,2*0E
$GNGSA,A,3,02,25,08,11,07,30,36,10,03,,,,0.82,0.42,0.70,3*06
$GNGSA,A,3,45,29,30,36,26,35,42,14,33,,,,0.82,0.42,0.70,4*02
$GPGSV,4,1,13,17,73,093,34,19,61,190,32,14,48,082,33,24,36,304,29,1*66
$GPGSV,4,2,13,46,33,187,30,13,28,214,27,15,24,253,28,02,21,043,25,1*68
$GPGSV,4,3,13,30,16,142,26,06,10,159,21,21,07,029,20,12,06,269,,1*6A
$GPGSV,4,4,13,10,01,338,,1*5E
$GLGSV,2,1,07,78,69,060,,88,57,118,31,79,43,308,32,87,30,034,23,1*7B
$GLGSV,2,2,07,69,25,276,27,81,20,174,20,77,15,104,,1*4B
$GAGSV,3,1,10,02,80,316,34,25,40,080,29,08,36,239,28,11,33,074,25,7*72
$GAGSV,3,2,10,07,29,303,28,30,28,272,24,36,25,130,23,10,23,044,25,7*7B
$GAGSV,3,3,10,12,10,025,18,03,09,193,22,7*7F
$GBGSV,3,1,12,45,88,086,32,29,57,141,32,30,36,055,28,36,35,114,28,1*74
$GBGSV,3,2,12,26,34,297,27,35,14,194,28,42,13,292,25,14,11,317,23,1*70
$GBGSV,3,3,12,50,10,268,19,57,09,028,,33,05,342,16,21,04,246,20,1*76
$GNRMC,235132.000,A,4910.426956,N,12304.400160,W,0.01,58.05,181224,,,D,V*2D
$GNVTG,58.05,T,,M,0.01,N,0.03,K,D*1C
$PAIRLOG,Full*51
$GNGGA,235133.000,4910.426986,N,12304.400208,W,2,33,0.42,6.238,M,-16.816,M,,*4B
$GNGLL,4910.426986,N,12304.400208,W,235133.000,A,D*54
$GNGSA,A,3,17,19,14,24,13,15,02,30,06,21,,,0.82,0.42,0.70,1*05
$GNGSA,A,3,88,79,87,69,81,,,,,,,,0.82,0.42,0.70,2*0E
$GNGSA,A,3,02,25,08,11,07,30,36,10,03,,,,0.82,0.42,0.70,3*06
$GNGSA,A,3,45,29,30,36,26,35,42,14,33,,,,0.82,0.42,0.70,4*02
$GPGSV,4,1,13,17,73,093,34,19,61,190,32,14,48,082,33,24,36,304,29,1*66
$GPGSV,4,2,13,46,33,187,31,13,28,214,28,15,24,253,28,02,21,043,25,1*66
$GPGSV,4,3,13,30,16,142,26,06,10,159,22,21,07,029,20,12,06,269,,1*69
$GPGSV,4,4,13,10,01,338,,1*5E
$GLGSV,2,1,06,78,69,060,,88,57,118,31,79,43,308,31,87,30,034,24,1*7E
$GLGSV,2,2,06,69,25,276,26,81,20,174,20,1*7A
$GAGSV,3,1,10,02,80,316,34,25,40,080,29,08,36,239,28,11,33,074,26,7*71
$GAGSV,3,2,10,07,29,303,28,30,28,272,24,36,25,130,23,10,23,044,25,7*7B
$GAGSV,3,3,10,12,10,025,18,03,09,193,23,7*7E
$GBGSV,3,1,12,45,88,086,32,29,57,141,32,30,36,055,28,36,35,114,29,1*75
$GBGSV,3,2,12,26,34,297,27,35,14,194,28,42,13,292,25,14,11,317,23,1*70
$GBGSV,3,3,12,50,10,268,19,57,09,028,,33,05,342,16,21,04,246,20,1*76
$GNRMC,235133.000,A,4910.426986,N,12304.400208,W,0.01,58.05,181224,,,D,V*2C
$GNVTG,58.05,T,,M,0.01,N,0.02,K,D*1D
$PAIRLOG,Full*51
$GNGGA,235134.000,4910.426962,N,12304.400256,W,2,33,0.42,6.370,M,-16.816,M,,*40
$GNGLL,4910.426962,N,12304.400256,W,235134.000,A,D*52
$GNGSA,A,3,17,19,14,24,13,15,02,30,06,21,,,0.82,0.42,0.70,1*05
$GNGSA,A,3,88,79,87,69,81,,,,,,,,0.82,0.42,0.70,2*0E
$GNGSA,A,3,02,25,08,11,07,30,36,10,03,,,,0.82,0.42,0.70,3*06
$GNGSA,A,3,45,29,30,36,26,35,42,14,33,,,,0.82,0.42,0.70,4*02
$GPGSV,4,1,13,17,73,093,34,19,61,190,32,14,48,082,32,24,36,304,29,1*67
$GPGSV,4,2,13,46,33,187,30,13,28,214,27,15,24,253,28,02,21,043,25,1*68
$GPGSV,4,3,13,30,16,142,26,06,10,159,22,21,07,029,20,12,06,269,,1*69
$GPGSV,4,4,13,10,01,338,,1*5E
$GLGSV,2,1,07,78,69,060,,88,57,118,31,79,43,308,32,87,30,034,24,1*7C
$GLGSV,2,2,07,69,25,276,27,81,20,174,20,70,15,341,,1*4F
$GAGSV,3,1,10,02,80,316,34,25,40,080,29,08,36,239,28,11,33,074,26,7*71
$GAGSV,3,2,10,07,29,303,28,30,28,272,24,36,25,130,23,10,23,044,25,7*7B
$GAGSV,3,3,10,12,10,025,19,03,09,193,23,7*7F
$GBGSV,3,1,12,45,88,086,33,29,58,140,32,30,36,055,28,36,35,114,29,1*7A
$GBGSV,3,2,12,26,34,297,27,35,14,194,28,42,13,292,25,14,11,317,23,1*70
$GBGSV,3,3,12,50,10,268,19,57,09,028,,33,05,342,16,21,04,246,19,1*7C
$GNRMC,235134.000,A,4910.426962,N,12304.400256,W,0.01,58.05,181224,,,D,V*2A
$GNVTG,58.05,T,,M,0.01,N,0.02,K,D*1D
$PAIRLOG,Full*51
$GNGGA,235135.000,4910.426962,N,12304.400388,W,2,33,0.42,6.388,M,-16.816,M,,*44
$GNGLL,4910.426962,N,12304.400388,W,235135.000,A,D*51
$GNGSA,A,3,17,19,14,24,13,15,02,30,06,21,,,0.82,0.42,0.70,1*05
$GNGSA,A,3,88,79,87,69,81,,,,,,,,0.82,0.42,0.70,2*0E
$GNGSA,A,3,02,25,08,11,07,30,36,10,03,,,,0.82,0.42,0.70,3*06
$GNGSA,A,3,45,29,30,36,26,35,42,14,33,,,,0.82,0.42,0.70,4*02
$GPGSV,4,1,13,17,73,093,34,19,61,190,32,14,48,082,32,24,36,304,29,1*67
$GPGSV,4,2,13,46,33,187,30,13,28,214,27,15,24,253,28,02,21,043,26,1*6B
$GPGSV,4,3,13,30,16,142,26,06,10,159,22,21,07,029,20,12,06,269,,1*69
$GPGSV,4,4,13,10,01,338,,1*5E
$GLGSV,2,1,07,78,69,060,,88,57,118,31,79,43,308,33,87,30,034,24,1*7D
$GLGSV,2,2,07,69,25,276,28,81,20,174,20,70,15,341,,1*40
$GAGSV,3,1,10,02,80,316,34,25,40,080,29,08,36,239,28,11,33,074,26,7*71
$GAGSV,3,2,10,07,29,303,29,30,28,272,24,36,25,130,24,10,23,044,25,7*7D
$GAGSV,3,3,10,12,10,025,19,03,09,193,23,7*7F
$GBGSV,3,1,12,45,88,086,33,29,58,140,32,30,35,054,28,36,35,114,29,1*78
$GBGSV,3,2,12,26,34,297,27,35,14,194,28,42,13,292,25,14,11,317,23,1*70
$GBGSV,3,3,12,50,10,268,19,57,09,028,,33,05,342,15,21,04,246,19,1*7F
$GNRMC,235135.000,A,4910.426962,N,12304.400388,W,0.02,58.05,181224,,,D,V*2A
$GNVTG,58.05,T,,M,0.02,N,0.03,K,D*1F
$PAIRLOG,Full*51
$GNGGA,235136.000,4910.426968,N,12304.400472,W,2,33,0.42,6.428,M,-16.816,M,,*42
$GNGLL,4910.426968,N,12304.400472,W,235136.000,A,D*5A
$GNGSA,A,3,17,19,14,24,13,15,02,30,06,21,,,0.82,0.42,0.70,1*05
$GNGSA,A,3,88,79,87,69,81,,,,,,,,0.82,0.42,0.70,2*0E
$GNGSA,A,3,02,25,08,11,07,30,36,10,03,,,,0.82,0.42,0.70,3*06
$GNGSA,A,3,45,29,30,36,26,35,42,14,33,,,,0.82,0.42,0.70,4*02
$GPGSV,4,1,13,17,73,093,34,19,61,190,32,14,48,082,33,24,36,304,30,1*6E
$GPGSV,4,2,13,46,33,187,30,13,28,214,27,15,24,253,28,02,21,043,26,1*6B
$GPGSV,4,3,13,30,16,142,26,06,10,159,22,21,07,029,20,12,06,269,,1*69
$GPGSV,4,4,13,10,01,338,,1*5E
$GLGSV,2,1,07,78,69,060,,88,57,118,31,79,43,308,32,87,30,034,24,1*7C
$GLGSV,2,2,07,69,25,276,28,81,20,174,19,70,15,341,,1*4A
$GAGSV,3,1,10,02,80,316,34,25,40,080,29,08,36,239,28,11,33,074,26,7*71
$GAGSV,3,2,10,07,29,303,29,30,28,272,24,36,25,130,25,10,23,044,25,7*7C
$GAGSV,3,3,10,12,10,025,19,03,09,193,22,7*7E
$GBGSV,3,1,12,45,88,086,33,29,58,140,32,30,35,054,28,36,35,114,29,1*78
$GBGSV,3,2,12,26,34,297,27,35,14,194,28,42,13,292,25,14,11,317,23,1*70
$GBGSV,3,3,12,50,10,268,19,57,09,028,,33,05,342,16,21,04,246,19,1*7C
$GNRMC,235136.000,A,4910.426968,N,12304.400472,W,0.02,58.05,181224,,,D,V*21
$GNVTG,58.05,T,,M,0.02,N,0.04,K,D*18
$PAIRLOG,Full*51
$GNGGA,235137.000,4910.426962,N,12304.400520,W,2,33,0.42,6.348,M,-16.816,M,,*4E
$GNGLL,4910.426962,N,12304.400520,W,235137.000,A,D*57
$GNGSA,A,3,17,19,14,24,13,15,02,30,06,21,,,0.82,0.42,0.70,1*05
$GNGSA,A,3,88,79,87,69,81,,,,,,,,0.82,0.42,0.70,2*0E
$GNGSA,A,3,02,25,08,11,07,30,36,10,03,,,,0.82,0.42,0.70,3*06
$GNGSA,A,3,45,29,30,36,26,35,42,14,33,,,,0.82,0.42,0.70,4*02
$GPGSV,4,1,13,17,73,093,35,19,61,190,33,14,48,082,34,24,36,304,31,1*68
$GPGSV,4,2,13,46,33,187,31,13,28,214,28,15,24,253,29,02,21,043,27,1*65
$GPGSV,4,3,13,30,16,142,26,06,10,159,23,21,07,029,21,12,06,269,,1*69
$GPGSV,4,4,13,10,01,338,,1*5E
$GLGSV,2,1,07,78,69,060,,88,57,118,31,79,43,308,32,87,30,034,24,1*7C
$GLGSV,2,2,07,69,25,276,28,81,20,174,18,70,15,341,,1*4B
$GAGSV,3,1,10,02,80,316,34,25,40,080,29,08,36,239,28,11,33,074,26,7*71
$GAGSV,3,2,10,07,29,303,30,30,28,272,25,36,25,130,25,10,23,044,25,7*75
$GAGSV,3,3,10,12,10,025,19,03,09,193,23,7*7F
$GBGSV,3,1,12,45,88,086,33,29,58,140,32,30,35,054,28,36,35,114,29,1*78
$GBGSV,3,2,12,26,34,297,27,35,14,194,28,42,13,292,25,14,11,317,23,1*70
$GBGSV,3,3,12,50,10,268,19,57,09,028,,33,05,342,16,21,04,246,19,1*7C
$GNRMC,235137.000,A,4910.426962,N,12304.400520,W,0.02,58.05,181224,,,D,V*2C
$GNVTG,58.05,T,,M,0.02,N,0.04,K,D*18
$PAIRLOG,Full*51
$GNGGA,235138.000,4910.426938,N,12304.400598,W,2,33,0.42,6.371,M,-16.816,M,,*47
$GNGLL,4910.426938,N,12304.400598,W,235138.000,A,D*54
$GNGSA,A,3,17,19,14,24,13,15,02,30,06,21,,,0.82,0.42,0.70,1*05
$GNGSA,A,3,88,79,87,69,81,,,,,,,,0.82,0.42,0.70,2*0E
$GNGSA,A,3,02,25,08,11,07,30,36,10,03,,,,0.82,0.42,0.70,3*06
$GNGSA,A,3,45,29,30,36,26,35,42,14,33,,,,0.82,0.42,0.70,4*02
$GPGSV,4,1,13,17,73,093,35,19,61,190,33,14,48,082,34,24,36,304,31,1*68
$GPGSV,4,2,13,46,33,187,31,13,28,214,28,15,24,253,29,02,21,043,27,1*65
$GPGSV,4,3,13,30,16,142,26,06,10,159,23,21,07,029,21,12,06,269,,1*69
$GPGSV,4,4,13,10,01,338,,1*5E
$GLGSV,2,1,07,78,69,060,,88,57,118,31,79,43,308,32,87,30,034,24,1*7C
$GLGSV,2,2,07,69,25,276,28,81,20,174,18,70,15,341,,1*4B
$GAGSV,3,1,10,02,80,316,34,25,40,080,29,08,36,239,28,11,33,074,26,7*71
$GAGSV,3,2,10,07,29,303,30,30,28,272,25,36,25,130,25,10,23,044,25,7*75
$GAGSV,3,3,10,12,10,025,19,03,09,193,23,7*7F
$GBGSV,3,1,12,45,88,086,33,29,58,140,33,30,35,054,29,36,35,114,29,1*78
$GBGSV,3,2,12,26,34,297,27,35,14,194,28,42,13,292,26,14,11,317,23,1*73
$GBGSV,3,3,12,50,10,268,20,57,09,028,,33,06,341,16,21,04,246,20,1*7C
$GNRMC,235138.000,A,4910.426938,N,12304.400598,W,0.02,58.05,181224,,,D,V*2F
$GNVTG,58.05,T,,M,0.02,N,0.03,K,D*1F
$PAIRLOG,Full*51
$GNGGA,235139.000,4910.426896,N,12304.400646,W,2,33,0.42,6.413,M,-16.816,M,,*40
$GNGLL,4910.426896,N,12304.400646,W,235139.000,A,D*50
$GNGSA,A,3,17,19,14,24,13,15,02,30,06,21,,,0.82,0.42,0.70,1*05
$GNGSA,A,3,88,79,87,69,81,,,,,,,,0.82,0.42,0.70,2*0E
$GNGSA,A,3,02,25,08,11,07,30,36,10,03,,,,0.82,0.42,0.70,3*06
$GNGSA,A,3,45,29,30,36,26,35,42,14,33,,,,0.82,0.42,0.70,4*02
$GPGSV,4,1,13,17,73,093,35,19,61,190,33,14,48,082,34,24,36,304,31,1*68
$GPGSV,4,2,13,46,33,187,31,13,28,214,29,15,24,253,29,02,21,043,28,1*6B
$GPGSV,4,3,13,30,16,142,26,06,10,159,24,21,07,029,21,12,06,269,,1*6E
$GPGSV,4,4,13,10,01,338,,1*5E
$GLGSV,2,1,07,78,69,060,,88,57,118,31,79,43,308,32,87,30,034,24,1*7C
$GLGSV,2,2,07,69,25,276,27,81,20,174,18,70,15,341,,1*44
$GAGSV,3,1,10,02,80,316,34,25,40,080,29,08,36,239,29,11,33,074,26,7*70
$GAGSV,3,2,10,07,29,303,30,30,28,272,26,36,25,130,25,10,23,044,25,7*76
$GAGSV,3,3,10,12,10,025,19,03,09,193,23,7*7F
$GBGSV,3,1,12,45,88,086,32,29,58,140,32,30,35,054,29,36,35,114,29,1*78
$GBGSV,3,2,12,26,34,297,27,35,14,194,28,42,13,292,26,14,11,317,23,1*73
$GBGSV,3,3,12,50,10,268,19,57,09,028,,33,06,341,16,21,04,246,20,1*76
$GNRMC,235139.000,A,4910.426896,N,12304.400646,W,0.02,58.05,181224,,,D,V*2B
$GNVTG,58.05,T,,M,0.02,N,0.03,K,D*1F
$PAIRLOG,Full*51
$GNGGA,235140.000,4910.426866,N,12304.400694,W,2,33,0.42,6.572,M,-16.816,M,,*48
$GNGLL,4910.426866,N,12304.400694,W,235140.000,A,D*5E
$GNGSA,A,3,17,19,14,24,13,15,02,30,06,21,,,0.82,0.42,0.70,1*05
$GNGSA,A,3,88,79,87,69,81,,,,,,,,0.82,0.42,0.70,2*0E
$GNGSA,A,3,02,25,08,11,07,30,36,10,03,,,,0.82,0.42,0.70,3*06
$GNGSA,A,3,45,29,30,36,26,35,42,14,33,,,,0.82,0.42,0.70,4*02
$GPGSV,4,1,13,17,73,093,35,19,61,190,33,14,48,082,34,24,36,304,31,1*68
$GPGSV,4,2,13,46,33,187,31,13,28,214,29,15,24,253,29,02,21,043,28,1*6B
$GPGSV,4,3,13,30,16,142,26,06,10,159,24,21,07,029,21,12,06,269,,1*6E
$GPGSV,4,4,13,10,01,338,,1*5E
$GLGSV,2,1,07,78,69,060,,88,57,118,31,79,43,308,32,87,30,034,24,1*7C
$GLGSV,2,2,07,69,25,276,27,81,20,174,18,70,15,341,,1*44
$GAGSV,3,1,10,02,80,316,34,25,40,080,29,08,36,239,29,11,33,074,26,7*70
$GAGSV,3,2,10,07,29,303,30,30,28,272,26,36,25,130,25,10,23,044,25,7*76
$GAGSV,3,3,10,12,10,025,19,03,09,193,23,7*7F
$GBGSV,3,1,12,45,88,086,32,29,58,140,32,30,35,054,29,36,35,114,29,1*78
$GBGSV,3,2,12,26,34,297,26,35,15,194,28,42,13,292,25,14,11,317,23,1*70
$GBGSV,3,3,12,50,10,268,19,57,09,028,,33,06,341,16,21,04,246,19,1*7C
$GNRMC,235140.000,A,4910.426866,N,12304.400694,W,0.01,58.05,181224,,,D,V*26
$GNVTG,58.05,T,,M,0.01,N,0.02,K,D*1D
$PAIRLOG,Full*51
$GNGGA,235141.000,4910.426800,N,12304.400808,W,2,33,0.42,6.654,M,-16.817,M,,*44
$GNGLL,4910.426800,N,12304.400808,W,235141.000,A,D*54
$GNGSA,A,3,17,19,14,24,13,15,02,30,06,21,,,0.82,0.42,0.70,1*05
$GNGSA,A,3,88,79,87,69,81,,,,,,,,0.82,0.42,0.70,2*0E
$GNGSA,A,3,02,25,08,11,07,30,36,10,03,,,,0.82,0.42,0.70,3*06
$GNGSA,A,3,45,29,30,36,26,35,42,14,33,,,,0.82,0.42,0.70,4*02
$GPGSV,4,1,13,17,73,093,35,19,61,190,33,14,48,082,34,24,36,304,31,1*68
$GPGSV,4,2,13,46,33,187,31,13,28,214,29,15,24,253,29,02,21,043,28,1*6B
$GPGSV,4,3,13,30,16,142,26,06,10,159,24,21,07,029,22,12,06,269,,1*6D
$GPGSV,4,4,13,10,01,338,,1*5E
$GLGSV,2,1,07,78,69,060,,88,57,118,31,79,43,308,31,87,30,034,24,1*7F
$GLGSV,2,2,07,69,25,276,26,81,20,174,19,70,15,341,,1*44
$GAGSV,3,1,10,02,80,316,34,25,40,080,29,08,36,239,29,11,33,074,26,7*70
$GAGSV,3,2,10,07,29,303,30,30,28,272,26,36,25,130,25,10,23,044,25,7*76
$GAGSV,3,3,10,12,10,025,19,03,09,193,23,7*7F
$GBGSV,3,1,12,45,88,086,32,29,58,140,32,30,35,054,28,36,34,115,29,1*79
$GBGSV,3,2,12,26,34,297,26,35,15,194,28,42,13,292,25,14,11,317,23,1*70
$GBGSV,3,3,12,50,10,268,19,57,09,028,,33,06,341,16,21,04,246,19,1*7C
$GNRMC,235141.000,A,4910.426800,N,12304.400808,W,0.01,58.05,181224,,,D,V*2C
$GNVTG,58.05,T,,M,0.01,N,0.03,K,D*1C
$PAIRLOG,Full*51
$GNGGA,235142.000,4910.426776,N,12304.400952,W,2,33,0.42,6.779,M,-16.816,M,,*48
$GNGLL,4910.426776,N,12304.400952,W,235142.000,A,D*57
$GNGSA,A,3,17,19,14,24,13,15,02,30,06,21,,,0.82,0.42,0.70,1*05
$GNGSA,A,3,88,79,87,69,81,,,,,,,,0.82,0.42,0.70,2*0E
$GNGSA,A,3,02,25,08,11,07,30,36,10,03,,,,0.82,0.42,0.70,3*06
$GNGSA,A,3,45,29,30,36,26,35,42,14,33,,,,0.82,0.42,0.70,4*02
$GPGSV,4,1,13,17,73,093,35,19,61,190,33,14,48,082,34,24,36,304,31,1*68
$GPGSV,4,2,13,46,33,187,31,13,28,214,29,15,24,253,29,02,21,043,28,1*6B
$GPGSV,4,3,13,30,16,142,26,06,10,159,24,21,07,029,22,12,06,269,,1*6D
$GPGSV,4,4,13,10,01,338,,1*5E
$GLGSV,2,1,07,78,69,060,,88,57,118,31,79,43,308,31,87,30,034,24,1*7F
$GLGSV,2,2,07,69,25,276,26,81,20,174,20,70,15,341,,1*4E
$GAGSV,3,1,10,02,80,316,34,25,40,080,29,08,36,239,29,11,33,074,26,7*70
$GAGSV,3,2,10,07,29,303,29,30,28,272,26,36,25,130,25,10,23,044,25,7*7E
$GAGSV,3,3,10,12,10,025,19,03,09,193,23,7*7F
$GBGSV,3,1,12,45,88,086,32,29,58,140,32,30,35,054,28,36,34,115,29,1*79
$GBGSV,3,2,12,26,34,297,26,35,15,194,27,42,13,292,25,14,11,317,23,1*7F
$GBGSV,3,3,12,50,10,268,19,57,09,028,,33,06,341,16,21,04,246,19,1*7C
$GNRMC,235142.000,A,4910.426776,N,12304.400952,W,0.02,58.05,181224,,,D,V*2C
$GNVTG,58.05,T,,M,0.02,N,0.03,K,D*1F
$PAIRLOG,Full*51
$GNGGA,235143.000,4910.426710,N,12304.401042,W,2,33,0.42,6.835,M,-16.816,M,,*47
$GNGLL,4910.426710,N,12304.401042,W,235143.000,A,D*5F
$GNGSA,A,3,17,19,14,24,13,15,02,30,06,21,,,0.82,0.42,0.70,1*05
$GNGSA,A,3,88,79,87,69,81,,,,,,,,0.82,0.42,0.70,2*0E
$GNGSA,A,3,02,25,08,11,07,30,36,10,03,,,,0.82,0.42,0.70,3*06
$GNGSA,A,3,45,29,30,36,26,35,42,14,33,,,,0.82,0.42,0.70,4*02
$GPGSV,4,1,13,17,73,093,35,19,61,190,33,14,48,082,33,24,36,304,31,1*6F
$GPGSV,4,2,13,46,33,187,31,13,28,214,28,15,24,253,29,02,21,043,27,1*65
$GPGSV,4,3,13,30,16,142,26,06,10,159,23,21,07,029,21,12,06,269,,1*69
$GPGSV,4,4,13,10,01,338,,1*5E
$GLGSV,2,1,07,78,69,060,,88,57,118,31,79,43,308,30,87,30,034,24,1*7E
$GLGSV,2,2,07,69,25,276,26,81,20,174,20,70,15,341,,1*4E
$GAGSV,3,1,10,02,80,316,34,25,40,080,29,08,36,239,29,11,33,074,26,7*70
$GAGSV,3,2,10,07,29,303,29,30,28,272,26,36,25,130,25,10,23,044,25,7*7E
$GAGSV,3,3,10,12,10,025,19,03,09,193,23,7*7F
$GBGSV,3,1,12,45,88,086,32,29,58,140,32,30,35,054,28,36,34,115,29,1*79
$GBGSV,3,2,12,26,34,297,26,35,15,194,27,42,13,292,25,14,11,317,23,1*7F
$GBGSV,3,3,12,50,10,268,19,57,09,028,,33,06,341,16,21,04,246,19,1*7C
$GNRMC,235143.000,A,4910.426710,N,12304.401042,W,0.02,58.05,181224,,,D,V*24
$GNVTG,58.05,T,,M,0.02,N,0.04,K,D*18
$PAIRLOG,Full*51
$GNGGA,235144.000,4910.426638,N,12304.401222,W,2,33,0.42,6.923,M,-16.817,M,,*48
$GNGLL,4910.426638,N,12304.401222,W,235144.000,A,D*57
$GNGSA,A,3,17,19,14,24,13,15,02,30,06,21,,,0.82,0.42,0.70,1*05
$GNGSA,A,3,88,79,87,69,81,,,,,,,,0.82,0.42,0.70,2*0E
$GNGSA,A,3,02,25,08,11,07,30,36,10,03,,,,0.82,0.42,0.70,3*06
$GNGSA,A,3,45,29,30,36,26,35,42,14,33,,,,0.82,0.42,0.70,4*02
$GPGSV,4,1,13,17,73,093,35,19,61,190,33,14,48,082,33,24,36,304,31,1*6F
$GPGSV,4,2,13,46,33,187,31,13,28,214,28,15,24,253,29,02,21,043,27,1*65
$GPGSV,4,3,13,30,16,142,26,06,10,159,23,21,07,029,21,12,06,269,,1*69
$GPGSV,4,4,13,10,01,338,,1*5E
$GLGSV,2,1,07,78,69,060,,88,57,118,32,79,43,308,30,87,30,034,24,1*7D
$GLGSV,2,2,07,69,25,276,27,81,20,174,20,70,15,341,,1*4F
$GAGSV,3,1,10,02,80,316,34,25,40,080,29,08,36,239,29,11,33,074,26,7*70
$GAGSV,3,2,10,07,29,303,29,30,28,272,26,36,25,130,25,10,23,044,25,7*7E
$GAGSV,3,3,10,12,10,025,19,03,09,193,23,7*7F
$GBGSV,3,1,12,45,88,086,32,29,58,140,31,30,35,054,27,36,34,115,29,1*75
$GBGSV,3,2,12,26,34,297,26,35,15,194,27,42,13,292,25,14,11,317,22,1*7E
$GBGSV,3,3,12,50,10,268,19,57,09,028,,33,06,341,16,21,04,246,19,1*7C
$GNRMC,235144.000,A,4910.426638,N,12304.401222,W,0.03,58.05,181224,,,D,V*2D
$GNVTG,58.05,T,,M,0.03,N,0.05,K,D*18
$PAIRLOG,Full*51
$GNGGA,235145.000,4910.426566,N,12304.401306,W,2,33,0.42,7.064,M,-16.816,M,,*4C
$GNGLL,4910.426566,N,12304.401306,W,235145.000,A,D*59
$GNGSA,A,3,17,19,14,24,13,15,02,30,06,21,,,0.82,0.42,0.70,1*05
$GNGSA,A,3,88,79,87,69,81,,,,,,,,0.82,0.42,0.70,2*0E
$GNGSA,A,3,02,25,08,11,07,30,36,10,03,,,,0.82,0.42,0.70,3*06
$GNGSA,A,3,45,29,30,36,26,35,42,14,33,,,,0.82,0.42,0.70,4*02
$GPGSV,4,1,13,17,73,093,35,19,61,190,33,14,48,082,33,24,36,304,31,1*6F
$GPGSV,4,2,13,46,33,187,31,13,28,214,28,15,24,253,29,02,21,043,27,1*65
$GPGSV,4,3,13,30,16,142,26,06,10,159,23,21,07,029,21,12,06,269,,1*69
$GPGSV,4,4,13,10,01,338,,1*5E
$GLGSV,2,1,07,78,69,060,,88,57,118,33,79,43,308,30,87,30,034,24,1*7C
$GLGSV,2,2,07,69,25,276,28,81,20,174,20,70,15,341,,1*40
$GAGSV,3,1,10,02,80,316,34,25,40,080,29,08,36,239,29,11,33,074,26,7*70
$GAGSV,3,2,10,07,29,303,29,30,28,272,26,36,25,130,25,10,23,044,25,7*7E
$GAGSV,3,3,10,12,10,025,19,03,09,193,23,7*7F
$GBGSV,3,1,12,45,88,086,32,29,58,140,31,30,35,054,27,36,34,115,27,1*7B
$GBGSV,3,2,12,26,34,297,25,35,15,194,26,42,13,292,24,14,11,317,21,1*7E
$GBGSV,3,3,12,50,10,268,18,57,09,028,,33,06,341,16,21,04,246,18,1*7C
$GNRMC,235145.000,A,4910.426566,N,12304.401306,W,0.02,58.05,181224,,,D,V*22
$GNVTG,58.05,T,,M,0.02,N,0.04,K,D*18
$PAIRLOG,Full*51
$GNGGA,235146.000,4910.426566,N,12304.401450,W,2,33,0.42,7.198,M,-16.816,M,,*49
$GNGLL,4910.426566,N,12304.401450,W,235146.000,A,D*5E
$GNGSA,A,3,17,19,14,24,13,15,02,30,06,21,,,0.82,0.42,0.70,1*05
$GNGSA,A,3,88,79,87,69,81,,,,,,,,0.82,0.42,0.70,2*0E
$GNGSA,A,3,02,25,08,11,07,30,36,10,03,,,,0.82,0.42,0.70,3*06
$GNGSA,A,3,45,29,30,36,26,35,42,14,33,,,,0.82,0.42,0.70,4*02
$GPGSV,4,1,13,17,73,093,35,19,61,190,33,14,48,082,34,24,36,304,31,1*68
$GPGSV,4,2,13,46,33,187,32,13,28,214,29,15,24,253,29,02,21,043,28,1*68
$GPGSV,4,3,13,30,16,142,26,06,10,159,23,21,07,029,21,12,06,269,,1*69
$GPGSV,4,4,13,10,01,338,,1*5E
$GLGSV,2,1,07,78,69,060,,88,57,118,34,79,43,308,30,87,30,034,24,1*7B
$GLGSV,2,2,07,69,25,276,28,81,20,174,21,70,15,341,,1*41
$GAGSV,3,1,10,02,80,316,34,25,40,080,29,08,36,239,29,11,33,074,26,7*70
$GAGSV,3,2,10,07,29,303,29,30,28,272,26,36,25,130,25,10,23,044,25,7*7E
$GAGSV,3,3,10,12,10,025,19,03,09,193,23,7*7F
$GBGSV,3,1,12,45,88,086,31,29,58,140,30,30,35,054,26,36,34,115,25,1*7A
$GBGSV,3,2,12,26,34,297,24,35,15,194,26,42,13,292,24,14,11,317,21,1*7F
$GBGSV,3,3,12,50,10,268,18,57,09,028,,33,06,341,16,21,04,246,17,1*73
$GNRMC,235146.000,A,4910.426566,N,12304.401450,W,0.02,58.05,181224,,,D,V*25
$GNVTG,58.05,T,,M,0.02,N,0.04,K,D*18
$PAIRLOG,Full*51
$GNGGA,235147.000,4910.426512,N,12304.401528,W,2,33,0.42,7.337,M,-16.816,M,,*42
$GNGLL,4910.426512,N,12304.401528,W,235147.000,A,D*52
$GNGSA,A,3,17,19,14,24,13,15,02,30,06,21,,,0.82,0.42,0.70,1*05
$GNGSA,A,3,88,79,87,69,81,,,,,,,,0.82,0.42,0.70,2*0E
$GNGSA,A,3,02,25,08,11,07,30,36,10,03,,,,0.82,0.42,0.70,3*06
$GNGSA,A,3,45,29,30,36,26,35,42,14,33,,,,0.82,0.42,0.70,4*02
$GPGSV,4,1,13,17,73,093,35,19,61,190,33,14,48,082,33,24,36,304,31,1*6F
$GPGSV,4,2,13,46,33,187,32,13,28,214,28,15,24,253,29,02,21,043,28,1*69
$GPGSV,4,3,13,30,16,142,25,06,10,159,23,21,07,029,21,12,06,269,,1*6A
$GPGSV,4,4,13,10,01,338,,1*5E
$GLGSV,2,1,07,78,69,060,,88,57,118,34,79,43,308,30,87,30,034,24,1*7B
$GLGSV,2,2,07,69,25,276,28,81,20,174,21,70,15,341,,1*41
$GAGSV,3,1,10,02,80,316,34,25,40,080,29,08,36,239,28,11,33,074,26,7*71
$GAGSV,3,2,10,07,29,303,29,30,28,272,26,36,25,130,25,10,23,044,25,7*7E
$GAGSV,3,3,10,12,10,025,19,03,09,193,23,7*7F
$GBGSV,3,1,12,45,88,086,31,29,58,140,31,30,35,054,27,36,34,115,28,1*77
$GBGSV,3,2,12,26,34,297,24,35,15,194,26,42,13,291,24,14,11,317,21,1*7C
$GBGSV,3,3,12,50,10,268,18,57,09,028,,33,06,341,16,21,04,246,17,1*73
$GNRMC,235147.000,A,4910.426512,N,12304.401528,W,0.02,58.05,181224,,,D,V*29
$GNVTG,58.05,T,,M,0.02,N,0.03,K,D*1F
$PAIRLOG,Full*51
$GNGGA,235148.000,4910.426512,N,12304.401654,W,2,33,0.42,7.411,M,-16.817,M,,*47
$GNGLL,4910.426512,N,12304.401654,W,235148.000,A,D*55
$GNGSA,A,3,17,19,14,24,13,15,02,30,06,21,,,0.82,0.42,0.70,1*05
$GNGSA,A,3,88,79,87,69,81,,,,,,,,0.82,0.42,0.70,2*0E
$GNGSA,A,3,02,25,08,11,07,30,36,10,03,,,,0.82,0.42,0.70,3*06
$GNGSA,A,3,45,29,30,36,26,35,42,14,33,,,,0.82,0.42,0.70,4*02
$GPGSV,4,1,13,17,73,093,35,19,61,190,33,14,48,082,34,24,36,304,31,1*68
$GPGSV,4,2,13,46,33,187,32,13,28,214,29,15,24,253,29,02,21,043,28,1*68
$GPGSV,4,3,13,30,16,142,26,06,10,159,24,21,07,029,21,12,06,269,,1*6E
$GPGSV,4,4,13,10,01,338,,1*5E
$GLGSV,2,1,07,78,69,060,,88,57,118,35,79,43,308,31,87,30,034,24,1*7B
$GLGSV,2,2,07,69,25,276,28,81,20,174,21,70,15,341,,1*41
$GAGSV,3,1,10,02,80,316,34,25,40,080,29,08,36,239,28,11,33,074,26,7*71
$GAGSV,3,2,10,07,29,303,29,30,28,272,26,36,25,130,25,10,23,044,25,7*7E
$GAGSV,3,3,10,12,10,025,19,03,09,193,23,7*7F
$GBGSV,3,1,12,45,88,086,32,29,58,140,31,30,35,054,28,36,34,115,28,1*7B
$GBGSV,3,2,12,26,34,297,25,35,15,194,27,42,13,291,25,14,11,317,21,1*7D
$GBGSV,3,3,12,50,10,268,18,57,09,028,,33,06,341,16,21,04,246,18,1*7C
$GNRMC,235148.000,A,4910.426512,N,12304.401654,W,0.02,58.05,181224,,,D,V*2E
$GNVTG,58.05,T,,M,0.02,N,0.03,K,D*1F
$PAIRLOG,Full*51
$GNGGA,235149.000,4910.426488,N,12304.401810,W,2,33,0.42,7.514,M,-16.816,M,,*4F
$GNGLL,4910.426488,N,12304.401810,W,235149.000,A,D*58
$GNGSA,A,3,17,19,14,24,13,15,02,30,06,21,,,0.82,0.42,0.70,1*05
$GNGSA,A,3,88,79,87,69,81,,,,,,,,0.82,0.42,0.70,2*0E
$GNGSA,A,3,02,25,08,11,07,30,36,10,03,,,,0.82,0.42,0.70,3*06
$GNGSA,A,3,45,29,30,36,26,35,42,14,33,,,,0.82,0.42,0.70,4*02
$GPGSV,4,1,13,17,73,093,35,19,61,190,33,14,48,082,34,24,36,304,31,1*68
$GPGSV,4,2,13,46,33,187,32,13,28,214,29,15,24,253,29,02,21,043,28,1*68
$GPGSV,4,3,13,30,16,142,26,06,10,159,24,21,07,029,21,12,06,269,,1*6E
$GPGSV,4,4,13,10,01,338,,1*5E
$GLGSV,2,1,07,78,69,060,,88,57,118,35,79,43,308,31,87,30,034,24,1*7B
$GLGSV,2,2,07,69,25,276,28,81,20,174,21,70,15,341,,1*41
$GAGSV,3,1,10,02,80,316,34,25,40,080,28,08,36,239,28,11,33,074,26,7*70
$GAGSV,3,2,10,07,29,303,29,30,28,272,26,36,25,130,25,10,23,044,25,7*7E
$GAGSV,3,3,10,12,10,025,19,03,09,193,23,7*7F
$GBGSV,3,1,12,45,88,086,32,29,58,140,31,30,35,054,28,36,34,115,26,1*75
$GBGSV,3,2,12,26,34,297,25,35,15,194,27,42,13,291,25,14,11,317,21,1*7D
$GBGSV,3,3,12,50,10,268,18,57,09,028,,33,06,341,16,21,04,246,18,1*7C
$GNRMC,235149.000,A,4910.426488,N,12304.401810,W,0.02,58.05,181224,,,D,V*23
$GNVTG,58.05,T,,M,0.02,N,0.04,K,D*18
$PAIRLOG,Full*51
$GNGGA,235150.000,4910.426494,N,12304.401900,W,2,33,0.42,7.629,M,-16.817,M,,*46
$GNGLL,4910.426494,N,12304.401900,W,235150.000,A,D*5D
$GNGSA,A,3,17,19,14,24,13,15,02,30,06,21,,,0.82,0.42,0.70,1*05
$GNGSA,A,3,88,79,87,69,81,,,,,,,,0.82,0.42,0.70,2*0E
$GNGSA,A,3,02,25,08,11,07,30,36,10,03,,,,0.82,0.42,0.70,3*06
$GNGSA,A,3,45,29,30,36,26,35,42,14,33,,,,0.82,0.42,0.70,4*02
$GPGSV,4,1,13,17,73,093,35,19,61,190,33,14,48,082,34,24,36,304,31,1*68
$GPGSV,4,2,13,46,33,187,32,13,28,214,29,15,24,253,29,02,21,043,28,1*68
$GPGSV,4,3,13,30,16,142,26,06,10,159,24,21,07,029,21,12,06,269,,1*6E
$GPGSV,4,4,13,10,01,338,,1*5E
$GLGSV,2,1,07,78,69,060,,88,57,118,35,79,43,308,31,87,30,034,24,1*7B
$GLGSV,2,2,07,69,25,276,27,81,20,174,21,70,15,341,,1*4E
$GAGSV,3,1,10,02,80,316,34,25,40,080,28,08,36,239,28,11,33,074,26,7*70
$GAGSV,3,2,10,07,29,303,29,30,28,272,26,36,25,130,25,10,23,044,26,7*7D
$GAGSV,3,3,10,12,10,025,19,03,09,193,23,7*7F
$GBGSV,3,1,12,45,87,100,32,29,58,140,32,30,35,054,28,36,34,115,28,1*78
$GBGSV,3,2,12,26,34,297,25,35,15,194,27,42,13,291,25,14,11,317,21,1*7D
$GBGSV,3,3,12,50,10,268,19,57,09,028,,33,06,341,16,21,04,246,18,1*7D
$GNRMC,235150.000,A,4910.426494,N,12304.401900,W,0.02,58.05,181224,,,D,V*26
$GNVTG,58.05,T,,M,0.02,N,0.04,K,D*18
$PAIRLOG,Full*51
$GNGGA,235151.000,4910.426512,N,12304.401912,W,2,33,0.42,7.761,M,-16.816,M,,*47
$GNGLL,4910.426512,N,12304.401912,W,235151.000,A,D*50
$GNGSA,A,3,17,19,14,24,13,15,02,30,06,21,,,0.82,0.42,0.70,1*05
$GNGSA,A,3,88,79,87,69,81,,,,,,,,0.82,0.42,0.70,2*0E
$GNGSA,A,3,02,25,08,11,07,30,36,10,03,,,,0.82,0.42,0.70,3*06
$GNGSA,A,3,45,29,30,36,26,35,42,14,33,,,,0.82,0.42,0.70,4*02
$GPGSV,4,1,13,17,73,093,35,19,61,190,33,14,48,082,34,24,36,304,31,1*68
$GPGSV,4,2,13,46,33,187,32,13,28,214,29,15,24,253,29,02,21,043,28,1*68
$GPGSV,4,3,13,30,16,142,26,06,10,159,24,21,07,029,21,12,06,269,,1*6E
$GPGSV,4,4,13,10,01,338,,1*5E
$GLGSV,2,1,07,78,69,060,,88,57,118,35,79,43,308,31,87,30,034,24,1*7B
$GLGSV,2,2,07,69,25,276,27,81,20,174,22,70,15,341,,1*4D
$GAGSV,3,1,10,02,80,316,34,25,40,080,28,08,36,239,28,11,33,074,26,7*70
$GAGSV,3,2,10,07,29,303,29,30,28,272,26,36,25,130,25,10,23,044,26,7*7D
$GAGSV,3,3,10,12,10,025,19,03,09,193,23,7*7F
$GBGSV,3,1,12,45,87,100,32,29,58,140,32,30,35,054,28,36,34,115,28,1*78
$GBGSV,3,2,12,26,34,297,25,35,15,194,27,42,13,291,25,14,11,317,21,1*7D
$GBGSV,3,3,12,50,10,268,19,57,09,028,,33,06,341,16,21,04,246,18,1*7D
$GNRMC,235151.000,A,4910.426512,N,12304.401912,W,0.02,58.05,181224,,,D,V*2B
$GNVTG,58.05,T,,M,0.02,N,0.04,K,D*18
$PAIRLOG,Full*51
$GNGGA,235152.000,4910.426452,N,12304.401930,W,2,33,0.42,7.821,M,-16.817,M,,*4B
$GNGLL,4910.426452,N,12304.401930,W,235152.000,A,D*56
$GNGSA,A,3,17,19,14,24,13,15,02,30,06,21,,,0.82,0.42,0.70,1*05
$GNGSA,A,3,88,79,87,69,81,,,,,,,,0.82,0.42,0.70,2*0E
$GNGSA,A,3,02,25,08,11,07,30,36,10,03,,,,0.82,0.42,0.70,3*06
$GNGSA,A,3,45,29,30,36,26,35,42,14,33,,,,0.82,0.42,0.70,4*02
$GPGSV,4,1,13,17,73,093,35,19,61,190,32,14,48,082,33,24,36,304,31,1*6E
$GPGSV,4,2,13,46,33,187,31,13,28,214,29,15,24,253,29,02,21,043,28,1*6B
$GPGSV,4,3,13,30,16,142,26,06,10,159,24,21,07,029,21,12,06,269,,1*6E
$GPGSV,4,4,13,10,01,338,,1*5E
$GLGSV,2,1,07,78,69,060,,88,57,118,35,79,43,308,31,87,30,034,24,1*7B
$GLGSV,2,2,07,69,25,276,27,81,20,174,23,70,15,341,,1*4C
$GAGSV,3,1,10,02,80,316,34,25,40,080,27,08,36,239,28,11,33,074,26,7*7F
$GAGSV,3,2,10,07,29,303,28,30,28,272,26,36,25,130,25,10,23,044,26,7*7C
$GAGSV,3,3,10,12,10,025,19,03,09,193,22,7*7E
$GBGSV,3,1,12,45,87,100,32,29,58,140,31,30,35,054,28,36,34,115,27,1*74
$GBGSV,3,2,12,26,34,297,25,35,15,194,27,42,13,291,25,14,11,317,21,1*7D
$GBGSV,3,3,12,50,10,268,19,57,09,028,,33,06,341,16,21,04,246,18,1*7D
$GNRMC,235152.000,A,4910.426452,N,12304.401930,W,0.02,58.05,181224,,,D,V*2D
$GNVTG,58.05,T,,M,0.02,N,0.04,K,D*18
$PAIRLOG,Full*51
$GNGGA,235153.000,4910.426416,N,12304.401966,W,2,33,0.42,7.824,M,-16.817,M,,*4C
$GNGLL,4910.426416,N,12304.401966,W,235153.000,A,D*54
$GNGSA,A,3,17,19,14,24,13,15,02,30,06,21,,,0.82,0.42,0.70,1*05
$GNGSA,A,3,88,79,87,69,81,,,,,,,,0.82,0.42,0.70,2*0E
$GNGSA,A,3,02,25,08,11,07,30,36,10,03,,,,0.82,0.42,0.70,3*06
$GNGSA,A,3,45,29,30,36,26,35,42,14,33,,,,0.82,0.42,0.70,4*02
$GPGSV,4,1,13,17,73,093,35,19,61,190,32,14,48,082,33,24,36,304,31,1*6E
$GPGSV,4,2,13,46,33,187,31,13,28,214,28,15,24,253,29,02,21,043,28,1*6A
$GPGSV,4,3,13,30,16,142,25,06,10,159,24,21,07,029,21,12,06,269,,1*6D
$GPGSV,4,4,13,10,01,338,,1*5E
$GLGSV,2,1,07,78,69,060,,88,57,118,35,79,43,308,32,87,30,034,24,1*78
$GLGSV,2,2,07,69,25,276,28,81,20,174,24,70,15,341,,1*44
$GAGSV,3,1,10,02,80,316,34,25,40,080,27,08,36,239,28,11,33,074,26,7*7F
$GAGSV,3,2,10,07,29,303,28,30,28,272,26,36,25,130,26,10,23,044,26,7*7F
$GAGSV,3,3,10,12,10,025,19,03,09,193,22,7*7E
$GBGSV,3,1,12,45,87,100,32,29,58,140,31,30,35,054,28,36,34,115,27,1*74
$GBGSV,3,2,12,26,34,297,25,35,15,194,26,42,13,291,25,14,11,317,20,1*7D
$GBGSV,3,3,12,50,10,268,18,57,09,028,,33,06,341,16,21,04,246,17,1*73
$GNRMC,235153.000,A,4910.426416,N,12304.401966,W,0.02,58.05,181224,,,D,V*2F
$GNVTG,58.05,T,,M,0.02,N,0.04,K,D*18
$PAIRLOG,Full*51
$GNGGA,235154.000,4910.426440,N,12304.401882,W,2,33,0.42,7.945,M,-16.817,M,,*45
$GNGLL,4910.426440,N,12304.401882,W,235154.000,A,D*5B
$GNGSA,A,3,17,19,14,24,13,15,02,30,06,21,,,0.82,0.42,0.70,1*05
$GNGSA,A,3,88,79,87,69,81,,,,,,,,0.82,0.42,0.70,2*0E
$GNGSA,A,3,02,25,08,11,07,30,36,10,03,,,,0.82,0.42,0.70,3*06
$GNGSA,A,3,45,29,30,36,26,35,42,14,33,,,,0.82,0.42,0.70,4*02
$GPGSV,4,1,13,17,73,093,35,19,61,190,32,14,48,082,33,24,36,304,31,1*6E
$GPGSV,4,2,13,46,33,187,31,13,28,214,29,15,24,253,29,02,21,043,28,1*6B
$GPGSV,4,3,13,30,16,142,27,06,10,159,24,21,07,029,21,12,06,269,,1*6F
$GPGSV,4,4,13,10,01,338,,1*5E
$GLGSV,2,1,07,78,69,060,,88,57,118,35,79,43,308,32,87,30,034,24,1*78
$GLGSV,2,2,07,69,25,276,28,81,20,174,25,70,15,341,,1*45
$GAGSV,3,1,10,02,80,316,34,25,40,080,27,08,36,239,28,11,33,074,26,7*7F
$GAGSV,3,2,10,07,29,303,28,30,28,272,26,36,25,130,26,10,23,044,26,7*7F
$GAGSV,3,3,10,12,10,025,19,03,09,193,22,7*7E
$GBGSV,3,1,12,45,87,100,31,29,58,140,31,30,35,054,27,36,34,115,24,1*7B
$GBGSV,3,2,12,26,34,297,24,35,15,194,25,42,13,291,24,14,11,317,19,1*74
$GBGSV,3,3,12,50,10,268,18,57,09,028,,33,06,341,16,21,04,246,16,1*72
$GNRMC,235154.000,A,4910.426440,N,12304.401882,W,0.02,58.05,181224,,,D,V*20
$GNVTG,58.05,T,,M,0.02,N,0.03,K,D*1F
$PAIRLOG,Full*51
$GNGGA,235155.000,4910.426476,N,12304.401840,W,2,33,0.42,7.932,M,-16.817,M,,*4F
$GNGLL,4910.426476,N,12304.401840,W,235155.000,A,D*51
$GNGSA,A,3,17,19,14,24,13,15,02,30,06,21,,,0.82,0.42,0.70,1*05
$GNGSA,A,3,88,79,87,69,81,,,,,,,,0.82,0.42,0.70,2*0E
$GNGSA,A,3,02,25,08,11,07,30,36,10,03,,,,0.82,0.42,0.70,3*06
$GNGSA,A,3,45,29,30,36,26,35,42,14,33,,,,0.82,0.42,0.70,4*02
$GPGSV,4,1,13,17,73,093,35,19,61,190,32,14,48,082,33,24,36,304,31,1*6E
$GPGSV,4,2,13,46,33,187,31,13,28,214,29,15,24,253,29,02,21,043,28,1*6B
$GPGSV,4,3,13,30,16,142,26,06,10,159,25,21,07,029,21,12,06,269,,1*6F
$GPGSV,4,4,13,10,01,338,,1*5E
$GLGSV,2,1,07,78,69,060,,88,57,118,35,79,43,308,32,87,30,034,24,1*78
$GLGSV,2,2,07,69,25,276,29,81,20,174,25,70,15,341,,1*44
$GAGSV,3,1,10,02,80,316,34,25,40,080,27,08,36,239,28,11,33,074,26,7*7F
$GAGSV,3,2,10,07,29,303,28,30,28,272,26,36,25,130,26,10,23,044,26,7*7F
$GAGSV,3,3,10,12,10,025,19,03,09,193,22,7*7E
$GBGSV,3,1,12,45,87,100,31,29,58,140,31,30,35,054,27,36,34,115,25,1*7A
$GBGSV,3,2,12,26,34,297,24,35,15,194,25,42,13,291,25,14,11,317,19,1*75
$GBGSV,3,3,12,50,09,267,18,57,09,028,,33,06,341,16,21,04,246,16,1*75
$GNRMC,235155.000,A,4910.426476,N,12304.401840,W,0.01,58.05,181224,,,D,V*29
$GNVTG,58.05,T,,M,0.01,N,0.03,K,D*1C
$PAIRLOG,Full*51
$GNGGA,235156.000,4910.426464,N,12304.401804,W,2,33,0.42,7.960,M,-16.817,M,,*48
$GNGLL,4910.426464,N,12304.401804,W,235156.000,A,D*51
$GNGSA,A,3,17,19,14,24,13,15,02,30,06,21,,,0.82,0.42,0.70,1*05
$GNGSA,A,3,88,79,87,69,81,,,,,,,,0.82,0.42,0.70,2*0E
$GNGSA,A,3,02,25,08,11,07,30,36,10,03,,,,0.82,0.42,0.70,3*06
$GNGSA,A,3,45,29,30,36,26,35,42,14,33,,,,0.82,0.42,0.70,4*02
$GPGSV,4,1,13,17,73,093,35,19,61,190,33,14,48,082,34,24,36,304,31,1*68
$GPGSV,4,2,13,46,33,187,31,13,28,214,29,15,24,253,29,02,21,043,28,1*6B
$GPGSV,4,3,13,30,16,142,26,06,10,159,25,21,07,029,21,12,06,269,,1*6F
$GPGSV,4,4,13,10,01,338,,1*5E
$GLGSV,2,1,07,78,69,060,,88,57,118,35,79,43,308,32,87,30,034,24,1*78
$GLGSV,2,2,07,69,25,276,29,81,20,174,25,70,15,341,,1*44
$GAGSV,3,1,10,02,80,316,35,25,40,080,28,08,36,239,29,11,33,074,26,7*70
$GAGSV,3,2,10,07,29,303,29,30,28,272,27,36,25,130,27,10,23,044,26,7*7E
$GAGSV,3,3,10,12,10,025,20,03,09,193,23,7*75
$GBGSV,3,1,12,45,87,100,32,29,58,140,31,30,35,054,27,36,34,115,26,1*7A
$GBGSV,3,2,12,26,34,297,24,35,15,194,26,42,13,291,25,14,11,317,19,1*76
$GBGSV,3,3,12,50,09,267,18,57,09,028,,33,06,341,16,21,04,246,16,1*75
$GNRMC,235156.000,A,4910.426464,N,12304.401804,W,0.01,58.05,181224,,,D,V*29
$GNVTG,58.05,T,,M,0.01,N,0.02,K,D*1D
$PAIRLOG,Full*51
$GNGGA,235157.000,4910.426500,N,12304.401738,W,2,33,0.42,7.987,M,-16.816,M,,*42
$GNGLL,4910.426500,N,12304.401738,W,235157.000,A,D*53
$GNGSA,A,3,17,19,14,24,13,15,02,30,06,21,,,0.82,0.42,0.70,1*05
$GNGSA,A,3,88,79,87,69,81,,,,,,,,0.82,0.42,0.70,2*0E
$GNGSA,A,3,02,25,08,11,07,30,36,10,03,,,,0.82,0.42,0.70,3*06
$GNGSA,A,3,45,29,30,36,26,35,42,14,33,,,,0.82,0.42,0.70,4*02
$GPGSV,4,1,13,17,73,093,35,19,61,190,33,14,48,082,34,24,36,304,31,1*68
$GPGSV,4,2,13,46,33,187,31,13,28,214,29,15,24,253,29,02,21,043,28,1*6B
$GPGSV,4,3,13,30,16,142,26,06,10,159,24,21,07,029,21,12,06,269,,1*6E
$GPGSV,4,4,13,10,01,338,,1*5E
$GLGSV,2,1,07,78,69,060,,88,57,118,35,79,43,308,32,87,30,034,24,1*78
$GLGSV,2,2,07,69,25,276,29,81,20,174,25,70,15,341,,1*44
$GAGSV,3,1,10,02,80,316,35,25,40,080,28,08,36,239,29,11,33,074,26,7*70
$GAGSV,3,2,10,07,29,303,29,30,28,272,27,36,25,130,26,10,23,044,26,7*7F
$GAGSV,3,3,10,12,10,025,20,03,09,193,23,7*75
$GBGSV,3,1,12,45,87,100,32,29,58,140,31,30,35,054,27,36,34,115,25,1*79
$GBGSV,3,2,12,26,34,297,25,35,15,194,26,42,13,291,26,14,11,317,19,1*74
$GBGSV,3,3,12,50,09,267,18,57,09,028,,33,06,341,16,21,04,246,16,1*75
$GNRMC,235157.000,A,4910.426500,N,12304.401738,W,0.01,58.05,181224,,,D,V*2B
$GNVTG,58.05,T,,M,0.01,N,0.03,K,D*1C
$PAIRLOG,Full*51
$GNGGA,235158.000,4910.426512,N,12304.401654,W,2,33,0.42,8.020,M,-16.816,M,,*4E
$GNGLL,4910.426512,N,12304.401654,W,235158.000,A,D*54
$GNGSA,A,3,17,19,14,24,13,15,02,30,06,21,,,0.82,0.42,0.70,1*05
$GNGSA,A,3,88,79,87,69,81,,,,,,,,0.82,0.42,0.70,2*0E
$GNGSA,A,3,02,25,08,11,07,30,36,10,03,,,,0.82,0.42,0.70,3*06
$GNGSA,A,3,45,29,30,36,26,35,42,14,33,,,,0.82,0.42,0.70,4*02
$GPGSV,4,1,13,17,73,093,35,19,61,190,33,14,48,082,34,24,36,304,30,1*69
$GPGSV,4,2,13,46,33,187,31,13,28,214,29,15,24,253,29,02,21,043,28,1*6B
$GPGSV,4,3,13,30,16,142,26,06,10,159,25,21,07,029,22,12,06,269,,1*6C
$GPGSV,4,4,13,10,01,338,,1*5E
$GLGSV,2,1,07,78,69,060,,88,57,118,35,79,43,308,31,87,30,034,24,1*7B
$GLGSV,2,2,07,69,25,276,29,81,20,174,25,70,15,341,,1*44
$GAGSV,3,1,10,02,80,316,35,25,40,080,28,08,36,239,29,11,33,074,26,7*70
$GAGSV,3,2,10,07,29,303,29,30,28,272,27,36,25,130,26,10,23,044,26,7*7F
$GAGSV,3,3,10,12,10,025,20,03,09,193,23,7*75
$GBGSV,3,1,12,45,87,100,32,29,58,140,31,30,35,054,27,36,34,115,25,1*79
$GBGSV,3,2,12,26,34,297,25,35,15,194,26,42,13,291,24,14,11,317,20,1*7C
$GBGSV,3,3,12,50,09,267,18,57,09,028,,33,06,341,17,21,04,246,16,1*74
$GNRMC,235158.000,A,4910.426512,N,12304.401654,W,0.02,58.05,181224,,,D,V*2F
$GNVTG,58.05,T,,M,0.02,N,0.03,K,D*1F
$PAIRLOG,Full*51
$GNGGA,235159.000,4910.426524,N,12304.401570,W,2,33,0.42,8.123,M,-16.816,M,,*4D
$GNGLL,4910.426524,N,12304.401570,W,235159.000,A,D*55
$GNGSA,A,3,17,19,14,24,13,15,02,30,06,21,,,0.82,0.42,0.70,1*05
$GNGSA,A,3,88,79,87,69,81,,,,,,,,0.82,0.42,0.70,2*0E
$GNGSA,A,3,02,25,08,11,07,30,36,10,03,,,,0.82,0.42,0.70,3*06
$GNGSA,A,3,45,29,30,36,26,35,42,14,33,,,,0.82,0.42,0.70,4*02
$GPGSV,4,1,13,17,73,093,34,19,61,190,33,14,48,082,34,24,36,304,29,1*60
$GPGSV,4,2,13,46,33,187,31,13,28,214,29,15,24,253,29,02,21,043,28,1*6B
$GPGSV,4,3,13,30,16,142,25,06,10,159,23,21,07,029,22,12,06,269,,1*69
$GPGSV,4,4,13,10,01,338,,1*5E
$GLGSV,2,1,07,78,69,060,,88,57,118,35,79,43,308,31,87,30,034,24,1*7B
$GLGSV,2,2,07,69,25,276,29,81,20,174,25,70,15,341,,1*44
$GAGSV,3,1,10,02,80,316,35,25,40,080,28,08,36,239,29,11,33,074,26,7*70
$GAGSV,3,2,10,07,29,303,28,30,28,272,27,36,25,130,26,10,23,044,25,7*7D
$GAGSV,3,3,10,12,10,025,20,03,09,193,23,7*75
$GBGSV,3,1,12,45,87,100,32,29,58,140,31,30,35,054,27,36,34,115,24,1*78
$GBGSV,3,2,12,26,34,297,25,35,15,194,26,42,13,291,24,14,11,317,20,1*7C
$GBGSV,3,3,12,50,09,267,18,57,09,028,,33,06,341,17,21,04,246,17,1*75
$GNRMC,235159.000,A,4910.426524,N,12304.401570,W,0.02,58.05,181224,,,D,V*2E
$GNVTG,58.05,T,,M,0.02,N,0.03,K,D*1F
$PAIRLOG,Full*51
$GNGGA,235200.000,4910.426512,N,12304.401522,W,2,33,0.42,8.220,M,-16.816,M,,*40
$GNGLL,4910.426512,N,12304.401522,W,235200.000,A,D*58
$GNGSA,A,3,17,19,14,24,13,15,02,30,06,21,,,0.82,0.42,0.70,1*05
$GNGSA,A,3,88,79,87,69,81,,,,,,,,0.82,0.42,0.70,2*0E
$GNGSA,A,3,02,25,08,11,07,30,36,10,03,,,,0.82,0.42,0.70,3*06
$GNGSA,A,3,45,29,30,36,26,35,42,14,33,,,,0.82,0.42,0.70,4*02
$GPGSV,4,1,13,17,73,093,34,19,61,190,32,14,48,082,33,24,36,304,29,1*66
$GPGSV,4,2,13,46,33,187,31,13,28,214,29,15,24,253,29,02,21,043,28,1*6B
$GPGSV,4,3,13,30,16,142,25,06,10,159,21,21,07,029,21,12,06,269,,1*68
$GPGSV,4,4,13,10,01,338,,1*5E
$GLGSV,2,1,07,78,69,060,,88,57,118,35,79,43,308,31,87,30,034,25,1*7A
$GLGSV,2,2,07,69,25,276,29,81,20,174,26,70,15,341,,1*47
$GAGSV,3,1,10,02,80,316,35,25,40,080,28,08,36,239,29,11,33,074,26,7*70
$GAGSV,3,2,10,07,29,303,28,30,28,272,27,36,25,130,25,10,23,044,25,7*7E
$GAGSV,3,3,10,12,10,025,20,03,09,193,23,7*75
$GBGSV,3,1,12,45,87,100,32,29,58,140,31,30,35,054,27,36,34,115,25,1*79
$GBGSV,3,2,12,26,34,297,25,35,15,194,26,42,13,291,25,14,11,317,20,1*7D
$GBGSV,3,3,12,50,09,267,18,57,09,028,,33,06,341,17,21,04,246,17,1*75
$GNRMC,235200.000,A,4910.426512,N,12304.401522,W,0.02,58.05,181224,,,D,V*23
$GNVTG,58.05,T,,M,0.02,N,0.03,K,D*1F
$PAIRLOG,Full*51
$GNGGA,235201.000,4910.426494,N,12304.401462,W,2,33,0.42,8.297,M,-16.816,M,,*47
