$GNGGA,235131.000,4910.415586,N,12304.384878,W,1,15,0.69,-34.713,M,-16.817,M,,*5C
$GNGLL,4910.415586,N,12304.384878,W,235131.000,A,A*59
$GNGSA,A,3,17,19,14,24,13,15,02,30,21,,,,1.00,0.69,0.73,1*02
$GNGSA,A,3,79,,,,,,,,,,,,1.00,0.69,0.73,2*06
$GNGSA,A,3,,,,,,,,,,,,,1.00,0.69,0.73,3*09
$GNGSA,A,3,45,29,30,26,36,,,,,,,,1.00,0.69,0.73,4*06
$GPGSV,4,1,13,17,73,094,33,19,61,190,31,14,48,082,32,24,36,304,30,1*6C
$GPGSV,4,2,13,13,28,214,28,15,24,253,27,02,21,043,27,30,16,142,23,1*67
$GPGSV,4,3,13,06,10,159,25,21,08,029,22,12,06,269,15,10,01,338,,1*68
$GPGSV,4,4,13,38,,,,1*6D
$GLGSV,3,1,09,78,69,060,21,88,57,118,,79,43,308,27,87,30,034,,1*70
$GLGSV,3,2,09,69,25,276,20,81,20,173,18,77,15,103,,70,14,341,,1*7C
$GLGSV,3,3,09,68,06,231,,1*49
$GAGSV,1,1,00,7*73
$GBGSV,3,1,11,45,88,084,29,29,58,140,27,30,36,055,23,26,34,296,23,1*7C
$GBGSV,3,2,11,36,34,115,23,35,15,194,23,42,13,292,21,14,11,317,20,1*72
$GBGSV,3,3,11,50,10,268,17,33,06,341,18,21,04,246,16,1*41
$GNRMC,235131.000,A,4910.415586,N,12304.384878,W,0.30,111.28,181224,,,A,V*10
$GNVTG,111.28,T,,M,0.30,N,0.56,K,A*28
$GNGGA,235132.000,4910.415562,N,12304.384908,W,1,15,0.69,-34.714,M,-16.816,M,,*55
$GNGLL,4910.415562,N,12304.384908,W,235132.000,A,A*56
$GNGSA,A,3,17,19,14,24,13,15,02,30,21,,,,1.00,0.69,0.73,1*02
$GNGSA,A,3,79,,,,,,,,,,,,1.00,0.69,0.73,2*06
$GNGSA,A,3,,,,,,,,,,,,,1.00,0.69,0.73,3*09
$GNGSA,A,3,45,29,30,26,36,,,,,,,,1.00,0.69,0.73,4*06
$GPGSV,3,1,12,17,73,094,33,19,61,190,31,14,48,082,32,24,36,304,30,1*6A
$GPGSV,3,2,12,13,28,214,28,15,24,253,27,02,21,043,27,30,16,142,24,1*66
$GPGSV,3,3,12,06,10,159,25,21,08,029,23,12,06,269,15,10,01,338,,1*6F
$GLGSV,3,1,09,78,69,060,21,88,57,118,,79,43,308,27,87,30,034,,1*70
$GLGSV,3,2,09,69,25,276,20,81,20,173,18,77,15,103,,70,14,341,,1*7C
$GLGSV,3,3,09,68,06,231,,1*49
$GAGSV,1,1,00,7*73
$GBGSV,3,1,11,45,88,084,28,29,58,140,27,30,36,055,22,26,34,296,23,1*7C
$GBGSV,3,2,11,36,34,115,23,35,15,194,23,42,13,291,21,14,11,317,20,1*71
$GBGSV,3,3,11,50,10,268,17,33,06,341,18,21,04,246,16,1*41
$GNRMC,235132.000,A,4910.415562,N,12304.384908,W,0.36,111.28,181224,,,A,V*19
$GNVTG,111.28,T,,M,0.36,N,0.67,K,A*2C
$GNGGA,235133.000,4910.415574,N,12304.384926,W,1,15,0.69,-34.710,M,-16.816,M,,*5B
$GNGLL,4910.415574,N,12304.384926,W,235133.000,A,A*5C
$GNGSA,A,3,17,19,14,24,13,15,02,30,21,,,,1.00,0.69,0.73,1*02
$GNGSA,A,3,79,,,,,,,,,,,,1.00,0.69,0.73,2*06
$GNGSA,A,3,,,,,,,,,,,,,1.00,0.69,0.73,3*09
$GNGSA,A,3,45,29,30,26,36,,,,,,,,1.00,0.69,0.73,4*06
$GPGSV,3,1,12,17,73,094,33,19,61,190,31,14,48,082,31,24,36,304,30,1*69
$GPGSV,3,2,12,13,28,214,28,15,24,253,27,02,21,043,27,30,16,142,23,1*61
$GPGSV,3,3,12,06,10,159,25,21,08,029,20,12,06,269,16,10,01,338,,1*6F
$GLGSV,3,1,09,78,69,060,20,88,57,118,,79,43,308,27,87,30,034,,1*71
$GLGSV,3,2,09,69,25,276,20,81,20,173,17,77,15,103,,70,14,341,,1*73
$GLGSV,3,3,09,68,06,231,,1*49
$GAGSV,1,1,00,7*73
$GBGSV,3,1,11,45,88,084,28,29,58,140,27,30,36,055,22,26,34,296,23,1*7C
$GBGSV,3,2,11,36,34,115,23,35,15,194,23,42,13,291,21,14,11,317,20,1*71
$GBGSV,3,3,11,50,10,268,17,33,06,341,18,21,04,246,16,1*41
$GNRMC,235133.000,A,4910.415574,N,12304.384926,W,0.11,111.28,181224,,,A,V*16
$GNVTG,111.28,T,,M,0.11,N,0.21,K,A*2B
$GNGGA,235134.000,4910.415556,N,12304.384932,W,1,15,0.69,-34.710,M,-16.817,M,,*58
$GNGLL,4910.415556,N,12304.384932,W,235134.000,A,A*5E
$GNGSA,A,3,17,19,14,24,13,15,02,30,21,,,,1.00,0.69,0.73,1*02
$GNGSA,A,3,79,,,,,,,,,,,,1.00,0.69,0.73,2*06
$GNGSA,A,3,,,,,,,,,,,,,1.00,0.69,0.73,3*09
$GNGSA,A,3,45,29,30,26,36,,,,,,,,1.00,0.69,0.73,4*06
$GPGSV,3,1,12,17,73,094,32,19,61,190,30,14,48,082,31,24,36,304,29,1*61
$GPGSV,3,2,12,13,28,214,27,15,24,253,26,02,21,043,26,30,16,142,19,1*67
$GPGSV,3,3,12,06,10,159,24,21,08,029,18,12,06,269,15,10,01,338,,1*66
$GLGSV,3,1,09,78,69,060,20,88,57,118,,79,43,308,27,87,30,034,,1*71
$GLGSV,3,2,09,69,25,276,20,81,20,173,17,77,15,103,,70,14,341,,1*73
$GLGSV,3,3,09,68,06,231,,1*49
$GAGSV,1,1,00,7*73
$GBGSV,3,1,11,45,88,084,28,29,58,140,27,30,36,055,22,26,34,296,23,1*7C
$GBGSV,3,2,11,36,34,115,23,35,15,194,23,42,13,291,21,14,11,317,20,1*71
$GBGSV,3,3,11,50,10,268,17,33,06,341,18,21,04,246,16,1*41
$GNRMC,235134.000,A,4910.415556,N,12304.384932,W,0.44,111.28,181224,,,A,V*14
$GNVTG,111.28,T,,M,0.44,N,0.81,K,A*21
$GNGGA,235135.000,4910.415574,N,12304.384902,W,1,15,0.69,-34.710,M,-16.816,M,,*5B
$GNGLL,4910.415574,N,12304.384902,W,235135.000,A,A*5C
$GNGSA,A,3,17,19,14,24,13,15,02,30,21,,,,1.00,0.69,0.73,1*02
$GNGSA,A,3,79,,,,,,,,,,,,1.00,0.69,0.73,2*06
$GNGSA,A,3,,,,,,,,,,,,,1.00,0.69,0.73,3*09
$GNGSA,A,3,45,29,30,26,36,,,,,,,,1.00,0.69,0.73,4*06
$GPGSV,4,1,13,17,73,094,31,19,61,190,28,14,48,082,30,24,36,304,28,1*6D
$GPGSV,4,2,13,13,28,214,26,15,24,253,23,02,21,043,25,30,16,142,19,1*66
$GPGSV,4,3,13,06,10,159,23,21,08,029,17,12,06,269,15,10,01,338,,1*68
$GPGSV,4,4,13,45,,,,1*67
$GLGSV,3,1,09,78,69,060,20,88,57,118,,79,43,308,27,87,30,034,,1*71
$GLGSV,3,2,09,69,25,276,20,81,20,173,17,77,15,103,,70,14,341,,1*73
$GLGSV,3,3,09,68,06,231,,1*49
$GAGSV,1,1,00,7*73
$GBGSV,3,1,11,45,87,099,29,29,58,140,28,30,36,055,23,26,34,296,23,1*70
$GBGSV,3,2,11,36,34,115,23,35,15,194,24,42,13,291,22,14,11,317,20,1*75
$GBGSV,3,3,11,50,10,268,17,33,06,341,18,21,04,246,16,1*41
$GNRMC,235135.000,A,4910.415574,N,12304.384902,W,0.36,111.28,181224,,,A,V*13
$GNVTG,111.28,T,,M,0.36,N,0.67,K,A*2C
$GNGGA,235136.000,4910.415586,N,12304.384860,W,1,15,0.69,-34.701,M,-16.816,M,,*50
$GNGLL,4910.415586,N,12304.384860,W,235136.000,A,A*57
$GNGSA,A,3,17,19,14,24,13,15,02,30,21,,,,1.00,0.69,0.73,1*02
$GNGSA,A,3,79,,,,,,,,,,,,1.00,0.69,0.73,2*06
$GNGSA,A,3,,,,,,,,,,,,,1.00,0.69,0.73,3*09
$GNGSA,A,3,45,29,30,26,36,,,,,,,,1.00,0.69,0.73,4*06
$GPGSV,4,1,13,17,73,094,30,19,61,190,27,14,48,082,29,24,36,304,27,1*64
$GPGSV,4,2,13,13,28,214,25,15,24,253,23,02,21,043,24,30,16,142,21,1*6F
$GPGSV,4,3,13,06,10,159,22,21,08,029,18,12,06,269,15,10,01,338,,1*66
$GPGSV,4,4,13,45,,,,1*67
$GLGSV,3,1,09,78,69,060,20,88,57,118,,79,43,308,27,87,30,034,,1*71
$GLGSV,3,2,09,69,25,276,20,81,20,173,17,77,15,103,,70,14,341,,1*73
$GLGSV,3,3,09,68,06,231,,1*49
$GAGSV,1,1,00,7*73
$GBGSV,3,1,11,45,87,099,29,29,58,140,28,30,36,055,24,26,34,296,23,1*77
$GBGSV,3,2,11,36,34,115,23,35,15,194,24,42,13,291,22,14,11,317,20,1*75
$GBGSV,3,3,11,50,10,268,17,33,06,341,18,21,04,246,16,1*41
$GNRMC,235136.000,A,4910.415586,N,12304.384860,W,0.51,111.28,181224,,,A,V*19
$GNVTG,111.28,T,,M,0.51,N,0.94,K,A*21
$GNGGA,235137.000,4910.415592,N,12304.384842,W,1,15,0.69,-34.702,M,-16.816,M,,*57
$GNGLL,4910.415592,N,12304.384842,W,235137.000,A,A*53
$GNGSA,A,3,17,19,14,24,13,15,02,30,21,,,,1.00,0.69,0.73,1*02
$GNGSA,A,3,79,,,,,,,,,,,,1.00,0.69,0.73,2*06
$GNGSA,A,3,,,,,,,,,,,,,1.00,0.69,0.73,3*09
$GNGSA,A,3,45,29,30,26,36,,,,,,,,1.00,0.69,0.73,4*06
$GPGSV,4,1,13,17,73,094,30,19,61,190,28,14,48,082,29,24,36,304,27,1*6B
$GPGSV,4,2,13,13,28,214,25,15,24,253,24,02,21,043,24,30,16,142,21,1*68
$GPGSV,4,3,13,06,10,159,22,21,08,029,18,12,06,269,15,10,01,338,,1*66
$GPGSV,4,4,13,45,,,,1*67
$GLGSV,3,1,09,78,69,060,21,88,57,118,,79,43,308,27,87,30,034,,1*70
$GLGSV,3,2,09,69,25,276,21,81,20,173,17,77,15,103,,70,14,341,,1*72
$GLGSV,3,3,09,68,06,231,,1*49
$GAGSV,1,1,00,7*73
$GBGSV,3,1,11,45,87,099,30,29,58,140,28,30,36,055,24,26,34,296,23,1*7F
$GBGSV,3,2,11,36,34,115,23,35,15,194,24,42,13,291,23,14,11,317,20,1*74
$GBGSV,3,3,11,50,10,268,17,33,06,341,18,21,04,246,16,1*41
$GNRMC,235137.000,A,4910.415592,N,12304.384842,W,0.26,111.28,181224,,,A,V*1D
$GNVTG,111.28,T,,M,0.26,N,0.48,K,A*20
$GNGGA,235138.000,4910.415634,N,12304.384824,W,1,15,0.69,-34.706,M,-16.816,M,,*53
$GNGLL,4910.415634,N,12304.384824,W,235138.000,A,A*53
$GNGSA,A,3,17,19,14,24,13,15,02,30,21,,,,1.00,0.69,0.73,1*02
$GNGSA,A,3,79,,,,,,,,,,,,1.00,0.69,0.73,2*06
$GNGSA,A,3,,,,,,,,,,,,,1.00,0.69,0.73,3*09
$GNGSA,A,3,45,29,30,26,36,,,,,,,,1.00,0.69,0.73,4*06
$GPGSV,3,1,12,17,73,094,29,19,61,190,26,14,48,082,28,24,36,304,27,1*6A
$GPGSV,3,2,12,13,28,214,25,15,24,253,24,02,21,043,24,30,16,142,21,1*6E
$GPGSV,3,3,12,06,10,159,22,21,08,029,18,12,06,269,16,10,01,338,,1*63
$GLGSV,3,1,09,78,69,060,22,88,57,118,,79,43,308,27,87,30,034,,1*73
$GLGSV,3,2,09,69,25,276,21,81,20,173,17,77,15,103,,70,14,341,,1*72
$GLGSV,3,3,09,68,06,231,,1*49
$GAGSV,1,1,00,7*73
$GBGSV,3,1,11,45,87,099,30,29,58,140,28,30,36,055,24,26,34,296,23,1*7F
$GBGSV,3,2,11,36,34,115,23,35,15,194,24,42,13,291,23,14,11,317,20,1*74
$GBGSV,3,3,11,50,10,268,16,33,06,341,18,21,04,246,16,1*40
$GNRMC,235138.000,A,4910.415634,N,12304.384824,W,0.28,111.28,181224,,,A,V*13
$GNVTG,111.28,T,,M,0.28,N,0.51,K,A*26
$GNGGA,235139.000,4910.415616,N,12304.384830,W,1,15,0.69,-34.702,M,-16.816,M,,*53
$GNGLL,4910.415616,N,12304.384830,W,235139.000,A,A*57
$GNGSA,A,3,17,19,14,24,13,15,02,30,21,,,,1.00,0.69,0.73,1*02
$GNGSA,A,3,79,,,,,,,,,,,,1.00,0.69,0.73,2*06
$GNGSA,A,3,,,,,,,,,,,,,1.00,0.69,0.73,3*09
$GNGSA,A,3,45,29,30,26,36,,,,,,,,1.00,0.69,0.73,4*06
$GPGSV,4,1,13,17,73,094,28,19,61,190,23,14,48,082,27,24,36,304,26,1*66
$GPGSV,4,2,13,13,28,214,22,15,24,253,20,02,21,043,22,30,16,142,19,1*66
$GPGSV,4,3,13,06,10,159,21,21,08,029,18,12,06,269,16,10,01,338,,1*66
$GPGSV,4,4,13,41,,,,1*63
$GLGSV,3,1,09,78,69,060,21,88,57,118,,79,43,308,27,87,30,034,,1*70
$GLGSV,3,2,09,69,25,276,21,81,20,173,17,77,15,103,,70,14,341,,1*72
$GLGSV,3,3,09,68,06,231,,1*49
$GAGSV,1,1,00,7*73
$GBGSV,3,1,11,45,87,099,30,29,58,140,28,30,36,055,24,26,34,296,23,1*7F
$GBGSV,3,2,11,36,34,115,23,35,15,194,24,42,13,291,23,14,11,317,20,1*74
$GBGSV,3,3,11,50,10,268,16,33,06,341,18,21,04,246,16,1*40
$GNRMC,235139.000,A,4910.415616,N,12304.384830,W,0.15,111.28,181224,,,A,V*19
$GNVTG,111.28,T,,M,0.15,N,0.27,K,A*29
$GNGGA,235140.000,4910.415628,N,12304.384806,W,1,15,0.69,-34.694,M,-16.816,M,,*5B
$GNGLL,4910.415628,N,12304.384806,W,235140.000,A,A*51
$GNGSA,A,3,17,19,14,24,13,15,02,30,21,,,,1.00,0.69,0.73,1*02
$GNGSA,A,3,79,,,,,,,,,,,,1.00,0.69,0.73,2*06
$GNGSA,A,3,,,,,,,,,,,,,1.00,0.69,0.73,3*09
$GNGSA,A,3,45,29,30,26,36,,,,,,,,1.00,0.69,0.73,4*06
$GPGSV,4,1,13,17,73,094,26,19,61,190,23,14,48,082,26,24,36,304,25,1*6A
$GPGSV,4,2,13,13,28,214,22,15,24,253,20,02,21,043,21,30,16,142,19,1*65
$GPGSV,4,3,13,06,10,159,20,21,08,029,17,12,06,269,16,10,01,338,,1*68
$GPGSV,4,4,13,41,,,,1*63
$GLGSV,3,1,09,78,69,060,21,88,57,118,,79,43,308,27,87,30,034,,1*70
$GLGSV,3,2,09,69,25,276,21,81,20,173,16,77,15,103,,70,14,341,,1*73
$GLGSV,3,3,09,68,06,231,,1*49
$GAGSV,1,1,00,7*73
$GBGSV,3,1,11,45,87,099,30,29,58,140,27,30,36,055,23,26,34,296,23,1*77
$GBGSV,3,2,11,36,34,115,22,35,15,194,24,42,13,291,22,14,11,317,20,1*74
$GBGSV,3,3,11,50,09,267,16,33,06,341,18,21,04,246,16,1*47
$GNRMC,235140.000,A,4910.415628,N,12304.384806,W,0.22,111.28,181224,,,A,V*1B
$GNVTG,111.28,T,,M,0.22,N,0.40,K,A*2C
$GNGGA,235141.000,4910.415628,N,12304.384812,W,1,15,0.69,-34.698,M,-16.816,M,,*53
$GNGLL,4910.415628,N,12304.384812,W,235141.000,A,A*55
$GNGSA,A,3,17,19,14,24,13,15,02,30,21,,,,1.00,0.69,0.73,1*02
$GNGSA,A,3,79,,,,,,,,,,,,1.00,0.69,0.73,2*06
$GNGSA,A,3,,,,,,,,,,,,,1.00,0.69,0.73,3*09
$GNGSA,A,3,45,29,30,26,36,,,,,,,,1.00,0.69,0.73,4*06
$GPGSV,4,1,13,17,73,094,29,19,61,190,28,14,48,082,28,24,36,304,26,1*63
$GPGSV,4,2,13,13,28,214,25,15,24,253,22,02,21,043,23,30,16,142,23,1*6B
$GPGSV,4,3,13,06,10,159,20,21,08,029,17,12,06,269,16,10,01,338,,1*68
$GPGSV,4,4,13,41,,,,1*63
$GLGSV,3,1,09,78,69,060,21,88,57,118,,79,43,308,27,87,30,034,,1*70
$GLGSV,3,2,09,69,25,276,20,81,20,173,16,77,15,103,,70,14,341,,1*72
$GLGSV,3,3,09,68,06,231,,1*49
$GAGSV,1,1,00,7*73
$GBGSV,3,1,11,45,87,099,30,29,58,140,27,30,36,055,23,26,34,296,24,1*70
$GBGSV,3,2,11,36,34,115,23,35,15,194,24,42,13,291,22,14,11,317,20,1*75
$GBGSV,3,3,11,50,09,267,16,33,06,341,18,21,04,246,16,1*47
$GNRMC,235141.000,A,4910.415628,N,12304.384812,W,0.27,111.28,181224,,,A,V*1A
$GNVTG,111.28,T,,M,0.27,N,0.50,K,A*28
$GNGGA,235142.000,4910.415640,N,12304.384794,W,1,15,0.69,-34.691,M,-16.816,M,,*56
$GNGLL,4910.415640,N,12304.384794,W,235142.000,A,A*59
$GNGSA,A,3,17,19,14,24,13,15,02,30,21,,,,1.00,0.69,0.73,1*02
$GNGSA,A,3,79,,,,,,,,,,,,1.00,0.69,0.73,2*06
$GNGSA,A,3,,,,,,,,,,,,,1.00,0.69,0.73,3*09
$GNGSA,A,3,45,29,30,26,36,,,,,,,,1.00,0.69,0.73,4*06
$GPGSV,4,1,13,17,73,094,29,19,61,190,27,14,48,082,29,24,36,304,26,1*6D
$GPGSV,4,2,13,13,28,214,25,15,24,253,25,02,21,043,23,30,16,142,23,1*6C
$GPGSV,4,3,13,06,10,159,21,21,08,029,17,12,06,269,16,10,01,338,,1*69
$GPGSV,4,4,13,41,,,,1*63
$GLGSV,3,1,09,78,69,060,21,88,57,118,,79,43,308,27,87,30,034,,1*70
$GLGSV,3,2,09,69,25,276,20,81,20,173,17,77,15,103,,70,14,341,,1*73
$GLGSV,3,3,09,68,06,231,,1*49
$GAGSV,1,1,00,7*73
$GBGSV,3,1,11,45,87,099,30,29,58,140,27,30,36,055,23,26,34,296,24,1*70
$GBGSV,3,2,11,36,34,115,23,35,15,194,24,42,13,291,22,14,11,317,20,1*75
$GBGSV,3,3,11,50,09,267,16,33,06,341,18,21,04,246,16,1*47
$GNRMC,235142.000,A,4910.415640,N,12304.384794,W,0.31,111.28,181224,,,A,V*11
$GNVTG,111.28,T,,M,0.31,N,0.58,K,A*27
$GNGGA,235143.000,4910.415652,N,12304.384788,W,1,15,0.69,-34.683,M,-16.816,M,,*5A
$GNGLL,4910.415652,N,12304.384788,W,235143.000,A,A*56
$GNGSA,A,3,17,19,14,24,13,15,02,30,21,,,,1.00,0.69,0.73,1*02
$GNGSA,A,3,79,,,,,,,,,,,,1.00,0.69,0.73,2*06
$GNGSA,A,3,,,,,,,,,,,,,1.00,0.69,0.73,3*09
$GNGSA,A,3,45,29,30,26,36,,,,,,,,1.00,0.69,0.73,4*06
$GPGSV,4,1,13,17,73,094,30,19,61,190,26,14,48,082,29,24,36,304,26,1*64
$GPGSV,4,2,13,13,28,214,25,15,24,253,25,02,21,043,25,30,16,142,24,1*6D
$GPGSV,4,3,13,06,10,159,22,21,08,029,17,12,06,269,16,10,01,338,,1*6A
$GPGSV,4,4,13,41,,,,1*63
$GLGSV,3,1,09,78,69,060,21,88,57,118,,79,43,308,27,87,30,034,,1*70
$GLGSV,3,2,09,69,25,276,20,81,20,173,17,77,15,103,,70,14,341,,1*73
$GLGSV,3,3,09,68,06,231,,1*49
$GAGSV,1,1,00,7*73
$GBGSV,3,1,11,45,87,099,30,29,58,140,27,30,36,055,24,26,34,296,24,1*77
$GBGSV,3,2,11,36,34,115,23,35,15,194,24,42,13,291,22,14,11,317,20,1*75
$GBGSV,3,3,11,50,09,267,16,33,06,341,19,21,04,246,16,1*46
$GNRMC,235143.000,A,4910.415652,N,12304.384788,W,0.32,111.28,181224,,,A,V*1D
$GNVTG,111.28,T,,M,0.32,N,0.59,K,A*25
$GNGGA,235144.000,4910.415652,N,12304.384776,W,1,15,0.69,-34.684,M,-16.816,M,,*5B
$GNGLL,4910.415652,N,12304.384776,W,235144.000,A,A*50
$GNGSA,A,3,17,19,14,24,13,15,02,30,21,,,,1.00,0.69,0.73,1*02
$GNGSA,A,3,79,,,,,,,,,,,,1.00,0.69,0.73,2*06
$GNGSA,A,3,,,,,,,,,,,,,1.00,0.69,0.73,3*09
$GNGSA,A,3,45,29,30,26,36,,,,,,,,1.00,0.69,0.73,4*06
$GPGSV,3,1,12,17,73,094,31,19,61,190,28,14,48,082,31,24,36,304,28,1*6A
$GPGSV,3,2,12,13,28,214,25,15,24,253,26,02,21,043,24,30,16,142,22,1*6F
$GPGSV,3,3,12,06,10,159,22,21,08,029,17,12,06,269,16,10,01,338,,1*6C
$GLGSV,3,1,09,78,69,060,20,88,57,118,,79,43,308,27,87,30,034,,1*71
$GLGSV,3,2,09,69,25,276,20,81,20,173,16,77,15,103,,70,14,341,,1*72
$GLGSV,3,3,09,68,06,231,,1*49
$GAGSV,1,1,00,7*73
$GBGSV,3,1,11,45,87,099,30,29,58,140,27,30,36,055,24,26,34,296,24,1*77
$GBGSV,3,2,11,36,34,115,23,35,15,194,24,42,13,291,22,14,11,317,20,1*75
$GBGSV,3,3,11,50,09,267,17,33,06,341,19,21,04,246,16,1*47
$GNRMC,235144.000,A,4910.415652,N,12304.384776,W,0.29,111.28,181224,,,A,V*11
$GNVTG,111.28,T,,M,0.29,N,0.54,K,A*22
$GNGGA,235145.000,4910.415658,N,12304.384770,W,1,15,0.69,-34.680,M,-16.816,M,,*52
$GNGLL,4910.415658,N,12304.384770,W,235145.000,A,A*5D
$GNGSA,A,3,17,19,14,24,13,15,02,30,21,,,,1.00,0.69,0.73,1*02
$GNGSA,A,3,79,,,,,,,,,,,,1.00,0.69,0.73,2*06
$GNGSA,A,3,,,,,,,,,,,,,1.00,0.69,0.73,3*09
$GNGSA,A,3,45,29,30,26,36,,,,,,,,1.00,0.69,0.73,4*06
$GPGSV,3,1,12,17,73,094,31,19,61,190,29,14,48,082,31,24,36,304,28,1*6B
$GPGSV,3,2,12,13,28,214,26,15,24,253,27,02,21,043,25,30,16,142,23,1*6D
$GPGSV,3,3,12,06,10,159,23,21,08,029,17,12,06,269,17,10,01,338,,1*6C
$GLGSV,3,1,09,78,69,060,19,88,57,118,,79,43,308,27,87,30,034,,1*7B
$GLGSV,3,2,09,69,25,276,19,81,20,173,16,77,15,103,,70,14,341,,1*78
$GLGSV,3,3,09,68,06,231,,1*49
$GAGSV,1,1,00,7*73
$GBGSV,3,1,11,45,87,099,30,29,58,140,27,30,36,055,24,26,34,296,24,1*77
$GBGSV,3,2,11,36,34,115,23,35,15,194,24,42,13,291,22,14,11,317,20,1*75
$GBGSV,3,3,11,50,09,267,17,33,06,341,19,21,04,246,16,1*47
$GNRMC,235145.000,A,4910.415658,N,12304.384770,W,0.25,111.28,181224,,,A,V*10
$GNVTG,111.28,T,,M,0.25,N,0.47,K,A*2C
$GNGGA,235146.000,4910.415658,N,12304.384776,W,1,15,0.69,-34.680,M,-16.816,M,,*57
$GNGLL,4910.415658,N,12304.384776,W,235146.000,A,A*58
$GNGSA,A,3,17,19,14,24,13,15,02,30,21,,,,1.00,0.69,0.73,1*02
$GNGSA,A,3,79,,,,,,,,,,,,1.00,0.69,0.73,2*06
$GNGSA,A,3,,,,,,,,,,,,,1.00,0.69,0.73,3*09
$GNGSA,A,3,45,29,30,26,36,,,,,,,,1.00,0.69,0.73,4*06
$GPGSV,4,1,13,17,73,094,31,19,61,190,29,14,48,082,31,24,36,304,28,1*6D
$GPGSV,4,2,13,13,28,214,26,15,24,253,27,02,21,043,26,30,16,142,23,1*68
$GPGSV,4,3,13,06,10,159,24,21,08,029,17,12,06,269,17,10,01,338,,1*6D
$GPGSV,4,4,13,36,,,,1*63
$GLGSV,3,1,09,78,69,060,19,88,57,118,,79,43,308,27,87,30,034,,1*7B
$GLGSV,3,2,09,69,25,276,19,81,20,173,17,77,15,103,,70,14,341,,1*79
$GLGSV,3,3,09,68,06,231,,1*49
$GAGSV,1,1,00,7*73
$GBGSV,3,1,11,45,87,099,30,29,58,140,28,30,36,055,24,26,34,296,24,1*78
$GBGSV,3,2,11,36,34,115,23,35,15,194,24,42,13,291,22,14,11,317,20,1*75
$GBGSV,3,3,11,50,09,267,17,33,06,341,19,21,04,246,16,1*47
$GNRMC,235146.000,A,4910.415658,N,12304.384776,W,0.22,111.28,181224,,,A,V*12
$GNVTG,111.28,T,,M,0.22,N,0.40,K,A*2C
$GNGGA,235147.000,4910.415652,N,12304.384764,W,1,15,0.69,-34.677,M,-16.816,M,,*57
$GNGLL,4910.415652,N,12304.384764,W,235147.000,A,A*50
$GNGSA,A,3,17,19,14,24,13,15,02,30,21,,,,1.00,0.69,0.73,1*02
$GNGSA,A,3,79,,,,,,,,,,,,1.00,0.69,0.73,2*06
$GNGSA,A,3,,,,,,,,,,,,,1.00,0.69,0.73,3*09
$GNGSA,A,3,45,29,30,26,36,,,,,,,,1.00,0.69,0.73,4*06
$GPGSV,4,1,13,17,73,094,30,19,61,190,27,14,48,082,30,24,36,304,27,1*6C
$GPGSV,4,2,13,13,28,214,26,15,24,253,27,02,21,043,24,30,16,142,24,1*6D
$GPGSV,4,3,13,06,10,159,23,21,08,029,17,12,06,269,17,10,01,338,,1*6A
$GPGSV,4,4,13,36,,,,1*63
$GLGSV,3,1,09,78,69,060,19,88,57,118,,79,43,308,26,87,30,034,,1*7A
$GLGSV,3,2,09,69,25,276,19,81,20,173,17,77,15,103,,70,14,341,,1*79
$GLGSV,3,3,09,68,06,231,,1*49
$GAGSV,1,1,00,7*73
$GBGSV,3,1,11,45,87,099,29,29,58,140,28,30,36,055,24,26,34,296,23,1*77
$GBGSV,3,2,11,36,34,115,22,35,15,194,24,42,13,291,21,14,11,317,20,1*77
$GBGSV,3,3,11,50,09,267,17,33,06,341,19,21,04,246,16,1*47
$GNRMC,235147.000,A,4910.415652,N,12304.384764,W,0.19,111.28,181224,,,A,V*12
$GNVTG,111.28,T,,M,0.19,N,0.36,K,A*25
$GNGGA,235148.000,4910.415664,N,12304.384782,W,1,15,0.69,-34.674,M,-16.816,M,,*56
$GNGLL,4910.415664,N,12304.384782,W,235148.000,A,A*52
$GNGSA,A,3,17,19,14,24,13,15,02,30,21,,,,1.00,0.69,0.73,1*02
$GNGSA,A,3,79,,,,,,,,,,,,1.00,0.69,0.73,2*06
$GNGSA,A,3,,,,,,,,,,,,,1.00,0.69,0.73,3*09
$GNGSA,A,3,45,29,30,26,36,,,,,,,,1.00,0.69,0.73,4*06
$GPGSV,4,1,13,17,73,094,30,19,61,190,27,14,48,082,29,24,36,304,27,1*64
$GPGSV,4,2,13,13,28,214,27,15,24,253,27,02,21,043,25,30,16,142,24,1*6D
$GPGSV,4,3,13,06,10,159,23,21,08,029,17,12,06,269,17,10,01,338,,1*6A
$GPGSV,4,4,13,36,,,,1*63
$GLGSV,3,1,09,78,69,060,19,88,57,118,,79,43,308,26,87,30,034,,1*7A
$GLGSV,3,2,09,69,25,276,19,81,20,173,17,77,15,103,,70,14,341,,1*79
$GLGSV,3,3,09,68,06,231,,1*49
$GAGSV,1,1,00,7*73
$GBGSV,3,1,11,45,87,099,29,29,58,140,28,30,36,055,24,26,34,296,23,1*77
$GBGSV,3,2,11,36,34,115,22,35,15,194,24,42,13,291,21,14,11,317,20,1*77
$GBGSV,3,3,11,50,09,267,17,33,06,341,19,21,04,246,16,1*47
$GNRMC,235148.000,A,4910.415664,N,12304.384782,W,0.16,111.28,181224,,,A,V*1F
$GNVTG,111.28,T,,M,0.16,N,0.30,K,A*2C
$GNGGA,235149.000,4910.415664,N,12304.384806,W,1,15,0.69,-34.676,M,-16.816,M,,*56
$GNGLL,4910.415664,N,12304.384806,W,235149.000,A,A*50
$GNGSA,A,3,17,19,14,24,13,15,02,30,21,,,,1.00,0.69,0.73,1*02
$GNGSA,A,3,79,,,,,,,,,,,,1.00,0.69,0.73,2*06
$GNGSA,A,3,,,,,,,,,,,,,1.00,0.69,0.73,3*09
$GNGSA,A,3,45,29,30,26,36,,,,,,,,1.00,0.69,0.73,4*06
$GPGSV,4,1,13,17,73,094,31,19,61,190,27,14,48,082,30,24,36,304,27,1*6D
$GPGSV,4,2,13,13,28,214,27,15,24,253,27,02,21,043,24,30,16,142,25,1*6D
$GPGSV,4,3,13,06,10,159,23,21,08,029,17,12,06,269,17,10,01,338,,1*6A
$GPGSV,4,4,13,36,,,,1*63
$GLGSV,3,1,09,78,69,060,19,88,57,118,,79,43,308,26,87,30,034,,1*7A
$GLGSV,3,2,09,69,25,276,19,81,20,173,17,77,15,103,,70,14,341,,1*79
$GLGSV,3,3,09,68,06,231,,1*49
$GAGSV,1,1,00,7*73
$GBGSV,3,1,11,45,87,099,29,29,58,140,28,30,36,055,24,26,34,296,24,1*70
$GBGSV,3,2,11,36,34,115,22,35,15,194,24,42,13,291,21,14,11,317,20,1*77
$GBGSV,3,3,11,50,09,267,18,33,06,341,19,21,04,246,16,1*48
$GNRMC,235149.000,A,4910.415664,N,12304.384806,W,0.09,111.28,181224,,,A,V*13
$GNVTG,111.28,T,,M,0.09,N,0.17,K,A*27
$GNGGA,235150.000,4910.415664,N,12304.384794,W,1,15,0.69,-34.675,M,-16.816,M,,*59
$GNGLL,4910.415664,N,12304.384794,W,235150.000,A,A*5C
$GNGSA,A,3,17,19,14,24,13,15,02,30,21,,,,1.00,0.69,0.73,1*02
$GNGSA,A,3,79,,,,,,,,,,,,1.00,0.69,0.73,2*06
$GNGSA,A,3,,,,,,,,,,,,,1.00,0.69,0.73,3*09
$GNGSA,A,3,45,29,30,26,36,,,,,,,,1.00,0.69,0.73,4*06
$GPGSV,4,1,13,17,73,094,30,19,61,190,26,14,48,082,29,24,36,304,26,1*64
$GPGSV,4,2,13,13,28,214,26,15,24,253,26,02,21,043,24,30,16,142,23,1*6B
$GPGSV,4,3,13,06,10,159,22,21,08,029,17,12,06,269,17,10,01,338,,1*6B
$GPGSV,4,4,13,36,,,,1*63
$GLGSV,3,1,09,78,69,060,19,88,57,118,,79,43,308,26,87,30,034,,1*7A
$GLGSV,3,2,09,69,25,276,19,81,20,173,17,77,15,103,,70,14,341,,1*79
$GLGSV,3,3,09,68,06,231,,1*49
$GAGSV,1,1,00,7*73
$GBGSV,3,1,11,45,87,099,30,29,58,140,28,30,36,055,25,26,34,296,26,1*7B
$GBGSV,3,2,11,36,34,115,23,35,15,194,25,42,13,291,22,14,11,317,21,1*75
$GBGSV,3,3,11,50,09,267,18,33,06,341,19,21,04,246,16,1*48
$GNRMC,235150.000,A,4910.415664,N,12304.384794,W,0.09,111.28,181224,,,A,V*1F
$GNVTG,111.28,T,,M,0.09,N,0.16,K,A*26
$GNGGA,235151.000,4910.415664,N,12304.384812,W,1,15,0.69,-34.673,M,-16.816,M,,*5F
$GNGLL,4910.415664,N,12304.384812,W,235151.000,A,A*5C
$GNGSA,A,3,17,19,14,24,13,15,02,30,21,,,,1.00,0.69,0.73,1*02
$GNGSA,A,3,79,,,,,,,,,,,,1.00,0.69,0.73,2*06
$GNGSA,A,3,,,,,,,,,,,,,1.00,0.69,0.73,3*09
$GNGSA,A,3,45,29,30,26,36,,,,,,,,1.00,0.69,0.73,4*06
$GPGSV,3,1,12,17,73,094,31,19,61,190,26,14,48,082,29,24,36,304,26,1*63
$GPGSV,3,2,12,13,28,214,26,15,24,253,26,02,21,043,24,30,16,142,24,1*6A
$GPGSV,3,3,12,06,10,159,22,21,08,029,17,12,06,269,17,10,01,338,,1*6D
$GLGSV,3,1,09,78,69,060,20,88,57,118,,79,43,308,26,87,30,034,,1*70
$GLGSV,3,2,09,69,25,276,19,81,20,173,18,77,15,103,,70,14,341,,1*76
$GLGSV,3,3,09,68,06,231,,1*49
$GAGSV,1,1,00,7*73
$GBGSV,3,1,11,45,87,099,30,29,58,140,28,30,36,055,24,26,34,296,24,1*78
$GBGSV,3,2,11,36,34,115,23,35,15,194,25,42,13,291,22,14,11,317,21,1*75
$GBGSV,3,3,11,50,09,267,18,33,06,341,19,21,04,246,16,1*48
$GNRMC,235151.000,A,4910.415664,N,12304.384812,W,0.06,111.28,181224,,,A,V*10
$GNVTG,111.28,T,,M,0.06,N,0.11,K,A*2E
$GNGGA,235152.000,4910.415658,N,12304.384842,W,1,15,0.69,-34.671,M,-16.816,M,,*54
$GNGLL,4910.415658,N,12304.384842,W,235152.000,A,A*55
$GNGSA,A,3,17,19,14,24,13,15,02,30,21,,,,1.00,0.69,0.73,1*02
$GNGSA,A,3,79,,,,,,,,,,,,1.00,0.69,0.73,2*06
$GNGSA,A,3,,,,,,,,,,,,,1.00,0.69,0.73,3*09
$GNGSA,A,3,45,29,30,26,36,,,,,,,,1.00,0.69,0.73,4*06
$GPGSV,4,1,13,17,73,094,30,19,61,190,25,14,48,082,29,24,36,304,26,1*67
$GPGSV,4,2,13,13,28,214,25,15,24,253,25,02,21,043,24,30,16,142,19,1*62
$GPGSV,4,3,13,06,10,159,21,21,08,029,17,12,06,269,17,10,01,338,,1*68
$GPGSV,4,4,13,49,,,,1*6B
$GLGSV,3,1,09,78,69,060,20,88,57,118,,79,43,308,26,87,30,034,,1*70
$GLGSV,3,2,09,69,25,276,18,81,20,173,18,77,15,103,,70,14,341,,1*77
$GLGSV,3,3,09,68,06,231,,1*49
$GAGSV,1,1,00,7*73
$GBGSV,3,1,11,45,87,099,29,29,58,140,27,30,36,055,24,26,34,296,24,1*7F
$GBGSV,3,2,11,36,34,115,22,35,15,194,24,42,13,291,22,14,11,317,21,1*75
$GBGSV,3,3,11,50,09,267,18,33,06,341,19,21,04,246,15,1*4B
$GNRMC,235152.000,A,4910.415658,N,12304.384842,W,0.03,111.28,181224,,,A,V*1C
$GNVTG,111.28,T,,M,0.03,N,0.06,K,A*2D
$GNGGA,235153.000,4910.415664,N,12304.384824,W,1,15,0.69,-34.673,M,-16.816,M,,*58
$GNGLL,4910.415664,N,12304.384824,W,235153.000,A,A*5B
$GNGSA,A,3,17,19,14,24,13,15,02,30,21,,,,1.00,0.69,0.73,1*02
$GNGSA,A,3,79,,,,,,,,,,,,1.00,0.69,0.73,2*06
$GNGSA,A,3,,,,,,,,,,,,,1.00,0.69,0.73,3*09
$GNGSA,A,3,45,29,30,26,36,,,,,,,,1.00,0.69,0.73,4*06
$GPGSV,4,1,13,17,73,094,31,19,61,190,26,14,48,082,30,24,36,304,27,1*6C
$GPGSV,4,2,13,13,28,214,26,15,24,253,25,02,21,043,24,30,16,142,20,1*6B
$GPGSV,4,3,13,06,10,159,21,21,08,029,16,12,06,269,17,10,01,338,,1*69
$GPGSV,4,4,13,49,,,,1*6B
$GLGSV,3,1,09,78,69,060,20,88,57,118,,79,43,308,26,87,30,034,,1*70
$GLGSV,3,2,09,69,25,276,19,81,20,173,18,77,15,103,,70,14,341,,1*76
$GLGSV,3,3,09,68,06,231,,1*49
$GAGSV,1,1,00,7*73
$GBGSV,3,1,11,45,87,099,29,29,58,140,27,30,36,055,24,26,34,296,25,1*7E
$GBGSV,3,2,11,36,34,115,22,35,15,194,24,42,13,291,22,14,11,317,21,1*75
$GBGSV,3,3,11,50,09,267,18,33,06,341,19,21,04,246,16,1*48
$GNRMC,235153.000,A,4910.415664,N,12304.384824,W,0.23,111.28,181224,,,A,V*10
$GNVTG,111.28,T,,M,0.23,N,0.42,K,A*2F
$GNGGA,235154.000,4910.415652,N,12304.384842,W,1,15,0.69,-34.675,M,-16.816,M,,*5C
$GNGLL,4910.415652,N,12304.384842,W,235154.000,A,A*59
$GNGSA,A,3,17,19,14,24,13,15,02,30,21,,,,1.00,0.69,0.73,1*02
$GNGSA,A,3,79,,,,,,,,,,,,1.00,0.69,0.73,2*06
$GNGSA,A,3,,,,,,,,,,,,,1.00,0.69,0.73,3*09
$GNGSA,A,3,45,29,30,26,36,,,,,,,,1.00,0.69,0.73,4*06
$GPGSV,4,1,13,17,73,094,32,19,61,190,27,14,48,082,31,24,36,304,27,1*6F
$GPGSV,4,2,13,13,28,214,27,15,24,253,26,02,21,043,25,30,16,142,24,1*6C
$GPGSV,4,3,13,06,10,159,22,21,08,029,16,12,06,269,17,10,01,338,,1*6A
$GPGSV,4,4,13,49,,,,1*6B
$GLGSV,2,1,08,78,69,060,20,88,57,118,,79,43,308,26,87,30,034,,1*70
$GLGSV,2,2,08,69,25,276,20,81,20,173,18,77,15,103,,68,06,231,,1*70
$GAGSV,1,1,00,7*73
$GBGSV,3,1,11,45,87,099,29,29,58,140,27,30,36,055,24,26,34,296,23,1*78
$GBGSV,3,2,11,36,34,115,22,35,15,194,24,42,13,291,22,14,11,317,21,1*75
$GBGSV,3,3,11,50,09,267,18,33,06,341,19,21,04,246,16,1*48
$GNRMC,235154.000,A,4910.415652,N,12304.384842,W,0.20,111.28,181224,,,A,V*11
$GNVTG,111.28,T,,M,0.20,N,0.37,K,A*2E
$GNGGA,235155.000,4910.415664,N,12304.384836,W,1,15,0.69,-34.681,M,-16.817,M,,*51
$GNGLL,4910.415664,N,12304.384836,W,235155.000,A,A*5E
$GNGSA,A,3,17,19,14,24,13,15,02,30,21,,,,1.00,0.69,0.73,1*02
$GNGSA,A,3,79,,,,,,,,,,,,1.00,0.69,0.73,2*06
$GNGSA,A,3,,,,,,,,,,,,,1.00,0.69,0.73,3*09
$GNGSA,A,3,45,29,30,26,36,,,,,,,,1.00,0.69,0.73,4*06
$GPGSV,4,1,13,17,73,094,32,19,61,190,28,14,48,082,31,24,36,304,27,1*60
$GPGSV,4,2,13,13,28,214,27,15,24,253,26,02,21,043,25,30,16,142,23,1*6B
$GPGSV,4,3,13,06,10,159,22,21,08,029,17,12,06,269,17,10,01,338,,1*6B
$GPGSV,4,4,13,49,,,,1*6B
$GLGSV,3,1,09,78,69,060,20,88,57,118,,79,43,308,26,87,30,034,,1*70
$GLGSV,3,2,09,69,25,276,20,81,20,173,18,77,15,103,,70,14,341,,1*7C
$GLGSV,3,3,09,68,06,231,,1*49
$GAGSV,1,1,00,7*73
$GBGSV,3,1,11,45,87,099,29,29,58,140,27,30,36,055,24,26,34,296,23,1*78
$GBGSV,3,2,11,36,34,115,22,35,15,194,24,42,13,291,22,14,11,317,21,1*75
$GBGSV,3,3,11,50,09,267,19,33,06,341,19,21,04,246,16,1*49
$GNRMC,235155.000,A,4910.415664,N,12304.384836,W,0.10,111.28,181224,,,A,V*15
$GNVTG,111.28,T,,M,0.10,N,0.19,K,A*21
$GNGGA,235156.000,4910.415634,N,12304.384848,W,1,15,0.69,-34.710,M,-16.816,M,,*56
$GNGLL,4910.415634,N,12304.384848,W,235156.000,A,A*51
$GNGSA,A,3,17,19,14,24,13,15,02,30,21,,,,1.00,0.69,0.73,1*02
$GNGSA,A,3,79,,,,,,,,,,,,1.00,0.69,0.73,2*06
$GNGSA,A,3,,,,,,,,,,,,,1.00,0.69,0.73,3*09
$GNGSA,A,3,45,29,30,26,36,,,,,,,,1.00,0.69,0.73,4*06
$GPGSV,4,1,13,17,73,094,33,19,61,190,29,14,48,082,31,24,36,304,27,1*60
$GPGSV,4,2,13,13,28,214,27,15,24,253,27,02,21,043,26,30,16,142,24,1*6E
$GPGSV,4,3,13,06,10,159,22,21,08,029,17,12,06,269,17,10,01,338,,1*6B
$GPGSV,4,4,13,49,,,,1*6B
$GLGSV,3,1,09,78,69,060,21,88,57,118,,79,43,308,26,87,30,034,,1*71
$GLGSV,3,2,09,69,25,276,20,81,20,173,18,77,15,103,,70,14,341,,1*7C
$GLGSV,3,3,09,68,06,231,,1*49
$GAGSV,1,1,00,7*73
$GBGSV,3,1,11,45,87,099,29,29,58,140,27,30,36,055,24,26,34,296,23,1*78
$GBGSV,3,2,11,36,34,115,22,35,15,194,24,42,13,291,22,14,11,317,21,1*75
$GBGSV,3,3,11,50,09,267,19,33,06,341,19,21,04,246,16,1*49
$GNRMC,235156.000,A,4910.415634,N,12304.384848,W,0.13,111.28,181224,,,A,V*19
$GNVTG,111.28,T,,M,0.13,N,0.25,K,A*2D
$GNGGA,235157.000,4910.415652,N,12304.384872,W,1,15,0.69,-34.720,M,-16.817,M,,*5C
$GNGLL,4910.415652,N,12304.384872,W,235157.000,A,A*59
$GNGSA,A,3,17,19,14,24,13,15,02,30,21,,,,1.00,0.69,0.73,1*02
$GNGSA,A,3,79,,,,,,,,,,,,1.00,0.69,0.73,2*06
$GNGSA,A,3,,,,,,,,,,,,,1.00,0.69,0.73,3*09
$GNGSA,A,3,45,29,30,26,36,,,,,,,,1.00,0.69,0.73,4*06
$GPGSV,3,1,12,17,73,094,32,19,61,190,28,14,48,082,30,24,36,304,26,1*66
$GPGSV,3,2,12,13,28,214,26,15,24,253,26,02,21,043,26,30,16,142,21,1*6D
$GPGSV,3,3,12,06,10,159,22,21,08,029,17,12,06,269,17,10,01,338,,1*6D
$GLGSV,3,1,09,78,69,060,21,88,57,118,,79,43,308,26,87,30,034,,1*71
$GLGSV,3,2,09,69,25,276,20,81,20,173,18,77,15,103,,70,14,341,,1*7C
$GLGSV,3,3,09,68,06,231,,1*49
$GAGSV,1,1,00,7*73
$GBGSV,3,1,11,45,87,099,29,29,58,140,27,30,36,055,24,26,34,296,23,1*78
$GBGSV,3,2,11,36,34,115,22,35,15,194,24,42,13,291,22,14,11,317,21,1*75
$GBGSV,3,3,11,50,09,267,19,33,06,341,19,21,04,246,16,1*49
$GNRMC,235157.000,A,4910.415652,N,12304.384872,W,0.16,111.28,181224,,,A,V*14
$GNVTG,111.28,T,,M,0.16,N,0.30,K,A*2C
$GNGGA,235158.000,4910.415634,N,12304.384860,W,1,15,0.69,-34.733,M,-16.817,M,,*52
$GNGLL,4910.415634,N,12304.384860,W,235158.000,A,A*55
$GNGSA,A,3,17,19,14,24,13,15,02,30,21,,,,1.00,0.69,0.73,1*02
$GNGSA,A,3,79,,,,,,,,,,,,1.00,0.69,0.73,2*06
$GNGSA,A,3,,,,,,,,,,,,,1.00,0.69,0.73,3*09
$GNGSA,A,3,45,29,30,26,36,,,,,,,,1.00,0.69,0.73,4*06
$GPGSV,4,1,13,17,73,094,32,19,61,190,28,14,48,082,30,24,36,304,26,1*60
$GPGSV,4,2,13,13,28,214,27,15,24,253,26,02,21,043,26,30,16,142,23,1*68
$GPGSV,4,3,13,06,10,159,22,21,08,029,17,12,06,269,17,10,01,338,,1*6B
$GPGSV,4,4,13,39,,,,1*6C
$GLGSV,3,1,09,78,69,060,21,88,57,118,,79,43,308,26,87,30,034,,1*71
$GLGSV,3,2,09,69,25,276,21,81,20,173,18,77,15,103,,70,14,341,,1*7D
$GLGSV,3,3,09,68,06,231,,1*49
$GAGSV,1,1,00,7*73
$GBGSV,3,1,11,45,87,099,29,29,58,140,27,30,36,055,24,26,34,296,23,1*78
$GBGSV,3,2,11,36,34,115,21,35,15,194,24,42,13,291,22,14,11,317,20,1*77
$GBGSV,3,3,11,50,09,267,19,33,06,341,19,21,04,246,16,1*49
$GNRMC,235158.000,A,4910.415634,N,12304.384860,W,0.16,111.28,181224,,,A,V*18
$GNVTG,111.28,T,,M,0.16,N,0.30,K,A*2C
$GNGGA,235159.000,4910.415652,N,12304.384884,W,1,15,0.69,-34.729,M,-16.817,M,,*52
$GNGLL,4910.415652,N,12304.384884,W,235159.000,A,A*5E
$GNGSA,A,3,17,19,14,24,13,15,02,30,21,,,,1.00,0.69,0.73,1*02
$GNGSA,A,3,79,,,,,,,,,,,,1.00,0.69,0.73,2*06
$GNGSA,A,3,,,,,,,,,,,,,1.00,0.69,0.73,3*09
$GNGSA,A,3,45,29,30,26,36,,,,,,,,1.00,0.69,0.73,4*06
$GPGSV,4,1,13,17,73,094,33,19,61,190,28,14,48,082,30,24,36,304,26,1*61
$GPGSV,4,2,13,13,28,214,28,15,24,253,26,02,21,043,26,30,16,142,21,1*65
$GPGSV,4,3,13,06,10,159,22,21,08,029,17,12,06,269,17,10,01,338,,1*6B
$GPGSV,4,4,13,39,,,,1*6C
$GLGSV,3,1,09,78,69,060,21,88,57,118,,79,43,308,27,87,30,034,,1*70
$GLGSV,3,2,09,69,25,276,21,81,20,173,18,77,15,103,,70,14,341,,1*7D
$GLGSV,3,3,09,68,06,231,,1*49
$GAGSV,1,1,00,7*73
$GBGSV,3,1,11,45,87,099,29,29,58,140,27,30,36,055,24,26,34,296,23,1*78
$GBGSV,3,2,11,36,34,115,21,35,15,194,24,42,13,291,21,14,11,317,20,1*74
$GBGSV,3,3,11,50,09,267,19,33,06,341,19,21,04,246,16,1*49
$GNRMC,235159.000,A,4910.415652,N,12304.384884,W,0.26,111.28,181224,,,A,V*10
$GNVTG,111.28,T,,M,0.26,N,0.48,K,A*20
$GNGGA,235200.000,4910.415652,N,12304.384896,W,1,15,0.69,-34.725,M,-16.816,M,,*53
$GNGLL,4910.415652,N,12304.384896,W,235200.000,A,A*52
$GNGSA,A,3,17,19,14,24,13,15,02,30,21,,,,1.00,0.69,0.73,1*02
$GNGSA,A,3,79,,,,,,,,,,,,1.00,0.69,0.73,2*06
$GNGSA,A,3,,,,,,,,,,,,,1.00,0.69,0.73,3*09
$GNGSA,A,3,45,29,30,26,36,,,,,,,,1.00,0.69,0.73,4*06
$GPGSV,4,1,13,17,73,094,33,19,61,190,28,14,48,082,30,24,36,304,26,1*61
$GPGSV,4,2,13,13,28,214,28,15,24,253,27,02,20,042,26,30,16,142,23,1*66
$GPGSV,4,3,13,06,10,159,22,21,08,029,17,12,06,269,17,10,01,338,,1*6B
$GPGSV,4,4,13,39,,,,1*6C
$GLGSV,3,1,09,78,69,060,21,88,57,118,,79,43,308,27,87,30,034,,1*70
$GLGSV,3,2,09,69,25,276,21,81,20,173,18,77,15,103,,70,14,341,,1*7D
$GLGSV,3,3,09,68,06,231,,1*49
$GAGSV,1,1,00,7*73
$GBGSV,3,1,11,45,87,099,29,29,58,140,27,30,36,055,24,26,34,296,23,1*78
$GBGSV,3,2,11,36,34,115,21,35,15,194,24,42,13,291,21,14,11,317,20,1*74
$GBGSV,3,3,11,50,09,267,19,33,06,341,19,21,04,246,16,1*49
$GNRMC,235200.000,A,4910.415652,N,12304.384896,W,0.15,111.28,181224,,,A,V*1C
$GNVTG,111.28,T,,M,0.15,N,0.28,K,A*26
$GNGGA,235201.000,4910.415658,N,12304.384896,W,1,15,0.69,-34.729,M,-16.817,M,,*55
