$GNGGA,001336.000,4910.425968,N,12304.401560,W,1,27,0.58,6.325,M,-16.816,M,,*42
$GNRMC,001336.000,A,4910.425968,N,12304.401560,W,0.023,126.46,161024,,,A,V*23
$GNGLL,4910.425968,N,12304.401560,W,001336.000,A,A*58
$GNVTG,126.46,T,,M,0.023,N,0.043,K,A*22
$GNGSA,A,3,04,05,07,08,09,13,14,16,20,27,,,1.00,0.58,0.82,1*07
$GNGSA,A,3,,,,,,,,,,,,,1.00,0.58,0.82,2*04
$GNGSA,A,3,02,03,07,08,25,30,,,,,,,1.00,0.58,0.82,3*0F
$GNGSA,A,3,08,13,21,22,26,27,30,36,38,42,45,,1.00,0.58,0.82,4*00
$GNGSA,A,3,,,,,,,,,,,,,1.00,0.58,0.82,5*03
$GPGSV,3,1,12,04,13,140,20,05,23,307,22,07,81,039,34,08,35,095,29,1*6E
$GPGSV,3,2,12,09,43,152,28,13,09,309,24,14,25,216,24,16,05,045,15,1*65
$GPGSV,3,3,12,20,25,273,26,22,,,20,27,26,056,28,44,33,172,29,1*55
$GPGSV,2,1,05,04,13,140,18,08,35,095,23,09,43,152,25,14,25,216,17,8*6C
$GPGSV,2,2,05,27,26,056,20,8*58
$GLGSV,1,1,00,1*78
$GAGSV,2,1,06,02,76,128,31,03,28,141,24,07,40,304,25,08,77,188,29,7*76
$GAGSV,2,2,06,25,33,052,27,30,33,211,23,7*70
$GAGSV,2,1,06,02,76,128,25,03,28,141,19,07,40,304,24,08,77,188,25,1*76
$GAGSV,2,2,06,25,33,052,22,30,33,211,21,1*71
$GBGSV,3,1,11,08,19,335,29,13,10,344,23,21,53,274,39,22,39,192,38,1*7E
$GBGSV,3,2,11,26,11,249,31,27,11,044,29,30,14,091,36,36,58,064,39,1*7B
$GBGSV,3,3,11,38,22,321,33,42,17,321,31,45,66,253,40,1*4E
$GBGSV,2,1,05,21,53,274,25,22,39,192,21,36,58,064,26,42,17,321,20,5*78
$GBGSV,2,2,05,45,66,253,26,5*46
$GQGSV,1,1,00,1*65
$GQGSV,1,1,00,8*6C
$GNGGA,001337.000,4910.425967,N,12304.401547,W,1,27,0.51,6.320,M,-16.816,M,,*45
$GNRMC,001337.000,A,4910.425967,N,12304.401547,W,0.007,126.46,161024,,,A,V*2E
$GNGLL,4910.425967,N,12304.401547,W,001337.000,A,A*53
$GNVTG,126.46,T,,M,0.007,N,0.014,K,A*26
$GNGSA,A,3,04,05,07,08,09,13,14,16,20,27,,,0.91,0.51,0.75,1*0F
$GNGSA,A,3,,,,,,,,,,,,,0.91,0.51,0.75,2*0C
$GNGSA,A,3,02,03,07,08,25,30,,,,,,,0.91,0.51,0.75,3*07
$GNGSA,A,3,08,13,21,22,26,27,30,36,38,42,45,,0.91,0.51,0.75,4*08
$GNGSA,A,3,,,,,,,,,,,,,0.91,0.51,0.75,5*0B
$GPGSV,3,1,12,04,13,140,20,05,23,307,21,07,81,039,33,08,35,094,29,1*6B
$GPGSV,3,2,12,09,43,152,28,13,09,309,24,14,25,216,25,16,05,045,15,1*64
$GPGSV,3,3,12,20,25,273,26,22,,,19,27,26,056,28,44,33,172,29,1*5F
$GPGSV,2,1,05,04,13,140,17,08,35,094,23,09,43,152,26,14,25,216,19,8*6F
$GPGSV,2,2,05,27,26,056,22,8*5A
$GLGSV,1,1,00,1*78
$GAGSV,2,1,06,02,76,128,31,03,28,141,24,07,40,304,26,08,77,188,30,7*7D
$GAGSV,2,2,06,25,33,052,27,30,33,211,21,7*72
$GAGSV,2,1,06,02,76,128,26,03,28,141,19,07,40,304,23,08,77,188,25,1*72
$GAGSV,2,2,06,25,33,052,21,30,33,211,20,1*73
$GBGSV,3,1,11,08,19,335,28,13,10,344,23,21,53,274,40,22,39,192,39,1*70
$GBGSV,3,2,11,26,11,249,30,27,11,044,30,30,14,091,36,36,58,064,39,1*72
$GBGSV,3,3,11,38,22,321,33,42,17,321,30,45,66,253,40,1*4F
$GBGSV,2,1,05,21,53,274,24,22,39,192,22,36,58,064,25,42,17,321,19,5*73
$GBGSV,2,2,05,45,66,253,26,5*46
$GQGSV,1,1,00,1*65
$GQGSV,1,1,00,8*6C
$GNGGA,001338.000,4910.425967,N,12304.401536,W,1,27,0.59,6.317,M,-16.816,M,,*40
$GNRMC,001338.000,A,4910.425967,N,12304.401536,W,0.007,126.46,161024,,,A,V*27
$GNGLL,4910.425967,N,12304.401536,W,001338.000,A,A*5A
$GNVTG,126.46,T,,M,0.007,N,0.014,K,A*26
$GNGSA,A,3,04,05,07,08,09,13,14,16,20,27,,,1.01,0.59,0.83,1*06
$GNGSA,A,3,,,,,,,,,,,,,1.01,0.59,0.83,2*05
$GNGSA,A,3,02,03,07,08,25,30,,,,,,,1.01,0.59,0.83,3*0E
$GNGSA,A,3,08,13,21,22,26,27,30,36,38,42,45,,1.01,0.59,0.83,4*01
$GNGSA,A,3,,,,,,,,,,,,,1.01,0.59,0.83,5*02
$GPGSV,3,1,12,04,13,140,20,05,23,307,22,07,81,039,32,08,35,094,29,1*69
$GPGSV,3,2,12,09,43,152,28,13,09,309,24,14,25,216,24,16,05,045,14,1*64
$GPGSV,3,3,12,20,25,273,26,22,,,20,27,26,056,28,44,33,172,29,1*55
$GPGSV,2,1,05,04,13,140,18,08,35,094,22,09,43,152,25,14,25,216,19,8*62
$GPGSV,2,2,05,27,26,056,21,8*59
$GLGSV,1,1,00,1*78
$GAGSV,2,1,06,02,76,128,30,03,28,141,24,07,40,304,24,08,77,188,28,7*77
$GAGSV,2,2,06,25,33,052,26,30,33,211,22,7*70
$GAGSV,2,1,06,02,76,128,26,03,28,141,19,07,40,304,24,08,77,188,24,1*74
$GAGSV,2,2,06,25,33,052,21,30,33,211,22,1*71
$GBGSV,3,1,11,08,19,335,29,13,10,344,24,21,53,274,40,22,39,192,38,1*77
$GBGSV,3,2,11,26,11,249,31,27,11,044,31,30,14,091,36,36,58,064,40,1*7C
$GBGSV,3,3,11,38,22,321,33,42,17,321,30,45,66,253,41,1*4E
$GBGSV,2,1,05,21,53,274,25,22,39,192,21,36,58,064,26,42,17,321,20,5*78
$GBGSV,2,2,05,45,66,253,26,5*46
$GQGSV,1,1,00,1*65
$GQGSV,1,1,00,8*6C
$GNGGA,001339.000,4910.425965,N,12304.401525,W,1,27,0.59,6.314,M,-16.817,M,,*43
$GNRMC,001339.000,A,4910.425965,N,12304.401525,W,0.012,126.46,161024,,,A,V*22
$GNGLL,4910.425965,N,12304.401525,W,001339.000,A,A*5B
$GNVTG,126.46,T,,M,0.012,N,0.022,K,A*27
$GNGSA,A,3,04,05,07,08,09,13,14,16,20,27,,,1.01,0.59,0.83,1*06
$GNGSA,A,3,,,,,,,,,,,,,1.01,0.59,0.83,2*05
$GNGSA,A,3,02,03,07,08,25,30,,,,,,,1.01,0.59,0.83,3*0E
$GNGSA,A,3,08,13,21,22,26,27,30,36,38,42,45,,1.01,0.59,0.83,4*01
$GNGSA,A,3,,,,,,,,,,,,,1.01,0.59,0.83,5*02
$GPGSV,3,1,12,04,13,140,19,05,23,307,23,07,81,040,32,08,35,094,30,1*64
$GPGSV,3,2,12,09,43,152,27,13,09,309,24,14,25,216,25,16,05,045,15,1*6B
$GPGSV,3,3,12,20,25,273,27,22,,,20,27,26,056,28,44,33,172,29,1*54
$GPGSV,2,1,05,04,13,140,18,08,35,094,23,09,43,152,25,14,25,216,18,8*62
$GPGSV,2,2,05,27,26,056,23,8*5B
$GLGSV,1,1,00,1*78
$GAGSV,2,1,06,02,76,128,30,03,28,141,24,07,40,304,25,08,77,188,30,7*7F
$GAGSV,2,2,06,25,33,052,26,30,33,211,21,7*73
$GAGSV,2,1,06,02,76,128,25,03,28,141,20,07,40,304,23,08,77,188,25,1*7B
$GAGSV,2,2,06,25,33,052,20,30,33,211,21,1*73
$GBGSV,3,1,11,08,19,335,29,13,10,344,24,21,53,274,40,22,39,192,39,1*76
$GBGSV,3,2,11,26,11,249,32,27,11,044,30,30,14,091,37,36,58,064,40,1*7F
$GBGSV,3,3,11,38,22,321,34,42,17,321,31,45,66,253,41,1*48
$GBGSV,2,1,05,21,53,274,26,22,39,192,22,36,58,064,26,42,17,321,21,5*79
$GBGSV,2,2,05,45,66,253,25,5*45
$GQGSV,1,1,00,1*65
$GQGSV,1,1,00,8*6C
$GNGGA,001340.000,4910.425965,N,12304.401512,W,1,27,0.49,6.307,M,-16.817,M,,*4A
$GNRMC,001340.000,A,4910.425965,N,12304.401512,W,0.009,126.46,161024,,,A,V*22
$GNGLL,4910.425965,N,12304.401512,W,001340.000,A,A*51
$GNVTG,126.46,T,,M,0.009,N,0.016,K,A*2A
$GNGSA,A,3,04,05,07,08,09,13,14,16,20,27,,,0.89,0.49,0.74,1*0E
$GNGSA,A,3,,,,,,,,,,,,,0.89,0.49,0.74,2*0D
$GNGSA,A,3,02,03,07,08,25,30,,,,,,,0.89,0.49,0.74,3*06
$GNGSA,A,3,08,13,21,22,26,27,30,36,38,42,45,,0.89,0.49,0.74,4*09
$GNGSA,A,3,,,,,,,,,,,,,0.89,0.49,0.74,5*0A
$GPGSV,3,1,12,04,13,140,20,05,23,307,22,07,81,040,33,08,35,094,30,1*6E
$GPGSV,3,2,12,09,43,152,27,13,09,309,24,14,25,216,25,16,05,045,13,1*6D
$GPGSV,3,3,12,20,25,273,27,22,,,20,27,26,056,28,44,33,172,29,1*54
$GPGSV,2,1,05,04,13,140,17,08,35,094,23,09,43,152,25,14,25,216,17,8*62
$GPGSV,2,2,05,27,26,056,22,8*5A
$GLGSV,1,1,00,1*78
$GAGSV,2,1,06,02,76,128,32,03,28,141,23,07,40,304,25,08,77,188,30,7*7A
$GAGSV,2,2,06,25,33,052,25,30,33,211,23,7*72
$GAGSV,2,1,06,02,76,128,25,03,28,141,18,07,40,304,23,08,77,188,24,1*71
$GAGSV,2,2,06,25,33,052,21,30,33,211,20,1*73
$GBGSV,3,1,11,08,19,335,29,13,10,344,25,21,53,274,40,22,39,192,39,1*77
$GBGSV,3,2,11,26,11,249,30,27,11,044,30,30,14,091,36,36,58,064,40,1*7C
$GBGSV,3,3,11,38,22,321,33,42,17,321,30,45,66,253,40,1*4F
$GBGSV,2,1,05,21,53,274,27,22,39,192,22,36,58,064,25,42,17,321,19,5*70
$GBGSV,2,2,05,45,66,253,26,5*46
$GQGSV,1,1,00,1*65
$GQGSV,1,1,00,8*6C
$GNGGA,001341.000,4910.425966,N,12304.401499,W,1,27,0.59,6.304,M,-16.817,M,,*48
$GNRMC,001341.000,A,4910.425966,N,12304.401499,W,0.024,126.46,161024,,,A,V*2D
$GNGLL,4910.425966,N,12304.401499,W,001341.000,A,A*51
$GNVTG,126.46,T,,M,0.024,N,0.045,K,A*23
$GNGSA,A,3,04,05,07,08,09,13,14,16,20,27,,,1.01,0.59,0.82,1*07
$GNGSA,A,3,,,,,,,,,,,,,1.01,0.59,0.82,2*04
$GNGSA,A,3,02,03,07,08,25,30,,,,,,,1.01,0.59,0.82,3*0F
$GNGSA,A,3,08,13,21,22,26,27,30,36,38,42,45,,1.01,0.59,0.82,4*00
$GNGSA,A,3,,,,,,,,,,,,,1.01,0.59,0.82,5*03
$GPGSV,3,1,12,04,13,140,19,05,23,307,22,07,81,040,33,08,35,094,30,1*64
$GPGSV,3,2,12,09,43,152,28,13,09,309,24,14,25,216,25,16,05,045,15,1*64
$GPGSV,3,3,12,20,25,273,26,22,,,19,27,26,056,28,44,33,172,29,1*5F
$GPGSV,2,1,05,04,13,140,17,08,35,094,22,09,43,152,25,14,25,216,18,8*6C
$GPGSV,2,2,05,27,26,056,21,8*59
$GLGSV,1,1,00,1*78
$GAGSV,2,1,06,02,76,127,31,03,28,141,25,07,40,304,25,08,77,188,29,7*78
$GAGSV,2,2,06,25,33,052,26,30,33,211,21,7*73
$GAGSV,2,1,06,02,76,127,25,03,28,141,19,07,40,304,23,08,77,188,24,1*7F
$GAGSV,2,2,06,25,33,052,21,30,33,211,20,1*73
$GBGSV,3,1,11,08,19,335,29,13,10,344,24,21,53,274,40,22,39,192,38,1*77
$GBGSV,3,2,11,26,11,249,32,27,11,044,30,30,14,091,36,36,58,064,40,1*7E
$GBGSV,3,3,11,38,22,321,33,42,17,321,31,45,66,253,41,1*4F
$GBGSV,2,1,05,21,53,274,25,22,39,192,20,36,58,064,25,42,17,321,20,5*7A
$GBGSV,2,2,05,45,66,253,27,5*47
$GQGSV,1,1,00,1*65
$GQGSV,1,1,00,8*6C
$GNGGA,001342.000,4910.425964,N,12304.401491,W,1,27,0.49,6.297,M,-16.816,M,,*4A
$GNRMC,001342.000,A,4910.425964,N,12304.401491,W,0.007,126.46,161024,,,A,V*25
$GNGLL,4910.425964,N,12304.401491,W,001342.000,A,A*58
$GNVTG,126.46,T,,M,0.007,N,0.013,K,A*21
$GNGSA,A,3,04,05,07,08,09,13,14,16,20,27,,,0.89,0.49,0.74,1*0E
$GNGSA,A,3,,,,,,,,,,,,,0.89,0.49,0.74,2*0D
$GNGSA,A,3,02,03,07,08,25,30,,,,,,,0.89,0.49,0.74,3*06
$GNGSA,A,3,08,13,21,22,26,27,30,36,38,42,45,,0.89,0.49,0.74,4*09
$GNGSA,A,3,,,,,,,,,,,,,0.89,0.49,0.74,5*0A
$GPGSV,3,1,12,04,13,140,20,05,23,307,22,07,81,040,33,08,35,094,30,1*6E
$GPGSV,3,2,12,09,43,152,28,13,09,309,25,14,25,216,25,16,05,045,14,1*64
$GPGSV,3,3,12,20,25,273,28,22,,,19,27,26,056,27,44,33,172,29,1*5E
$GPGSV,2,1,05,04,13,140,17,08,35,094,23,09,43,152,25,14,25,216,18,8*6D
$GPGSV,2,2,05,27,26,056,22,8*5A
$GLGSV,1,1,00,1*78
$GAGSV,2,1,06,02,76,127,30,03,28,141,22,07,40,304,25,08,77,188,29,7*7E
$GAGSV,2,2,06,25,33,052,26,30,33,211,22,7*70
$GAGSV,2,1,06,02,76,127,25,03,28,141,19,07,40,304,23,08,77,188,25,1*7E
$GAGSV,2,2,06,25,33,052,22,30,33,211,20,1*70
$GBGSV,3,1,11,08,19,335,29,13,10,344,24,21,53,274,40,22,39,192,39,1*76
$GBGSV,3,2,11,26,11,249,32,27,11,044,32,30,14,091,36,36,58,064,39,1*72
$GBGSV,3,3,11,38,22,321,33,42,17,321,31,45,66,253,41,1*4F
$GBGSV,2,1,05,21,53,274,26,22,39,192,22,36,58,064,26,42,17,321,21,5*79
$GBGSV,2,2,05,45,66,253,25,5*45
$GQGSV,1,1,00,1*65
$GQGSV,1,1,00,8*6C
$GNGGA,001343.000,4910.425962,N,12304.401486,W,1,27,0.61,6.298,M,-16.817,M,,*4F
$GNRMC,001343.000,A,4910.425962,N,12304.401486,W,0.008,126.46,161024,,,A,V*2B
$GNGLL,4910.425962,N,12304.401486,W,001343.000,A,A*59
$GNVTG,126.46,T,,M,0.008,N,0.014,K,A*29
$GNGSA,A,3,04,05,07,08,09,13,14,16,20,27,,,1.05,0.61,0.86,1*0C
$GNGSA,A,3,,,,,,,,,,,,,1.05,0.61,0.86,2*0F
$GNGSA,A,3,02,03,07,08,25,30,,,,,,,1.05,0.61,0.86,3*04
$GNGSA,A,3,08,13,21,22,26,27,30,36,38,42,45,,1.05,0.61,0.86,4*0B
$GNGSA,A,3,,,,,,,,,,,,,1.05,0.61,0.86,5*08
$GPGSV,3,1,12,04,13,140,20,05,23,307,23,07,81,040,34,08,35,094,30,1*68
$GPGSV,3,2,12,09,43,152,28,13,09,309,24,14,26,216,26,16,05,045,14,1*65
$GPGSV,3,3,12,20,25,273,27,22,,,20,27,26,056,28,44,33,172,29,1*54
$GPGSV,2,1,05,04,13,140,17,08,35,094,23,09,43,152,25,14,26,216,18,8*6E
$GPGSV,2,2,05,27,26,056,23,8*5B
$GLGSV,1,1,00,1*78
$GAGSV,2,1,06,02,76,127,32,03,28,141,25,07,40,304,26,08,77,188,30,7*70
$GAGSV,2,2,06,25,33,052,28,30,33,211,23,7*7F
$GAGSV,2,1,06,02,76,127,26,03,28,141,19,07,40,304,24,08,77,188,25,1*7A
$GAGSV,2,2,06,25,33,052,21,30,33,211,21,1*72
$GBGSV,3,1,11,08,19,335,29,13,10,344,24,21,53,274,40,22,39,192,39,1*76
$GBGSV,3,2,11,26,11,249,31,27,11,044,30,30,14,091,36,36,58,064,40,1*7D
$GBGSV,3,3,11,38,22,321,34,42,17,321,31,45,66,253,41,1*48
$GBGSV,2,1,05,21,53,274,25,22,39,192,22,36,58,064,27,42,17,321,20,5*7A
$GBGSV,2,2,05,45,66,253,26,5*46
$GQGSV,1,1,00,1*65
$GQGSV,1,1,00,8*6C
$GNGGA,001344.000,4910.425962,N,12304.401478,W,1,27,0.59,6.296,M,-16.816,M,,*4D
$GNRMC,001344.000,A,4910.425962,N,12304.401478,W,0.012,126.46,161024,,,A,V*26
$GNGLL,4910.425962,N,12304.401478,W,001344.000,A,A*5F
$GNVTG,126.46,T,,M,0.012,N,0.023,K,A*26
$GNGSA,A,3,04,05,07,08,09,13,14,16,20,27,,,1.03,0.59,0.84,1*03
$GNGSA,A,3,,,,,,,,,,,,,1.03,0.59,0.84,2*00
$GNGSA,A,3,02,03,07,08,25,30,,,,,,,1.03,0.59,0.84,3*0B
$GNGSA,A,3,08,13,21,22,26,27,30,36,38,42,45,,1.03,0.59,0.84,4*04
$GNGSA,A,3,,,,,,,,,,,,,1.03,0.59,0.84,5*07
$GPGSV,3,1,12,04,13,140,20,05,23,307,21,07,81,040,32,08,35,094,29,1*64
$GPGSV,3,2,12,09,43,152,27,13,09,309,24,14,26,216,24,16,05,045,12,1*6E
$GPGSV,3,3,12,20,25,273,25,22,,,19,27,26,056,27,44,33,172,29,1*53
$GPGSV,2,1,05,04,13,140,17,08,35,094,23,09,43,152,26,14,26,216,19,8*6C
$GPGSV,2,2,05,27,26,056,22,8*5A
$GLGSV,1,1,00,1*78
$GAGSV,2,1,06,02,76,127,30,03,28,141,23,07,40,304,24,08,77,188,28,7*7F
$GAGSV,2,2,06,25,33,052,26,30,33,211,20,7*72
$GAGSV,2,1,06,02,76,127,25,03,28,141,19,07,40,304,24,08,77,188,24,1*78
$GAGSV,2,2,06,25,33,052,21,30,33,211,22,1*71
$GBGSV,3,1,11,08,19,335,29,13,10,344,23,21,53,274,40,22,39,192,38,1*70
$GBGSV,3,2,11,26,11,249,31,27,11,044,30,30,14,091,36,36,58,064,40,1*7D
$GBGSV,3,3,11,38,22,321,32,42,17,321,31,45,66,253,40,1*4F
$GBGSV,2,1,05,21,53,274,24,22,39,192,22,36,58,064,26,42,17,321,19,5*70
$GBGSV,2,2,05,45,66,253,27,5*47
$GQGSV,1,1,00,1*65
$GQGSV,1,1,00,8*6C
$GNGGA,001345.000,4910.425961,N,12304.401467,W,1,27,0.59,6.293,M,-16.817,M,,*45
$GNRMC,001345.000,A,4910.425961,N,12304.401467,W,0.011,126.46,161024,,,A,V*29
$GNGLL,4910.425961,N,12304.401467,W,001345.000,A,A*53
$GNVTG,126.46,T,,M,0.011,N,0.020,K,A*26
$GNGSA,A,3,04,05,07,08,09,13,14,16,20,27,,,1.03,0.59,0.84,1*03
$GNGSA,A,3,,,,,,,,,,,,,1.03,0.59,0.84,2*00
$GNGSA,A,3,02,03,07,08,25,30,,,,,,,1.03,0.59,0.84,3*0B
$GNGSA,A,3,08,13,21,22,26,27,30,36,38,42,45,,1.03,0.59,0.84,4*04
$GNGSA,A,3,,,,,,,,,,,,,1.03,0.59,0.84,5*07
$GPGSV,3,1,12,04,13,140,19,05,23,306,22,07,80,040,33,08,35,094,30,1*64
$GPGSV,3,2,12,09,43,152,26,13,09,309,23,14,26,216,25,16,05,045,14,1*6F
$GPGSV,3,3,12,20,25,273,25,22,,,19,27,26,056,27,44,33,172,29,1*53
$GPGSV,2,1,05,04,13,140,17,08,35,094,22,09,43,152,24,14,26,216,19,8*6F
$GPGSV,2,2,05,27,26,056,22,8*5A
$GLGSV,1,1,00,1*78
$GAGSV,2,1,06,02,76,127,30,03,28,141,23,07,40,304,24,08,77,188,29,7*7E
$GAGSV,2,2,06,25,33,052,26,30,33,211,21,7*73
$GAGSV,2,1,06,02,76,127,25,03,28,141,18,07,40,304,23,08,77,188,24,1*7E
$GAGSV,2,2,06,25,33,052,21,30,33,211,21,1*72
$GBGSV,3,1,11,08,19,335,29,13,10,344,23,21,53,274,40,22,39,192,38,1*70
$GBGSV,3,2,11,26,11,249,32,27,11,044,30,30,14,091,35,36,57,064,40,1*72
$GBGSV,3,3,11,38,22,321,33,42,17,321,30,45,66,253,40,1*4F
$GBGSV,2,1,05,21,53,274,24,22,39,192,21,36,57,064,25,42,17,321,20,5*75
$GBGSV,2,2,05,45,66,253,25,5*45
$GQGSV,1,1,00,1*65
$GQGSV,1,1,00,8*6C
$GNGGA,001346.000,4910.425959,N,12304.401457,W,1,27,0.59,6.288,M,-16.816,M,,*45
$GNRMC,001346.000,A,4910.425959,N,12304.401457,W,0.012,126.46,161024,,,A,V*21
$GNGLL,4910.425959,N,12304.401457,W,001346.000,A,A*58
$GNVTG,126.46,T,,M,0.012,N,0.023,K,A*26
$GNGSA,A,3,04,05,07,08,09,13,14,16,20,27,,,1.02,0.59,0.84,1*02
$GNGSA,A,3,,,,,,,,,,,,,1.02,0.59,0.84,2*01
$GNGSA,A,3,02,03,07,08,25,30,,,,,,,1.02,0.59,0.84,3*0A
$GNGSA,A,3,08,13,21,22,26,27,30,36,38,42,45,,1.02,0.59,0.84,4*05
$GNGSA,A,3,,,,,,,,,,,,,1.02,0.59,0.84,5*06
$GPGSV,3,1,12,04,13,140,20,05,23,306,23,07,80,040,33,08,35,094,30,1*6F
$GPGSV,3,2,12,09,43,152,28,13,09,309,24,14,26,216,25,16,05,045,13,1*61
$GPGSV,3,3,12,20,25,273,26,22,,,20,27,26,056,25,44,33,172,28,1*59
$GPGSV,2,1,05,04,13,140,15,08,35,094,22,09,43,152,26,14,26,216,18,8*6E
$GPGSV,2,2,05,27,26,056,21,8*59
$GLGSV,1,1,00,1*78
$GAGSV,2,1,06,02,76,127,31,03,28,141,24,07,40,304,23,08,77,188,30,7*77
$GAGSV,2,2,06,25,33,052,25,30,33,211,22,7*73
$GAGSV,2,1,06,02,76,127,25,03,28,141,16,07,40,304,22,08,77,188,24,1*71
$GAGSV,2,2,06,25,33,052,22,30,33,211,21,1*71
$GBGSV,3,1,11,08,19,335,29,13,10,344,23,21,53,274,41,22,39,192,39,1*70
$GBGSV,3,2,11,26,11,249,31,27,11,044,30,30,14,091,35,36,57,064,40,1*71
$GBGSV,3,3,11,38,22,321,33,42,17,321,31,45,66,253,41,1*4F
$GBGSV,2,1,05,21,53,274,24,22,39,192,22,36,57,064,25,42,17,321,19,5*7C
$GBGSV,2,2,05,45,66,253,25,5*45
$GQGSV,1,1,00,1*65
$GQGSV,1,1,00,8*6C
$GNGGA,001347.000,4910.425957,N,12304.401446,W,1,27,0.59,6.286,M,-16.816,M,,*44
$GNRMC,001347.000,A,4910.425957,N,12304.401446,W,0.010,126.46,161024,,,A,V*2C
$GNGLL,4910.425957,N,12304.401446,W,001347.000,A,A*57
$GNVTG,126.46,T,,M,0.010,N,0.018,K,A*2C
$GNGSA,A,3,04,05,07,08,09,13,14,16,20,27,,,1.04,0.59,0.85,1*05
$GNGSA,A,3,,,,,,,,,,,,,1.04,0.59,0.85,2*06
$GNGSA,A,3,02,03,07,08,25,30,,,,,,,1.04,0.59,0.85,3*0D
$GNGSA,A,3,08,13,21,22,26,27,30,36,38,42,45,,1.04,0.59,0.85,4*02
$GNGSA,A,3,,,,,,,,,,,,,1.04,0.59,0.85,5*01
$GPGSV,3,1,12,04,13,140,20,05,23,306,22,07,80,040,34,08,35,094,31,1*68
$GPGSV,3,2,12,09,43,152,29,13,09,309,24,14,26,216,27,16,05,045,13,1*62
$GPGSV,3,3,12,20,25,273,26,22,,,19,27,26,056,27,44,33,172,28,1*51
$GPGSV,2,1,05,04,13,140,17,08,35,094,24,09,43,152,25,14,26,216,20,8*62
$GPGSV,2,2,05,27,26,056,21,8*59
$GLGSV,1,1,00,1*78
$GAGSV,2,1,06,02,76,127,31,03,28,141,23,07,40,304,25,08,77,188,30,7*76
$GAGSV,2,2,06,25,33,052,27,30,33,211,22,7*71
$GAGSV,2,1,06,02,76,127,25,03,28,141,18,07,40,304,23,08,77,188,25,1*7F
$GAGSV,2,2,06,25,33,052,22,30,33,211,20,1*70
$GBGSV,3,1,11,08,19,335,29,13,10,344,24,21,53,274,40,22,39,192,39,1*76
$GBGSV,3,2,11,26,11,249,32,27,11,044,31,30,14,091,35,36,57,064,40,1*73
$GBGSV,3,3,11,38,22,321,33,42,17,320,31,45,66,253,40,1*4F
$GBGSV,2,1,05,21,53,274,25,22,39,192,22,36,57,064,26,42,17,320,20,5*75
$GBGSV,2,2,05,45,66,253,27,5*47
$GQGSV,1,1,00,1*65
$GQGSV,1,1,00,8*6C
$GNGGA,001348.000,4910.425954,N,12304.401444,W,1,27,0.48,6.281,M,-16.816,M,,*4D
$GNRMC,001348.000,A,4910.425954,N,12304.401444,W,0.006,126.46,161024,,,A,V*25
$GNGLL,4910.425954,N,12304.401444,W,001348.000,A,A*59
$GNVTG,126.46,T,,M,0.006,N,0.011,K,A*22
$GNGSA,A,3,04,05,07,08,09,13,14,16,20,27,,,0.88,0.48,0.74,1*0E
$GNGSA,A,3,,,,,,,,,,,,,0.88,0.48,0.74,2*0D
$GNGSA,A,3,02,03,07,08,25,30,,,,,,,0.88,0.48,0.74,3*06
$GNGSA,A,3,08,13,21,22,26,27,30,36,38,42,45,,0.88,0.48,0.74,4*09
$GNGSA,A,3,,,,,,,,,,,,,0.88,0.48,0.74,5*0A
$GPGSV,3,1,12,04,13,140,19,05,23,306,23,07,80,040,34,08,35,094,31,1*63
$GPGSV,3,2,12,09,43,152,30,13,09,309,25,14,26,216,27,16,05,045,15,1*6D
$GPGSV,3,3,12,20,25,273,27,22,,,20,27,26,056,27,44,33,172,28,1*5A
$GPGSV,2,1,05,04,13,140,18,08,35,094,23,09,43,152,25,14,26,216,18,8*61
$GPGSV,2,2,05,27,26,056,21,8*59
$GLGSV,1,1,00,1*78
$GAGSV,2,1,06,02,76,127,33,03,28,141,25,07,40,304,24,08,77,188,31,7*72
$GAGSV,2,2,06,25,33,052,28,30,33,211,22,7*7E
$GAGSV,2,1,06,02,76,127,26,03,28,141,19,07,40,304,23,08,77,188,24,1*7C
$GAGSV,2,2,06,25,33,052,22,30,33,211,20,1*70
$GBGSV,3,1,11,08,19,335,29,13,10,344,23,21,53,274,40,22,39,192,38,1*70
$GBGSV,3,2,11,26,11,249,31,27,11,044,30,30,14,091,35,36,57,064,39,1*7F
$GBGSV,3,3,11,38,22,321,32,42,17,320,30,45,66,253,39,1*41
$GBGSV,2,1,05,21,53,274,25,22,39,192,22,36,57,064,26,42,17,320,21,5*74
$GBGSV,2,2,05,45,66,253,26,5*46
$GQGSV,1,1,00,1*65
$GQGSV,1,1,00,8*6C
$GNGGA,001349.000,4910.425952,N,12304.401441,W,1,27,0.48,6.279,M,-16.817,M,,*49
$GNRMC,001349.000,A,4910.425952,N,12304.401441,W,0.003,126.46,161024,,,A,V*22
$GNGLL,4910.425952,N,12304.401441,W,001349.000,A,A*5B
$GNVTG,126.46,T,,M,0.003,N,0.005,K,A*22
$GNGSA,A,3,04,05,07,08,09,13,14,16,20,27,,,0.88,0.48,0.74,1*0E
$GNGSA,A,3,,,,,,,,,,,,,0.88,0.48,0.74,2*0D
$GNGSA,A,3,02,03,07,08,25,30,,,,,,,0.88,0.48,0.74,3*06
$GNGSA,A,3,08,13,21,22,26,27,30,36,38,42,45,,0.88,0.48,0.74,4*09
$GNGSA,A,3,,,,,,,,,,,,,0.88,0.48,0.74,5*0A
$GPGSV,3,1,12,04,13,140,21,05,23,306,23,07,80,040,34,08,35,094,30,1*69
$GPGSV,3,2,12,09,43,152,29,13,09,309,24,14,26,216,27,16,05,045,15,1*64
$GPGSV,3,3,12,20,25,273,27,22,,,20,27,26,056,27,44,33,172,28,1*5A
$GPGSV,2,1,05,04,13,140,17,08,35,094,23,09,43,152,25,14,26,216,19,8*6F
$GPGSV,2,2,05,27,26,056,21,8*59
$GLGSV,1,1,00,1*78
$GAGSV,2,1,06,02,76,127,32,03,28,141,25,07,40,304,25,08,77,188,29,7*7B
$GAGSV,2,2,06,25,33,052,26,30,33,211,21,7*73
$GAGSV,2,1,06,02,76,127,25,03,28,141,18,07,40,304,24,08,77,188,25,1*78
$GAGSV,2,2,06,25,33,052,22,30,33,211,22,1*72
$GBGSV,3,1,11,08,19,335,29,13,10,344,23,21,53,274,39,22,39,192,38,1*7E
$GBGSV,3,2,11,26,11,249,31,27,11,044,29,30,14,091,34,36,57,064,39,1*76
$GBGSV,3,3,11,38,22,321,32,42,17,320,30,45,66,253,39,1*41
$GBGSV,2,1,05,21,53,274,25,22,39,192,22,36,57,064,26,42,17,320,20,5*75
$GBGSV,2,2,05,45,66,253,27,5*47
$GQGSV,1,1,00,1*65
$GQGSV,1,1,00,8*6C
$GNGGA,001350.000,4910.425951,N,12304.401436,W,1,27,0.48,6.276,M,-16.816,M,,*4C
$GNRMC,001350.000,A,4910.425951,N,12304.401436,W,0.010,126.46,161024,,,A,V*2B
$GNGLL,4910.425951,N,12304.401436,W,001350.000,A,A*50
$GNVTG,126.46,T,,M,0.010,N,0.018,K,A*2C
$GNGSA,A,3,04,05,07,08,09,13,14,16,20,27,,,0.88,0.48,0.74,1*0E
$GNGSA,A,3,,,,,,,,,,,,,0.88,0.48,0.74,2*0D
$GNGSA,A,3,02,03,07,08,25,30,,,,,,,0.88,0.48,0.74,3*06
$GNGSA,A,3,08,13,21,22,26,27,30,36,38,42,45,,0.88,0.48,0.74,4*09
$GNGSA,A,3,,,,,,,,,,,,,0.88,0.48,0.74,5*0A
$GPGSV,3,1,12,04,13,140,21,05,23,306,23,07,80,040,34,08,35,094,32,1*6B
$GPGSV,3,2,12,09,43,152,29,13,09,309,25,14,26,216,27,16,05,045,14,1*64
$GPGSV,3,3,12,20,25,273,27,22,,,20,27,26,056,27,44,33,172,28,1*5A
$GPGSV,2,1,05,04,13,140,19,08,35,094,24,09,43,152,26,14,26,216,19,8*65
$GPGSV,2,2,05,27,26,056,22,8*5A
$GLGSV,1,1,00,1*78
$GAGSV,2,1,06,02,76,127,33,03,28,141,25,07,40,304,25,08,77,188,30,7*72
$GAGSV,2,2,06,25,33,052,28,30,33,211,23,7*7F
$GAGSV,2,1,06,02,76,127,25,03,28,141,19,07,40,304,24,08,77,188,25,1*79
$GAGSV,2,2,06,25,33,052,22,30,33,211,21,1*71
$GBGSV,3,1,11,08,19,335,28,13,10,344,23,21,53,274,39,22,39,192,38,1*7F
$GBGSV,3,2,11,26,11,249,31,27,11,044,30,30,14,091,34,36,57,064,39,1*7E
$GBGSV,3,3,11,38,22,321,32,42,17,320,30,45,66,253,39,1*41
$GBGSV,2,1,05,21,53,274,26,22,39,192,22,36,57,064,27,42,17,320,20,5*77
$GBGSV,2,2,05,45,66,253,28,5*48
$GQGSV,1,1,00,1*65
$GQGSV,1,1,00,8*6C
$GNGGA,001351.000,4910.425951,N,12304.401427,W,1,27,0.53,6.276,M,-16.817,M,,*46
