$GNGGA,001336.000,4910.428174,N,12304.401966,W,2,25,0.51,3.904,M,-16.816,M,,*44
$GNGLL,4910.428174,N,12304.401966,W,001336.000,A,D*5F
$GNGSA,A,3,07,09,08,27,14,20,05,04,13,16,22,,0.88,0.51,0.72,1*00
$GNGSA,A,3,,,,,,,,,,,,,0.88,0.51,0.72,2*03
$GNGSA,A,3,08,02,07,30,25,03,,,,,,,0.88,0.51,0.72,3*08
$GNGSA,A,3,45,36,21,22,42,30,27,26,,,,,0.88,0.51,0.72,4*06
$GPGSV,4,1,13,07,81,040,38,09,43,153,35,08,36,095,34,46,33,187,33,1*67
$GPGSV,4,2,13,27,27,057,32,14,26,216,32,20,25,273,32,05,24,307,29,1*68
$GPGSV,4,3,13,04,14,140,26,13,09,309,30,16,06,045,22,22,05,217,26,1*66
$GPGSV,4,4,13,18,01,358,,1*50
$GLGSV,2,1,07,76,71,022,18,77,52,252,,67,51,313,,85,15,058,,1*70
$GLGSV,2,2,07,65,14,166,,75,14,052,17,84,11,006,,1*44
$GAGSV,2,1,08,08,78,189,34,02,76,128,36,07,40,304,31,30,34,211,28,7*7F
$GAGSV,2,2,08,25,33,052,32,03,29,141,29,33,03,332,19,12,02,021,,7*76
$GBGSV,4,1,13,45,67,253,34,36,58,064,34,21,53,275,32,22,40,193,31,1*76
$GBGSV,4,2,13,38,23,321,29,08,20,335,23,42,17,321,27,30,14,092,27,1*70
$GBGSV,4,3,13,27,12,044,25,26,12,250,24,13,11,345,19,46,08,067,,1*77
$GBGSV,4,4,13,04,01,261,,1*44
$GNRMC,001336.000,A,4910.428174,N,12304.401966,W,0.02,348.30,161024,,,D,V*1C
$GNVTG,348.30,T,,M,0.02,N,0.03,K,D*2B
$GNGGA,001337.000,4910.428174,N,12304.401954,W,2,25,0.51,4.113,M,-16.816,M,,*4D
$GNGLL,4910.428174,N,12304.401954,W,001337.000,A,D*5F
$GNGSA,A,3,07,09,08,27,14,20,05,04,13,16,22,,0.88,0.51,0.72,1*00
$GNGSA,A,3,,,,,,,,,,,,,0.88,0.51,0.72,2*03
$GNGSA,A,3,08,02,07,30,25,03,,,,,,,0.88,0.51,0.72,3*08
$GNGSA,A,3,45,36,21,22,42,30,26,27,,,,,0.88,0.51,0.72,4*06
$GPGSV,4,1,13,07,81,040,38,09,43,153,35,08,36,095,34,46,33,187,33,1*67
$GPGSV,4,2,13,27,27,057,31,14,26,216,31,20,25,273,32,05,24,307,29,1*68
$GPGSV,4,3,13,04,14,140,26,13,09,309,30,16,06,045,22,22,05,217,25,1*65
$GPGSV,4,4,13,18,01,358,,1*50
$GLGSV,2,1,06,76,71,022,18,77,52,252,,67,51,313,,85,15,058,,1*71
$GLGSV,2,2,06,65,14,166,,75,14,052,17,1*7F
$GAGSV,2,1,08,08,78,189,34,02,76,128,36,07,40,304,31,30,34,211,28,7*7F
$GAGSV,2,2,08,25,33,052,32,03,29,141,29,33,03,332,19,12,02,021,,7*76
$GBGSV,4,1,13,45,67,253,34,36,58,064,34,21,53,275,32,22,40,193,31,1*76
$GBGSV,4,2,13,38,23,321,29,08,20,335,23,42,17,321,27,30,14,092,27,1*70
$GBGSV,4,3,13,26,12,250,24,27,12,044,25,13,11,345,19,46,08,067,,1*77
$GBGSV,4,4,13,04,01,261,,1*44
$GNRMC,001337.000,A,4910.428174,N,12304.401954,W,0.01,348.30,161024,,,D,V*1F
$GNVTG,348.30,T,,M,0.01,N,0.03,K,D*28
$GNGGA,001338.000,4910.428258,N,12304.401996,W,2,25,0.51,4.235,M,-16.816,M,,*46
$GNGLL,4910.428258,N,12304.401996,W,001338.000,A,D*53
$GNGSA,A,3,07,09,08,27,14,20,05,04,13,16,22,,0.88,0.51,0.72,1*00
$GNGSA,A,3,,,,,,,,,,,,,0.88,0.51,0.72,2*03
$GNGSA,A,3,08,02,07,30,25,03,,,,,,,0.88,0.51,0.72,3*08
$GNGSA,A,3,45,36,21,22,42,30,27,26,,,,,0.88,0.51,0.72,4*06
$GPGSV,4,1,13,07,81,040,38,09,43,153,35,08,36,095,34,46,33,187,33,1*67
$GPGSV,4,2,13,27,27,057,31,14,26,216,31,20,25,273,32,05,24,307,29,1*68
$GPGSV,4,3,13,04,14,140,26,13,09,309,30,16,06,045,22,22,05,217,25,1*65
$GPGSV,4,4,13,18,01,358,,1*50
$GLGSV,2,1,07,76,71,022,18,77,52,252,,67,51,313,,85,15,058,,1*70
$GLGSV,2,2,07,65,14,166,,75,14,052,16,84,11,006,,1*45
$GAGSV,2,1,08,08,78,189,34,02,76,128,36,07,40,304,31,30,34,211,27,7*70
$GAGSV,2,2,08,25,33,052,32,03,29,141,29,33,03,332,19,12,02,021,,7*76
$GBGSV,4,1,13,45,67,253,34,36,58,064,34,21,53,275,32,22,40,193,31,1*76
$GBGSV,4,2,13,38,23,321,29,08,20,335,22,42,17,321,26,30,14,092,27,1*70
$GBGSV,4,3,13,27,12,044,25,26,12,250,24,13,11,345,19,46,08,067,,1*77
$GBGSV,4,4,13,04,01,261,,1*44
$GNRMC,001338.000,A,4910.428258,N,12304.401996,W,0.01,348.30,161024,,,D,V*13
$GNVTG,348.30,T,,M,0.01,N,0.02,K,D*29
$GNGGA,001339.000,4910.428354,N,12304.402038,W,2,25,0.51,4.338,M,-16.816,M,,*48
$GNGLL,4910.428354,N,12304.402038,W,001339.000,A,D*51
$GNGSA,A,3,07,09,08,27,14,20,05,04,13,16,22,,0.88,0.51,0.72,1*00
$GNGSA,A,3,,,,,,,,,,,,,0.88,0.51,0.72,2*03
$GNGSA,A,3,08,02,07,30,25,03,,,,,,,0.88,0.51,0.72,3*08
$GNGSA,A,3,45,36,21,22,42,30,27,26,,,,,0.88,0.51,0.72,4*06
$GPGSV,4,1,13,07,81,040,38,09,43,153,35,08,36,095,34,46,33,187,33,1*67
$GPGSV,4,2,13,27,27,057,31,14,26,216,31,20,25,273,32,05,24,307,29,1*68
$GPGSV,4,3,13,04,14,140,26,13,09,309,30,16,06,045,22,22,05,217,25,1*65
$GPGSV,4,4,13,18,01,358,,1*50
$GLGSV,2,1,07,76,71,022,18,77,52,252,,67,51,313,,85,15,058,,1*70
$GLGSV,2,2,07,65,14,166,,75,14,052,16,84,11,006,,1*45
$GAGSV,2,1,08,08,78,189,34,02,76,128,36,07,40,304,31,30,34,211,27,7*70
$GAGSV,2,2,08,25,33,052,31,03,29,141,29,33,03,332,19,12,02,021,,7*75
$GBGSV,4,1,13,45,67,253,34,36,58,064,34,21,53,275,32,22,40,193,31,1*76
$GBGSV,4,2,13,38,23,321,29,08,20,335,22,42,17,321,26,30,14,092,27,1*70
$GBGSV,4,3,13,27,12,044,25,26,12,250,24,13,11,345,19,46,08,067,,1*77
$GBGSV,4,4,13,04,01,261,,1*44
$GNRMC,001339.000,A,4910.428354,N,12304.402038,W,0.01,348.30,161024,,,D,V*11
$GNVTG,348.30,T,,M,0.01,N,0.03,K,D*28
$GNGGA,001340.000,4910.428426,N,12304.402098,W,2,25,0.51,4.185,M,-16.816,M,,*4A
$GNGLL,4910.428426,N,12304.402098,W,001340.000,A,D*57
$GNGSA,A,3,07,09,08,27,14,20,05,04,13,16,22,,0.88,0.51,0.72,1*00
$GNGSA,A,3,,,,,,,,,,,,,0.88,0.51,0.72,2*03
$GNGSA,A,3,08,02,07,30,25,03,,,,,,,0.88,0.51,0.72,3*08
$GNGSA,A,3,45,36,21,22,42,30,27,26,,,,,0.88,0.51,0.72,4*06
$GPGSV,4,1,13,07,81,040,38,09,43,153,35,08,36,095,34,46,33,187,33,1*67
$GPGSV,4,2,13,27,27,057,31,14,26,216,31,20,25,273,32,05,24,307,28,1*69
$GPGSV,4,3,13,04,14,140,26,13,09,309,30,16,06,045,21,22,05,217,25,1*66
$GPGSV,4,4,13,18,01,358,,1*50
$GLGSV,1,1,03,76,71,022,18,77,52,252,,75,14,052,16,1*40
$GAGSV,2,1,08,08,78,189,34,02,76,128,36,07,40,304,31,30,34,211,27,7*70
$GAGSV,2,2,08,25,33,052,31,03,29,141,29,33,03,332,19,12,02,021,,7*75
$GBGSV,4,1,13,45,67,253,34,36,58,064,34,21,53,275,32,22,40,193,31,1*76
$GBGSV,4,2,13,38,23,321,29,08,20,335,22,42,17,321,26,30,14,092,27,1*70
$GBGSV,4,3,13,27,12,044,24,26,12,250,24,13,11,345,19,46,08,067,,1*76
$GBGSV,4,4,13,04,01,261,,1*44
$GNRMC,001340.000,A,4910.428426,N,12304.402098,W,0.01,348.30,161024,,,D,V*17
$GNVTG,348.30,T,,M,0.01,N,0.03,K,D*28
$GNGGA,001341.000,4910.428468,N,12304.402104,W,2,25,0.51,4.098,M,-16.816,M,,*48
$GNGLL,4910.428468,N,12304.402104,W,001341.000,A,D*58
$GNGSA,A,3,07,09,08,27,14,20,05,04,13,16,22,,0.88,0.51,0.72,1*00
$GNGSA,A,3,,,,,,,,,,,,,0.88,0.51,0.72,2*03
$GNGSA,A,3,08,02,07,30,25,03,,,,,,,0.88,0.51,0.72,3*08
$GNGSA,A,3,45,36,21,22,42,30,27,26,,,,,0.88,0.51,0.72,4*06
$GPGSV,4,1,13,07,81,040,38,09,43,153,35,08,36,095,34,46,33,187,33,1*67
$GPGSV,4,2,13,27,27,057,31,14,26,216,31,20,25,273,32,05,24,307,28,1*69
$GPGSV,4,3,13,04,14,140,26,13,09,309,29,16,06,045,21,22,05,217,24,1*6F
$GPGSV,4,4,13,18,01,358,,1*50
$GLGSV,2,1,07,76,71,022,18,77,52,252,,67,51,313,,85,15,058,,1*70
$GLGSV,2,2,07,65,14,166,,75,14,052,16,84,11,006,,1*45
$GAGSV,2,1,08,08,78,189,34,02,76,128,36,07,40,304,31,30,34,211,27,7*70
$GAGSV,2,2,08,25,33,052,31,03,29,141,29,33,03,332,19,12,02,021,,7*75
$GBGSV,4,1,13,45,67,253,34,36,58,064,34,21,53,275,33,22,40,193,31,1*77
$GBGSV,4,2,13,38,23,321,29,08,20,335,22,42,17,321,26,30,14,092,27,1*70
$GBGSV,4,3,13,27,12,044,25,26,12,250,24,13,11,345,19,46,08,067,,1*77
$GBGSV,4,4,13,04,01,261,,1*44
$GNRMC,001341.000,A,4910.428468,N,12304.402104,W,0.02,348.30,161024,,,D,V*1B
$GNVTG,348.30,T,,M,0.02,N,0.03,K,D*2B
$GNGGA,001342.000,4910.428510,N,12304.402176,W,2,25,0.51,3.985,M,-16.816,M,,*42
$GNGLL,4910.428510,N,12304.402176,W,001342.000,A,D*50
$GNGSA,A,3,07,09,08,27,14,20,05,04,13,16,22,,0.88,0.51,0.72,1*00
$GNGSA,A,3,,,,,,,,,,,,,0.88,0.51,0.72,2*03
$GNGSA,A,3,08,02,07,30,25,03,,,,,,,0.88,0.51,0.72,3*08
$GNGSA,A,3,45,36,21,22,42,30,27,26,,,,,0.88,0.51,0.72,4*06
$GPGSV,4,1,13,07,81,040,38,09,43,153,35,08,36,095,34,46,33,187,33,1*67
$GPGSV,4,2,13,27,27,057,31,14,26,216,31,20,25,273,32,05,24,307,28,1*69
$GPGSV,4,3,13,04,14,140,26,13,09,309,29,16,06,045,21,22,05,217,25,1*6E
$GPGSV,4,4,13,18,01,358,,1*50
$GLGSV,1,1,03,76,71,022,18,77,52,252,,75,14,052,16,1*40
$GAGSV,2,1,08,08,78,189,34,02,76,128,36,07,40,304,31,30,34,211,27,7*70
$GAGSV,2,2,08,25,33,052,31,03,29,141,29,33,03,332,19,12,02,021,,7*75
$GBGSV,4,1,13,45,67,253,34,36,58,064,34,21,53,275,32,22,40,193,31,1*76
$GBGSV,4,2,13,38,23,321,29,08,20,335,22,42,17,321,26,30,14,092,27,1*70
$GBGSV,4,3,13,27,12,044,24,26,12,250,24,13,11,345,19,46,08,067,,1*76
$GBGSV,4,4,13,04,01,261,,1*44
$GNRMC,001342.000,A,4910.428510,N,12304.402176,W,0.02,348.30,161024,,,D,V*13
$GNVTG,348.30,T,,M,0.02,N,0.03,K,D*2B
$GNGGA,001343.000,4910.428516,N,12304.402230,W,2,25,0.51,3.922,M,-16.816,M,,*49
$GNGLL,4910.428516,N,12304.402230,W,001343.000,A,D*56
$GNGSA,A,3,07,09,08,27,14,20,05,04,13,16,22,,0.88,0.51,0.72,1*00
$GNGSA,A,3,,,,,,,,,,,,,0.88,0.51,0.72,2*03
$GNGSA,A,3,08,02,07,30,25,03,,,,,,,0.88,0.51,0.72,3*08
$GNGSA,A,3,45,36,21,22,42,30,27,26,,,,,0.88,0.51,0.72,4*06
$GPGSV,4,1,13,07,81,040,38,09,43,153,35,08,36,095,34,46,33,187,33,1*67
$GPGSV,4,2,13,27,27,057,31,14,26,216,31,20,25,273,32,05,24,307,28,1*69
$GPGSV,4,3,13,04,14,140,26,13,09,309,29,16,06,045,20,22,05,217,25,1*6F
$GPGSV,4,4,13,18,01,358,,1*50
$GLGSV,2,1,07,76,71,022,18,77,52,252,,67,51,313,,85,15,058,,1*70
$GLGSV,2,2,07,65,14,166,,75,14,052,15,84,11,006,,1*46
$GAGSV,2,1,08,08,78,189,34,02,76,128,36,07,40,304,31,30,34,211,27,7*70
$GAGSV,2,2,08,25,33,052,31,03,29,141,29,33,03,332,19,12,02,021,,7*75
$GBGSV,4,1,13,45,67,253,34,36,58,064,34,21,53,275,32,22,40,193,31,1*76
$GBGSV,4,2,13,38,23,321,29,08,20,335,22,42,17,321,26,30,14,092,27,1*70
$GBGSV,4,3,13,27,12,044,23,26,12,250,24,13,11,345,19,46,08,067,,1*71
$GBGSV,4,4,13,04,01,261,,1*44
$GNRMC,001343.000,A,4910.428516,N,12304.402230,W,0.02,348.30,161024,,,D,V*15
$GNVTG,348.30,T,,M,0.02,N,0.03,K,D*2B
$GNGGA,001344.000,4910.428588,N,12304.402350,W,2,25,0.51,4.000,M,-16.816,M,,*40
$GNGLL,4910.428588,N,12304.402350,W,001344.000,A,D*51
$GNGSA,A,3,07,09,08,27,14,20,05,04,13,16,22,,0.88,0.51,0.72,1*00
$GNGSA,A,3,,,,,,,,,,,,,0.88,0.51,0.72,2*03
$GNGSA,A,3,08,02,07,30,25,03,,,,,,,0.88,0.51,0.72,3*08
$GNGSA,A,3,45,36,21,22,42,30,27,26,,,,,0.88,0.51,0.72,4*06
$GPGSV,4,1,13,07,81,040,38,09,43,153,35,08,36,095,34,46,33,187,33,1*67
$GPGSV,4,2,13,27,27,057,31,14,26,216,31,20,25,273,32,05,24,307,28,1*69
$GPGSV,4,3,13,04,14,140,27,13,09,309,29,16,06,045,20,22,05,217,25,1*6E
$GPGSV,4,4,13,18,01,358,,1*50
$GLGSV,2,1,07,76,71,022,18,77,52,252,,67,51,313,,85,15,058,,1*70
$GLGSV,2,2,07,65,14,166,,75,14,052,15,84,11,006,,1*46
$GAGSV,2,1,08,08,78,189,34,02,76,128,36,07,40,304,31,30,34,211,27,7*70
$GAGSV,2,2,08,25,33,052,31,03,29,141,29,33,03,332,19,12,02,021,,7*75
$GBGSV,4,1,13,45,67,253,33,36,58,064,33,21,53,275,31,22,40,193,30,1*74
$GBGSV,4,2,13,38,23,321,28,08,20,335,22,42,17,321,25,30,14,092,26,1*73
$GBGSV,4,3,13,27,12,044,23,26,12,250,24,13,11,345,19,46,08,067,,1*71
$GBGSV,4,4,13,04,01,261,,1*44
$GNRMC,001344.000,A,4910.428588,N,12304.402350,W,0.02,348.30,161024,,,D,V*12
$GNVTG,348.30,T,,M,0.02,N,0.04,K,D*2C
$PAIR010,0,1,2336,260042*3C
$GNGGA,001345.000,4910.428606,N,12304.402254,W,2,25,0.51,4.011,M,-16.817,M,,*40
$GNGLL,4910.428606,N,12304.402254,W,001345.000,A,D*50
$GNGSA,A,3,07,09,08,27,14,20,05,04,13,16,22,,0.88,0.51,0.72,1*00
$GNGSA,A,3,,,,,,,,,,,,,0.88,0.51,0.72,2*03
$GNGSA,A,3,08,02,07,30,25,03,,,,,,,0.88,0.51,0.72,3*08
$GNGSA,A,3,45,36,21,22,42,30,27,26,,,,,0.88,0.51,0.72,4*06
$GPGSV,4,1,13,07,81,040,38,09,43,153,35,08,36,095,35,46,33,187,33,1*66
$GPGSV,4,2,13,27,27,057,31,14,26,216,31,20,25,273,32,05,24,307,28,1*69
$GPGSV,4,3,13,04,14,140,27,13,09,309,29,16,06,045,20,22,05,217,25,1*6E
$GPGSV,4,4,13,18,01,358,,1*50
$GLGSV,1,1,03,76,71,022,18,77,52,252,,75,14,052,16,1*40
$GAGSV,2,1,08,08,78,189,34,02,76,128,36,07,40,304,31,30,34,211,27,7*70
$GAGSV,2,2,08,25,33,052,31,03,29,141,29,33,03,332,19,12,02,021,,7*75
$GBGSV,4,1,13,45,67,253,33,36,58,064,33,21,53,275,30,22,40,193,30,1*75
$GBGSV,4,2,13,38,23,321,28,08,20,335,22,42,17,321,25,30,14,092,26,1*73
$GBGSV,4,3,13,27,12,044,23,26,12,250,24,13,11,345,19,46,08,067,,1*71
$GBGSV,4,4,13,04,01,261,,1*44
$GNRMC,001345.000,A,4910.428606,N,12304.402254,W,0.02,348.30,161024,,,D,V*13
$GNVTG,348.30,T,,M,0.02,N,0.04,K,D*2C
$GNGGA,001346.000,4910.428552,N,12304.402296,W,2,25,0.51,4.129,M,-16.817,M,,*45
$GNGLL,4910.428552,N,12304.402296,W,001346.000,A,D*5F
$GNGSA,A,3,07,09,08,27,14,20,05,04,13,16,22,,0.88,0.51,0.72,1*00
$GNGSA,A,3,,,,,,,,,,,,,0.88,0.51,0.72,2*03
$GNGSA,A,3,08,02,07,30,25,03,,,,,,,0.88,0.51,0.72,3*08
$GNGSA,A,3,45,36,21,22,42,30,27,26,,,,,0.88,0.51,0.72,4*06
$GPGSV,4,1,13,07,81,040,38,09,43,153,35,08,36,095,35,46,33,187,33,1*66
$GPGSV,4,2,13,27,27,057,31,14,26,216,32,20,25,273,32,05,24,307,28,1*6A
$GPGSV,4,3,13,04,14,140,27,13,09,309,29,16,06,045,20,22,05,217,26,1*6D
$GPGSV,4,4,13,18,01,358,,1*50
$GLGSV,2,1,07,76,71,022,18,77,52,252,,67,51,313,,85,15,058,,1*70
$GLGSV,2,2,07,65,14,166,,75,14,052,16,84,11,006,,1*45
$GAGSV,2,1,08,08,78,189,34,02,76,128,36,07,40,304,31,30,34,211,28,7*7F
$GAGSV,2,2,08,25,33,052,32,03,29,141,29,33,03,332,19,12,02,021,,7*76
$GBGSV,4,1,13,45,67,253,33,36,58,064,33,21,53,275,30,22,40,193,30,1*75
$GBGSV,4,2,13,38,23,321,28,08,20,335,21,42,17,321,24,30,14,092,26,1*71
$GBGSV,4,3,13,27,12,044,23,26,12,250,24,13,11,345,19,46,08,067,,1*71
$GBGSV,4,4,13,04,01,261,,1*44
$GNRMC,001346.000,A,4910.428552,N,12304.402296,W,0.02,348.30,161024,,,D,V*1C
$GNVTG,348.30,T,,M,0.02,N,0.04,K,D*2C
$GNGGA,001347.000,4910.428546,N,12304.402362,W,2,25,0.51,4.223,M,-16.816,M,,*43
$GNGLL,4910.428546,N,12304.402362,W,001347.000,A,D*51
$GNGSA,A,3,07,09,08,27,14,20,05,04,13,16,22,,0.88,0.51,0.72,1*00
$GNGSA,A,3,,,,,,,,,,,,,0.88,0.51,0.72,2*03
$GNGSA,A,3,08,02,07,30,25,03,,,,,,,0.88,0.51,0.72,3*08
$GNGSA,A,3,45,36,21,22,42,30,27,26,,,,,0.88,0.51,0.72,4*06
$GPGSV,4,1,13,07,81,040,38,09,43,153,35,08,36,095,35,46,33,187,33,1*66
$GPGSV,4,2,13,27,27,057,31,14,26,216,32,20,25,273,32,05,24,307,28,1*6A
$GPGSV,4,3,13,04,14,140,27,13,09,309,29,16,06,045,20,22,05,217,26,1*6D
$GPGSV,4,4,13,18,01,358,,1*50
$GLGSV,2,1,07,76,71,022,18,77,52,252,,67,51,313,,85,15,058,,1*70
$GLGSV,2,2,07,65,14,166,,75,14,052,16,84,11,006,,1*45
$GAGSV,2,1,08,08,78,189,34,02,76,128,36,07,40,304,31,30,34,211,28,7*7F
$GAGSV,2,2,08,25,33,052,32,03,29,141,29,33,03,332,19,12,02,021,,7*76
$GBGSV,4,1,13,45,67,253,33,36,58,064,33,21,53,275,30,22,40,193,30,1*75
$GBGSV,4,2,13,38,23,321,28,08,20,335,21,42,17,321,24,30,14,092,26,1*71
$GBGSV,4,3,13,27,12,044,22,26,12,250,23,13,11,345,19,46,08,067,,1*77
$GBGSV,4,4,13,04,01,261,,1*44
$GNRMC,001347.000,A,4910.428546,N,12304.402362,W,0.03,348.30,161024,,,D,V*13
$GNVTG,348.30,T,,M,0.03,N,0.05,K,D*2C
$GNGGA,001348.000,4910.428492,N,12304.402374,W,2,25,0.51,4.296,M,-16.816,M,,*4D
$GNGLL,4910.428492,N,12304.402374,W,001348.000,A,D*51
$GNGSA,A,3,07,09,08,27,14,20,05,04,13,16,22,,0.88,0.51,0.72,1*00
$GNGSA,A,3,,,,,,,,,,,,,0.88,0.51,0.72,2*03
$GNGSA,A,3,08,02,07,30,25,03,,,,,,,0.88,0.51,0.72,3*08
$GNGSA,A,3,45,36,21,22,42,30,27,26,,,,,0.88,0.51,0.72,4*06
$GPGSV,4,1,13,07,81,040,38,09,43,153,35,08,36,095,35,46,33,187,33,1*66
$GPGSV,4,2,13,27,27,057,32,14,26,216,32,20,25,273,33,05,24,307,29,1*69
$GPGSV,4,3,13,04,14,140,28,13,09,309,29,16,06,045,20,22,05,217,26,1*62
$GPGSV,4,4,13,18,01,358,,1*50
$GLGSV,2,1,07,76,71,022,18,77,52,252,,67,51,313,,85,15,058,,1*70
$GLGSV,2,2,07,65,14,166,,75,14,052,16,84,11,006,,1*45
$GAGSV,2,1,08,08,78,189,34,02,76,128,36,07,40,304,31,30,34,211,28,7*7F
$GAGSV,2,2,08,25,33,052,32,03,29,141,29,33,03,332,19,12,02,021,,7*76
$GBGSV,4,1,13,45,67,253,33,36,58,064,33,21,53,275,30,22,40,193,30,1*75
$GBGSV,4,2,13,38,23,321,28,08,20,335,21,42,17,321,24,30,14,092,26,1*71
$GBGSV,4,3,13,27,12,044,23,26,12,250,23,13,11,345,19,46,08,067,,1*76
$GBGSV,4,4,13,04,01,261,,1*44
$GNRMC,001348.000,A,4910.428492,N,12304.402374,W,0.02,348.30,161024,,,D,V*12
$GNVTG,348.30,T,,M,0.02,N,0.04,K,D*2C
$GNGGA,001349.000,4910.428498,N,12304.402494,W,2,25,0.51,4.451,M,-16.816,M,,*42
$GNGLL,4910.428498,N,12304.402494,W,001349.000,A,D*53
$GNGSA,A,3,07,09,08,27,14,20,05,04,13,16,22,,0.88,0.51,0.72,1*00
$GNGSA,A,3,,,,,,,,,,,,,0.88,0.51,0.72,2*03
$GNGSA,A,3,08,02,07,30,25,03,,,,,,,0.88,0.51,0.72,3*08
$GNGSA,A,3,45,36,21,22,42,30,26,27,,,,,0.88,0.51,0.72,4*06
$GPGSV,4,1,13,07,81,040,38,09,43,153,35,08,36,095,35,46,33,187,33,1*66
$GPGSV,4,2,13,27,27,057,32,14,26,216,32,20,25,273,33,05,24,307,29,1*69
$GPGSV,4,3,13,04,14,140,29,13,09,309,29,16,06,045,20,22,05,217,26,1*63
$GPGSV,4,4,13,18,01,358,,1*50
$GLGSV,2,1,06,76,71,022,18,77,52,252,,67,51,313,,85,15,058,,1*71
$GLGSV,2,2,06,65,14,166,,75,14,052,16,1*7E
$GAGSV,2,1,08,08,78,189,34,02,76,128,36,07,40,304,31,30,34,211,28,7*7F
$GAGSV,2,2,08,25,33,052,32,03,29,141,29,33,03,332,20,12,02,021,,7*7C
$GBGSV,4,1,13,45,67,253,33,36,58,064,33,21,53,275,30,22,40,193,30,1*75
$GBGSV,4,2,13,38,23,321,28,08,20,335,21,42,17,321,25,30,14,092,26,1*70
$GBGSV,4,3,13,26,12,250,23,27,12,044,23,13,11,345,19,46,08,067,,1*76
$GBGSV,4,4,13,04,01,261,,1*44
$GNRMC,001349.000,A,4910.428498,N,12304.402494,W,0.02,348.30,161024,,,D,V*10
$GNVTG,348.30,T,,M,0.02,N,0.03,K,D*2B
$GNGGA,001350.000,4910.428474,N,12304.402626,W,2,25,0.51,4.508,M,-16.816,M,,*4E
$GNGLL,4910.428474,N,12304.402626,W,001350.000,A,D*52
$GNGSA,A,3,07,09,08,27,14,20,05,04,13,16,22,,0.88,0.51,0.72,1*00
$GNGSA,A,3,,,,,,,,,,,,,0.88,0.51,0.72,2*03
$GNGSA,A,3,08,02,07,30,25,03,,,,,,,0.88,0.51,0.72,3*08
$GNGSA,A,3,45,36,21,22,42,30,27,26,,,,,0.88,0.51,0.72,4*06
$GPGSV,4,1,13,07,81,040,38,09,43,153,35,08,36,095,35,46,33,187,33,1*66
$GPGSV,4,2,13,27,27,057,32,14,26,216,32,20,25,273,33,05,24,307,29,1*69
$GPGSV,4,3,13,04,14,140,29,13,09,309,29,16,06,045,21,22,05,217,26,1*62
$GPGSV,4,4,13,18,01,358,,1*50
$GLGSV,2,1,07,76,71,022,18,77,52,252,,67,51,313,,85,15,058,,1*70
$GLGSV,2,2,07,65,14,166,,75,14,052,16,84,11,006,,1*45
$GAGSV,2,1,08,08,78,189,35,02,76,128,36,07,40,304,31,30,34,211,28,7*7E
$GAGSV,2,2,08,25,33,052,32,03,29,141,29,33,03,332,20,12,02,021,,7*7C
$GBGSV,4,1,13,45,67,253,33,36,58,064,33,21,53,275,30,22,40,193,30,1*75
$GBGSV,4,2,13,38,23,321,28,08,20,335,21,42,17,321,25,30,14,092,26,1*70
$GBGSV,4,3,13,27,12,044,24,26,12,250,24,13,11,345,19,46,08,067,,1*76
$GBGSV,4,4,13,04,01,261,,1*44
$GNRMC,001350.000,A,4910.428474,N,12304.402626,W,0.02,348.30,161024,,,D,V*11
$GNVTG,348.30,T,,M,0.02,N,0.04,K,D*2C
$GNGGA,001351.000,4910.428498,N,12304.402836,W,2,25,0.51,4.690,M,-16.816,M,,*40
$GNGLL,4910.428498,N,12304.402836,W,001351.000,A,D*5E
$GNGSA,A,3,07,09,08,27,14,20,05,04,13,16,22,,0.88,0.51,0.72,1*00
$GNGSA,A,3,,,,,,,,,,,,,0.88,0.51,0.72,2*03
$GNGSA,A,3,08,02,07,30,25,03,,,,,,,0.88,0.51,0.72,3*08
$GNGSA,A,3,45,36,21,22,42,30,26,27,,,,,0.88,0.51,0.72,4*06
$GPGSV,4,1,13,07,81,040,38,09,43,153,35,08,36,095,35,46,33,187,33,1*66
$GPGSV,4,2,13,27,27,057,32,14,26,216,32,20,25,273,33,05,24,307,29,1*69
$GPGSV,4,3,13,04,14,140,29,13,09,309,29,16,06,045,21,22,05,217,26,1*62
$GPGSV,4,4,13,18,01,358,,1*50
$GLGSV,2,1,05,76,71,022,18,77,52,252,,67,51,313,,75,14,052,16,1*71
$GLGSV,2,2,05,84,11,006,,1*47
$GAGSV,2,1,08,08,78,189,35,02,76,128,36,07,40,304,31,30,34,211,28,7*7E
$GAGSV,2,2,08,25,33,052,32,03,29,141,29,33,03,332,20,12,02,021,,7*7C
$GBGSV,4,1,13,45,67,253,33,36,58,064,33,21,53,275,30,22,40,193,30,1*75
$GBGSV,4,2,13,38,23,321,28,08,20,335,21,42,17,321,25,30,14,092,26,1*70
$GBGSV,4,3,13,26,12,250,24,27,12,044,21,13,11,345,19,46,08,067,,1*73
$GBGSV,4,4,13,04,01,261,,1*44
$GNRMC,001351.000,A,4910.428498,N,12304.402836,W,0.03,348.30,161024,,,D,V*1C
$GNVTG,348.30,T,,M,0.03,N,0.05,K,D*2C
$GNGGA,001352.000,4910.428474,N,12304.402980,W,2,25,0.51,4.915,M,-16.816,M,,*4F
$GNGLL,4910.428474,N,12304.402980,W,001352.000,A,D*53
$GNGSA,A,3,07,09,08,27,14,20,05,04,13,16,22,,0.88,0.51,0.72,1*00
$GNGSA,A,3,,,,,,,,,,,,,0.88,0.51,0.72,2*03
$GNGSA,A,3,08,02,07,30,25,03,,,,,,,0.88,0.51,0.72,3*08
$GNGSA,A,3,45,36,21,22,42,30,26,27,,,,,0.88,0.51,0.72,4*06
$GPGSV,4,1,13,07,81,040,38,09,43,153,35,08,36,095,35,46,33,187,33,1*66
$GPGSV,4,2,13,27,27,057,32,14,26,216,32,20,25,273,33,05,24,307,29,1*69
$GPGSV,4,3,13,04,14,140,29,13,09,309,29,16,06,045,21,22,05,217,26,1*62
$GPGSV,4,4,13,18,01,358,,1*50
$GLGSV,2,1,06,76,71,022,18,77,52,252,,67,51,313,19,85,15,058,,1*79
$GLGSV,2,2,06,65,14,166,,75,14,052,15,1*7D
$GAGSV,2,1,08,08,78,189,35,02,76,128,36,07,40,304,31,30,34,211,28,7*7E
$GAGSV,2,2,08,25,33,052,32,03,29,141,29,33,03,332,20,12,02,021,,7*7C
$GBGSV,4,1,13,45,67,253,34,36,58,064,33,21,53,275,31,22,40,193,30,1*73
$GBGSV,4,2,13,38,23,321,28,08,20,335,21,42,17,321,25,30,14,092,27,1*71
$GBGSV,4,3,13,26,12,250,24,27,12,044,23,13,11,345,19,46,08,067,,1*71
$GBGSV,4,4,13,04,01,261,,1*44
$GNRMC,001352.000,A,4910.428474,N,12304.402980,W,0.02,348.30,161024,,,D,V*10
$GNVTG,348.30,T,,M,0.02,N,0.04,K,D*2C
$GNGGA,001353.000,4910.428468,N,12304.403130,W,2,25,0.51,5.074,M,-16.816,M,,*4E
$GNGLL,4910.428468,N,12304.403130,W,001353.000,A,D*5D
$GNGSA,A,3,07,09,08,27,14,20,05,04,13,16,22,,0.88,0.51,0.72,1*00
$GNGSA,A,3,,,,,,,,,,,,,0.88,0.51,0.72,2*03
$GNGSA,A,3,08,02,07,30,25,03,,,,,,,0.88,0.51,0.72,3*08
$GNGSA,A,3,45,36,21,22,42,30,27,26,,,,,0.88,0.51,0.72,4*06
$GPGSV,4,1,13,07,81,040,38,09,43,153,35,08,36,095,35,46,33,187,33,1*66
$GPGSV,4,2,13,27,27,057,32,14,26,216,32,20,25,273,33,05,24,307,29,1*69
$GPGSV,4,3,13,04,14,140,29,13,09,309,29,16,06,045,21,22,05,217,26,1*62
$GPGSV,4,4,13,18,01,358,,1*50
$GLGSV,2,1,07,76,71,022,17,77,52,252,,67,51,313,17,85,15,058,,1*79
$GLGSV,2,2,07,65,14,166,,75,14,052,15,84,11,006,,1*46
$GAGSV,2,1,08,08,78,189,35,02,76,128,36,07,40,304,31,30,34,211,28,7*7E
$GAGSV,2,2,08,25,33,052,32,03,29,141,29,33,03,332,20,12,02,021,,7*7C
$GBGSV,4,1,13,45,67,253,34,36,58,064,33,21,53,275,31,22,40,193,30,1*73
$GBGSV,4,2,13,38,23,321,28,08,20,335,21,42,17,321,25,30,14,092,27,1*71
$GBGSV,4,3,13,27,12,044,23,26,12,250,24,13,11,345,19,46,08,067,,1*71
$GBGSV,4,4,13,04,01,261,,1*44
$GNRMC,001353.000,A,4910.428468,N,12304.403130,W,0.02,348.30,161024,,,D,V*1E
$GNVTG,348.30,T,,M,0.02,N,0.04,K,D*2C
$GNGGA,001354.000,4910.428528,N,12304.403268,W,2,25,0.51,5.208,M,-16.817,M,,*4A
$GNGLL,4910.428528,N,12304.403268,W,001354.000,A,D*51
$GNGSA,A,3,07,09,08,27,14,20,05,04,13,16,22,,0.88,0.51,0.72,1*00
$GNGSA,A,3,,,,,,,,,,,,,0.88,0.51,0.72,2*03
$GNGSA,A,3,08,02,07,30,25,03,,,,,,,0.88,0.51,0.72,3*08
$GNGSA,A,3,45,36,21,22,42,30,27,26,,,,,0.88,0.51,0.72,4*06
$GPGSV,4,1,13,07,81,040,38,09,43,153,35,08,36,095,35,46,33,187,33,1*66
$GPGSV,4,2,13,27,27,057,32,14,26,216,32,20,25,273,33,05,24,307,29,1*69
$GPGSV,4,3,13,04,14,140,29,13,09,309,29,16,06,045,21,22,05,217,26,1*62
$GPGSV,4,4,13,18,01,358,,1*50
$GLGSV,2,1,07,76,71,022,17,77,52,252,,67,51,313,22,85,15,058,,1*7F
$GLGSV,2,2,07,65,14,166,,75,14,052,15,84,11,006,,1*46
$GAGSV,2,1,08,08,78,189,35,02,76,128,36,07,40,304,31,30,34,211,28,7*7E
$GAGSV,2,2,08,25,33,052,32,03,29,141,29,33,03,332,20,12,02,021,,7*7C
$GBGSV,4,1,13,45,67,253,34,36,58,064,33,21,53,275,31,22,40,193,30,1*73
$GBGSV,4,2,13,38,23,321,28,08,20,335,22,42,17,321,25,30,14,092,27,1*72
$GBGSV,4,3,13,27,12,044,23,26,12,250,24,13,11,345,19,46,08,067,,1*71
$GBGSV,4,4,13,04,01,261,,1*44
$GNRMC,001354.000,A,4910.428528,N,12304.403268,W,0.03,348.30,161024,,,D,V*13
$GNVTG,348.30,T,,M,0.03,N,0.05,K,D*2C
$GNGGA,001355.000,4910.428498,N,12304.403298,W,2,25,0.51,5.488,M,-16.816,M,,*41
$GNGLL,4910.428498,N,12304.403298,W,001355.000,A,D*55
$GNGSA,A,3,07,09,08,27,14,20,05,04,13,16,22,,0.88,0.51,0.72,1*00
$GNGSA,A,3,,,,,,,,,,,,,0.88,0.51,0.72,2*03
$GNGSA,A,3,08,02,07,30,25,03,,,,,,,0.88,0.51,0.72,3*08
$GNGSA,A,3,45,36,21,22,42,30,27,26,,,,,0.88,0.51,0.72,4*06
$GPGSV,4,1,13,07,81,040,38,09,43,153,35,08,36,095,35,46,33,187,33,1*66
$GPGSV,4,2,13,27,27,057,32,14,26,216,32,20,25,273,33,05,24,307,29,1*69
$GPGSV,4,3,13,04,14,140,29,13,09,309,29,16,06,045,21,22,05,217,27,1*63
$GPGSV,4,4,13,18,01,358,,1*50
$GLGSV,2,1,07,76,71,022,17,77,52,252,,67,51,313,20,85,15,058,,1*7D
$GLGSV,2,2,07,65,14,166,,75,14,052,15,84,11,006,,1*46
$GAGSV,2,1,08,08,78,189,35,02,76,128,36,07,40,304,31,30,34,211,28,7*7E
$GAGSV,2,2,08,25,33,052,32,03,29,141,29,33,03,332,20,12,02,021,,7*7C
$GBGSV,4,1,13,45,67,253,34,36,58,064,33,21,53,275,31,22,40,193,30,1*73
$GBGSV,4,2,13,38,23,321,28,08,20,335,22,42,17,321,25,30,14,092,27,1*72
$GBGSV,4,3,13,27,12,044,23,26,12,250,24,13,11,345,19,46,08,067,,1*71
$GBGSV,4,4,13,04,01,261,,1*44
$GNRMC,001355.000,A,4910.428498,N,12304.403298,W,0.02,348.30,161024,,,D,V*16
$GNVTG,348.30,T,,M,0.02,N,0.04,K,D*2C
$GNGGA,001356.000,4910.428534,N,12304.403466,W,2,25,0.51,5.660,M,-16.817,M,,*47
$GNGLL,4910.428534,N,12304.403466,W,001356.000,A,D*56
$GNGSA,A,3,07,09,08,27,14,20,05,04,13,16,22,,0.88,0.51,0.72,1*00
$GNGSA,A,3,,,,,,,,,,,,,0.88,0.51,0.72,2*03
$GNGSA,A,3,08,02,07,30,25,03,,,,,,,0.88,0.51,0.72,3*08
$GNGSA,A,3,45,36,21,22,42,30,26,27,,,,,0.88,0.51,0.72,4*06
$GPGSV,4,1,13,07,81,040,38,09,43,153,35,08,36,095,35,46,33,187,33,1*66
$GPGSV,4,2,13,27,27,057,32,14,26,216,32,20,25,273,33,05,24,307,29,1*69
$GPGSV,4,3,13,04,14,140,29,13,09,309,29,16,06,045,21,22,05,217,26,1*62
$GPGSV,4,4,13,18,01,358,,1*50
$GLGSV,2,1,07,76,71,022,17,77,52,252,,67,51,313,20,85,15,058,,1*7D
$GLGSV,2,2,07,65,14,166,,75,14,052,15,84,11,006,,1*46
$GAGSV,2,1,08,08,78,189,35,02,76,128,36,07,40,304,31,30,34,211,28,7*7E
$GAGSV,2,2,08,25,33,052,32,03,29,141,29,33,03,332,20,12,02,021,,7*7C
$GBGSV,3,1,12,45,67,253,34,36,58,064,33,21,53,275,31,22,40,193,30,1*75
$GBGSV,3,2,12,38,23,321,28,08,20,335,22,42,17,321,25,30,14,092,27,1*74
$GBGSV,3,3,12,26,12,250,24,27,12,044,23,13,11,345,19,04,01,261,,1*7C
$GNRMC,001356.000,A,4910.428534,N,12304.403466,W,0.03,348.30,161024,,,D,V*14
$GNVTG,348.30,T,,M,0.03,N,0.06,K,D*2F
$GNGGA,001357.000,4910.428528,N,12304.403622,W,2,25,0.51,5.835,M,-16.817,M,,*47
$GNGLL,4910.428528,N,12304.403622,W,001357.000,A,D*58
$GNGSA,A,3,07,09,08,27,14,20,05,04,13,16,22,,0.88,0.51,0.72,1*00
$GNGSA,A,3,,,,,,,,,,,,,0.88,0.51,0.72,2*03
$GNGSA,A,3,08,02,07,30,25,03,,,,,,,0.88,0.51,0.72,3*08
$GNGSA,A,3,45,36,21,22,42,30,26,27,,,,,0.88,0.51,0.72,4*06
$GPGSV,4,1,13,07,81,041,38,09,43,153,35,08,36,095,35,46,33,187,33,1*67
$GPGSV,4,2,13,27,27,057,33,14,26,216,32,20,25,273,33,05,24,307,29,1*68
$GPGSV,4,3,13,04,13,140,30,13,09,309,29,16,05,045,21,22,05,217,26,1*6E
$GPGSV,4,4,13,18,01,358,,1*50
$GLGSV,2,1,07,76,71,023,17,77,52,252,,67,51,312,21,85,15,057,,1*73
$GLGSV,2,2,07,65,14,167,,75,14,052,15,84,11,006,,1*47
$GAGSV,2,1,08,08,77,188,35,02,76,128,36,07,40,304,31,30,34,211,28,7*70
$GAGSV,2,2,08,25,33,052,32,03,29,141,29,33,03,332,20,12,02,021,,7*7C
$GBGSV,4,1,13,45,67,253,34,36,58,064,33,21,53,275,31,22,39,193,30,1*7D
$GBGSV,4,2,13,38,23,321,28,08,20,335,22,42,18,321,25,30,15,092,27,1*7C
$GBGSV,4,3,13,26,12,250,24,27,12,044,23,13,11,345,19,46,07,067,,1*7E
$GBGSV,4,4,13,04,01,261,,1*44
$GNRMC,001357.000,A,4910.428528,N,12304.403622,W,0.04,348.30,161024,,,D,V*1D
$GNVTG,348.30,T,,M,0.04,N,0.07,K,D*29
$GNGGA,001358.000,4910.428456,N,12304.403646,W,2,25,0.51,6.025,M,-16.816,M,,*49
$GNGLL,4910.428456,N,12304.403646,W,001358.000,A,D*5D
$GNGSA,A,3,07,09,08,27,14,20,05,04,13,16,22,,0.88,0.51,0.72,1*00
$GNGSA,A,3,,,,,,,,,,,,,0.88,0.51,0.72,2*03
$GNGSA,A,3,08,02,07,30,25,03,,,,,,,0.88,0.51,0.72,3*08
$GNGSA,A,3,45,36,21,22,42,30,26,27,,,,,0.88,0.51,0.72,4*06
$GPGSV,4,1,13,07,81,041,38,09,43,153,35,08,36,095,35,46,33,187,33,1*67
$GPGSV,4,2,13,27,27,057,33,14,26,216,32,20,25,273,33,05,24,307,29,1*68
$GPGSV,4,3,13,04,13,140,30,13,09,309,29,16,05,045,21,22,05,217,26,1*6E
$GPGSV,4,4,13,18,01,358,,1*50
$GLGSV,2,1,07,76,71,023,18,77,52,252,,67,51,312,21,85,15,057,,1*7C
$GLGSV,2,2,07,65,14,167,,75,14,052,15,84,11,006,,1*47
$GAGSV,2,1,08,08,77,188,35,02,76,128,36,07,40,304,31,30,34,211,28,7*70
$GAGSV,2,2,08,25,33,052,32,03,29,141,29,33,03,332,20,12,02,021,,7*7C
$GBGSV,4,1,13,45,67,253,34,36,58,064,33,21,53,275,31,22,39,193,30,1*7D
$GBGSV,4,2,13,38,23,321,28,08,20,335,22,42,18,321,26,30,15,092,27,1*7F
$GBGSV,4,3,13,26,12,250,24,27,12,044,23,13,11,345,19,46,07,067,,1*7E
$GBGSV,4,4,13,04,01,261,,1*44
$GNRMC,001358.000,A,4910.428456,N,12304.403646,W,0.03,348.30,161024,,,D,V*1F
$GNVTG,348.30,T,,M,0.03,N,0.06,K,D*2F
$GNGGA,001359.000,4910.428378,N,12304.403604,W,2,25,0.51,6.189,M,-16.817,M,,*43
$GNGLL,4910.428378,N,12304.403604,W,001359.000,A,D*51
$GNGSA,A,3,07,09,08,27,14,20,05,04,13,16,22,,0.88,0.51,0.72,1*00
$GNGSA,A,3,,,,,,,,,,,,,0.88,0.51,0.72,2*03
$GNGSA,A,3,08,02,07,30,25,03,,,,,,,0.88,0.51,0.72,3*08
$GNGSA,A,3,45,36,21,22,42,30,26,27,,,,,0.88,0.51,0.72,4*06
$GPGSV,4,1,13,07,81,041,38,09,43,153,35,08,36,095,35,46,33,187,33,1*67
$GPGSV,4,2,13,27,27,057,33,14,26,216,31,20,25,273,33,05,24,307,28,1*6A
$GPGSV,4,3,13,04,13,140,30,13,09,309,29,16,05,045,21,22,05,217,25,1*6D
$GPGSV,4,4,13,18,01,358,,1*50
$GLGSV,2,1,07,76,71,023,18,77,52,252,,67,51,312,22,85,15,057,,1*7F
$GLGSV,2,2,07,65,14,167,,75,14,052,15,84,11,006,,1*47
$GAGSV,2,1,08,08,77,188,35,02,76,128,36,07,40,304,31,30,34,211,28,7*70
$GAGSV,2,2,08,25,33,052,31,03,29,141,29,33,03,332,19,12,02,021,,7*75
$GBGSV,4,1,13,45,67,253,34,36,58,064,33,21,53,275,30,22,39,193,30,1*7C
$GBGSV,4,2,13,38,23,321,28,08,20,335,22,42,18,321,24,30,15,092,27,1*7D
$GBGSV,4,3,13,26,12,250,24,27,12,044,23,13,11,345,19,46,07,067,,1*7E
$GBGSV,4,4,13,04,01,261,,1*44
$GNRMC,001359.000,A,4910.428378,N,12304.403604,W,0.03,348.30,161024,,,D,V*13
$GNVTG,348.30,T,,M,0.03,N,0.05,K,D*2C
$GNGGA,001400.000,4910.428270,N,12304.403538,W,2,25,0.51,6.415,M,-16.816,M,,*4C
$GNGLL,4910.428270,N,12304.403538,W,001400.000,A,D*5F
$GNGSA,A,3,07,09,08,27,14,20,05,04,13,16,22,,0.88,0.51,0.72,1*00
$GNGSA,A,3,,,,,,,,,,,,,0.88,0.51,0.72,2*03
$GNGSA,A,3,08,02,07,30,25,03,,,,,,,0.88,0.51,0.72,3*08
$GNGSA,A,3,45,36,21,22,42,30,26,27,,,,,0.88,0.51,0.72,4*06
$GPGSV,4,1,13,07,81,041,39,09,43,153,35,08,36,095,35,46,33,187,33,1*66
$GPGSV,4,2,13,27,27,057,33,14,26,216,31,20,25,273,33,05,24,307,28,1*6A
$GPGSV,4,3,13,04,13,140,30,13,09,309,29,16,05,045,21,22,05,217,27,1*6F
$GPGSV,4,4,13,18,01,358,,1*50
$GLGSV,2,1,07,76,71,023,18,77,52,252,,67,51,312,22,85,15,057,,1*7F
$GLGSV,2,2,07,65,14,167,,75,14,052,15,84,11,006,,1*47
$GAGSV,2,1,08,08,77,188,35,02,76,128,36,07,40,304,31,30,34,211,28,7*70
$GAGSV,2,2,08,25,33,052,31,03,29,141,29,33,03,332,19,12,02,021,,7*75
$GBGSV,4,1,13,45,67,253,34,36,58,064,32,21,53,275,29,22,39,193,29,1*7D
$GBGSV,4,2,13,38,23,321,28,08,20,335,21,42,18,321,23,30,15,092,27,1*79
$GBGSV,4,3,13,26,12,250,24,27,12,044,23,13,11,345,19,46,07,067,,1*7E
$GBGSV,4,4,13,04,01,261,,1*44
$GNRMC,001400.000,A,4910.428270,N,12304.403538,W,0.02,348.30,161024,,,D,V*1C
$GNVTG,348.30,T,,M,0.02,N,0.04,K,D*2C
$GNGGA,001401.000,4910.428132,N,12304.403448,W,2,25,0.51,6.524,M,-16.816,M,,*4D
$GNGLL,4910.428132,N,12304.403448,W,001401.000,A,D*5D
$GNGSA,A,3,07,09,08,27,14,20,05,04,13,22,16,,0.88,0.51,0.72,1*00
$GNGSA,A,3,,,,,,,,,,,,,0.88,0.51,0.72,2*03
$GNGSA,A,3,08,02,07,30,25,03,,,,,,,0.88,0.51,0.72,3*08
$GNGSA,A,3,45,36,21,22,42,30,27,26,,,,,0.88,0.51,0.72,4*06
$GPGSV,4,1,13,07,81,041,39,09,43,153,35,08,36,095,35,46,33,187,33,1*66
$GPGSV,4,2,13,27,27,057,33,14,26,216,31,20,25,273,33,05,24,307,28,1*6A
$GPGSV,4,3,13,04,13,140,30,13,09,309,29,22,05,217,27,16,05,045,21,1*6F
$GPGSV,4,4,13,18,01,358,,1*50
$GLGSV,1,1,04,76,71,023,18,77,52,252,,67,51,312,22,75,14,052,15,1*70
$GAGSV,2,1,08,08,77,188,35,02,76,128,36,07,40,304,31,30,34,211,28,7*70
$GAGSV,2,2,08,25,33,052,31,03,29,141,29,33,03,332,19,12,02,021,,7*75
$GBGSV,4,1,13,45,67,253,33,36,58,064,32,21,53,275,29,22,39,193,28,1*7B
$GBGSV,4,2,13,38,23,321,28,08,20,335,21,42,18,321,23,30,15,092,27,1*79
$GBGSV,4,3,13,27,12,044,23,26,12,250,24,13,11,345,19,46,07,067,,1*7E
$GBGSV,4,4,13,04,01,261,,1*44
$GNRMC,001401.000,A,4910.428132,N,12304.403448,W,0.02,348.30,161024,,,D,V*1E
$GNVTG,348.30,T,,M,0.02,N,0.04,K,D*2C
$GNGGA,001402.000,4910.428030,N,12304.403358,W,2,25,0.51,6.781,M,-16.816,M,,*46
$GNGLL,4910.428030,N,12304.403358,W,001402.000,A,D*5B
$GNGSA,A,3,07,09,08,27,14,20,05,04,13,16,22,,0.88,0.51,0.72,1*00
$GNGSA,A,3,,,,,,,,,,,,,0.88,0.51,0.72,2*03
$GNGSA,A,3,08,02,07,30,25,03,,,,,,,0.88,0.51,0.72,3*08
$GNGSA,A,3,45,36,21,22,42,30,26,27,,,,,0.88,0.51,0.72,4*06
$GPGSV,4,1,13,07,81,041,39,09,43,153,35,08,36,095,35,46,33,187,33,1*66
$GPGSV,4,2,13,27,27,057,33,14,26,216,31,20,25,273,33,05,24,307,28,1*6A
$GPGSV,4,3,13,04,13,140,30,13,09,309,29,16,05,045,21,22,05,217,27,1*6F
$GPGSV,4,4,13,18,01,358,,1*50
$GLGSV,2,1,07,76,71,023,18,77,52,252,,67,51,312,23,85,15,057,,1*7E
$GLGSV,2,2,07,65,14,167,,75,14,052,15,84,11,006,,1*47
$GAGSV,2,1,08,08,77,188,35,02,76,128,36,07,40,304,31,30,34,211,28,7*70
$GAGSV,2,2,08,25,33,052,32,03,29,141,30,33,03,332,19,12,02,021,,7*7E
$GBGSV,4,1,13,45,67,253,33,36,58,064,32,21,53,275,29,22,39,193,28,1*7B
$GBGSV,4,2,13,38,23,321,28,08,20,335,21,42,18,321,23,30,15,092,27,1*79
$GBGSV,4,3,13,26,12,250,24,27,12,044,23,13,11,345,19,46,07,067,,1*7E
$GBGSV,4,4,13,04,01,261,,1*44
$GNRMC,001402.000,A,4910.428030,N,12304.403358,W,0.02,348.30,161024,,,D,V*18
$GNVTG,348.30,T,,M,0.02,N,0.04,K,D*2C
$GNGGA,001403.000,4910.427850,N,12304.403304,W,2,25,0.51,6.964,M,-16.817,M,,*4B
$GNGLL,4910.427850,N,12304.403304,W,001403.000,A,D*52
$GNGSA,A,3,07,09,08,27,14,20,05,04,13,16,22,,0.88,0.51,0.72,1*00
$GNGSA,A,3,,,,,,,,,,,,,0.88,0.51,0.72,2*03
$GNGSA,A,3,08,02,07,30,25,03,,,,,,,0.88,0.51,0.72,3*08
$GNGSA,A,3,45,36,21,22,42,30,26,27,,,,,0.88,0.51,0.72,4*06
$GPGSV,4,1,13,07,81,041,39,09,43,153,35,08,36,095,35,46,33,187,33,1*66
$GPGSV,4,2,13,27,27,057,33,14,26,216,31,20,25,273,33,05,24,307,28,1*6A
$GPGSV,4,3,13,04,13,140,30,13,09,309,29,16,05,045,21,22,05,217,27,1*6F
$GPGSV,4,4,13,18,01,358,,1*50
$GLGSV,2,1,07,76,71,023,18,77,52,252,,67,51,312,23,85,15,057,,1*7E
$GLGSV,2,2,07,65,14,167,,75,14,052,14,84,11,006,,1*46
$GAGSV,2,1,08,08,77,188,35,02,76,128,36,07,40,304,32,30,34,211,28,7*73
$GAGSV,2,2,08,25,33,052,32,03,29,141,30,33,03,332,19,12,02,021,,7*7E
$GBGSV,4,1,13,45,67,253,33,36,58,064,32,21,53,275,29,22,39,193,28,1*7B
$GBGSV,4,2,13,38,23,321,28,08,20,335,21,42,18,321,24,30,15,092,27,1*7E
$GBGSV,4,3,13,26,12,250,24,27,12,044,23,13,11,345,19,46,07,067,,1*7E
$GBGSV,4,4,13,04,01,261,,1*44
$GNRMC,001403.000,A,4910.427850,N,12304.403304,W,0.02,348.30,161024,,,D,V*11
$GNVTG,348.30,T,,M,0.02,N,0.04,K,D*2C
$GNGGA,001404.000,4910.427670,N,12304.403226,W,2,25,0.51,7.144,M,-16.817,M,,*4A
$GNGLL,4910.427670,N,12304.403226,W,001404.000,A,D*58
$GNGSA,A,3,07,09,08,27,14,20,05,04,13,22,16,,0.88,0.51,0.72,1*00
$GNGSA,A,3,,,,,,,,,,,,,0.88,0.51,0.72,2*03
$GNGSA,A,3,08,02,07,30,25,03,,,,,,,0.88,0.51,0.72,3*08
$GNGSA,A,3,45,36,21,22,42,30,27,26,,,,,0.88,0.51,0.72,4*06
$GPGSV,4,1,13,07,81,041,39,09,43,153,35,08,36,095,35,46,33,187,33,1*66
$GPGSV,4,2,13,27,27,057,33,14,26,216,31,20,25,273,33,05,24,307,29,1*6B
$GPGSV,4,3,13,04,13,140,30,13,09,309,29,22,05,217,27,16,05,045,21,1*6F
$GPGSV,4,4,13,18,01,358,,1*50
$GLGSV,1,1,04,76,71,023,18,77,52,252,,67,51,312,23,75,14,052,14,1*70
$GAGSV,2,1,08,08,77,188,35,02,76,128,36,07,40,304,32,30,34,211,28,7*73
$GAGSV,2,2,08,25,33,052,32,03,29,141,30,33,03,332,19,12,02,021,,7*7E
$GBGSV,4,1,13,45,67,253,33,36,58,064,32,21,53,275,29,22,39,193,28,1*7B
$GBGSV,4,2,13,38,23,321,28,08,20,335,21,42,18,321,24,30,15,092,27,1*7E
$GBGSV,4,3,13,27,12,044,24,26,12,250,24,13,11,345,19,46,07,067,,1*79
$GBGSV,4,4,13,04,01,261,,1*44
$GNRMC,001404.000,A,4910.427670,N,12304.403226,W,0.02,348.30,161024,,,D,V*1B
$GNVTG,348.30,T,,M,0.02,N,0.04,K,D*2C
$GNGGA,001405.000,4910.427496,N,12304.403202,W,2,25,0.51,7.247,M,-16.817,M,,*47
$GNGLL,4910.427496,N,12304.403202,W,001405.000,A,D*55
