,45,28,280,37,1*4D
$GBGSV,1,1,00,5*72
$GQGSV,1,1,00,1*65
$GQGSV,1,1,00,8*6C
$PQTMDRCAL,1,0,1*5C
$PQTMVEHATT,1,4570833,0.000000,0.000000,142.098160,89.989998,179.990005,3.726868*31
$PQTMDRPVA,1,4570833,072312.000,1,49.18802796,-123.11690220,0.589,-16.830,-0.004,0.003,0.003,0.005,0.000000,0.000000,142.098160*72
$GNGGA,072313.000,4911.281675,N,12307.014140,W,1,35,0.69,0.590,M,-16.829,M,,*4D
$GNRMC,072313.000,A,4911.281675,N,12307.014140,W,0.010,142.10,011224,,,A,V*2A
$GNGLL,4911.281675,N,12307.014140,W,072313.000,A,A*54
$GNVTG,142.10,T,,M,0.010,N,0.019,K,A*2C
$GNGSA,A,3,05,11,13,15,18,20,25,26,29,,,,1.16,0.69,0.93,1*02
$GNGSA,A,3,65,66,73,79,80,81,82,88,,,,,1.16,0.69,0.93,2*03
$GNGSA,A,3,07,10,12,24,25,26,29,31,33,,,,1.16,0.69,0.93,3*09
$GNGSA,A,3,16,27,29,30,32,36,39,41,45,,,,1.16,0.69,0.93,4*07
$GNGSA,A,3,,,,,,,,,,,,,1.16,0.69,0.93,5*06
$GPGSV,3,1,10,05,58,082,40,11,11,066,38,13,04,108,38,15,07,141,37,1*6D
$GPGSV,3,2,10,18,47,255,30,20,31,051,49,25,28,190,33,26,31,302,37,1*60
$GPGSV,3,3,10,29,85,087,40,48,32,192,28,1*65
$GPGSV,1,1,00,8*6D
$GLGSV,2,1,08,65,30,044,40,66,34,106,43,73,19,332,25,79,20,211,30,1*74
$GLGSV,2,2,08,80,43,271,39,81,60,042,27,82,52,297,42,88,12,078,37,1*72
$GAGSV,3,1,09,07,13,050,37,10,28,249,33,12,52,253,30,24,50,283,37,7*75
$GAGSV,3,2,09,25,11,323,21,26,17,064,45,29,11,102,46,31,44,198,27,7*71
$GAGSV,3,3,09,33,66,053,20,7*4E
$GAGSV,1,1,00,1*75
$GBGSV,3,1,11,16,11,312,17,20,,,27,26,,,25,27,26,091,43,1*7F
$GBGSV,3,2,11,29,41,283,39,30,76,067,33,32,38,120,33,36,20,227,30,1*73
$GBGSV,3,3,11,39,09,304,15,41,28,053,42,45,28,280,37,1*4C
$GBGSV,1,1,00,5*72
$GQGSV,1,1,00,1*65
$GQGSV,1,1,00,8*6C
$PQTMDRCAL,1,0,1*5C
$PQTMVEHATT,1,4571833,0.000000,0.000000,142.098160,89.989998,179.990005,3.726868*30
$PQTMDRPVA,1,4571833,072313.000,1,49.18802792,-123.11690233,0.590,-16.829,-0.004,0.003,0.001,0.005,0.000000,0.000000,142.098160*76
$GNGGA,072314.000,4911.281674,N,12307.014151,W,1,35,0.69,0.594,M,-16.829,M,,*4F
$GNRMC,072314.000,A,4911.281674,N,12307.014151,W,0.010,142.10,011224,,,A,V*2C
$GNGLL,4911.281674,N,12307.014151,W,072314.000,A,A*52
$GNVTG,142.10,T,,M,0.010,N,0.019,K,A*2C
$GNGSA,A,3,05,11,13,15,18,20,25,26,29,,,,1.16,0.69,0.93,1*02
$GNGSA,A,3,65,66,73,79,80,81,82,88,,,,,1.16,0.69,0.93,2*03
$GNGSA,A,3,07,10,12,24,25,26,29,31,33,,,,1.16,0.69,0.93,3*09
$GNGSA,A,3,16,27,29,30,32,36,39,41,45,,,,1.16,0.69,0.93,4*07
$GNGSA,A,3,,,,,,,,,,,,,1.16,0.69,0.93,5*06
$GPGSV,3,1,10,05,58,082,40,11,11,066,38,13,04,108,38,15,07,141,37,1*6D
$GPGSV,3,2,10,18,47,255,30,20,31,051,49,25,28,190,34,26,31,302,37,1*67
$GPGSV,3,3,10,29,85,087,40,48,32,192,28,1*65
$GPGSV,1,1,00,8*6D
$GLGSV,2,1,08,65,30,044,40,66,34,106,43,73,19,332,25,79,20,211,31,1*75
$GLGSV,2,2,08,80,43,271,40,81,60,042,28,82,52,297,43,88,12,078,38,1*7D
$GAGSV,3,1,09,07,13,050,37,10,28,249,34,12,52,253,29,24,50,283,38,7*75
$GAGSV,3,2,09,25,11,323,20,26,17,064,44,29,11,102,46,31,44,198,26,7*70
$GAGSV,3,3,09,33,66,053,20,7*4E
$GAGSV,1,1,00,1*75
$GBGSV,3,1,11,16,11,312,17,20,,,25,26,,,25,27,26,091,43,1*7D
$GBGSV,3,2,11,29,41,283,39,30,76,067,32,32,38,120,33,36,20,227,30,1*72
$GBGSV,3,3,11,39,09,304,13,41,28,053,42,45,28,280,38,1*45
$GBGSV,1,1,00,5*72
$GQGSV,1,1,00,1*65
$GQGSV,1,1,00,8*6C
$PQTMDRCAL,1,0,1*5C
$PQTMVEHATT,1,4572833,0.000000,0.000000,142.098160,89.989998,179.990005,3.726868*33
$PQTMDRPVA,1,4572833,072314.000,1,49.18802791,-123.11690252,0.594,-16.829,-0.004,0.003,-0.002,0.005,0.000000,0.000000,142.098160*5C
$GNGGA,072315.000,4911.281674,N,12307.014161,W,1,35,0.69,0.597,M,-16.829,M,,*4E
$GNRMC,072315.000,A,4911.281674,N,12307.014161,W,0.006,142.10,011224,,,A,V*29
$GNGLL,4911.281674,N,12307.014161,W,072315.000,A,A*50
$GNVTG,142.10,T,,M,0.006,N,0.011,K,A*23
$GNGSA,A,3,05,11,13,15,18,20,25,26,29,,,,1.16,0.69,0.93,1*02
$GNGSA,A,3,65,66,73,79,80,81,82,88,,,,,1.16,0.69,0.93,2*03
$GNGSA,A,3,07,10,12,24,25,26,29,31,33,,,,1.16,0.69,0.93,3*09
$GNGSA,A,3,16,27,29,30,32,36,39,41,45,,,,1.16,0.69,0.93,4*07
$GNGSA,A,3,,,,,,,,,,,,,1.16,0.69,0.93,5*06
$GPGSV,3,1,10,05,58,082,40,11,11,066,38,13,04,108,38,15,07,141,37,1*6D
$GPGSV,3,2,10,18,47,255,30,20,31,051,49,25,28,189,34,26,31,302,37,1*6F
$GPGSV,3,3,10,29,85,087,40,48,32,192,28,1*65
$GPGSV,1,1,00,8*6D
$GLGSV,2,1,08,65,30,044,40,66,34,106,43,73,19,332,25,79,20,211,31,1*75
$GLGSV,2,2,08,80,43,271,41,81,60,042,25,82,52,297,43,88,12,078,37,1*7E
$GAGSV,3,1,09,07,13,050,37,10,28,249,34,12,52,253,29,24,50,283,38,7*75
$GAGSV,3,2,09,25,11,323,20,26,17,064,44,29,11,102,46,31,44,198,25,7*73
$GAGSV,3,3,09,33,66,053,20,7*4E
$GAGSV,1,1,00,1*75
$GBGSV,3,1,11,16,11,312,17,20,,,25,26,,,26,27,26,091,43,1*7E
$GBGSV,3,2,11,29,41,283,39,30,76,067,32,32,38,120,34,36,20,227,30,1*75
$GBGSV,3,3,11,39,09,304,16,41,28,053,42,45,28,280,38,1*40
$GBGSV,1,1,00,5*72
$GQGSV,1,1,00,1*65
$GQGSV,1,1,00,8*6C
$PQTMDRCAL,1,0,1*5C
$PQTMVEHATT,1,4573833,0.000000,0.000000,142.098160,89.989998,179.990005,3.726868*32
$PQTMDRPVA,1,4573833,072315.000,1,49.18802791,-123.11690269,0.597,-16.829,-0.002,0.002,-0.000,0.003,0.000000,0.000000,142.098160*54
$GNGGA,072316.000,4911.281675,N,12307.014172,W,1,35,0.69,0.601,M,-16.829,M,,*42
$GNRMC,072316.000,A,4911.281675,N,12307.014172,W,0.006,142.10,011224,,,A,V*29
$GNGLL,4911.281675,N,12307.014172,W,072316.000,A,A*50
$GNVTG,142.10,T,,M,0.006,N,0.011,K,A*23
$GNGSA,A,3,05,11,13,15,18,20,25,26,29,,,,1.16,0.69,0.93,1*02
$GNGSA,A,3,65,66,73,79,80,81,82,88,,,,,1.16,0.69,0.93,2*03
$GNGSA,A,3,07,10,12,24,25,26,29,31,33,,,,1.16,0.69,0.93,3*09
$GNGSA,A,3,16,27,29,30,32,36,39,41,45,,,,1.16,0.69,0.93,4*07
$GNGSA,A,3,,,,,,,,,,,,,1.16,0.69,0.93,5*06
$GPGSV,3,1,10,05,58,082,41,11,11,066,37,13,04,108,38,15,07,141,38,1*6C
$GPGSV,3,2,10,18,47,255,30,20,31,051,49,25,28,189,34,26,31,302,37,1*6F
$GPGSV,3,3,10,29,85,087,40,48,32,192,28,1*65
$GPGSV,1,1,00,8*6D
$GLGSV,2,1,08,65,30,044,40,66,34,106,44,73,19,332,27,79,20,211,31,1*70
$GLGSV,2,2,08,80,43,271,40,81,60,042,26,82,52,297,43,88,12,078,37,1*7C
$GAGSV,3,1,09,07,13,050,36,10,28,249,34,12,52,253,30,24,50,283,37,7*73
$GAGSV,3,2,09,25,11,323,20,26,17,064,44,29,11,102,46,31,44,198,26,7*70
$GAGSV,3,3,09,33,66,053,21,7*4F
$GAGSV,1,1,00,1*75
$GBGSV,3,1,11,16,11,312,18,20,,,25,26,,,26,27,26,091,43,1*71
$GBGSV,3,2,11,29,41,283,39,30,76,067,32,32,38,120,33,36,20,227,30,1*72
$GBGSV,3,3,11,39,09,304,12,41,28,053,42,45,28,280,38,1*44
$GBGSV,1,1,00,5*72
$GQGSV,1,1,00,1*65
$GQGSV,1,1,00,8*6C
$PQTMDRCAL,1,0,1*5C
$PQTMVEHATT,1,4574833,0.000000,0.000000,142.098160,89.989998,179.990005,3.726868*35
$PQTMDRPVA,1,4574833,072316.000,1,49.18802792,-123.11690286,0.601,-16.829,-0.002,0.002,-0.002,0.003,0.000000,0.000000,142.098160*5C
$GNGGA,072317.000,4911.281677,N,12307.014180,W,1,35,0.69,0.605,M,-16.830,M,,*40
$GNRMC,072317.000,A,4911.281677,N,12307.014180,W,0.006,142.10,011224,,,A,V*27
$GNGLL,4911.281677,N,12307.014180,W,072317.000,A,A*5E
$GNVTG,142.10,T,,M,0.006,N,0.010,K,A*22
$GNGSA,A,3,05,11,13,15,18,20,25,26,29,,,,1.17,0.69,0.95,1*05
$GNGSA,A,3,65,66,73,79,80,81,82,88,,,,,1.17,0.69,0.95,2*04
$GNGSA,A,3,07,10,12,24,25,26,29,31,33,,,,1.17,0.69,0.95,3*0E
$GNGSA,A,3,16,27,29,30,32,36,39,41,45,,,,1.17,0.69,0.95,4*00
$GNGSA,A,3,,,,,,,,,,,,,1.17,0.69,0.95,5*01
$GPGSV,3,1,10,05,58,082,41,11,11,066,38,13,04,107,38,15,07,141,37,1*63
$GPGSV,3,2,10,18,47,255,30,20,31,051,49,25,28,189,34,26,31,302,37,1*6F
$GPGSV,3,3,10,29,85,087,40,48,32,192,28,1*65
$GPGSV,1,1,00,8*6D
$GLGSV,2,1,08,65,30,044,40,66,34,105,44,73,19,332,29,79,20,211,30,1*7C
$GLGSV,2,2,08,80,43,271,40,81,60,042,25,82,52,297,42,88,12,078,37,1*7E
$GAGSV,3,1,09,07,13,050,36,10,28,249,34,12,52,253,30,24,50,283,37,7*73
$GAGSV,3,2,09,25,11,323,20,26,17,064,44,29,11,102,46,31,44,198,25,7*73
$GAGSV,3,3,09,33,66,053,21,7*4F
$GAGSV,1,1,00,1*75
$GBGSV,3,1,11,16,11,312,17,20,,,25,26,,,26,27,26,091,43,1*7E
$GBGSV,3,2,11,29,41,283,39,30,76,067,33,32,38,120,33,36,20,227,29,1*7B
$GBGSV,3,3,11,39,09,304,13,41,28,053,42,45,28,280,39,1*44
$GBGSV,1,1,00,5*72
$GQGSV,1,1,00,1*65
$GQGSV,1,1,00,8*6C
$PQTMDRCAL,1,0,1*5C
$PQTMVEHATT,1,4575833,0.000000,0.000000,142.098160,89.989998,179.990005,3.726868*34
$PQTMDRPVA,1,4575833,072317.000,1,49.18802794,-123.11690301,0.605,-16.830,-0.002,0.002,-0.002,0.003,0.000000,0.000000,142.098160*58
$GNGGA,072318.000,4911.281678,N,12307.014190,W,1,35,0.69,0.609,M,-16.830,M,,*4D
$GNRMC,072318.000,A,4911.281678,N,12307.014190,W,0.008,142.10,011224,,,A,V*28
$GNGLL,4911.281678,N,12307.014190,W,072318.000,A,A*5F
$GNVTG,142.10,T,,M,0.008,N,0.015,K,A*29
$GNGSA,A,3,05,11,13,15,18,20,25,26,29,,,,1.17,0.69,0.95,1*05
$GNGSA,A,3,65,66,73,79,80,81,82,88,,,,,1.17,0.69,0.95,2*04
$GNGSA,A,3,07,10,12,24,25,26,29,31,33,,,,1.17,0.69,0.95,3*0E
$GNGSA,A,3,16,27,29,30,32,36,39,41,45,,,,1.17,0.69,0.95,4*00
$GNGSA,A,3,,,,,,,,,,,,,1.17,0.69,0.95,5*01
$GPGSV,3,1,10,05,58,082,42,11,11,066,38,13,04,107,38,15,07,141,37,1*60
$GPGSV,3,2,10,18,47,255,30,20,31,051,49,25,28,189,34,26,31,302,37,1*6F
$GPGSV,3,3,10,29,85,087,40,48,32,192,28,1*65
$GPGSV,1,1,00,8*6D
$GLGSV,2,1,08,65,30,044,40,66,34,105,44,73,19,332,28,79,20,211,31,1*7C
$GLGSV,2,2,08,80,43,271,41,81,60,042,25,82,52,297,43,88,12,078,37,1*7E
$GAGSV,3,1,09,07,13,050,37,10,28,249,34,12,52,253,30,24,50,283,38,7*7D
$GAGSV,3,2,09,25,11,323,20,26,17,064,44,29,11,102,46,31,44,198,25,7*73
$GAGSV,3,3,09,33,66,053,24,7*4A
$GAGSV,1,1,00,1*75
$GBGSV,3,1,11,16,11,312,17,20,,,26,26,,,26,27,26,091,43,1*7D
$GBGSV,3,2,11,29,41,283,39,30,76,067,32,32,38,120,33,36,20,227,30,1*72
$GBGSV,3,3,11,39,09,304,13,41,28,053,42,45,28,280,38,1*45
$GBGSV,1,1,00,5*72
$GQGSV,1,1,00,1*65
$GQGSV,1,1,00,8*6C
$PQTMDRCAL,1,0,1*5C
$PQTMVEHATT,1,4576833,0.000000,0.000000,142.098160,89.989998,179.990005,3.726868*37
$PQTMDRPVA,1,4576833,072318.000,1,49.18802796,-123.11690316,0.609,-16.830,-0.003,0.002,-0.000,0.004,0.000000,0.000000,142.098160*58
$GNGGA,072319.000,4911.281678,N,12307.014196,W,1,35,0.72,0.612,M,-16.830,M,,*4A
$GNRMC,072319.000,A,4911.281678,N,12307.014196,W,0.009,142.10,011224,,,A,V*2E
$GNGLL,4911.281678,N,12307.014196,W,072319.000,A,A*58
$GNVTG,142.10,T,,M,0.009,N,0.016,K,A*2B
$GNGSA,A,3,05,11,13,15,18,20,25,26,29,,,,1.13,0.72,0.87,1*08
$GNGSA,A,3,65,66,73,79,80,81,82,88,,,,,1.13,0.72,0.87,2*09
$GNGSA,A,3,07,10,12,24,25,26,29,31,33,,,,1.13,0.72,0.87,3*03
$GNGSA,A,3,16,27,29,30,32,36,39,41,45,,,,1.13,0.72,0.87,4*0D
$GNGSA,A,3,,,,,,,,,,,,,1.13,0.72,0.87,5*0C
$GPGSV,3,1,10,05,58,082,42,11,11,066,38,13,04,107,38,15,07,141,37,1*60
$GPGSV,3,2,10,18,47,255,30,20,31,051,49,25,28,189,34,26,31,302,37,1*6F
$GPGSV,3,3,10,29,85,087,40,48,32,192,28,1*65
$GPGSV,1,1,00,8*6D
$GLGSV,2,1,08,65,30,044,39,66,34,105,44,73,19,331,29,79,20,211,32,1*73
$GLGSV,2,2,08,80,43,271,41,81,60,042,24,82,52,297,43,88,12,078,37,1*7F
$GAGSV,3,1,09,07,13,050,36,10,28,249,33,12,52,253,32,24,50,283,37,7*76
$GAGSV,3,2,09,25,11,323,19,26,17,064,44,29,11,102,46,31,44,198,25,7*79
$GAGSV,3,3,09,33,66,053,22,7*4C
$GAGSV,1,1,00,1*75
$GBGSV,3,1,11,16,11,311,17,20,,,25,26,,,27,27,26,091,43,1*7C
$GBGSV,3,2,11,29,41,283,39,30,76,067,32,32,38,120,33,36,20,227,30,1*72
$GBGSV,3,3,11,39,09,304,12,41,28,053,42,45,28,280,39,1*45
$GBGSV,1,1,00,5*72
$GQGSV,1,1,00,1*65
$GQGSV,1,1,00,8*6C
$PQTMDRCAL,1,0,1*5C
$PQTMVEHATT,1,4577833,0.000000,0.000000,142.098160,89.989998,179.990005,3.726868*36
$PQTMDRPVA,1,4577833,072319.000,1,49.18802797,-123.11690327,0.612,-16.830,-0.004,0.003,-0.001,0.005,0.000000,0.000000,142.098160*57
$GNGGA,072320.000,4911.281678,N,12307.014198,W,1,35,0.77,0.614,M,-16.829,M,,*45
$GNRMC,072320.000,A,4911.281678,N,12307.014198,W,0.008,142.10,011224,,,A,V*2B
$GNGLL,4911.281678,N,12307.014198,W,072320.000,A,A*5C
$GNVTG,142.10,T,,M,0.008,N,0.015,K,A*29
$GNGSA,A,3,05,11,13,15,18,20,25,26,29,,,,1.18,0.77,0.89,1*08
$GNGSA,A,3,65,66,73,79,80,81,82,88,,,,,1.18,0.77,0.89,2*09
$GNGSA,A,3,07,10,12,24,25,26,29,31,33,,,,1.18,0.77,0.89,3*03
$GNGSA,A,3,16,27,29,30,32,36,39,41,45,,,,1.18,0.77,0.89,4*0D
$GNGSA,A,3,,,,,,,,,,,,,1.18,0.77,0.89,5*0C
$GPGSV,3,1,10,05,58,082,42,11,11,066,38,13,04,107,38,15,07,141,37,1*60
$GPGSV,3,2,10,18,47,255,31,20,31,051,49,25,28,189,34,26,31,302,38,1*61
$GPGSV,3,3,10,29,85,087,40,48,32,192,28,1*65
$GPGSV,1,1,00,8*6D
$GLGSV,2,1,08,65,30,044,39,66,34,105,44,73,19,331,29,79,20,211,31,1*70
$GLGSV,2,2,08,80,43,271,41,81,60,042,24,82,52,297,43,88,12,078,37,1*7F
$GAGSV,3,1,09,07,13,050,36,10,28,249,34,12,52,253,31,24,50,283,37,7*72
$GAGSV,3,2,09,25,11,323,19,26,17,064,45,29,11,102,46,31,44,198,26,7*7B
$GAGSV,3,3,09,33,66,053,24,7*4A
$GAGSV,1,1,00,1*75
$GBGSV,3,1,11,16,11,311,17,20,,,26,26,,,26,27,26,091,43,1*7E
$GBGSV,3,2,11,29,41,283,39,30,76,067,33,32,38,120,31,36,20,227,30,1*71
$GBGSV,3,3,11,39,09,304,11,41,28,053,42,45,28,280,39,1*46
$GBGSV,1,1,00,5*72
$GQGSV,1,1,00,1*65
$GQGSV,1,1,00,8*6C
$PQTMDRCAL,1,0,1*5C
$PQTMVEHATT,1,4578833,0.000000,0.000000,142.098160,89.989998,179.990005,3.726868*39
$PQTMDRPVA,1,4578833,072320.000,1,49.18802797,-123.11690331,0.614,-16.829,-0.003,0.003,-0.002,0.004,0.000000,0.000000,142.098160*5E
$GNGGA,072321.000,4911.281679,N,12307.014184,W,1,36,0.67,0.614,M,-16.829,M,,*4A
$GNRMC,072321.000,A,4911.281679,N,12307.014184,W,0.005,142.10,011224,,,A,V*2B
$GNGLL,4911.281679,N,12307.014184,W,072321.000,A,A*51
$GNVTG,142.10,T,,M,0.005,N,0.010,K,A*21
$GNGSA,A,3,05,11,13,15,18,20,25,26,29,,,,1.09,0.67,0.86,1*06
$GNGSA,A,3,65,66,73,79,80,81,82,88,,,,,1.09,0.67,0.86,2*07
$GNGSA,A,3,07,10,12,24,25,26,29,31,33,,,,1.09,0.67,0.86,3*0D
$GNGSA,A,3,09,16,27,29,30,32,36,39,41,45,,,1.09,0.67,0.86,4*0A
$GNGSA,A,3,,,,,,,,,,,,,1.09,0.67,0.86,5*02
$GPGSV,3,1,10,05,58,082,43,11,11,066,37,13,04,107,39,15,07,141,37,1*6F
$GPGSV,3,2,10,18,47,255,31,20,31,051,49,25,28,189,33,26,31,302,38,1*66
$GPGSV,3,3,10,29,85,087,40,48,32,192,28,1*65
$GPGSV,1,1,00,8*6D
$GLGSV,2,1,08,65,30,044,39,66,34,105,44,73,19,331,30,79,20,211,30,1*79
$GLGSV,2,2,08,80,43,271,40,81,60,042,23,82,52,297,43,88,12,078,36,1*78
$GAGSV,3,1,09,07,13,050,35,10,28,249,33,12,52,253,30,24,50,283,37,7*77
$GAGSV,3,2,09,25,11,323,21,26,17,064,44,29,11,102,46,31,44,198,27,7*70
$GAGSV,3,3,09,33,66,053,23,7*4D
$GAGSV,1,1,00,1*75
$GBGSV,3,1,12,09,10,330,17,16,11,311,17,20,,,25,26,,,27,1*7F
$GBGSV,3,2,12,27,26,091,43,29,41,283,40,30,76,067,32,32,38,120,32,1*73
$GBGSV,3,3,12,36,20,227,31,39,09,304,14,41,28,053,42,45,28,280,39,1*72
$GBGSV,1,1,00,5*72
$GQGSV,1,1,00,1*65
$GQGSV,1,1,00,8*6C
$PQTMDRCAL,1,0,1*5C
$PQTMVEHATT,1,4579833,0.000000,0.000000,142.098160,89.989998,179.990005,3.726868*38
$PQTMDRPVA,1,4579833,072321.000,1,49.18802799,-123.11690306,0.614,-16.829,-0.002,0.002,-0.001,0.003,0.000000,0.000000,142.098160*50
$GNGGA,072322.000,4911.281681,N,12307.014167,W,1,36,0.67,0.614,M,-16.829,M,,*43
$GNRMC,072322.000,A,4911.281681,N,12307.014167,W,0.002,142.10,011224,,,A,V*25
$GNGLL,4911.281681,N,12307.014167,W,072322.000,A,A*58
$GNVTG,142.10,T,,M,0.002,N,0.004,K,A*23
$GNGSA,A,3,05,11,13,15,18,20,25,26,29,,,,1.09,0.67,0.86,1*06
$GNGSA,A,3,65,66,73,79,80,81,82,88,,,,,1.09,0.67,0.86,2*07
$GNGSA,A,3,07,10,12,24,25,26,29,31,33,,,,1.09,0.67,0.86,3*0D
$GNGSA,A,3,09,16,27,29,30,32,36,39,41,45,,,1.09,0.67,0.86,4*0A
$GNGSA,A,3,,,,,,,,,,,,,1.09,0.67,0.86,5*02
$GPGSV,3,1,10,05,58,082,43,11,11,066,37,13,04,107,39,15,07,141,37,1*6F
$GPGSV,3,2,10,18,47,255,31,20,31,051,49,25,28,189,33,26,31,302,38,1*66
$GPGSV,3,3,10,29,85,087,40,48,32,192,28,1*65
$GPGSV,1,1,00,8*6D
$GLGSV,2,1,08,65,30,044,39,66,34,105,44,73,19,331,31,79,20,211,31,1*79
$GLGSV,2,2,08,80,43,271,41,81,60,042,22,82,52,297,43,88,12,078,36,1*78
$GAGSV,3,1,09,07,13,050,36,10,28,249,34,12,52,253,31,24,50,283,38,7*7D
$GAGSV,3,2,09,25,11,323,20,26,17,064,44,29,11,102,46,31,44,198,25,7*73
$GAGSV,3,3,09,33,66,053,23,7*4D
$GAGSV,1,1,00,1*75
$GBGSV,3,1,12,09,10,330,17,16,11,311,16,20,,,25,26,,,26,1*7F
$GBGSV,3,2,12,27,26,091,43,29,41,283,40,30,76,067,32,32,38,120,32,1*73
$GBGSV,3,3,12,36,20,227,31,39,09,304,14,41,28,053,42,45,28,280,39,1*72
$GBGSV,1,1,00,5*72
$GQGSV,1,1,00,1*65
$GQGSV,1,1,00,8*6C
$PQTMDRCAL,1,0,1*5C
$PQTMVEHATT,1,4580833,0.000000,0.000000,142.098160,89.989998,179.990005,3.726868*3E
$PQTMDRPVA,1,4580833,072322.000,1,49.18802801,-123.11690278,0.614,-16.829,-0.001,0.001,-0.003,0.001,0.000000,0.000000,142.098160*53
$GNGGA,072323.000,4911.281681,N,12307.014148,W,1,37,0.68,0.612,M,-16.829,M,,*47
$GNRMC,072323.000,A,4911.281681,N,12307.014148,W,0.007,142.10,011224,,,A,V*2C
$GNGLL,4911.281681,N,12307.014148,W,072323.000,A,A*54
$GNVTG,142.10,T,,M,0.007,N,0.014,K,A*27
$GNGSA,A,3,05,11,13,15,18,20,25,26,29,31,,,1.15,0.68,0.93,1*02
$GNGSA,A,3,65,66,73,79,80,81,82,88,,,,,1.15,0.68,0.93,2*01
$GNGSA,A,3,07,10,12,24,25,26,29,31,33,,,,1.15,0.68,0.93,3*0B
$GNGSA,A,3,09,16,27,29,30,32,36,39,41,45,,,1.15,0.68,0.93,4*0C
$GNGSA,A,3,,,,,,,,,,,,,1.15,0.68,0.93,5*04
$GPGSV,3,1,11,05,58,082,43,11,11,066,38,13,04,107,39,15,07,141,37,1*61
$GPGSV,3,2,11,18,47,255,31,20,31,051,49,25,28,189,33,26,31,301,38,1*64
$GPGSV,3,3,11,29,85,087,40,31,08,279,17,48,32,192,29,1*55
$GPGSV,1,1,00,8*6D
$GLGSV,2,1,08,65,30,044,39,66,34,105,44,73,19,331,31,79,20,211,32,1*7A
$GLGSV,2,2,08,80,43,271,41,81,60,042,23,82,52,297,43,88,12,078,37,1*78
$GAGSV,3,1,09,07,13,050,36,10,28,249,33,12,52,253,30,24,50,283,38,7*7B
$GAGSV,3,2,09,25,11,323,19,26,17,064,44,29,11,102,46,31,44,198,28,7*74
$GAGSV,3,3,09,33,66,053,24,7*4A
$GAGSV,1,1,00,1*75
$GBGSV,3,1,12,09,10,330,17,16,11,311,17,20,,,25,26,,,25,1*7D
$GBGSV,3,2,12,27,26,091,42,29,41,283,39,30,76,067,32,32,38,120,31,1*7F
$GBGSV,3,3,12,36,20,227,32,39,09,304,12,41,28,053,42,45,28,280,39,1*77
$GBGSV,1,1,00,5*72
$GQGSV,1,1,00,1*65
$GQGSV,1,1,00,8*6C
$PQTMDRCAL,1,0,1*5C
$PQTMVEHATT,1,4581833,0.000000,0.000000,142.098160,89.989998,179.990005,3.726868*3F
$PQTMDRPVA,1,4581833,072323.000,1,49.18802802,-123.11690246,0.612,-16.829,-0.003,0.002,0.002,0.004,0.000000,0.000000,142.098160*73
$GNGGA,072324.000,4911.281681,N,12307.014139,W,1,37,0.78,0.610,M,-16.830,M,,*4D
$GNRMC,072324.000,A,4911.281681,N,12307.014139,W,0.007,142.10,011224,,,A,V*2D
$GNGLL,4911.281681,N,12307.014139,W,072324.000,A,A*55
$GNVTG,142.10,T,,M,0.007,N,0.014,K,A*27
$GNGSA,A,3,05,11,13,15,18,20,25,26,29,31,,,1.25,0.78,0.98,1*0B
$GNGSA,A,3,65,66,73,79,80,81,82,88,,,,,1.25,0.78,0.98,2*08
$GNGSA,A,3,07,10,12,24,25,26,29,31,33,,,,1.25,0.78,0.98,3*02
$GNGSA,A,3,09,16,27,29,30,32,36,39,41,45,,,1.25,0.78,0.98,4*05
$GNGSA,A,3,,,,,,,,,,,,,1.25,0.78,0.98,5*0D
$GPGSV,3,1,11,05,58,082,43,11,11,066,37,13,04,107,39,15,07,141,37,1*6E
$GPGSV,3,2,11,18,47,255,32,20,31,051,49,25,28,189,33,26,31,301,38,1*67
$GPGSV,3,3,11,29,85,087,40,31,08,279,18,48,32,192,29,1*5A
$GPGSV,1,1,00,8*6D
$GLGSV,2,1,08,65,30,044,39,66,34,105,44,73,19,331,30,79,20,211,32,1*7B
$GLGSV,2,2,08,80,43,271,41,81,60,042,25,82,52,297,43,88,12,078,37,1*7E
$GAGSV,3,1,09,07,13,050,36,10,28,249,33,12,52,253,32,24,50,283,38,7*79
$GAGSV,3,2,09,25,11,323,19,26,17,064,44,29,11,102,46,31,44,198,25,7*79
$GAGSV,3,3,09,33,66,053,25,7*4B
$GAGSV,1,1,00,1*75
$GBGSV,3,1,12,09,10,330,17,16,11,311,17,20,,,25,26,,,27,1*7F
$GBGSV,3,2,12,27,26,091,43,29,41,283,39,30,76,067,34,32,38,120,30,1*79
$GBGSV,3,3,12,36,20,227,31,39,09,304,13,41,28,053,42,45,28,280,39,1*75
$GBGSV,1,1,00,5*72
$GQGSV,1,1,00,1*65
$GQGSV,1,1,00,8*6C
$PQTMDRCAL,1,0,1*5C
$PQTMVEHATT,1,4582833,0.000000,0.000000,142.098160,89.989998,179.990005,3.726868*3C
$PQTMDRPVA,1,4582833,072324.000,1,49.18802802,-123.11690232,0.610,-16.830,-0.003,0.002,0.002,0.004,0.000000,0.000000,142.098160*7E
$GNGGA,072325.000,4911.281683,N,12307.014117,W,1,37,0.72,0.607,M,-16.829,M,,*46
$GNRMC,072325.000,A,4911.281683,N,12307.014117,W,0.002,142.10,011224,,,A,V*27
$GNGLL,4911.281683,N,12307.014117,W,072325.000,A,A*5A
$GNVTG,142.10,T,,M,0.002,N,0.003,K,A*24
$GNGSA,A,3,05,11,13,15,18,20,25,26,29,31,,,1.20,0.72,0.96,1*0A
$GNGSA,A,3,65,66,73,79,80,81,82,88,,,,,1.20,0.72,0.96,2*09
$GNGSA,A,3,07,10,12,24,25,26,29,31,33,,,,1.20,0.72,0.96,3*03
$GNGSA,A,3,09,16,27,29,30,32,36,39,41,45,,,1.20,0.72,0.96,4*04
$GNGSA,A,3,,,,,,,,,,,,,1.20,0.72,0.96,5*0C
$GPGSV,3,1,11,05,58,082,43,11,11,066,38,13,05,107,39,15,07,141,36,1*61
$GPGSV,3,2,11,18,47,255,32,20,31,051,49,25,28,189,32,26,31,301,38,1*66
$GPGSV,3,3,11,29,85,088,40,31,08,279,22,48,32,192,29,1*5C
$GPGSV,1,1,00,8*6D
$GLGSV,2,1,08,65,30,044,38,66,34,105,44,73,19,331,30,79,20,211,31,1*79
$GLGSV,2,2,08,80,43,271,40,81,60,042,24,82,52,297,43,88,12,078,37,1*7E
$GAGSV,3,1,09,07,13,050,37,10,28,249,33,12,52,253,31,24,50,283,37,7*74
$GAGSV,3,2,09,25,11,323,20,26,17,064,44,29,11,102,46,31,44,198,25,7*73
$GAGSV,3,3,09,33,66,053,24,7*4A
$GAGSV,1,1,00,1*75
$GBGSV,3,1,12,09,10,330,17,16,11,311,17,20,,,25,26,,,26,1*7E
$GBGSV,3,2,12,27,26,091,42,29,41,283,40,30,76,067,33,32,38,120,30,1*71
$GBGSV,3,3,12,36,20,227,31,39,09,304,13,41,28,053,42,45,28,280,39,1*75
$GBGSV,1,1,00,5*72
$GQGSV,1,1,00,1*65
$GQGSV,1,1,00,8*6C
$PQTMDRCAL,1,0,1*5C
$PQTMVEHATT,1,4583833,0.000000,0.000000,142.098160,89.989998,179.990005,3.726868*3D
$PQTMDRPVA,1,4583833,072325.000,1,49.18802805,-123.11690195,0.607,-16.829,-0.001,0.001,-0.000,0.001,0.000000,0.000000,142.098160*52
$GNGGA,072326.000,4911.281683,N,12307.014095,W,1,36,0.85,0.607,M,-16.829,M,,*47
$GNRMC,072326.000,A,4911.281683,N,12307.014095,W,0.013,142.10,011224,,,A,V*2F
$GNGLL,4911.281683,N,12307.014095,W,072326.000,A,A*52
$GNVTG,142.10,T,,M,0.013,N,0.024,K,A*21
$GNGSA,A,3,05,11,13,15,18,20,25,26,29,31,,,1.36,0.85,1.06,1*0D
$GNGSA,A,3,65,66,73,79,80,81,82,88,,,,,1.36,0.85,1.06,2*0E
$GNGSA,A,3,07,10,12,24,25,26,29,31,33,,,,1.36,0.85,1.06,3*04
$GNGSA,A,3,09,16,27,29,30,32,36,41,45,,,,1.36,0.85,1.06,4*09
$GNGSA,A,3,,,,,,,,,,,,,1.36,0.85,1.06,5*0B
$GPGSV,3,1,11,05,58,082,43,11,11,066,38,13,05,107,39,15,07,141,37,1*60
$GPGSV,3,2,11,18,47,255,32,20,31,051,49,25,28,189,33,26,31,301,38,1*67
$GPGSV,3,3,11,29,85,088,40,31,08,279,22,48,32,192,29,1*5C
$GPGSV,1,1,00,8*6D
$GLGSV,2,1,08,65,30,044,38,66,34,105,44,73,19,331,32,79,20,211,31,1*7B
$GLGSV,2,2,08,80,43,271,40,81,60,042,24,82,52,297,43,88,12,078,37,1*7E
$GAGSV,3,1,09,07,13,050,37,10,28,249,33,12,52,253,30,24,50,283,37,7*75
$GAGSV,3,2,09,25,11,323,21,26,17,064,44,29,11,102,46,31,44,198,26,7*71
$GAGSV,3,3,09,33,66,053,24,7*4A
$GAGSV,1,1,00,1*75
$GBGSV,3,1,11,09,10,330,17,16,11,311,17,20,,,24,26,,,26,1*7C
$GBGSV,3,2,11,27,26,091,43,29,41,283,39,30,76,067,33,32,38,120,31,1*7C
$GBGSV,3,3,11,36,20,227,32,41,28,053,42,45,28,280,39,1*43
$GBGSV,1,1,00,5*72
$GQGSV,1,1,00,1*65
$GQGSV,1,1,00,8*6C
$PQTMDRCAL,1,0,1*5C
$PQTMVEHATT,1,4584833,0.000000,0.000000,142.098160,89.989998,179.990005,3.726868*3A
$PQTMDRPVA,1,4584833,072326.000,1,49.18802805,-123.11690159,0.607,-16.829,-0.005,0.004,-0.002,0.007,0.000000,0.000000,142.098160*53
$GNGGA,072327.000,4911.281683,N,12307.014069,W,1,36,0.80,0.606,M,-16.829,M,,*41
$GNRMC,072327.000,A,4911.281683,N,12307.014069,W,0.017,142.10,011224,,,A,V*29
$GNGLL,4911.281683,N,12307.014069,W,072327.000,A,A*50
$GNVTG,142.10,T,,M,0.017,N,0.031,K,A*21
$GNGSA,A,3,05,11,13,15,18,20,25,26,29,31,,,1.29,0.80,1.02,1*02
$GNGSA,A,3,65,66,73,79,80,81,82,88,,,,,1.29,0.80,1.02,2*01
$GNGSA,A,3,07,10,12,24,25,26,29,31,33,,,,1.29,0.80,1.02,3*0B
$GNGSA,A,3,09,16,27,29,30,32,36,41,45,,,,1.29,0.80,1.02,4*06
$GNGSA,A,3,,,,,,,,,,,,,1.29,0.80,1.02,5*04
$GPGSV,3,1,11,05,58,082,43,11,11,066,38,13,05,107,39,15,07,141,36,1*61
$GPGSV,3,2,11,18,47,255,32,20,31,051,49,25,28,189,32,26,31,301,39,1*67
$GPGSV,3,3,11,29,85,088,40,31,08,279,23,48,32,192,29,1*5D
$GPGSV,1,1,00,8*6D
$GLGSV,2,1,08,65,30,044,37,66,34,105,45,73,19,331,32,79,20,211,32,1*76
$GLGSV,2,2,08,80,43,271,41,81,60,043,23,82,52,297,42,88,12,078,38,1*77
$GAGSV,3,1,09,07,13,050,37,10,28,249,33,12,52,253,32,24,50,283,37,7*77
$GAGSV,3,2,09,25,11,323,16,26,17,064,44,29,11,102,46,31,44,198,25,7*76
$GAGSV,3,3,09,33,66,053,25,7*4B
$GAGSV,1,1,00,1*75
$GBGSV,3,1,11,09,10,330,18,16,11,311,17,20,,,25,26,,,25,1*71
$GBGSV,3,2,11,27,26,091,42,29,41,283,39,30,76,067,33,32,38,120,30,1*7C
$GBGSV,3,3,11,36,20,227,30,41,28,053,42,45,28,280,39,1*41
$GBGSV,1,1,00,5*72
$GQGSV,1,1,00,1*65
$GQGSV,1,1,00,8*6C
$PQTMDRCAL,1,0,1*5C
$PQTMVEHATT,1,4585833,0.000000,0.000000,142.098160,89.989998,179.990005,3.726868*3B
$PQTMDRPVA,1,4585833,072327.000,1,49.18802804,-123.11690116,0.606,-16.829,-0.007,0.005,-0.000,0.009,0.000000,0.000000,142.098160*57
$GNGGA,072328.000,4911.281682,N,12307.014043,W,1,35,0.60,0.604,M,-16.830,M,,*40
$GNRMC,072328.000,A,4911.281682,N,12307.014043,W,0.014,142.10,011224,,,A,V*2C
$GNGLL,4911.281682,N,12307.014043,W,072328.000,A,A*56
$GNVTG,142.10,T,,M,0.014,N,0.026,K,A*24
$GNGSA,A,3,05,11,13,15,18,20,25,26,29,31,,,1.06,0.60,0.88,1*02
$GNGSA,A,3,65,66,73,79,80,81,82,88,,,,,1.06,0.60,0.88,2*01
$GNGSA,A,3,07,10,12,24,25,26,29,31,33,,,,1.06,0.60,0.88,3*0B
$GNGSA,A,3,16,27,29,30,32,36,41,45,,,,,1.06,0.60,0.88,4*0F
$GNGSA,A,3,,,,,,,,,,,,,1.06,0.60,0.88,5*04
$GPGSV,3,1,11,05,58,082,43,11,11,066,37,13,05,107,40,15,07,141,37,1*61
$GPGSV,3,2,11,18,47,255,32,20,31,051,49,25,28,189,32,26,31,301,39,1*67
$GPGSV,3,3,11,29,85,088,40,31,08,279,23,48,32,192,29,1*5D
$GPGSV,1,1,00,8*6D
$GLGSV,2,1,08,65,30,044,38,66,34,105,45,73,19,331,31,79,20,211,32,1*7A
$GLGSV,2,2,08,80,43,271,40,81,60,043,23,82,52,297,42,88,12,078,38,1*76
$GAGSV,3,1,09,07,13,050,37,10,28,249,32,12,52,253,32,24,50,283,37,7*76
$GAGSV,3,2,09,25,11,323,19,26,17,064,44,29,11,102,46,31,44,198,25,7*79
$GAGSV,3,3,09,33,66,053,25,7*4B
$GAGSV,1,1,00,1*75
$GBGSV,3,1,10,16,11,311,17,20,,,25,26,,,26,27,26,091,42,1*7D
$GBGSV,3,2,10,29,41,283,39,30,76,067,33,32,38,120,31,36,20,227,31,1*71
$GBGSV,3,3,10,41,28,053,42,45,28,280,39,1*73
$GBGSV,1,1,00,5*72
$GQGSV,1,1,00,1*65
$GQGSV,1,1,00,8*6C
$PQTMDRCAL,1,0,1*5C
$PQTMVEHATT,1,4586833,0.000000,0.000000,142.098160,89.989998,179.990005,3.726868*38
$PQTMDRPVA,1,4586833,072328.000,1,49.18802804,-123.11690072,0.604,-16.830,-0.006,0.004,0.001,0.007,0.000000,0.000000,142.098160*70
$GNGGA,072329.000,4911.281686,N,12307.014025,W,1,35,0.68,0.604,M,-16.829,M,,*45
$GNRMC,072329.000,A,4911.281686,N,12307.014025,W,0.006,142.10,011224,,,A,V*2A
$GNGLL,4911.281686,N,12307.014025,W,072329.000,A,A*53
$GNVTG,142.10,T,,M,0.006,N,0.011,K,A*23
$GNGSA,A,3,05,11,13,15,18,20,25,26,29,31,,,1.18,0.68,0.97,1*0B
$GNGSA,A,3,65,66,73,79,80,81,82,88,,,,,1.18,0.68,0.97,2*08
$GNGSA,A,3,07,10,12,24,25,26,29,31,33,,,,1.18,0.68,0.97,3*02
$GNGSA,A,3,16,27,29,30,32,36,41,45,,,,,1.18,0.68,0.97,4*06
$GNGSA,A,3,,,,,,,,,,,,,1.18,0.68,0.97,5*0D
$GPGSV,3,1,11,05,58,082,43,11,11,066,37,13,05,107,40,15,07,141,37,1*61
$GPGSV,3,2,11,18,47,255,33,20,31,051,49,25,28,189,32,26,31,301,39,1*66
$GPGSV,3,3,11,29,85,088,40,31,08,279,22,48,32,192,29,1*5C
$GPGSV,1,1,00,8*6D
$GLGSV,2,1,08,65,30,044,38,66,34,105,46,73,19,331,31,79,20,211,32,1*79
$GLGSV,2,2,08,80,43,271,40,81,60,043,24,82,52,297,42,88,12,078,38,1*71
$GAGSV,3,1,09,07,13,050,37,10,28,249,33,12,52,253,32,24,50,283,38,7*78
$GAGSV,3,2,09,25,11,323,19,26,17,064,44,29,11,102,46,31,44,198,26,7*7A
$GAGSV,3,3,09,33,66,053,25,7*4B
$GAGSV,1,1,00,1*75
$GBGSV,3,1,10,16,11,311,17,20,,,25,26,,,26,27,25,091,42,1*7E
$GBGSV,3,2,10,29,41,283,39,30,76,067,33,32,38,120,30,36,20,227,31,1*70
$GBGSV,3,3,10,41,28,053,42,45,28,280,39,1*73
$GBGSV,1,1,00,5*72
$GQGSV,1,1,00,1*65
$GQGSV,1,1,00,8*6C
$PQTMDRCAL,1,0,1*5C
$PQTMVEHATT,1,4587833,0.000000,0.000000,142.098160,89.989998,179.990005,3.726868*39
$PQTMDRPVA,1,4587833,072329.000,1,49.18802810,-123.11690041,0.604,-16.829,-0.002,0.002,-0.001,0.003,0.000000,0.000000,142.098160*56
$GNGGA,072330.000,4911.281690,N,12307.014011,W,1,36,0.80,0.605,M,-16.829,M,,*49
$GNRMC,072330.000,A,4911.281690,N,12307.014011,W,0.003,142.10,011224,,,A,V*27
$GNGLL,4911.281690,N,12307.014011,W,072330.000,A,A*5B
$GNVTG,142.10,T,,M,0.003,N,0.006,K,A*20
$GNGSA,A,3,05,11,13,15,18,20,25,26,29,31,,,1.32,0.80,1.05,1*0F
$GNGSA,A,3,65,66,73,79,80,81,82,88,,,,,1.32,0.80,1.05,2*0C
$GNGSA,A,3,07,10,12,24,25,26,29,31,33,,,,1.32,0.80,1.05,3*06
$GNGSA,A,3,09,16,27,29,30,32,36,41,45,,,,1.32,0.80,1.05,4*0B
$GNGSA,A,3,,,,,,,,,,,,,1.32,0.80,1.05,5*09
$GPGSV,3,1,11,05,58,082,43,11,11,066,37,13,05,107,40,15,07,141,36,1*60
$GPGSV,3,2,11,18,47,255,31,20,31,051,49,25,28,189,32,26,31,301,39,1*64
$GPGSV,3,3,11,29,85,088,40,31,08,279,22,48,32,192,29,1*5C
$GPGSV,1,1,00,8*6D
$GLGSV,2,1,08,65,30,044,38,66,34,105,46,73,19,331,32,79,20,211,31,1*79
$GLGSV,2,2,08,80,43,271,40,81,60,043,25,82,52,297,42,88,12,078,37,1*7F
$GAGSV,3,1,09,07,13,050,37,10,28,249,33,12,52,253,29,24,50,283,37,7*7D
$GAGSV,3,2,09,25,11,323,19,26,17,064,44,29,11,102,45,31,44,198,26,7*79
$GAGSV,3,3,09,33,66,053,25,7*4B
$GAGSV,1,1,00,1*75
$GBGSV,3,1,11,09,10,330,17,16,11,311,16,20,,,25,26,,,25,1*7F
$GBGSV,3,2,11,27,25,091,42,29,41,283,39,30,76,067,33,32,38,120,31,1*7E
$GBGSV,3,3,11,36,20,227,30,41,28,053,41,45,28,280,39,1*42
$GBGSV,1,1,00,5*72
$GQGSV,1,1,00,1*65
$GQGSV,1,1,00,8*6C
$PQTMDRCAL,1,0,1*5C
$PQTMVEHATT,1,4588833,0.000000,0.000000,142.098160,89.989998,179.990005,3.726868*36
$PQTMDRPVA,1,4588833,072330.000,1,49.18802817,-123.11690019,0.605,-16.829,-0.001,0.001,0.000,0.002,0.000000,0.000000,142.098160*77
$GNGGA,072331.000,4911.281695,N,12307.014000,W,1,36,0.64,0.606,M,-16.829,M,,*44
$GNRMC,072331.000,A,4911.281695,N,12307.014000,W,0.003,142.10,011224,,,A,V*23
$GNGLL,4911.281695,N,12307.014000,W,072331.000,A,A*5F
$GNVTG,142.10,T,,M,0.003,N,0.006,K,A*20
$GNGSA,A,3,05,11,13,15,18,20,25,26,29,31,,,1.12,0.64,0.92,1*08
$GNGSA,A,3,65,66,73,79,80,81,82,88,,,,,1.12,0.64,0.92,2*0B
$GNGSA,A,3,07,10,12,24,25,26,29,31,33,,,,1.12,0.64,0.92,3*01
$GNGSA,A,3,09,16,27,29,30,32,36,41,45,,,,1.12,0.64,0.92,4*0C
$GNGSA,A,3,,,,,,,,,,,,,1.12,0.64,0.92,5*0E
$GPGSV,3,1,11,05,58,082,43,11,11,066,37,13,05,107,39,15,07,141,36,1*6E
$GPGSV,3,2,11,18,47,255,32,20,31,051,49,25,28,189,31,26,31,301,39,1*64
$GPGSV,3,3,11,29,85,088,40,31,08,279,20,48,32,192,28,1*5F
$GPGSV,1,1,00,8*6D
$GLGSV,2,1,08,65,30,044,39,66,34,105,46,73,19,331,31,79,20,211,31,1*7B
$GLGSV,2,2,08,80,43,271,40,81,60,043,27,82,52,297,41,88,12,078,38,1*71
$GAGSV,3,1,09,07,13,050,38,10,28,249,33,12,52,253,32,24,50,283,37,7*78
$GAGSV,3,2,09,25,11,323,18,26,17,064,44,29,11,102,45,31,44,198,25,7*7B
$GAGSV,3,3,09,33,66,053,26,7*48
$GAGSV,1,1,00,1*75
$GBGSV,3,1,11,09,10,330,17,16,11,311,16,20,,,25,26,,,24,1*7E
$GBGSV,3,2,11,27,25,091,42,29,41,283,38,30,76,067,33,32,38,120,31,1*7F
$GBGSV,3,3,11,36,20,227,30,41,28,053,41,45,28,280,39,1*42
$GBGSV,1,1,00,5*72
$GQGSV,1,1,00,1*65
$GQGSV,1,1,00,8*6C
$PQTMDRCAL,1,0,1*5C
$PQTMVEHATT,1,4589833,0.000000,0.000000,142.098160,89.989998,179.990005,3.726868*37
$PQTMDRPVA,1,4589833,072331.000,1,49.18802825,-123.11690000,0.606,-16.829,-0.001,0.001,-0.001,0.002,0.000000,0.000000,142.098160*51
$GNGGA,072332.000,4911.281701,N,12307.013990,W,1,36,0.64,0.608,M,-16.829,M,,*42
