$GNGGA,235826.000,4910.427166,N,12304.401072,W,2,32,0.48,6.255,M,-16.816,M,,*4F
$GNGLL,4910.427166,N,12304.401072,W,235826.000,A,D*50
$GNGSA,A,3,22,14,17,13,19,30,15,02,21,24,,,0.86,0.48,0.71,1*0C
$GNGSA,A,3,73,80,72,71,,,,,,,,,0.86,0.48,0.71,2*09
$GNGSA,A,3,25,03,24,08,02,10,05,33,,,,,0.86,0.48,0.71,3*0B
$GNGSA,A,3,36,27,30,28,22,21,45,13,08,37,,,0.86,0.48,0.71,4*05
$GPGSV,4,1,13,22,84,334,33,14,67,066,35,17,65,157,35,13,46,230,33,1*68
$GPGSV,4,2,13,19,38,191,34,30,36,134,30,46,33,188,31,15,33,274,30,1*69
$GPGSV,4,3,13,02,26,062,30,21,18,043,27,24,17,307,25,07,03,130,22,1*6D
$GPGSV,4,4,13,23,02,318,21,1*5C
$GLGSV,2,1,07,73,68,337,26,82,44,061,,83,41,124,,80,38,082,26,1*7C
$GLGSV,2,2,07,72,31,306,21,74,29,293,,71,27,248,24,1*45
$GAGSV,3,1,10,25,78,290,33,03,46,244,29,24,44,071,29,08,30,309,27,7*74
$GAGSV,3,2,10,12,26,080,22,02,26,261,24,10,23,105,26,05,19,190,21,7*7F
$GAGSV,3,3,10,11,13,132,18,33,11,026,21,7*7E
$GBGSV,3,1,12,36,63,294,40,46,60,098,,27,48,091,41,30,36,161,36,1*78
$GBGSV,3,2,12,28,22,043,33,22,20,267,32,21,15,319,32,45,13,288,30,1*76
$GBGSV,3,3,12,13,07,320,25,08,07,310,25,37,07,105,28,19,04,219,25,1*70
$GNRMC,235826.000,A,4910.427166,N,12304.401072,W,0.02,342.49,051224,,,D,V*17
$GNVTG,342.49,T,,M,0.02,N,0.03,K,D*2F
$GNGGA,235827.000,4910.427226,N,12304.400988,W,2,32,0.48,6.127,M,-16.817,M,,*43
$GNGLL,4910.427226,N,12304.400988,W,235827.000,A,D*5B
$GNGSA,A,3,22,14,17,13,19,30,15,02,21,24,,,0.86,0.48,0.71,1*0C
$GNGSA,A,3,73,80,72,71,,,,,,,,,0.86,0.48,0.71,2*09
$GNGSA,A,3,25,03,24,08,02,10,05,33,,,,,0.86,0.48,0.71,3*0B
$GNGSA,A,3,36,27,30,28,22,21,45,13,08,37,,,0.86,0.48,0.71,4*05
$GPGSV,4,1,13,22,84,334,33,14,67,066,35,17,65,157,35,13,46,230,33,1*68
$GPGSV,4,2,13,19,38,191,34,30,36,134,30,46,33,188,31,15,33,274,30,1*69
$GPGSV,4,3,13,02,26,062,30,21,18,043,27,24,17,307,24,07,03,130,23,1*6D
$GPGSV,4,4,13,23,02,318,22,1*5F
$GLGSV,2,1,07,73,68,337,26,82,44,061,,83,41,124,,80,38,082,26,1*7C
$GLGSV,2,2,07,72,31,306,22,74,29,293,,71,27,248,24,1*46
$GAGSV,3,1,10,25,78,290,33,03,46,244,29,24,44,071,29,08,30,309,27,7*74
$GAGSV,3,2,10,12,26,080,22,02,26,261,25,10,23,105,26,05,19,190,21,7*7E
$GAGSV,3,3,10,11,13,132,18,33,11,026,22,7*7D
$GBGSV,3,1,12,36,63,294,40,46,60,098,,27,48,091,41,30,36,161,36,1*78
$GBGSV,3,2,12,28,22,043,33,22,20,267,32,21,15,319,32,45,13,288,30,1*76
$GBGSV,3,3,12,13,07,320,25,08,07,310,25,37,07,105,28,19,04,219,25,1*70
$GNRMC,235827.000,A,4910.427226,N,12304.400988,W,0.02,342.49,051224,,,D,V*1C
$GNVTG,342.49,T,,M,0.02,N,0.04,K,D*28
$PAIR010,0,1,2343,431925*34
$GNGGA,235828.000,4910.427262,N,12304.400952,W,2,32,0.48,5.994,M,-16.816,M,,*49
$GNGLL,4910.427262,N,12304.400952,W,235828.000,A,D*53
$GNGSA,A,3,22,14,17,13,19,30,15,02,21,24,,,0.86,0.48,0.71,1*0C
$GNGSA,A,3,73,80,72,71,,,,,,,,,0.86,0.48,0.71,2*09
$GNGSA,A,3,25,03,24,08,02,10,05,33,,,,,0.86,0.48,0.71,3*0B
$GNGSA,A,3,36,27,30,28,22,21,45,13,08,37,,,0.86,0.48,0.71,4*05
$GPGSV,4,1,13,22,84,334,33,14,67,066,35,17,65,157,35,13,46,230,33,1*68
$GPGSV,4,2,13,19,38,191,34,30,36,134,30,46,33,188,31,15,33,274,30,1*69
$GPGSV,4,3,13,02,26,062,30,21,18,043,27,24,17,307,25,07,03,130,23,1*6C
$GPGSV,4,4,13,23,02,318,22,1*5F
$GLGSV,2,1,07,73,68,337,26,82,44,061,,83,41,124,,80,38,082,26,1*7C
$GLGSV,2,2,07,72,31,306,22,74,29,293,,71,27,248,24,1*46
$GAGSV,3,1,10,25,78,290,33,03,46,244,29,24,44,071,29,08,30,309,27,7*74
$GAGSV,3,2,10,12,26,080,22,02,26,261,25,10,23,105,26,05,19,190,21,7*7E
$GAGSV,3,3,10,11,13,132,18,33,11,026,22,7*7D
$GBGSV,3,1,12,36,63,294,40,46,60,098,,27,48,091,41,30,36,161,36,1*78
$GBGSV,3,2,12,28,22,043,33,22,20,267,32,21,15,319,32,45,13,288,30,1*76
$GBGSV,3,3,12,13,07,320,25,08,07,310,25,37,07,105,28,19,04,219,24,1*71
$GNRMC,235828.000,A,4910.427262,N,12304.400952,W,0.02,342.49,051224,,,D,V*14
$GNVTG,342.49,T,,M,0.02,N,0.04,K,D*28
$GNGGA,235829.000,4910.427244,N,12304.400946,W,2,32,0.48,5.795,M,-16.817,M,,*47
$GNGLL,4910.427244,N,12304.400946,W,235829.000,A,D*53
$GNGSA,A,3,22,14,17,13,19,30,15,02,21,24,,,0.86,0.48,0.71,1*0C
$GNGSA,A,3,73,80,72,71,,,,,,,,,0.86,0.48,0.71,2*09
$GNGSA,A,3,25,03,24,08,02,10,05,33,,,,,0.86,0.48,0.71,3*0B
$GNGSA,A,3,36,27,30,28,22,21,45,13,08,37,,,0.86,0.48,0.71,4*05
$GPGSV,4,1,13,22,84,334,33,14,67,066,35,17,65,157,35,13,46,230,33,1*68
$GPGSV,4,2,13,19,38,191,34,30,36,134,30,46,33,188,31,15,33,274,30,1*69
$GPGSV,4,3,13,02,26,062,30,21,18,043,26,24,17,307,25,07,03,130,22,1*6C
$GPGSV,4,4,13,23,02,318,23,1*5E
$GLGSV,2,1,07,73,68,337,27,82,44,061,,83,41,124,,80,38,082,26,1*7D
$GLGSV,2,2,07,72,31,306,22,74,29,293,,71,27,248,24,1*46
$GAGSV,3,1,10,25,78,290,33,03,46,244,29,24,44,071,28,08,30,309,27,7*75
$GAGSV,3,2,10,12,26,080,22,02,26,261,25,10,23,105,26,05,19,190,20,7*7F
$GAGSV,3,3,10,11,13,132,18,33,11,026,22,7*7D
$GBGSV,3,1,12,36,63,294,40,46,60,098,,27,48,091,41,30,36,161,36,1*78
$GBGSV,3,2,12,28,22,043,33,22,20,267,32,21,15,319,32,45,13,288,30,1*76
$GBGSV,3,3,12,13,07,320,25,08,07,310,25,37,07,105,28,19,04,219,23,1*76
$GNRMC,235829.000,A,4910.427244,N,12304.400946,W,0.02,342.49,051224,,,D,V*14
$GNVTG,342.49,T,,M,0.02,N,0.03,K,D*2F
$GNGGA,235830.000,4910.427238,N,12304.400910,W,2,32,0.48,5.639,M,-16.816,M,,*41
$GNGLL,4910.427238,N,12304.400910,W,235830.000,A,D*53
$GNGSA,A,3,22,14,17,13,19,30,15,02,21,24,,,0.86,0.48,0.71,1*0C
$GNGSA,A,3,73,80,72,71,,,,,,,,,0.86,0.48,0.71,2*09
$GNGSA,A,3,25,03,24,08,02,10,05,33,,,,,0.86,0.48,0.71,3*0B
$GNGSA,A,3,36,27,30,28,22,21,45,13,08,37,,,0.86,0.48,0.71,4*05
$GPGSV,4,1,13,22,84,334,32,14,67,066,34,17,65,157,34,13,46,230,32,1*68
$GPGSV,4,2,13,19,38,191,33,30,36,134,29,46,33,188,30,15,33,274,29,1*6F
$GPGSV,4,3,13,02,26,062,30,21,18,043,24,24,17,307,23,07,03,130,21,1*6B
$GPGSV,4,4,13,23,02,318,20,1*5D
$GLGSV,2,1,07,73,68,337,26,82,44,061,,83,41,124,,80,38,082,26,1*7C
$GLGSV,2,2,07,72,31,306,21,74,29,293,,71,27,248,24,1*45
$GAGSV,3,1,10,25,78,290,32,03,46,244,29,24,44,071,27,08,30,309,26,7*7A
$GAGSV,3,2,10,12,26,080,21,02,26,261,24,10,23,105,25,05,19,190,19,7*74
$GAGSV,3,3,10,11,13,132,18,33,11,026,21,7*7E
$GBGSV,3,1,12,36,63,294,40,46,60,098,,27,48,091,41,30,36,161,36,1*78
$GBGSV,3,2,12,28,22,043,33,22,20,267,32,21,15,319,32,45,13,288,30,1*76
$GBGSV,3,3,12,13,07,320,25,08,07,310,25,37,07,105,28,19,04,219,24,1*71
$GNRMC,235830.000,A,4910.427238,N,12304.400910,W,0.02,342.49,051224,,,D,V*14
$GNVTG,342.49,T,,M,0.02,N,0.03,K,D*2F
$GNGGA,235831.000,4910.427208,N,12304.400844,W,2,32,0.48,5.447,M,-16.817,M,,*49
$GNGLL,4910.427208,N,12304.400844,W,235831.000,A,D*51
$GNGSA,A,3,22,14,17,13,19,30,15,02,21,24,,,0.86,0.48,0.71,1*0C
$GNGSA,A,3,73,80,72,71,,,,,,,,,0.86,0.48,0.71,2*09
$GNGSA,A,3,25,03,24,08,02,10,05,33,,,,,0.86,0.48,0.71,3*0B
$GNGSA,A,3,36,27,30,28,22,21,45,37,08,13,,,0.86,0.48,0.71,4*05
$GPGSV,4,1,13,22,84,334,31,14,67,066,34,17,65,157,34,13,46,230,31,1*68
$GPGSV,4,2,13,19,38,191,33,30,36,134,28,15,33,274,28,46,33,188,30,1*6F
$GPGSV,4,3,13,02,26,062,30,21,18,043,21,24,17,307,22,07,03,130,20,1*6E
$GPGSV,4,4,13,23,02,318,19,1*57
$GLGSV,2,1,07,73,68,337,26,82,44,061,,83,41,124,,80,38,082,26,1*7C
$GLGSV,2,2,07,72,31,306,21,74,29,293,,71,27,248,25,1*44
$GAGSV,3,1,10,25,78,290,31,03,46,244,29,24,44,071,27,08,30,309,26,7*79
$GAGSV,3,2,10,12,26,080,20,02,26,261,24,10,23,105,24,05,19,190,19,7*74
$GAGSV,3,3,10,11,13,132,17,33,11,026,21,7*71
$GBGSV,3,1,12,36,63,294,40,46,60,098,,27,48,091,41,30,36,161,36,1*78
$GBGSV,3,2,12,28,22,043,33,22,20,267,32,21,15,319,32,45,13,288,30,1*76
$GBGSV,3,3,12,37,07,105,28,08,07,310,25,13,07,320,25,19,03,219,24,1*76
$GNRMC,235831.000,A,4910.427208,N,12304.400844,W,0.02,342.49,051224,,,D,V*16
$GNVTG,342.49,T,,M,0.02,N,0.03,K,D*2F
$GNGGA,235832.000,4910.427190,N,12304.400772,W,2,32,0.48,5.212,M,-16.816,M,,*45
$GNGLL,4910.427190,N,12304.400772,W,235832.000,A,D*5A
$GNGSA,A,3,22,14,17,13,19,30,15,02,21,24,,,0.86,0.48,0.71,1*0C
$GNGSA,A,3,73,80,72,71,,,,,,,,,0.86,0.48,0.71,2*09
$GNGSA,A,3,25,03,24,08,02,10,05,33,,,,,0.86,0.48,0.71,3*0B
$GNGSA,A,3,36,27,30,28,22,21,45,37,08,13,,,0.86,0.48,0.71,4*05
$GPGSV,4,1,13,22,84,334,31,14,67,066,33,17,65,157,34,13,46,230,31,1*6F
$GPGSV,4,2,13,19,38,191,33,30,36,134,27,15,33,274,27,46,33,188,30,1*6F
$GPGSV,4,3,13,02,26,062,29,21,18,043,20,24,17,307,22,07,03,130,19,1*6D
$GPGSV,4,4,13,23,02,318,20,1*5D
$GLGSV,2,1,07,73,68,337,26,82,44,061,,83,41,124,,80,38,082,26,1*7C
$GLGSV,2,2,07,72,31,306,21,74,29,293,,71,27,248,25,1*44
$GAGSV,3,1,10,25,78,290,31,03,46,244,28,24,44,071,26,08,30,309,25,7*7A
$GAGSV,3,2,10,12,26,080,20,02,26,261,24,10,23,105,23,05,19,190,19,7*73
$GAGSV,3,3,10,11,13,132,17,33,11,026,20,7*70
$GBGSV,3,1,12,36,63,294,40,46,60,098,,27,48,091,41,30,36,161,36,1*78
$GBGSV,3,2,12,28,22,043,33,22,20,267,32,21,15,319,32,45,13,288,30,1*76
$GBGSV,3,3,12,37,07,105,28,08,07,310,25,13,07,320,25,19,03,219,23,1*71
$GNRMC,235832.000,A,4910.427190,N,12304.400772,W,0.02,342.49,051224,,,D,V*1D
$GNVTG,342.49,T,,M,0.02,N,0.03,K,D*2F
$GNGGA,235833.000,4910.427190,N,12304.400718,W,2,32,0.48,4.998,M,-16.816,M,,*40
$GNGLL,4910.427190,N,12304.400718,W,235833.000,A,D*57
$GNGSA,A,3,22,14,17,13,19,30,15,02,21,24,,,0.86,0.48,0.71,1*0C
$GNGSA,A,3,73,80,72,71,,,,,,,,,0.86,0.48,0.71,2*09
$GNGSA,A,3,25,03,24,08,02,10,05,33,,,,,0.86,0.48,0.71,3*0B
$GNGSA,A,3,36,27,30,28,22,21,45,37,08,13,,,0.86,0.48,0.71,4*05
$GPGSV,4,1,13,22,84,334,31,14,67,066,33,17,65,157,34,13,46,230,31,1*6F
$GPGSV,4,2,13,19,38,191,32,30,36,134,27,15,33,274,27,46,33,188,29,1*66
$GPGSV,4,3,13,02,26,062,29,21,18,043,20,24,17,307,22,07,03,130,19,1*6D
$GPGSV,4,4,13,23,02,318,20,1*5D
$GLGSV,2,1,07,73,68,337,26,82,44,061,,83,41,124,,80,38,082,26,1*7C
$GLGSV,2,2,07,72,31,306,22,74,29,293,,71,27,248,25,1*47
$GAGSV,3,1,10,25,78,290,30,03,46,244,27,24,44,071,26,08,30,309,25,7*74
$GAGSV,3,2,10,12,26,080,19,02,26,261,23,10,23,105,23,05,19,190,19,7*7E
$GAGSV,3,3,10,11,13,132,17,33,11,026,19,7*7A
$GBGSV,3,1,12,36,63,294,40,46,60,098,,27,48,091,41,30,36,161,36,1*78
$GBGSV,3,2,12,28,22,043,33,22,20,267,32,21,15,318,32,45,13,288,30,1*77
$GBGSV,3,3,12,37,07,105,27,08,07,310,25,13,07,320,25,19,03,219,23,1*7E
$GNRMC,235833.000,A,4910.427190,N,12304.400718,W,0.02,342.49,051224,,,D,V*10
$GNVTG,342.49,T,,M,0.02,N,0.03,K,D*2F
$GNGGA,235834.000,4910.427202,N,12304.400682,W,2,32,0.48,4.809,M,-16.816,M,,*44
$GNGLL,4910.427202,N,12304.400682,W,235834.000,A,D*5A
$GNGSA,A,3,22,14,17,13,19,30,15,02,21,24,,,0.86,0.48,0.71,1*0C
$GNGSA,A,3,73,80,72,71,,,,,,,,,0.86,0.48,0.71,2*09
$GNGSA,A,3,25,03,24,08,02,10,05,33,,,,,0.86,0.48,0.71,3*0B
$GNGSA,A,3,36,27,30,28,22,21,45,37,13,08,,,0.86,0.48,0.71,4*05
$GPGSV,4,1,13,22,84,334,30,14,67,066,33,17,65,157,33,13,46,230,31,1*69
$GPGSV,4,2,13,19,38,191,32,30,36,134,27,15,33,274,27,46,33,188,29,1*66
$GPGSV,4,3,13,02,26,062,29,21,18,043,19,24,17,307,22,07,03,130,19,1*67
$GPGSV,4,4,13,23,02,318,20,1*5D
$GLGSV,2,1,07,73,68,337,26,82,44,061,,83,41,124,,80,38,082,25,1*7F
$GLGSV,2,2,07,72,31,306,22,74,29,293,,71,27,248,25,1*47
$GAGSV,3,1,10,25,78,290,30,03,46,244,27,24,44,071,26,08,30,309,24,7*75
$GAGSV,3,2,10,12,26,080,19,02,26,261,23,10,23,105,22,05,19,190,19,7*7F
$GAGSV,3,3,10,11,13,132,17,33,11,026,19,7*7A
$GBGSV,3,1,12,36,63,294,40,46,60,098,,27,48,091,41,30,36,161,36,1*78
$GBGSV,3,2,12,28,22,043,33,22,19,266,32,21,15,318,32,45,13,288,30,1*7C
$GBGSV,3,3,12,37,07,105,26,13,07,320,25,08,07,310,25,19,03,219,22,1*7E
$GNRMC,235834.000,A,4910.427202,N,12304.400682,W,0.02,342.49,051224,,,D,V*1D
$GNVTG,342.49,T,,M,0.02,N,0.03,K,D*2F
$GNGGA,235835.000,4910.427196,N,12304.400622,W,2,32,0.48,4.551,M,-16.816,M,,*41
$GNGLL,4910.427196,N,12304.400622,W,235835.000,A,D*5F
$GNGSA,A,3,22,14,17,13,19,30,15,02,21,24,,,0.86,0.48,0.71,1*0C
$GNGSA,A,3,73,80,72,71,,,,,,,,,0.86,0.48,0.71,2*09
$GNGSA,A,3,25,03,24,08,02,10,05,33,,,,,0.86,0.48,0.71,3*0B
$GNGSA,A,3,36,27,30,28,22,21,45,37,13,08,,,0.86,0.48,0.71,4*05
$GPGSV,4,1,13,22,84,334,30,14,67,066,33,17,65,157,33,13,46,230,31,1*69
$GPGSV,4,2,13,19,38,191,32,30,36,134,27,15,33,274,27,46,33,188,29,1*66
$GPGSV,4,3,13,02,26,062,29,21,18,043,20,24,17,307,22,07,03,130,19,1*6D
$GPGSV,4,4,13,23,02,318,20,1*5D
$GLGSV,2,1,07,73,68,337,26,82,44,061,,83,41,124,,80,38,082,25,1*7F
$GLGSV,2,2,07,72,31,306,21,74,29,293,,71,27,248,25,1*44
$GAGSV,3,1,10,25,78,290,30,03,46,244,27,24,44,071,26,08,30,309,24,7*75
$GAGSV,3,2,10,12,26,080,20,02,26,261,23,10,23,105,22,05,19,190,19,7*75
$GAGSV,3,3,10,11,13,132,17,33,11,026,19,7*7A
$GBGSV,3,1,12,36,63,294,40,46,60,098,,27,48,091,41,30,36,161,36,1*78
$GBGSV,3,2,12,28,22,043,33,22,19,266,32,21,15,318,32,45,13,288,30,1*7C
$GBGSV,3,3,12,37,07,105,26,13,07,320,25,08,07,310,25,19,03,219,22,1*7E
$GNRMC,235835.000,A,4910.427196,N,12304.400622,W,0.01,342.49,051224,,,D,V*1B
$GNVTG,342.49,T,,M,0.01,N,0.02,K,D*2D
$GNGGA,235836.000,4910.427190,N,12304.400514,W,2,32,0.48,4.309,M,-16.816,M,,*49
$GNGLL,4910.427190,N,12304.400514,W,235836.000,A,D*5C
$GNGSA,A,3,22,14,17,13,19,30,15,02,21,24,,,0.86,0.48,0.71,1*0C
$GNGSA,A,3,73,80,72,71,,,,,,,,,0.86,0.48,0.71,2*09
$GNGSA,A,3,25,03,24,08,02,10,05,33,,,,,0.86,0.48,0.71,3*0B
$GNGSA,A,3,36,27,30,28,22,21,45,37,13,08,,,0.86,0.48,0.71,4*05
$GPGSV,4,1,13,22,84,334,30,14,67,066,33,17,65,157,33,13,46,230,31,1*69
$GPGSV,4,2,13,19,38,191,32,30,36,134,27,46,33,188,29,15,33,274,27,1*66
$GPGSV,4,3,13,02,26,062,29,21,18,043,19,24,17,307,23,07,03,130,19,1*66
$GPGSV,4,4,13,23,02,318,20,1*5D
$GLGSV,2,1,06,73,68,337,25,83,41,124,,80,38,082,25,72,31,306,22,1*72
$GLGSV,2,2,06,74,29,293,,71,27,248,25,1*74
$GAGSV,3,1,10,25,78,290,31,03,46,244,27,24,44,071,26,08,30,309,24,7*74
$GAGSV,3,2,10,12,26,080,20,02,26,261,23,10,23,105,23,05,19,190,19,7*74
$GAGSV,3,3,10,11,13,132,17,33,11,026,19,7*7A
$GBGSV,3,1,12,36,63,294,40,46,60,098,,27,48,091,41,30,36,161,36,1*78
$GBGSV,3,2,12,28,22,043,33,22,19,266,32,21,15,318,32,45,13,288,30,1*7C
$GBGSV,3,3,12,37,07,105,26,13,07,320,25,08,07,310,25,19,03,219,22,1*7E
$GNRMC,235836.000,A,4910.427190,N,12304.400514,W,0.01,342.49,051224,,,D,V*18
$GNVTG,342.49,T,,M,0.01,N,0.01,K,D*2E
$GNGGA,235837.000,4910.427202,N,12304.400430,W,2,32,0.48,4.145,M,-16.816,M,,*4D
$GNGLL,4910.427202,N,12304.400430,W,235837.000,A,D*52
$GNGSA,A,3,22,14,17,13,19,30,15,02,21,24,,,0.86,0.48,0.71,1*0C
$GNGSA,A,3,73,80,72,71,,,,,,,,,0.86,0.48,0.71,2*09
$GNGSA,A,3,25,03,24,08,02,10,05,33,,,,,0.86,0.48,0.71,3*0B
$GNGSA,A,3,36,27,30,28,22,21,45,37,13,08,,,0.86,0.48,0.71,4*05
$GPGSV,4,1,13,22,84,334,30,14,67,066,33,17,65,157,33,13,46,230,31,1*69
$GPGSV,4,2,13,19,38,191,32,30,36,134,27,15,33,274,27,46,33,188,29,1*66
$GPGSV,4,3,13,02,26,062,29,21,18,043,19,24,17,307,23,07,03,130,19,1*66
$GPGSV,4,4,13,23,02,318,20,1*5D
$GLGSV,2,1,07,73,68,337,26,82,44,061,,83,41,124,,80,38,082,25,1*7F
$GLGSV,2,2,07,72,31,306,23,74,29,293,,71,27,248,25,1*46
$GAGSV,3,1,10,25,78,290,31,03,46,244,27,24,44,071,26,08,30,309,24,7*74
$GAGSV,3,2,10,12,26,080,20,02,26,261,23,10,23,105,23,05,19,190,19,7*74
$GAGSV,3,3,10,11,13,132,17,33,11,026,19,7*7A
$GBGSV,3,1,12,36,63,294,40,46,60,098,,27,48,091,41,30,36,161,37,1*79
$GBGSV,3,2,12,28,22,043,33,22,19,266,32,21,15,318,32,45,13,288,30,1*7C
$GBGSV,3,3,12,37,07,105,26,13,07,320,25,08,07,310,25,19,03,219,22,1*7E
$GNRMC,235837.000,A,4910.427202,N,12304.400430,W,0.01,342.49,051224,,,D,V*16
$GNVTG,342.49,T,,M,0.01,N,0.01,K,D*2E
$GNGGA,235838.000,4910.427310,N,12304.400298,W,2,32,0.48,3.983,M,-16.816,M,,*41
$GNGLL,4910.427310,N,12304.400298,W,235838.000,A,D*5B
$GNGSA,A,3,22,14,17,13,19,30,15,02,21,24,,,0.86,0.48,0.71,1*0C
$GNGSA,A,3,73,80,72,71,,,,,,,,,0.86,0.48,0.71,2*09
$GNGSA,A,3,25,03,24,08,02,10,05,33,,,,,0.86,0.48,0.71,3*0B
$GNGSA,A,3,36,27,30,28,22,21,45,37,13,08,,,0.86,0.48,0.71,4*05
$GPGSV,4,1,13,22,84,334,30,14,67,066,33,17,65,157,33,13,46,230,31,1*69
$GPGSV,4,2,13,19,38,191,32,30,36,134,27,15,33,274,28,46,33,188,29,1*69
$GPGSV,4,3,13,02,26,062,29,21,18,043,19,24,17,307,23,07,03,130,18,1*67
$GPGSV,4,4,13,23,02,318,20,1*5D
$GLGSV,2,1,07,73,68,337,26,82,44,061,,83,41,124,,80,38,082,25,1*7F
$GLGSV,2,2,07,72,31,306,23,74,29,293,,71,27,248,25,1*46
$GAGSV,3,1,10,25,78,290,31,03,46,244,27,24,44,071,26,08,30,309,24,7*74
$GAGSV,3,2,10,12,26,080,20,02,26,261,23,10,23,105,23,05,19,190,19,7*74
$GAGSV,3,3,10,11,13,132,17,33,11,026,19,7*7A
$GBGSV,3,1,12,36,63,294,40,46,60,098,,27,48,091,41,30,36,161,37,1*79
$GBGSV,3,2,12,28,22,043,33,22,19,266,32,21,15,318,32,45,13,288,30,1*7C
$GBGSV,3,3,12,37,07,105,26,13,07,320,26,08,07,310,25,19,03,219,23,1*7C
$GNRMC,235838.000,A,4910.427310,N,12304.400298,W,0.02,342.49,051224,,,D,V*1C
$GNVTG,342.49,T,,M,0.02,N,0.03,K,D*2F
$GNGGA,235839.000,4910.427382,N,12304.400130,W,2,32,0.48,3.801,M,-16.816,M,,*41
$GNGLL,4910.427382,N,12304.400130,W,235839.000,A,D*50
$GNGSA,A,3,22,14,17,13,19,30,15,02,21,24,,,0.86,0.48,0.71,1*0C
$GNGSA,A,3,73,80,72,71,,,,,,,,,0.86,0.48,0.71,2*09
$GNGSA,A,3,25,03,24,08,02,10,05,33,,,,,0.86,0.48,0.71,3*0B
$GNGSA,A,3,36,27,30,28,22,21,45,37,13,08,,,0.86,0.48,0.71,4*05
$GPGSV,4,1,13,22,84,334,30,14,67,066,33,17,65,157,33,13,46,230,31,1*69
$GPGSV,4,2,13,19,38,191,32,30,36,134,27,15,33,274,29,46,33,188,29,1*68
$GPGSV,4,3,13,02,26,062,30,21,18,043,19,24,17,307,22,07,03,130,18,1*6E
$GPGSV,4,4,13,23,02,318,20,1*5D
$GLGSV,2,1,07,73,68,337,26,82,44,061,,83,41,124,,80,38,082,24,1*7E
$GLGSV,2,2,07,72,31,306,23,74,29,293,,71,27,248,23,1*40
$GAGSV,3,1,10,25,78,290,31,03,46,244,28,24,44,071,26,08,30,309,24,7*7B
$GAGSV,3,2,10,12,26,080,20,02,26,261,23,10,23,105,23,05,19,190,19,7*74
$GAGSV,3,3,10,11,13,132,17,33,11,026,19,7*7A
$GBGSV,3,1,12,36,63,294,40,46,60,098,,27,48,089,41,30,36,161,37,1*70
$GBGSV,3,2,12,28,22,043,33,22,19,266,33,21,15,318,32,45,13,288,30,1*7D
$GBGSV,3,3,12,37,07,105,26,13,07,320,26,08,07,310,25,19,03,219,23,1*7C
$GNRMC,235839.000,A,4910.427382,N,12304.400130,W,0.02,342.49,051224,,,D,V*17
$GNVTG,342.49,T,,M,0.02,N,0.04,K,D*28
$GNGGA,235840.000,4910.427430,N,12304.400010,W,2,32,0.48,3.690,M,-16.816,M,,*44
$GNGLL,4910.427430,N,12304.400010,W,235840.000,A,D*53
$GNGSA,A,3,22,14,17,13,19,30,15,02,21,24,,,0.86,0.48,0.71,1*0C
$GNGSA,A,3,73,80,72,71,,,,,,,,,0.86,0.48,0.71,2*09
$GNGSA,A,3,25,03,24,08,02,10,05,33,,,,,0.86,0.48,0.71,3*0B
$GNGSA,A,3,36,27,30,28,22,21,45,37,13,08,,,0.86,0.48,0.71,4*05
$GPGSV,4,1,13,22,84,334,30,14,67,066,33,17,65,157,33,13,46,230,31,1*69
$GPGSV,4,2,13,19,38,191,32,30,36,134,27,15,33,274,29,46,33,188,29,1*68
$GPGSV,4,3,13,02,26,062,30,21,18,043,19,24,17,307,22,07,03,130,18,1*6E
$GPGSV,4,4,13,23,02,318,20,1*5D
$GLGSV,2,1,07,73,68,337,25,82,44,061,,83,41,124,,80,38,082,24,1*7D
$GLGSV,2,2,07,72,31,306,22,74,29,293,,71,27,248,22,1*40
$GAGSV,3,1,10,25,78,290,31,03,46,244,28,24,44,071,26,08,30,309,24,7*7B
$GAGSV,3,2,10,12,26,080,20,02,26,261,24,10,23,105,23,05,19,190,19,7*73
$GAGSV,3,3,10,11,13,132,17,33,11,026,19,7*7A
$GBGSV,3,1,12,36,63,294,40,46,60,098,,27,48,089,41,30,36,161,37,1*70
$GBGSV,3,2,12,28,21,043,33,22,19,266,33,21,15,318,32,45,13,288,30,1*7E
$GBGSV,3,3,12,37,07,105,26,13,07,320,27,08,07,310,25,19,03,219,24,1*7A
$GNRMC,235840.000,A,4910.427430,N,12304.400010,W,0.02,342.49,051224,,,D,V*14
$GNVTG,342.49,T,,M,0.02,N,0.04,K,D*28
$GNGGA,235841.000,4910.427550,N,12304.399914,W,2,32,0.48,3.624,M,-16.816,M,,*47
$GNGLL,4910.427550,N,12304.399914,W,235841.000,A,D*5F
$GNGSA,A,3,22,14,17,13,19,30,15,02,21,24,,,0.86,0.48,0.71,1*0C
$GNGSA,A,3,73,80,72,71,,,,,,,,,0.86,0.48,0.71,2*09
$GNGSA,A,3,25,03,24,08,02,10,05,33,,,,,0.86,0.48,0.71,3*0B
$GNGSA,A,3,36,27,30,28,22,21,45,37,13,08,,,0.86,0.48,0.71,4*05
$GPGSV,4,1,13,22,84,334,31,14,67,066,33,17,65,157,34,13,46,230,32,1*6C
$GPGSV,4,2,13,19,38,191,33,30,36,134,28,15,33,274,30,46,33,188,30,1*66
$GPGSV,4,3,13,02,26,062,31,21,18,043,20,24,17,307,25,07,03,130,19,1*63
$GPGSV,4,4,13,23,02,318,22,1*5F
$GLGSV,2,1,07,73,68,337,25,82,44,061,,83,41,124,,80,38,082,24,1*7D
$GLGSV,2,2,07,72,31,306,22,74,29,293,,71,27,248,23,1*41
$GAGSV,3,1,10,25,78,290,32,03,46,244,28,24,44,071,27,08,30,309,25,7*78
$GAGSV,3,2,10,12,26,080,21,02,26,261,24,10,23,105,24,05,19,190,20,7*7F
$GAGSV,3,3,10,11,13,132,17,33,11,026,20,7*70
$GBGSV,3,1,12,36,63,294,40,46,60,098,,27,48,089,41,30,36,161,37,1*70
$GBGSV,3,2,12,28,21,043,33,22,19,266,33,21,15,318,32,45,13,288,30,1*7E
$GBGSV,3,3,12,37,07,105,26,13,07,320,27,08,07,310,25,19,03,219,25,1*7B
$GNRMC,235841.000,A,4910.427550,N,12304.399914,W,0.02,342.49,051224,,,D,V*18
$GNVTG,342.49,T,,M,0.02,N,0.04,K,D*28
$GNGGA,235842.000,4910.427628,N,12304.399830,W,2,32,0.48,3.553,M,-16.816,M,,*4C
$GNGLL,4910.427628,N,12304.399830,W,235842.000,A,D*57
$GNGSA,A,3,22,14,17,13,19,30,15,02,21,24,,,0.86,0.48,0.71,1*0C
$GNGSA,A,3,73,80,72,71,,,,,,,,,0.86,0.48,0.71,2*09
$GNGSA,A,3,25,03,24,08,02,10,05,33,,,,,0.86,0.48,0.71,3*0B
$GNGSA,A,3,36,27,30,28,22,21,45,37,13,08,,,0.86,0.48,0.71,4*05
$GPGSV,4,1,13,22,84,334,31,14,67,066,33,17,65,157,35,13,46,230,32,1*6D
$GPGSV,4,2,13,19,38,191,33,30,36,134,29,15,33,274,30,46,33,188,30,1*67
$GPGSV,4,3,13,02,26,062,31,21,18,043,22,24,17,307,25,07,03,130,19,1*61
$GPGSV,4,4,13,23,02,318,21,1*5C
$GLGSV,2,1,07,73,68,337,26,82,44,061,,83,41,124,,80,38,082,24,1*7E
$GLGSV,2,2,07,72,31,306,21,74,29,293,,71,27,248,23,1*42
$GAGSV,3,1,10,25,78,290,32,03,46,244,29,24,44,071,27,08,30,309,25,7*79
$GAGSV,3,2,10,12,26,080,22,02,26,261,24,10,23,105,24,05,19,190,20,7*7C
$GAGSV,3,3,10,11,13,132,17,33,11,026,21,7*71
$GBGSV,3,1,12,36,63,294,40,46,60,098,,27,48,089,41,30,37,160,37,1*70
$GBGSV,3,2,12,28,21,043,33,22,19,266,33,21,15,318,32,45,13,288,30,1*7E
$GBGSV,3,3,12,37,07,105,27,13,07,320,27,08,07,310,25,19,03,219,25,1*7A
$GNRMC,235842.000,A,4910.427628,N,12304.399830,W,0.02,342.49,051224,,,D,V*10
$GNVTG,342.49,T,,M,0.02,N,0.04,K,D*28
$GNGGA,235843.000,4910.427682,N,12304.399692,W,2,32,0.48,3.451,M,-16.816,M,,*48
$GNGLL,4910.427682,N,12304.399692,W,235843.000,A,D*50
$GNGSA,A,3,22,14,17,13,19,30,15,02,21,24,,,0.86,0.48,0.71,1*0C
$GNGSA,A,3,73,80,72,71,,,,,,,,,0.86,0.48,0.71,2*09
$GNGSA,A,3,25,03,24,08,02,10,05,33,,,,,0.86,0.48,0.71,3*0B
$GNGSA,A,3,36,27,30,28,22,21,45,37,13,08,,,0.86,0.48,0.71,4*05
$GPGSV,4,1,13,22,84,334,31,14,67,066,33,17,65,157,35,13,46,230,32,1*6D
$GPGSV,4,2,13,19,38,191,33,30,36,134,29,15,33,274,30,46,33,188,30,1*67
$GPGSV,4,3,13,02,26,062,31,21,18,043,22,24,17,307,22,07,03,130,19,1*66
$GPGSV,4,4,13,23,02,318,20,1*5D
$GLGSV,2,1,07,73,68,337,27,82,44,061,,83,41,124,,80,38,082,24,1*7F
$GLGSV,2,2,07,72,31,306,21,74,29,293,,71,27,248,24,1*45
$GAGSV,3,1,10,25,78,290,32,03,46,244,29,24,44,071,27,08,30,309,25,7*79
$GAGSV,3,2,10,12,26,080,22,02,26,261,24,10,23,105,24,05,19,190,20,7*7C
$GAGSV,3,3,10,11,13,132,17,33,11,026,21,7*71
$GBGSV,3,1,12,36,63,294,40,46,60,098,,27,48,089,41,30,37,160,37,1*70
$GBGSV,3,2,12,28,21,043,33,22,19,266,33,21,15,318,32,45,13,288,30,1*7E
$GBGSV,3,3,12,37,07,105,27,13,07,320,27,08,07,310,25,19,03,219,25,1*7A
$GNRMC,235843.000,A,4910.427682,N,12304.399692,W,0.02,342.49,051224,,,D,V*17
$GNVTG,342.49,T,,M,0.02,N,0.04,K,D*28
$GNGGA,235844.000,4910.427718,N,12304.399566,W,2,32,0.48,3.374,M,-16.816,M,,*45
$GNGLL,4910.427718,N,12304.399566,W,235844.000,A,D*5D
$GNGSA,A,3,22,14,17,13,19,30,15,02,21,24,,,0.86,0.48,0.71,1*0C
$GNGSA,A,3,73,80,72,71,,,,,,,,,0.86,0.48,0.71,2*09
$GNGSA,A,3,25,03,24,08,02,10,05,33,,,,,0.86,0.48,0.71,3*0B
$GNGSA,A,3,36,27,30,28,22,21,45,37,13,08,,,0.86,0.48,0.71,4*05
$GPGSV,4,1,13,22,84,334,31,14,67,066,33,17,65,157,35,13,46,230,32,1*6D
$GPGSV,4,2,13,19,38,191,33,30,36,134,29,15,33,274,30,46,33,188,30,1*67
$GPGSV,4,3,13,02,26,062,31,21,18,043,21,24,17,307,21,07,03,130,19,1*66
$GPGSV,4,4,13,23,02,318,20,1*5D
$GLGSV,2,1,07,73,68,337,26,82,44,061,,83,41,124,,80,38,082,25,1*7F
$GLGSV,2,2,07,72,31,306,21,74,29,293,,71,27,248,25,1*44
$GAGSV,3,1,10,25,78,290,32,03,46,244,29,24,44,071,27,08,30,309,25,7*79
$GAGSV,3,2,10,12,26,080,22,02,26,261,24,10,23,105,24,05,19,190,20,7*7C
$GAGSV,3,3,10,11,13,132,17,33,11,026,21,7*71
$GBGSV,3,1,12,36,63,294,40,46,60,098,,27,48,089,41,30,37,160,37,1*70
$GBGSV,3,2,12,28,21,043,33,22,19,266,33,21,15,318,32,45,13,288,30,1*7E
$GBGSV,3,3,12,37,07,105,27,13,07,320,27,08,07,310,25,19,03,219,26,1*79
$GNRMC,235844.000,A,4910.427718,N,12304.399566,W,0.02,342.49,051224,,,D,V*1A
$GNVTG,342.49,T,,M,0.02,N,0.04,K,D*28
$GNGGA,235845.000,4910.427742,N,12304.399398,W,2,32,0.48,3.322,M,-16.817,M,,*4E
$GNGLL,4910.427742,N,12304.399398,W,235845.000,A,D*54
$GNGSA,A,3,22,14,17,13,19,30,15,02,21,24,,,0.86,0.48,0.71,1*0C
$GNGSA,A,3,73,80,72,71,,,,,,,,,0.86,0.48,0.71,2*09
$GNGSA,A,3,25,03,24,08,02,10,05,33,,,,,0.86,0.48,0.71,3*0B
$GNGSA,A,3,36,27,30,28,22,21,45,37,13,08,,,0.86,0.48,0.71,4*05
$GPGSV,4,1,13,22,84,334,31,14,67,066,33,17,65,157,35,13,46,230,32,1*6D
$GPGSV,4,2,13,19,38,191,33,30,36,134,29,15,33,274,30,46,33,188,30,1*67
$GPGSV,4,3,13,02,26,062,31,21,18,043,20,24,17,307,22,07,03,130,19,1*64
$GPGSV,4,4,13,23,02,318,20,1*5D
$GLGSV,2,1,07,73,68,337,26,82,44,061,,83,41,124,,80,38,082,25,1*7F
$GLGSV,2,2,07,72,31,306,22,74,29,293,,71,27,248,25,1*47
$GAGSV,3,1,10,25,78,290,32,03,46,244,29,24,44,071,27,08,30,309,25,7*79
$GAGSV,3,2,10,12,26,080,22,02,26,261,24,10,23,105,24,05,19,190,20,7*7C
$GAGSV,3,3,10,11,13,132,17,33,11,026,21,7*71
$GBGSV,3,1,12,36,63,294,40,46,60,098,,27,48,089,41,30,37,160,37,1*70
$GBGSV,3,2,12,28,21,043,33,22,19,266,33,21,15,318,32,45,13,288,30,1*7E
$GBGSV,3,3,12,37,07,105,27,13,07,320,27,08,07,310,25,19,03,219,27,1*78
$GNRMC,235845.000,A,4910.427742,N,12304.399398,W,0.02,342.49,051224,,,D,V*13
$GNVTG,342.49,T,,M,0.02,N,0.04,K,D*28
$GNGGA,235846.000,4910.427760,N,12304.399278,W,2,32,0.47,3.192,M,-16.816,M,,*45
$GNGLL,4910.427760,N,12304.399278,W,235846.000,A,D*58
$GNGSA,A,3,22,14,17,13,19,30,15,02,21,24,,,0.85,0.47,0.71,1*00
$GNGSA,A,3,73,80,72,71,,,,,,,,,0.85,0.47,0.71,2*05
$GNGSA,A,3,25,03,24,08,02,10,05,33,,,,,0.85,0.47,0.71,3*07
$GNGSA,A,3,36,27,30,28,22,21,45,37,13,08,,,0.85,0.47,0.71,4*09
$GPGSV,4,1,13,22,84,334,31,14,67,066,33,17,65,157,35,13,46,230,32,1*6D
$GPGSV,4,2,13,19,38,191,33,30,36,134,29,15,33,274,30,46,33,188,30,1*67
$GPGSV,4,3,13,02,26,062,31,21,18,043,22,24,17,307,22,07,03,130,19,1*66
$GPGSV,4,4,13,23,02,318,20,1*5D
$GLGSV,2,1,07,73,68,337,27,82,44,061,,83,41,124,,80,38,082,25,1*7E
$GLGSV,2,2,07,72,31,306,22,74,29,293,,71,27,248,25,1*47
$GAGSV,3,1,10,25,78,290,32,03,46,244,29,24,44,071,27,08,30,309,25,7*79
$GAGSV,3,2,10,12,26,080,22,02,26,261,24,10,23,105,24,05,19,190,20,7*7C
$GAGSV,3,3,10,11,13,132,17,33,11,026,21,7*71
$GBGSV,3,1,12,36,63,294,40,46,60,098,,27,48,089,41,30,37,160,38,1*7F
$GBGSV,3,2,12,28,21,043,33,22,19,266,33,21,15,318,32,45,13,288,30,1*7E
$GBGSV,3,3,12,37,07,105,27,13,07,320,26,08,07,310,25,19,03,219,27,1*79
$GNRMC,235846.000,A,4910.427760,N,12304.399278,W,0.02,342.49,051224,,,D,V*1F
$GNVTG,342.49,T,,M,0.02,N,0.03,K,D*2F
$GNGGA,235847.000,4910.427826,N,12304.399188,W,2,32,0.48,3.021,M,-16.816,M,,*43
$GNGLL,4910.427826,N,12304.399188,W,235847.000,A,D*58
$GNGSA,A,3,22,14,17,13,19,30,15,02,21,24,,,0.86,0.48,0.71,1*0C
$GNGSA,A,3,73,80,72,71,,,,,,,,,0.86,0.48,0.71,2*09
$GNGSA,A,3,25,03,24,08,02,10,05,33,,,,,0.86,0.48,0.71,3*0B
$GNGSA,A,3,36,27,30,28,22,21,45,37,13,08,,,0.86,0.48,0.71,4*05
$GPGSV,4,1,13,22,84,334,31,14,67,066,33,17,65,157,34,13,46,230,32,1*6C
$GPGSV,4,2,13,19,38,191,33,30,36,134,29,15,33,274,30,46,33,188,30,1*67
$GPGSV,4,3,13,02,26,062,31,21,18,043,20,24,17,307,22,07,03,130,19,1*64
$GPGSV,4,4,13,23,02,318,20,1*5D
$GLGSV,2,1,07,73,68,337,26,82,44,061,,83,41,124,,80,38,082,25,1*7F
$GLGSV,2,2,07,72,31,306,22,74,29,293,,71,27,248,24,1*46
$GAGSV,3,1,10,25,78,290,32,03,46,244,29,24,44,071,26,08,30,309,25,7*78
$GAGSV,3,2,10,12,26,080,21,02,26,261,24,10,23,105,23,05,19,190,19,7*72
$GAGSV,3,3,10,11,13,132,17,33,11,026,21,7*71
$GBGSV,3,1,12,36,63,294,40,46,60,098,,27,48,089,41,30,37,160,38,1*7F
$GBGSV,3,2,12,28,21,043,33,22,19,266,33,21,15,318,33,45,13,288,30,1*7F
$GBGSV,3,3,12,37,07,105,26,13,07,320,26,08,07,310,25,19,03,219,25,1*7A
$GNRMC,235847.000,A,4910.427826,N,12304.399188,W,0.02,342.49,051224,,,D,V*1F
$GNVTG,342.49,T,,M,0.02,N,0.04,K,D*28
$GNGGA,235848.000,4910.427850,N,12304.399128,W,2,32,0.47,2.862,M,-16.816,M,,*46
$GNGLL,4910.427850,N,12304.399128,W,235848.000,A,D*5C
$GNGSA,A,3,22,14,17,13,19,30,15,02,21,24,,,0.85,0.47,0.71,1*00
$GNGSA,A,3,73,80,72,71,,,,,,,,,0.85,0.47,0.71,2*05
$GNGSA,A,3,25,03,24,08,02,10,05,33,,,,,0.85,0.47,0.71,3*07
$GNGSA,A,3,36,27,30,28,22,21,45,37,13,08,,,0.85,0.47,0.71,4*09
$GPGSV,4,1,13,22,84,334,31,14,67,066,33,17,65,157,34,13,46,230,32,1*6C
$GPGSV,4,2,13,19,38,191,33,30,36,134,29,15,33,274,30,46,33,188,30,1*67
$GPGSV,4,3,13,02,26,062,31,21,18,043,20,24,17,307,22,07,03,130,19,1*64
$GPGSV,4,4,13,23,02,318,20,1*5D
$GLGSV,2,1,07,73,68,337,26,82,44,061,,83,41,124,,80,38,082,26,1*7C
$GLGSV,2,2,07,72,31,306,21,74,29,293,,71,27,248,24,1*45
$GAGSV,3,1,10,25,78,290,32,03,46,244,29,24,44,071,26,08,30,309,25,7*78
$GAGSV,3,2,10,12,26,080,21,02,26,261,25,10,23,105,23,05,19,190,19,7*73
$GAGSV,3,3,10,11,13,132,17,33,11,026,21,7*71
$GBGSV,3,1,12,36,64,295,40,46,60,098,,27,48,089,41,30,37,160,38,1*79
$GBGSV,3,2,12,28,21,043,33,22,19,266,33,21,15,318,33,45,13,288,30,1*7F
$GBGSV,3,3,12,37,07,105,26,13,07,320,26,08,07,310,25,19,03,219,26,1*79
$GNRMC,235848.000,A,4910.427850,N,12304.399128,W,0.02,342.49,051224,,,D,V*1B
$GNVTG,342.49,T,,M,0.02,N,0.04,K,D*28
$GNGGA,235849.000,4910.427814,N,12304.399110,W,2,32,0.47,2.601,M,-16.816,M,,*47
$GNGLL,4910.427814,N,12304.399110,W,235849.000,A,D*56
$GNGSA,A,3,22,14,17,13,19,30,15,02,21,24,,,0.85,0.47,0.71,1*00
$GNGSA,A,3,73,80,72,71,,,,,,,,,0.85,0.47,0.71,2*05
$GNGSA,A,3,25,03,24,08,02,10,05,33,,,,,0.85,0.47,0.71,3*07
$GNGSA,A,3,36,27,30,28,22,21,45,13,08,37,,,0.85,0.47,0.71,4*09
$GPGSV,4,1,13,22,84,334,31,14,67,066,33,17,65,157,34,13,46,230,32,1*6C
$GPGSV,4,2,13,19,38,191,33,30,36,134,28,15,33,274,30,46,33,188,30,1*66
$GPGSV,4,3,13,02,26,062,31,21,18,043,20,24,17,307,22,07,03,130,19,1*64
$GPGSV,4,4,13,23,02,318,20,1*5D
$GLGSV,2,1,07,73,68,337,26,82,44,061,,83,41,124,,80,38,082,26,1*7C
$GLGSV,2,2,07,72,31,306,20,74,29,293,,71,27,248,24,1*44
$GAGSV,3,1,10,25,78,290,32,03,46,244,29,24,44,071,26,08,30,309,25,7*78
$GAGSV,3,2,10,12,26,080,21,02,26,261,25,10,23,105,23,05,19,190,19,7*73
$GAGSV,3,3,10,11,13,132,17,33,11,026,21,7*71
$GBGSV,3,1,12,36,64,295,40,46,60,098,,27,48,089,41,30,37,160,38,1*79
$GBGSV,3,2,12,28,21,043,33,22,19,266,33,21,15,318,33,45,13,288,30,1*7F
$GBGSV,3,3,12,13,07,320,26,08,07,310,25,37,06,106,26,19,03,219,26,1*7B
$GNRMC,235849.000,A,4910.427814,N,12304.399110,W,0.02,342.49,051224,,,D,V*11
$GNVTG,342.49,T,,M,0.02,N,0.03,K,D*2F
$GNGGA,235850.000,4910.427826,N,12304.399074,W,2,32,0.47,2.399,M,-16.816,M,,*49
$GNGLL,4910.427826,N,12304.399074,W,235850.000,A,D*5C
$GNGSA,A,3,22,14,17,13,19,30,15,02,21,24,,,0.85,0.47,0.71,1*00
$GNGSA,A,3,73,80,72,71,,,,,,,,,0.85,0.47,0.71,2*05
$GNGSA,A,3,25,03,24,08,02,10,05,33,,,,,0.85,0.47,0.71,3*07
$GNGSA,A,3,36,27,30,28,22,21,45,13,08,37,,,0.85,0.47,0.71,4*09
$GPGSV,4,1,13,22,84,334,31,14,67,066,33,17,65,157,34,13,46,230,32,1*6C
$GPGSV,4,2,13,19,38,191,33,30,36,134,28,15,33,274,30,46,33,188,30,1*66
$GPGSV,4,3,13,02,26,062,31,21,18,043,20,24,17,307,22,07,03,130,19,1*64
$GPGSV,4,4,13,23,02,318,20,1*5D
$GLGSV,2,1,07,73,68,337,26,82,44,061,,83,41,124,,80,38,082,26,1*7C
$GLGSV,2,2,07,72,31,306,20,74,29,293,,71,27,248,24,1*44
$GAGSV,3,1,10,25,78,290,32,03,46,244,29,24,44,071,26,08,30,309,25,7*78
$GAGSV,3,2,10,12,26,080,21,02,26,261,25,10,23,105,22,05,19,190,19,7*72
$GAGSV,3,3,10,11,13,132,17,33,11,026,21,7*71
$GBGSV,3,1,12,36,64,295,40,46,60,098,,27,48,089,41,30,37,160,38,1*79
$GBGSV,3,2,12,28,21,043,33,22,19,266,33,21,15,318,33,45,13,288,30,1*7F
$GBGSV,3,3,12,13,07,320,26,08,07,310,25,37,06,106,26,19,03,219,26,1*7B
$GNRMC,235850.000,A,4910.427826,N,12304.399074,W,0.01,342.49,051224,,,D,V*18
$GNVTG,342.49,T,,M,0.01,N,0.03,K,D*2C
$GNGGA,235851.000,4910.427796,N,12304.399056,W,2,32,0.47,2.212,M,-16.816,M,,*4E
$GNGLL,4910.427796,N,12304.399056,W,235851.000,A,D*59
$GNGSA,A,3,22,14,17,13,19,30,15,02,21,24,,,0.85,0.47,0.71,1*00
$GNGSA,A,3,73,80,72,71,,,,,,,,,0.85,0.47,0.71,2*05
$GNGSA,A,3,25,03,24,08,02,10,05,33,,,,,0.85,0.47,0.71,3*07
$GNGSA,A,3,36,27,30,28,22,21,45,13,08,37,,,0.85,0.47,0.71,4*09
$GPGSV,4,1,13,22,84,334,31,14,67,066,33,17,65,157,34,13,46,230,32,1*6C
$GPGSV,4,2,13,19,38,191,33,30,36,134,28,15,33,274,30,46,33,188,30,1*66
$GPGSV,4,3,13,02,26,062,31,21,18,043,20,24,17,307,22,07,03,130,19,1*64
$GPGSV,4,4,13,23,02,318,20,1*5D
$GLGSV,2,1,07,73,68,337,26,82,44,061,,83,41,124,,80,38,082,26,1*7C
$GLGSV,2,2,07,72,31,306,20,74,29,293,,71,27,248,24,1*44
$GAGSV,3,1,10,25,78,290,32,03,46,244,28,24,44,071,26,08,30,309,25,7*79
$GAGSV,3,2,10,12,26,080,21,02,26,261,25,10,23,105,22,05,19,190,19,7*72
$GAGSV,3,3,10,11,13,132,17,33,11,026,21,7*71
$GBGSV,3,1,12,36,64,295,40,46,60,098,,27,48,089,41,30,37,160,38,1*79
$GBGSV,3,2,12,28,21,043,33,22,19,266,33,21,15,318,33,45,13,288,30,1*7F
$GBGSV,3,3,12,13,07,320,26,08,07,310,25,37,06,106,26,19,03,219,26,1*7B
$GNRMC,235851.000,A,4910.427796,N,12304.399056,W,0.01,342.49,051224,,,D,V*1D
$GNVTG,342.49,T,,M,0.01,N,0.02,K,D*2D
$GNGGA,235852.000,4910.427760,N,12304.399086,W,2,32,0.47,2.038,M,-16.816,M,,*43
$GNGLL,4910.427760,N,12304.399086,W,235852.000,A,D*5E
$GNGSA,A,3,22,14,17,13,19,30,15,02,21,24,,,0.85,0.47,0.71,1*00
$GNGSA,A,3,73,80,72,71,,,,,,,,,0.85,0.47,0.71,2*05
$GNGSA,A,3,25,03,24,08,02,10,05,33,,,,,0.85,0.47,0.71,3*07
$GNGSA,A,3,36,27,30,28,22,21,45,13,08,37,,,0.85,0.47,0.71,4*09
$GPGSV,4,1,13,22,84,334,31,14,67,066,33,17,65,157,34,13,46,230,32,1*6C
$GPGSV,4,2,13,19,38,191,33,30,36,134,28,15,33,274,30,46,33,188,30,1*66
$GPGSV,4,3,13,02,26,062,31,21,18,043,20,24,17,307,21,07,03,130,19,1*67
$GPGSV,4,4,13,23,02,318,20,1*5D
$GLGSV,2,1,07,73,68,337,26,82,44,061,,83,41,124,,80,38,082,25,1*7F
$GLGSV,2,2,07,72,31,306,19,74,29,293,,71,27,248,24,1*4E
$GAGSV,3,1,10,25,78,290,32,03,46,244,28,24,44,071,26,08,30,309,25,7*79
$GAGSV,3,2,10,12,26,080,21,02,26,261,25,10,23,105,22,05,19,190,19,7*72
$GAGSV,3,3,10,11,13,132,17,33,11,026,21,7*71
$GBGSV,3,1,12,36,64,295,40,46,60,098,,27,48,089,41,30,37,160,38,1*79
$GBGSV,3,2,12,28,21,043,33,22,19,266,33,21,15,318,33,45,13,288,30,1*7F
$GBGSV,3,3,12,13,07,320,26,08,07,310,25,37,06,106,26,19,03,219,26,1*7B
$GNRMC,235852.000,A,4910.427760,N,12304.399086,W,0.01,342.49,051224,,,D,V*1A
$GNVTG,342.49,T,,M,0.01,N,0.03,K,D*2C
$GNGGA,235853.000,4910.427742,N,12304.399044,W,2,32,0.47,1.941,M,-16.816,M,,*48
$GNGLL,4910.427742,N,12304.399044,W,235853.000,A,D*51
$GNGSA,A,3,22,14,17,13,19,30,15,02,21,24,,,0.85,0.47,0.71,1*00
$GNGSA,A,3,73,80,72,71,,,,,,,,,0.85,0.47,0.71,2*05
$GNGSA,A,3,25,03,24,08,02,10,05,33,,,,,0.85,0.47,0.71,3*07
$GNGSA,A,3,36,27,30,28,22,21,45,13,08,37,,,0.85,0.47,0.71,4*09
$GPGSV,4,1,13,22,84,334,31,14,67,066,32,17,65,157,34,13,46,230,32,1*6D
$GPGSV,4,2,13,19,38,191,33,30,36,134,28,15,33,274,30,46,33,188,30,1*66
$GPGSV,4,3,13,02,26,062,31,21,18,043,20,24,17,307,21,07,03,130,19,1*67
$GPGSV,4,4,13,23,02,318,20,1*5D
$GLGSV,2,1,07,73,68,337,26,82,44,061,,83,41,124,,80,38,082,25,1*7F
$GLGSV,2,2,07,72,31,306,19,74,29,293,,71,27,248,24,1*4E
$GAGSV,3,1,10,25,78,290,32,03,46,244,28,24,44,071,26,08,30,309,25,7*79
$GAGSV,3,2,10,12,26,080,21,02,26,261,24,10,23,105,22,05,19,190,19,7*73
$GAGSV,3,3,10,11,13,132,17,33,11,026,22,7*72
$GBGSV,3,1,12,36,64,295,40,46,60,098,,27,48,089,41,30,37,160,38,1*79
$GBGSV,3,2,12,28,21,043,33,22,19,266,33,21,15,318,33,45,13,288,30,1*7F
$GBGSV,3,3,12,13,07,320,26,08,07,310,25,37,06,106,26,19,03,219,26,1*7B
$GNRMC,235853.000,A,4910.427742,N,12304.399044,W,0.01,342.49,051224,,,D,V*15
$GNVTG,342.49,T,,M,0.01,N,0.03,K,D*2C
$GNGGA,235854.000,4910.427748,N,12304.398978,W,2,32,0.47,1.862,M,-16.816,M,,*42
$GNGLL,4910.427748,N,12304.398978,W,235854.000,A,D*5B
$GNGSA,A,3,22,14,17,13,19,30,15,02,21,24,,,0.85,0.47,0.71,1*00
$GNGSA,A,3,73,80,72,71,,,,,,,,,0.85,0.47,0.71,2*05
$GNGSA,A,3,25,03,24,08,02,10,05,33,,,,,0.85,0.47,0.71,3*07
$GNGSA,A,3,36,27,30,28,22,21,45,13,08,37,,,0.85,0.47,0.71,4*09
$GPGSV,4,1,13,22,84,334,31,14,67,066,33,17,65,157,34,13,46,230,32,1*6C
$GPGSV,4,2,13,19,38,191,33,30,36,134,28,15,33,274,30,46,33,188,30,1*66
$GPGSV,4,3,13,02,26,062,31,21,18,043,20,24,17,307,21,07,03,130,19,1*67
$GPGSV,4,4,13,23,02,318,20,1*5D
$GLGSV,2,1,07,73,68,337,26,82,44,061,,83,41,124,,80,38,082,25,1*7F
$GLGSV,2,2,07,72,31,306,19,74,29,293,,71,27,248,24,1*4E
$GAGSV,3,1,10,25,78,290,32,03,46,244,28,24,44,071,26,08,30,309,25,7*79
$GAGSV,3,2,10,12,26,080,21,02,26,261,24,10,23,105,22,05,19,190,19,7*73
$GAGSV,3,3,10,11,13,132,17,33,11,026,22,7*72
$GBGSV,3,1,12,36,64,295,40,46,60,098,,27,48,089,41,30,37,160,38,1*79
$GBGSV,3,2,12,28,21,043,33,22,19,266,33,21,15,318,33,45,13,288,30,1*7F
$GBGSV,3,3,12,13,07,320,26,08,07,310,25,37,06,106,26,19,03,219,26,1*7B
$GNRMC,235854.000,A,4910.427748,N,12304.398978,W,0.01,342.49,051224,,,D,V*1F
$GNVTG,342.49,T,,M,0.01,N,0.03,K,D*2C
$GNGGA,235855.000,4910.427700,N,12304.399026,W,2,32,0.47,1.781,M,-16.817,M,,*4F
$GNGLL,4910.427700,N,12304.399026,W,235855.000,A,D*55
$GNGSA,A,3,22,14,17,13,19,30,15,02,21,24,,,0.85,0.47,0.71,1*00
$GNGSA,A,3,73,80,72,71,,,,,,,,,0.85,0.47,0.71,2*05
$GNGSA,A,3,25,03,24,08,02,10,05,33,,,,,0.85,0.47,0.71,3*07
$GNGSA,A,3,36,27,30,28,22,21,45,13,08,37,,,0.85,0.47,0.71,4*09
$GPGSV,4,1,13,22,84,334,31,14,67,066,33,17,65,157,34,13,46,230,32,1*6C
$GPGSV,4,2,13,19,38,191,33,30,36,134,29,15,33,274,30,46,33,188,31,1*66
$GPGSV,4,3,13,02,26,062,31,21,18,043,23,24,17,307,21,07,03,130,19,1*64
$GPGSV,4,4,13,23,02,318,20,1*5D
$GLGSV,2,1,07,73,68,337,26,82,44,061,,83,41,124,,80,38,082,26,1*7C
$GLGSV,2,2,07,72,31,306,19,74,29,293,,71,27,248,24,1*4E
$GAGSV,3,1,10,25,78,290,32,03,46,244,28,24,44,071,26,08,30,309,26,7*7A
$GAGSV,3,2,10,12,26,080,21,02,26,261,24,10,23,105,22,05,19,190,19,7*73
$GAGSV,3,3,10,11,13,132,17,33,11,026,22,7*72
$GBGSV,3,1,12,36,64,295,40,46,60,098,,27,48,089,41,30,37,160,38,1*79
$GBGSV,3,2,12,28,21,043,33,22,19,266,33,21,15,318,33,45,13,288,30,1*7F
$GBGSV,3,3,12,13,07,320,26,08,07,310,25,37,06,106,26,19,03,219,26,1*7B
$GNRMC,235855.000,A,4910.427700,N,12304.399026,W,0.01,342.49,051224,,,D,V*11
$GNVTG,342.49,T,,M,0.01,N,0.03,K,D*2C
$GNGGA,235856.000,4910.427694,N,12304.399122,W,2,32,0.47,1.628,M,-16.817,M,,*47
