$GNGGA,235826.000,4910.426050,N,12304.402818,W,2,33,0.47,0.596,M,-16.816,M,,*4D
$GNGLL,4910.426050,N,12304.402818,W,235826.000,A,D*52
$GNGSA,A,3,22,14,17,13,19,30,15,02,24,21,,,0.88,0.47,0.74,1*08
$GNGSA,A,3,82,83,80,72,71,81,,,,,,,0.88,0.47,0.74,2*01
$GNGSA,A,3,25,03,24,08,10,05,33,,,,,,0.88,0.47,0.74,3*0D
$GNGSA,A,3,36,27,30,28,22,21,45,08,13,37,,,0.88,0.47,0.74,4*01
$GPGSV,3,1,11,22,84,340,27,14,67,067,28,17,66,156,29,13,46,229,28,1*6B
$GPGSV,3,2,11,19,38,191,26,30,35,135,21,44,33,171,26,15,33,274,25,1*6B
$GPGSV,3,3,11,02,26,062,22,24,17,307,18,21,17,042,21,1*5B
$GLGSV,2,1,07,82,44,061,32,83,41,124,22,80,38,082,35,72,31,306,28,1*7E
$GLGSV,2,2,07,74,29,293,,71,27,248,31,81,13,020,27,1*4C
$GAGSV,3,1,10,25,78,290,30,03,46,243,25,24,44,071,25,08,30,309,23,7*74
$GAGSV,3,2,10,12,26,079,19,02,26,261,22,10,23,105,19,05,19,190,18,7*71
$GAGSV,3,3,10,11,13,131,17,33,11,026,18,7*78
$GBGSV,4,1,14,36,63,295,36,46,59,099,,27,48,089,37,30,37,160,32,1*7E
$GBGSV,4,2,14,58,21,114,,28,21,043,28,22,20,266,28,21,15,318,29,1*77
$GBGSV,4,3,14,45,14,288,25,08,08,310,19,13,07,320,19,37,06,105,24,1*73
$GBGSV,4,4,14,50,06,338,22,19,03,219,21,1*7A
$GNRMC,235826.000,A,4910.426050,N,12304.402818,W,0.09,26.11,051224,,,D,V*22
$GNVTG,26.11,T,,M,0.09,N,0.17,K,D*1D
$PAIRLOG,Full*51
$GNGGA,235827.000,4910.426044,N,12304.402854,W,2,33,0.47,0.377,M,-16.817,M,,*49
$GNGLL,4910.426044,N,12304.402854,W,235827.000,A,D*5E
$GNGSA,A,3,22,14,17,13,19,30,15,02,24,21,,,0.88,0.47,0.74,1*08
$GNGSA,A,3,82,83,80,72,71,81,,,,,,,0.88,0.47,0.74,2*01
$GNGSA,A,3,25,03,24,08,10,05,33,,,,,,0.88,0.47,0.74,3*0D
$GNGSA,A,3,36,27,30,28,22,21,45,08,13,37,,,0.88,0.47,0.74,4*01
$GPGSV,3,1,11,22,84,340,26,14,67,067,28,17,66,156,29,13,46,229,28,1*6A
$GPGSV,3,2,11,19,38,191,25,30,35,135,21,44,33,171,26,15,33,274,25,1*68
$GPGSV,3,3,11,02,26,062,22,24,17,307,18,21,17,042,21,1*5B
$GLGSV,2,1,07,82,44,061,33,83,41,124,22,80,38,082,35,72,31,306,28,1*7F
$GLGSV,2,2,07,74,29,293,,71,27,248,31,81,13,020,27,1*4C
$GAGSV,3,1,10,25,78,290,30,03,46,243,25,24,44,071,25,08,30,309,22,7*75
$GAGSV,3,2,10,12,26,079,19,02,26,261,21,10,23,105,19,05,19,190,18,7*72
$GAGSV,3,3,10,11,13,131,17,33,11,026,18,7*78
$GBGSV,4,1,14,36,63,295,36,46,59,099,,27,48,089,37,30,37,160,32,1*7E
$GBGSV,4,2,14,58,21,114,,28,21,043,28,22,20,266,27,21,15,318,28,1*79
$GBGSV,4,3,14,45,14,288,25,08,08,310,19,13,07,320,19,37,06,105,23,1*74
$GBGSV,4,4,14,50,06,338,21,19,03,219,21,1*79
$GNRMC,235827.000,A,4910.426044,N,12304.402854,W,0.09,26.11,051224,,,D,V*2E
$GNVTG,26.11,T,,M,0.09,N,0.17,K,D*1D
$PAIRLOG,Full*51
$GNGGA,235828.000,4910.426056,N,12304.402872,W,2,33,0.47,0.154,M,-16.817,M,,*42
$GNGLL,4910.426056,N,12304.402872,W,235828.000,A,D*56
$GNGSA,A,3,22,14,17,13,19,30,15,02,24,21,,,0.88,0.47,0.74,1*08
$GNGSA,A,3,82,83,80,72,71,81,,,,,,,0.88,0.47,0.74,2*01
$GNGSA,A,3,25,03,24,08,10,05,33,,,,,,0.88,0.47,0.74,3*0D
$GNGSA,A,3,36,27,30,28,22,21,45,08,13,37,,,0.88,0.47,0.74,4*01
$GPGSV,3,1,11,22,84,340,26,14,67,067,28,17,66,156,29,13,46,229,28,1*6A
$GPGSV,3,2,11,19,38,191,25,30,35,135,20,44,33,171,26,15,33,274,24,1*68
$GPGSV,3,3,11,02,26,062,20,24,17,307,18,21,17,042,21,1*59
$GLGSV,2,1,07,82,44,061,33,83,41,124,22,80,38,082,35,72,31,306,28,1*7F
$GLGSV,2,2,07,74,29,293,,71,27,248,32,81,13,020,27,1*4F
$GAGSV,3,1,10,25,78,290,30,03,46,243,25,24,44,071,25,08,30,309,22,7*75
$GAGSV,3,2,10,12,26,079,19,02,26,261,21,10,23,105,19,05,19,190,18,7*72
$GAGSV,3,3,10,11,13,131,17,33,11,026,18,7*78
$GBGSV,4,1,14,36,63,295,36,46,59,099,,27,48,089,37,30,37,160,32,1*7E
$GBGSV,4,2,14,58,21,114,,28,21,043,29,22,20,266,27,21,15,318,28,1*78
$GBGSV,4,3,14,45,14,288,25,08,08,310,19,13,07,320,19,37,06,105,23,1*74
$GBGSV,4,4,14,50,06,338,21,19,03,219,21,1*79
$GNRMC,235828.000,A,4910.426056,N,12304.402872,W,0.09,26.11,051224,,,D,V*26
$GNVTG,26.11,T,,M,0.09,N,0.17,K,D*1D
$PAIRLOG,Full*51
$GNGGA,235829.000,4910.426050,N,12304.402872,W,2,33,0.47,0.038,M,-16.816,M,,*4F
$GNGLL,4910.426050,N,12304.402872,W,235829.000,A,D*51
$GNGSA,A,3,22,14,17,13,19,30,15,02,24,21,,,0.88,0.47,0.74,1*08
$GNGSA,A,3,82,83,80,72,71,81,,,,,,,0.88,0.47,0.74,2*01
$GNGSA,A,3,25,03,24,08,10,05,33,,,,,,0.88,0.47,0.74,3*0D
$GNGSA,A,3,36,27,30,28,22,21,45,08,13,37,,,0.88,0.47,0.74,4*01
$GPGSV,3,1,11,22,84,341,26,14,67,067,28,17,66,155,29,13,46,229,28,1*68
$GPGSV,3,2,11,19,39,191,25,30,35,135,21,44,33,171,26,15,33,273,24,1*6F
$GPGSV,3,3,11,02,26,061,22,24,18,307,18,21,17,042,21,1*57
$GLGSV,2,1,07,82,44,061,33,83,41,124,22,80,38,082,35,72,31,306,28,1*7F
$GLGSV,2,2,07,74,29,294,,71,27,248,32,81,12,020,27,1*49
$GAGSV,3,1,10,25,78,291,30,03,46,243,25,24,44,071,25,08,30,308,23,7*74
$GAGSV,3,2,10,02,26,261,21,12,26,079,19,10,23,105,19,05,19,189,18,7*7A
$GAGSV,3,3,10,11,13,131,17,33,11,026,18,7*78
$GBGSV,4,1,14,36,64,295,36,46,59,099,,27,48,089,37,30,37,160,32,1*79
$GBGSV,4,2,14,58,21,114,,28,21,043,29,22,19,266,27,21,15,318,28,1*72
$GBGSV,4,3,14,45,14,288,25,08,07,309,19,13,07,320,19,50,06,338,21,1*7C
$GBGSV,4,4,14,37,06,105,23,19,03,219,20,1*77
$GNRMC,235829.000,A,4910.426050,N,12304.402872,W,0.09,26.11,051224,,,D,V*21
$GNVTG,26.11,T,,M,0.09,N,0.17,K,D*1D
$PAIRLOG,Full*51
$GNGGA,235830.000,4910.426032,N,12304.402854,W,2,33,0.47,-0.211,M,-16.816,M,,*63
$GNGLL,4910.426032,N,12304.402854,W,235830.000,A,D*59
$GNGSA,A,3,22,14,17,13,19,30,15,02,24,21,,,0.88,0.47,0.74,1*08
$GNGSA,A,3,82,83,80,72,71,81,,,,,,,0.88,0.47,0.74,2*01
$GNGSA,A,3,25,03,24,08,10,05,33,,,,,,0.88,0.47,0.74,3*0D
$GNGSA,A,3,36,27,30,28,22,21,45,08,13,37,,,0.88,0.47,0.74,4*01
$GPGSV,3,1,11,22,84,341,27,14,67,067,28,17,66,155,29,13,46,229,27,1*66
$GPGSV,3,2,11,19,39,191,25,30,35,135,22,44,33,171,26,15,33,273,24,1*6C
$GPGSV,3,3,11,02,26,061,23,24,18,307,18,21,17,042,21,1*56
$GLGSV,2,1,07,82,44,061,33,83,41,124,21,80,38,082,35,72,31,306,28,1*7C
$GLGSV,2,2,07,74,29,294,,71,27,248,32,81,12,020,27,1*49
$GAGSV,3,1,10,25,78,291,30,03,46,243,25,24,44,071,25,08,30,308,23,7*74
$GAGSV,3,2,10,02,26,261,21,12,26,079,19,10,23,105,19,05,19,189,18,7*7A
$GAGSV,3,3,10,11,13,131,17,33,11,026,19,7*79
$GBGSV,4,1,14,36,64,295,36,46,59,099,,27,48,089,36,30,37,160,32,1*78
$GBGSV,4,2,14,58,21,114,,28,21,043,29,22,19,266,27,21,15,318,28,1*72
$GBGSV,4,3,14,45,14,288,25,08,07,309,19,13,07,320,19,50,06,338,21,1*7C
$GBGSV,4,4,14,37,06,105,23,19,03,219,20,1*77
$GNRMC,235830.000,A,4910.426032,N,12304.402854,W,0.09,26.11,051224,,,D,V*29
$GNVTG,26.11,T,,M,0.09,N,0.17,K,D*1D
$PAIRLOG,Full*51
$GNGGA,235831.000,4910.425978,N,12304.402830,W,2,33,0.47,-0.307,M,-16.816,M,,*62
$GNGLL,4910.425978,N,12304.402830,W,235831.000,A,D*5E
$GNGSA,A,3,22,14,17,13,19,30,15,02,24,21,,,0.88,0.47,0.74,1*08
$GNGSA,A,3,82,83,80,72,71,81,,,,,,,0.88,0.47,0.74,2*01
$GNGSA,A,3,25,03,24,08,10,05,33,,,,,,0.88,0.47,0.74,3*0D
$GNGSA,A,3,36,27,30,28,22,21,45,08,13,37,,,0.88,0.47,0.74,4*01
$GPGSV,3,1,11,22,84,341,27,14,67,067,28,17,66,155,29,13,46,229,27,1*66
$GPGSV,3,2,11,19,39,191,25,30,35,135,21,44,33,171,26,15,33,273,24,1*6F
$GPGSV,3,3,11,02,26,061,21,24,18,307,18,21,17,042,21,1*54
$GLGSV,2,1,07,82,44,061,33,83,41,124,21,80,38,082,35,72,31,306,29,1*7D
$GLGSV,2,2,07,74,29,294,,71,27,248,32,81,12,020,26,1*48
$GAGSV,3,1,10,25,78,291,29,03,46,243,25,24,44,071,24,08,30,308,22,7*7C
$GAGSV,3,2,10,02,26,261,21,12,26,079,19,10,23,105,19,05,19,189,18,7*7A
$GAGSV,3,3,10,11,13,131,17,33,11,026,19,7*79
$GBGSV,4,1,14,36,64,295,36,46,59,099,,27,48,089,36,30,37,160,32,1*78
$GBGSV,4,2,14,58,21,114,,28,21,043,29,22,19,266,27,21,15,318,28,1*72
$GBGSV,4,3,14,45,14,288,25,08,07,309,19,13,07,320,19,50,06,338,21,1*7C
$GBGSV,4,4,14,37,06,105,23,19,03,219,20,1*77
$GNRMC,235831.000,A,4910.425978,N,12304.402830,W,0.09,26.11,051224,,,D,V*2E
$GNVTG,26.11,T,,M,0.09,N,0.16,K,D*1C
$PAIRLOG,Full*51
$PAIR010,0,1,2343,431929*38
$GNGGA,235832.000,4910.425966,N,12304.402806,W,2,33,0.47,-0.461,M,-16.816,M,,*6C
$GNGLL,4910.425966,N,12304.402806,W,235832.000,A,D*57
$GNGSA,A,3,22,14,17,13,19,30,15,02,24,21,,,0.88,0.47,0.74,1*08
$GNGSA,A,3,82,83,80,72,71,81,,,,,,,0.88,0.47,0.74,2*01
$GNGSA,A,3,25,03,24,08,10,05,33,,,,,,0.88,0.47,0.74,3*0D
$GNGSA,A,3,36,27,30,28,22,21,45,08,13,37,,,0.88,0.47,0.74,4*01
$GPGSV,3,1,11,22,84,341,27,14,67,067,28,17,66,155,29,13,46,229,27,1*66
$GPGSV,3,2,11,19,39,191,25,30,35,135,22,44,33,171,26,15,33,273,24,1*6C
$GPGSV,3,3,11,02,26,061,22,24,18,307,18,21,17,042,21,1*57
$GLGSV,2,1,07,82,44,061,33,83,41,124,21,80,38,082,36,72,31,306,29,1*7E
$GLGSV,2,2,07,74,29,294,,71,27,248,32,81,12,020,26,1*48
$GAGSV,3,1,10,25,78,291,29,03,46,243,25,24,44,071,24,08,30,308,21,7*7F
$GAGSV,3,2,10,02,26,261,21,12,26,079,19,10,23,105,19,05,19,189,18,7*7A
$GAGSV,3,3,10,11,13,131,17,33,11,026,19,7*79
$GBGSV,4,1,14,36,64,295,36,46,59,099,,27,48,089,36,30,37,160,32,1*78
$GBGSV,4,2,14,58,21,114,,28,21,043,29,22,19,266,27,21,15,318,28,1*72
$GBGSV,4,3,14,45,14,288,25,08,07,309,19,13,07,320,19,50,06,338,21,1*7C
$GBGSV,4,4,14,37,06,105,23,19,03,219,20,1*77
$GNRMC,235832.000,A,4910.425966,N,12304.402806,W,0.08,26.11,051224,,,D,V*26
$GNVTG,26.11,T,,M,0.08,N,0.14,K,D*1F
$PAIRLOG,Full*51
$GNGGA,235833.000,4910.425990,N,12304.402836,W,2,33,0.47,-0.646,M,-16.816,M,,*60
$GNGLL,4910.425990,N,12304.402836,W,235833.000,A,D*5C
$GNGSA,A,3,22,14,17,13,19,30,15,02,24,21,,,0.88,0.47,0.74,1*08
$GNGSA,A,3,82,83,80,72,71,81,,,,,,,0.88,0.47,0.74,2*01
$GNGSA,A,3,25,03,24,08,10,05,33,,,,,,0.88,0.47,0.74,3*0D
$GNGSA,A,3,36,27,30,28,22,21,45,08,13,37,,,0.88,0.47,0.74,4*01
$GPGSV,3,1,11,22,84,341,27,14,67,067,28,17,66,155,29,13,46,229,27,1*66
$GPGSV,3,2,11,19,39,191,26,30,35,135,24,44,33,171,26,15,33,273,27,1*6A
$GPGSV,3,3,11,02,26,061,22,24,18,307,18,21,17,042,21,1*57
$GLGSV,2,1,07,82,44,061,33,83,41,124,21,80,38,082,36,72,31,306,29,1*7E
$GLGSV,2,2,07,74,29,294,,71,27,248,31,81,12,020,26,1*4B
$GAGSV,3,1,10,25,78,291,29,03,46,243,25,24,44,071,24,08,30,308,21,7*7F
$GAGSV,3,2,10,02,26,261,21,12,26,079,19,10,23,105,19,05,19,189,17,7*75
$GAGSV,3,3,10,11,13,131,17,33,11,026,19,7*79
$GBGSV,4,1,14,36,64,295,36,46,59,099,,27,48,089,36,30,37,160,32,1*78
$GBGSV,4,2,14,58,21,114,,28,21,043,29,22,19,266,27,21,15,318,28,1*72
$GBGSV,4,3,14,45,14,288,25,08,07,309,19,13,07,320,19,50,06,338,21,1*7C
$GBGSV,4,4,14,37,06,105,23,19,03,219,20,1*77
$GNRMC,235833.000,A,4910.425990,N,12304.402836,W,0.07,26.11,051224,,,D,V*22
$GNVTG,26.11,T,,M,0.07,N,0.13,K,D*17
$PAIRLOG,Full*51
$GNGGA,235834.000,4910.426008,N,12304.402878,W,2,33,0.47,-0.678,M,-16.816,M,,*6B
$GNGLL,4910.426008,N,12304.402878,W,235834.000,A,D*5A
$GNGSA,A,3,22,14,17,13,19,30,15,02,24,21,,,0.88,0.47,0.74,1*08
$GNGSA,A,3,82,83,80,72,71,81,,,,,,,0.88,0.47,0.74,2*01
$GNGSA,A,3,25,03,24,08,10,05,33,,,,,,0.88,0.47,0.74,3*0D
$GNGSA,A,3,36,27,30,28,22,21,45,08,13,37,,,0.88,0.47,0.74,4*01
$GPGSV,3,1,11,22,84,341,26,14,67,067,27,17,66,155,29,13,46,229,26,1*69
$GPGSV,3,2,11,19,39,191,26,30,35,135,23,44,33,171,25,15,33,273,24,1*6D
$GPGSV,3,3,11,02,26,061,22,24,18,307,18,21,17,042,21,1*57
$GLGSV,2,1,07,82,44,061,33,83,41,124,21,80,38,082,36,72,31,306,29,1*7E
$GLGSV,2,2,07,74,29,294,,71,27,248,31,81,12,020,26,1*4B
$GAGSV,3,1,10,25,78,291,29,03,46,243,25,24,44,071,24,08,30,308,21,7*7F
$GAGSV,3,2,10,02,26,261,21,12,26,079,19,10,23,105,19,05,19,189,17,7*75
$GAGSV,3,3,10,11,13,131,17,33,11,026,19,7*79
$GBGSV,4,1,14,36,64,295,36,46,59,099,,27,48,089,36,30,37,160,32,1*78
$GBGSV,4,2,14,58,21,114,,28,21,043,29,22,19,266,26,21,15,318,28,1*73
$GBGSV,4,3,14,45,14,288,25,08,07,309,19,13,07,320,19,50,06,338,20,1*7D
$GBGSV,4,4,14,37,06,105,21,19,03,219,20,1*75
$GNRMC,235834.000,A,4910.426008,N,12304.402878,W,0.07,26.11,051224,,,D,V*24
$GNVTG,26.11,T,,M,0.07,N,0.13,K,D*17
$PAIRLOG,Full*51
$GNGGA,235835.000,4910.426026,N,12304.402884,W,2,33,0.47,-0.805,M,-16.817,M,,*60
$GNGLL,4910.426026,N,12304.402884,W,235835.000,A,D*54
$GNGSA,A,3,22,14,17,13,19,30,15,02,24,21,,,0.88,0.47,0.74,1*08
$GNGSA,A,3,82,83,80,72,71,81,,,,,,,0.88,0.47,0.74,2*01
$GNGSA,A,3,25,03,24,08,10,05,33,,,,,,0.88,0.47,0.74,3*0D
$GNGSA,A,3,36,27,30,28,22,21,45,08,13,37,,,0.88,0.47,0.74,4*01
$GPGSV,3,1,11,22,84,341,26,14,67,067,28,17,66,155,29,13,46,229,26,1*66
$GPGSV,3,2,11,19,39,191,27,30,35,135,24,44,33,171,25,15,33,273,25,1*6A
$GPGSV,3,3,11,02,26,061,22,24,18,307,18,21,17,042,21,1*57
$GLGSV,2,1,07,82,44,061,33,83,41,124,21,80,38,082,36,72,31,306,28,1*7F
$GLGSV,2,2,07,74,29,294,,71,27,248,31,81,12,020,26,1*4B
$GAGSV,3,1,10,25,78,291,29,03,46,243,25,24,44,071,24,08,30,308,21,7*7F
$GAGSV,3,2,10,02,26,261,21,12,26,079,19,10,23,105,19,05,19,189,17,7*75
$GAGSV,3,3,10,11,13,131,17,33,11,026,19,7*79
$GBGSV,4,1,14,36,64,295,36,46,59,099,,27,48,089,36,30,37,160,32,1*78
$GBGSV,4,2,14,58,21,114,,28,21,043,29,22,19,266,26,21,15,318,28,1*73
$GBGSV,4,3,14,45,14,288,25,08,07,309,19,13,07,320,19,50,06,338,20,1*7D
$GBGSV,4,4,14,37,06,105,22,19,03,219,20,1*76
$GNRMC,235835.000,A,4910.426026,N,12304.402884,W,0.07,26.11,051224,,,D,V*2A
$GNVTG,26.11,T,,M,0.07,N,0.13,K,D*17
$PAIRLOG,Full*51
$GNGGA,235836.000,4910.426038,N,12304.402884,W,2,33,0.47,-1.016,M,-16.816,M,,*66
$GNGLL,4910.426038,N,12304.402884,W,235836.000,A,D*58
$GNGSA,A,3,22,14,17,13,19,30,15,02,24,21,,,0.88,0.47,0.74,1*08
$GNGSA,A,3,82,83,80,72,71,81,,,,,,,0.88,0.47,0.74,2*01
$GNGSA,A,3,25,03,24,08,10,05,33,,,,,,0.88,0.47,0.74,3*0D
$GNGSA,A,3,36,27,30,28,22,21,45,08,13,37,,,0.88,0.47,0.74,4*01
$GPGSV,3,1,11,22,84,341,26,14,67,067,28,17,66,155,29,13,46,229,26,1*66
$GPGSV,3,2,11,19,39,191,27,30,35,135,24,44,33,171,25,15,33,273,26,1*69
$GPGSV,3,3,11,02,26,061,23,24,18,307,18,21,17,042,21,1*56
$GLGSV,2,1,07,82,44,061,33,83,41,124,21,80,38,082,37,72,31,306,28,1*7E
$GLGSV,2,2,07,74,29,294,,71,27,248,31,81,12,020,26,1*4B
$GAGSV,3,1,10,25,78,291,29,03,46,243,25,24,44,071,24,08,30,308,21,7*7F
$GAGSV,3,2,10,02,26,261,20,12,26,079,19,10,23,105,19,05,19,189,17,7*74
$GAGSV,3,3,10,11,13,131,17,33,11,026,19,7*79
$GBGSV,4,1,14,36,64,295,36,46,59,099,,27,48,089,36,30,37,160,32,1*78
$GBGSV,4,2,14,58,21,114,,28,21,043,29,22,19,266,27,21,15,318,28,1*72
$GBGSV,4,3,14,45,14,288,25,08,07,309,19,13,07,320,19,50,06,338,21,1*7C
$GBGSV,4,4,14,37,06,105,21,19,03,219,20,1*75
$GNRMC,235836.000,A,4910.426038,N,12304.402884,W,0.07,26.11,051224,,,D,V*26
$GNVTG,26.11,T,,M,0.07,N,0.13,K,D*17
$PAIRLOG,Full*51
$GNGGA,235837.000,4910.426020,N,12304.402866,W,2,33,0.47,-1.260,M,-16.816,M,,*61
$GNGLL,4910.426020,N,12304.402866,W,235837.000,A,D*5C
$GNGSA,A,3,22,14,17,13,19,30,15,02,24,21,,,0.88,0.47,0.74,1*08
$GNGSA,A,3,82,83,80,72,71,81,,,,,,,0.88,0.47,0.74,2*01
$GNGSA,A,3,25,03,24,08,10,05,33,,,,,,0.88,0.47,0.74,3*0D
$GNGSA,A,3,36,27,30,28,22,21,45,08,13,37,,,0.88,0.47,0.74,4*01
$GPGSV,3,1,11,22,84,341,26,14,67,067,29,17,66,155,29,13,46,229,27,1*66
$GPGSV,3,2,11,19,39,191,28,30,35,135,25,44,33,171,25,15,33,273,26,1*67
$GPGSV,3,3,11,02,26,061,23,24,18,307,18,21,17,042,22,1*55
$GLGSV,2,1,07,82,44,061,33,83,41,124,21,80,38,082,37,72,31,306,28,1*7E
$GLGSV,2,2,07,74,29,294,,71,27,248,31,81,12,020,26,1*4B
$GAGSV,3,1,10,25,78,291,29,03,46,243,25,24,44,071,24,08,30,308,22,7*7C
$GAGSV,3,2,10,02,26,261,20,12,26,079,19,10,23,105,19,05,19,189,17,7*74
$GAGSV,3,3,10,11,13,131,17,33,11,026,19,7*79
$GBGSV,4,1,14,36,64,295,36,46,59,099,,27,48,089,36,30,37,160,32,1*78
$GBGSV,4,2,14,58,21,114,,28,21,043,29,22,19,266,28,21,15,318,28,1*7D
$GBGSV,4,3,14,45,14,288,25,08,07,309,19,13,07,320,19,50,06,338,21,1*7C
$GBGSV,4,4,14,37,06,105,22,19,03,219,19,1*7C
$GNRMC,235837.000,A,4910.426020,N,12304.402866,W,0.07,26.11,051224,,,D,V*22
$GNVTG,26.11,T,,M,0.07,N,0.13,K,D*17
$PAIRLOG,Full*51
$GNGGA,235838.000,4910.425990,N,12304.402896,W,2,33,0.47,-1.383,M,-16.816,M,,*6C
$GNGLL,4910.425990,N,12304.402896,W,235838.000,A,D*5D
$GNGSA,A,3,22,14,17,13,19,30,15,02,24,21,,,0.88,0.47,0.74,1*08
$GNGSA,A,3,82,83,80,72,71,81,,,,,,,0.88,0.47,0.74,2*01
$GNGSA,A,3,25,03,24,08,10,05,33,,,,,,0.88,0.47,0.74,3*0D
$GNGSA,A,3,36,27,30,28,22,21,45,08,13,37,,,0.88,0.47,0.74,4*01
$GPGSV,3,1,11,22,84,341,26,14,67,067,28,17,66,155,29,13,46,229,27,1*67
$GPGSV,3,2,11,19,39,191,27,30,35,135,24,44,33,171,25,15,33,273,26,1*69
$GPGSV,3,3,11,02,26,061,23,24,18,307,18,21,17,042,20,1*57
$GLGSV,2,1,07,82,44,061,33,83,41,124,21,80,38,082,37,72,31,306,28,1*7E
$GLGSV,2,2,07,74,29,294,,71,27,248,31,81,12,020,26,1*4B
$GAGSV,3,1,10,25,78,291,29,03,46,243,25,24,44,071,24,08,30,308,22,7*7C
$GAGSV,3,2,10,02,26,261,20,12,26,079,19,10,23,105,19,05,19,189,17,7*74
$GAGSV,3,3,10,11,13,131,16,33,11,026,19,7*78
$GBGSV,4,1,14,36,64,295,36,46,59,099,,27,48,089,36,30,37,160,32,1*78
$GBGSV,4,2,14,58,21,114,,28,21,043,30,22,19,266,28,21,15,318,28,1*75
$GBGSV,4,3,14,45,14,288,25,08,07,309,19,13,07,320,19,50,06,338,22,1*7F
$GBGSV,4,4,14,37,06,105,22,19,03,219,19,1*7C
$GNRMC,235838.000,A,4910.425990,N,12304.402896,W,0.07,26.11,051224,,,D,V*23
$GNVTG,26.11,T,,M,0.07,N,0.13,K,D*17
$PAIRLOG,Full*51
$GNGGA,235839.000,4910.425984,N,12304.402896,W,2,33,0.47,-1.566,M,-16.817,M,,*64
$GNGLL,4910.425984,N,12304.402896,W,235839.000,A,D*59
$GNGSA,A,3,22,14,17,13,19,30,15,02,24,21,,,0.88,0.47,0.74,1*08
$GNGSA,A,3,82,83,80,72,71,81,,,,,,,0.88,0.47,0.74,2*01
$GNGSA,A,3,25,03,24,08,10,05,33,,,,,,0.88,0.47,0.74,3*0D
$GNGSA,A,3,36,27,30,28,22,21,45,08,13,37,,,0.88,0.47,0.74,4*01
$GPGSV,3,1,11,22,84,341,26,14,67,067,26,17,66,155,29,13,46,229,26,1*68
$GPGSV,3,2,11,19,39,191,27,30,35,135,23,44,33,171,25,15,33,273,26,1*6E
$GPGSV,3,3,11,02,26,061,23,24,18,307,18,21,17,042,22,1*55
$GLGSV,2,1,07,82,44,061,33,83,41,124,21,80,38,082,37,72,31,306,28,1*7E
$GLGSV,2,2,07,74,29,294,,71,27,248,31,81,12,020,27,1*4A
$GAGSV,3,1,10,25,78,291,29,03,46,243,25,24,44,071,24,08,30,308,22,7*7C
$GAGSV,3,2,10,02,26,261,20,12,26,079,19,10,23,105,19,05,19,189,17,7*74
$GAGSV,3,3,10,11,13,131,16,33,11,026,19,7*78
$GBGSV,4,1,14,36,64,295,36,46,59,099,,27,48,089,36,30,37,160,32,1*78
$GBGSV,4,2,14,58,21,114,,28,21,043,30,22,19,266,27,21,15,318,28,1*7A
$GBGSV,4,3,14,45,14,288,25,08,07,309,19,13,07,320,19,50,06,338,22,1*7F
$GBGSV,4,4,14,37,06,105,21,19,03,219,19,1*7F
$GNRMC,235839.000,A,4910.425984,N,12304.402896,W,0.07,26.11,051224,,,D,V*27
$GNVTG,26.11,T,,M,0.07,N,0.13,K,D*17
$PAIRLOG,Full*51
$GNGGA,235840.000,4910.425960,N,12304.402944,W,2,33,0.47,-1.644,M,-16.816,M,,*6C
$GNGLL,4910.425960,N,12304.402944,W,235840.000,A,D*53
$GNGSA,A,3,22,14,17,13,19,30,15,02,24,21,,,0.88,0.47,0.74,1*08
$GNGSA,A,3,82,83,80,72,71,81,,,,,,,0.88,0.47,0.74,2*01
$GNGSA,A,3,25,03,24,08,10,05,33,,,,,,0.88,0.47,0.74,3*0D
$GNGSA,A,3,36,27,30,28,22,21,45,08,13,37,,,0.88,0.47,0.74,4*01
$GPGSV,3,1,11,22,84,341,26,14,67,067,28,17,66,155,29,13,46,229,26,1*66
$GPGSV,3,2,11,19,39,191,27,30,35,135,24,44,33,171,25,15,33,273,25,1*6A
$GPGSV,3,3,11,02,26,061,24,24,18,307,18,21,17,042,22,1*52
$GLGSV,2,1,07,82,44,061,33,83,41,124,21,80,38,082,37,72,31,306,28,1*7E
$GLGSV,2,2,07,74,29,294,,71,27,248,31,81,12,020,27,1*4A
$GAGSV,3,1,10,25,78,291,29,03,46,243,25,24,44,071,25,08,30,308,22,7*7D
$GAGSV,3,2,10,02,26,261,20,12,26,079,19,10,23,105,19,05,19,189,17,7*74
$GAGSV,3,3,10,11,13,131,17,33,11,026,19,7*79
$GBGSV,4,1,14,36,64,295,36,46,59,099,,27,48,089,36,30,37,160,32,1*78
$GBGSV,4,2,14,58,21,114,,28,21,043,30,22,19,266,28,21,15,318,28,1*75
$GBGSV,4,3,14,45,14,288,25,08,07,309,19,13,07,320,19,50,06,338,22,1*7F
$GBGSV,4,4,14,37,06,105,21,19,03,219,19,1*7F
$GNRMC,235840.000,A,4910.425960,N,12304.402944,W,0.06,26.11,051224,,,D,V*2C
$GNVTG,26.11,T,,M,0.06,N,0.12,K,D*17
$PAIRLOG,Full*51
$GNGGA,235841.000,4910.425942,N,12304.402974,W,2,33,0.47,-1.841,M,-16.817,M,,*64
$GNGLL,4910.425942,N,12304.402974,W,235841.000,A,D*51
$GNGSA,A,3,22,14,17,13,19,30,15,02,24,21,,,0.88,0.47,0.74,1*08
$GNGSA,A,3,82,83,80,72,71,81,,,,,,,0.88,0.47,0.74,2*01
$GNGSA,A,3,25,03,24,08,10,05,33,,,,,,0.88,0.47,0.74,3*0D
$GNGSA,A,3,36,27,30,28,22,21,45,08,13,37,,,0.88,0.47,0.74,4*01
$GPGSV,3,1,11,22,84,341,26,14,67,067,23,17,66,155,28,13,46,229,25,1*6F
$GPGSV,3,2,11,19,39,191,24,30,35,135,21,44,33,171,25,15,33,273,22,1*6B
$GPGSV,3,3,11,02,26,061,22,24,18,307,18,21,17,042,21,1*57
$GLGSV,2,1,07,82,44,061,33,83,41,124,21,80,38,082,37,72,31,306,28,1*7E
$GLGSV,2,2,07,74,29,294,,71,27,248,31,81,12,020,27,1*4A
$GAGSV,3,1,10,25,78,291,29,03,46,243,25,24,44,071,25,08,30,308,22,7*7D
$GAGSV,3,2,10,02,26,261,20,12,26,079,18,10,23,105,19,05,19,189,18,7*7A
$GAGSV,3,3,10,11,13,131,17,33,11,026,19,7*79
$GBGSV,4,1,14,36,64,295,36,46,59,099,,27,48,089,36,30,37,160,32,1*78
$GBGSV,4,2,14,58,21,114,,28,21,043,30,22,19,266,29,21,15,318,28,1*74
$GBGSV,4,3,14,45,14,288,25,08,07,309,19,13,07,320,19,50,06,338,22,1*7F
$GBGSV,4,4,14,37,06,105,22,19,03,219,19,1*7C
$GNRMC,235841.000,A,4910.425942,N,12304.402974,W,0.06,26.11,051224,,,D,V*2E
$GNVTG,26.11,T,,M,0.06,N,0.12,K,D*17
$PAIRLOG,Full*51
$GNGGA,235842.000,4910.425918,N,12304.402998,W,2,33,0.47,-1.962,M,-16.816,M,,*6B
$GNGLL,4910.425918,N,12304.402998,W,235842.000,A,D*5F
$GNGSA,A,3,22,14,17,13,19,30,15,02,24,21,,,0.88,0.47,0.74,1*08
$GNGSA,A,3,82,83,80,72,71,81,,,,,,,0.88,0.47,0.74,2*01
$GNGSA,A,3,25,03,24,08,10,05,33,,,,,,0.88,0.47,0.74,3*0D
$GNGSA,A,3,36,27,30,28,22,21,45,08,13,37,,,0.88,0.47,0.74,4*01
$GPGSV,3,1,11,22,84,341,26,14,67,067,24,17,66,155,28,13,46,229,25,1*68
$GPGSV,3,2,11,19,39,191,24,30,35,135,22,44,33,171,25,15,33,273,23,1*69
$GPGSV,3,3,11,02,26,061,20,24,18,307,18,21,17,042,20,1*54
$GLGSV,2,1,07,82,44,061,33,83,41,124,21,80,38,082,37,72,31,306,28,1*7E
$GLGSV,2,2,07,74,29,294,,71,27,248,31,81,12,020,27,1*4A
$GAGSV,3,1,10,25,78,291,28,03,46,243,25,24,44,071,25,08,30,308,21,7*7F
$GAGSV,3,2,10,02,26,261,20,12,26,079,18,10,23,105,19,05,19,189,18,7*7A
$GAGSV,3,3,10,11,13,131,17,33,11,026,19,7*79
$GBGSV,4,1,14,36,64,295,36,46,59,099,,27,48,089,36,30,37,160,32,1*78
$GBGSV,4,2,14,58,21,114,,28,21,043,31,22,19,266,29,21,15,318,28,1*75
$GBGSV,4,3,14,45,14,288,25,08,07,309,19,13,07,320,19,50,06,338,23,1*7E
$GBGSV,4,4,14,37,06,105,22,19,03,219,20,1*76
$GNRMC,235842.000,A,4910.425918,N,12304.402998,W,0.06,26.11,051224,,,D,V*20
$GNVTG,26.11,T,,M,0.06,N,0.12,K,D*17
$PAIRLOG,Full*51
$GNGGA,235843.000,4910.425876,N,12304.403004,W,2,33,0.47,-2.058,M,-16.816,M,,*6D
$GNGLL,4910.425876,N,12304.403004,W,235843.000,A,D*5A
$GNGSA,A,3,22,14,17,13,19,30,15,02,24,21,,,0.88,0.47,0.74,1*08
$GNGSA,A,3,82,83,80,72,71,81,,,,,,,0.88,0.47,0.74,2*01
$GNGSA,A,3,25,03,24,08,10,05,33,,,,,,0.88,0.47,0.74,3*0D
$GNGSA,A,3,36,27,30,28,22,21,45,08,13,37,,,0.88,0.47,0.74,4*01
$GPGSV,3,1,11,22,84,341,25,14,67,067,24,17,66,155,27,13,46,229,24,1*65
$GPGSV,3,2,11,19,39,191,24,30,35,135,22,44,33,171,25,15,33,273,23,1*69
$GPGSV,3,3,11,02,26,061,20,24,18,307,18,21,17,042,21,1*55
$GLGSV,2,1,07,82,44,061,33,83,41,124,21,80,38,082,37,72,31,306,28,1*7E
$GLGSV,2,2,07,74,29,294,,71,27,248,31,81,12,020,26,1*4B
$GAGSV,3,1,10,25,78,291,28,03,46,243,25,24,44,071,24,08,30,308,21,7*7E
$GAGSV,3,2,10,02,26,261,20,12,26,079,18,10,23,105,19,05,19,189,18,7*7A
$GAGSV,3,3,10,11,13,131,17,33,11,026,19,7*79
$GBGSV,4,1,14,36,64,295,36,46,59,099,,27,48,089,36,30,37,160,32,1*78
$GBGSV,4,2,14,58,21,114,,28,21,043,31,22,19,266,29,21,15,318,29,1*74
$GBGSV,4,3,14,45,14,288,25,08,07,309,19,13,07,320,19,50,06,338,23,1*7E
$GBGSV,4,4,14,37,06,105,21,19,03,219,20,1*75
$GNRMC,235843.000,A,4910.425876,N,12304.403004,W,0.06,26.11,051224,,,D,V*25
$GNVTG,26.11,T,,M,0.06,N,0.12,K,D*17
$PAIRLOG,Full*51
$GNGGA,235844.000,4910.425828,N,12304.403016,W,2,33,0.47,-2.111,M,-16.816,M,,*6E
$GNGLL,4910.425828,N,12304.403016,W,235844.000,A,D*55
$GNGSA,A,3,22,14,17,13,19,30,15,02,24,21,,,0.88,0.47,0.74,1*08
$GNGSA,A,3,82,83,80,72,71,81,,,,,,,0.88,0.47,0.74,2*01
$GNGSA,A,3,25,03,24,08,10,05,33,,,,,,0.88,0.47,0.74,3*0D
$GNGSA,A,3,36,27,30,28,22,21,45,08,13,37,,,0.88,0.47,0.74,4*01
$GPGSV,3,1,11,22,84,341,24,14,67,067,23,17,66,155,26,13,46,229,23,1*65
$GPGSV,3,2,11,19,39,191,24,30,35,135,22,44,33,171,25,15,33,273,22,1*68
$GPGSV,3,3,11,02,26,061,20,24,18,307,18,21,17,042,21,1*55
$GLGSV,2,1,07,82,44,061,33,83,41,124,21,80,38,082,37,72,31,306,27,1*71
$GLGSV,2,2,07,74,29,294,,71,27,248,31,81,12,020,26,1*4B
$GAGSV,3,1,10,25,78,291,28,03,46,243,24,24,44,071,23,08,30,308,21,7*78
$GAGSV,3,2,10,02,26,261,19,12,26,079,17,10,23,105,19,05,19,189,18,7*7F
$GAGSV,3,3,10,11,13,131,17,33,11,026,19,7*79
$GBGSV,4,1,14,36,64,295,36,46,59,099,,27,48,089,36,30,37,160,32,1*78
$GBGSV,4,2,14,58,21,114,,28,21,043,31,22,19,266,29,21,15,318,29,1*74
$GBGSV,4,3,14,45,14,288,25,08,07,309,19,13,07,320,19,50,06,338,23,1*7E
$GBGSV,4,4,14,37,06,105,21,19,03,219,20,1*75
$GNRMC,235844.000,A,4910.425828,N,12304.403016,W,0.06,26.11,051224,,,D,V*2A
$GNVTG,26.11,T,,M,0.06,N,0.12,K,D*17
$PAIRLOG,Full*51
$GNGGA,235845.000,4910.425774,N,12304.402956,W,2,33,0.47,-2.157,M,-16.816,M,,*67
$GNGLL,4910.425774,N,12304.402956,W,235845.000,A,D*5E
$GNGSA,A,3,22,14,17,13,19,30,15,02,24,21,,,0.88,0.47,0.74,1*08
$GNGSA,A,3,82,83,80,72,71,81,,,,,,,0.88,0.47,0.74,2*01
$GNGSA,A,3,25,03,24,08,10,05,33,,,,,,0.88,0.47,0.74,3*0D
$GNGSA,A,3,36,27,30,28,22,21,45,08,13,37,,,0.88,0.47,0.74,4*01
$GPGSV,3,1,11,22,84,341,24,14,67,067,25,17,66,155,27,13,46,229,23,1*62
$GPGSV,3,2,11,19,39,191,24,30,35,135,23,44,33,171,25,15,33,273,24,1*6F
$GPGSV,3,3,11,02,26,061,21,24,18,307,17,21,17,042,20,1*5A
$GLGSV,2,1,07,82,44,061,33,83,41,124,21,80,38,082,37,72,31,306,27,1*71
$GLGSV,2,2,07,74,29,294,,71,27,248,30,81,12,020,26,1*4A
$GAGSV,3,1,10,25,78,291,28,03,46,243,24,24,44,071,24,08,30,308,21,7*7F
$GAGSV,3,2,10,02,26,261,19,12,26,079,17,10,23,105,19,05,19,189,18,7*7F
$GAGSV,3,3,10,11,13,131,17,33,11,026,19,7*79
$GBGSV,4,1,14,36,64,295,36,46,59,099,,27,48,089,36,30,37,160,32,1*78
$GBGSV,4,2,14,58,21,114,,28,21,043,31,22,19,266,29,21,15,318,29,1*74
$GBGSV,4,3,14,45,14,288,25,08,07,309,19,13,07,320,20,50,06,338,23,1*74
$GBGSV,4,4,14,37,06,105,22,19,03,219,20,1*76
$GNRMC,235845.000,A,4910.425774,N,12304.402956,W,0.06,26.11,051224,,,D,V*21
$GNVTG,26.11,T,,M,0.06,N,0.11,K,D*14
$PAIRLOG,Full*51
$GNGGA,235846.000,4910.425678,N,12304.402974,W,2,32,0.48,-2.366,M,-16.816,M,,*67
$GNGLL,4910.425678,N,12304.402974,W,235846.000,A,D*50
$GNGSA,A,3,22,14,17,13,19,15,02,24,21,,,,0.88,0.48,0.74,1*04
$GNGSA,A,3,82,83,80,72,71,81,,,,,,,0.88,0.48,0.74,2*0E
$GNGSA,A,3,25,03,24,08,10,05,33,,,,,,0.88,0.48,0.74,3*02
$GNGSA,A,3,36,27,30,28,22,21,45,08,13,37,,,0.88,0.48,0.74,4*0E
$GPGSV,3,1,11,22,84,341,24,14,67,067,26,17,66,155,27,13,46,229,23,1*61
$GPGSV,3,2,11,19,39,191,24,30,35,135,,44,33,171,25,15,33,273,24,1*6E
$GPGSV,3,3,11,02,26,061,21,24,18,307,17,21,17,042,20,1*5A
$GLGSV,2,1,07,82,44,061,34,83,41,124,21,80,38,082,37,72,31,306,27,1*76
$GLGSV,2,2,07,74,29,294,,71,27,248,30,81,12,020,26,1*4A
$GAGSV,3,1,10,25,78,291,28,03,46,243,24,24,44,071,24,08,30,308,22,7*7C
$GAGSV,3,2,10,02,26,261,19,12,26,079,17,10,23,105,19,05,19,189,18,7*7F
$GAGSV,3,3,10,11,13,131,17,33,11,026,19,7*79
$GBGSV,4,1,14,36,64,295,36,46,59,099,,27,48,089,36,30,37,160,33,1*79
$GBGSV,4,2,14,58,21,114,,28,21,043,31,22,19,266,29,21,15,318,29,1*74
$GBGSV,4,3,14,45,14,288,25,08,07,309,19,13,07,320,20,50,06,338,24,1*73
$GBGSV,4,4,14,37,06,105,22,19,03,219,20,1*76
$GNRMC,235846.000,A,4910.425678,N,12304.402974,W,0.06,26.11,051224,,,D,V*2F
$GNVTG,26.11,T,,M,0.06,N,0.11,K,D*14
$PAIRLOG,Full*51
$GNGGA,235847.000,4910.425618,N,12304.402950,W,2,33,0.47,-2.413,M,-16.817,M,,*6C
$GNGLL,4910.425618,N,12304.402950,W,235847.000,A,D*51
$GNGSA,A,3,22,14,17,13,19,30,15,02,24,21,,,0.88,0.47,0.74,1*08
$GNGSA,A,3,82,83,80,72,71,81,,,,,,,0.88,0.47,0.74,2*01
$GNGSA,A,3,25,03,24,08,10,05,33,,,,,,0.88,0.47,0.74,3*0D
$GNGSA,A,3,36,27,30,28,22,21,45,08,13,37,,,0.88,0.47,0.74,4*01
$GPGSV,3,1,11,22,84,341,25,14,67,067,29,17,66,155,28,13,46,229,24,1*67
$GPGSV,3,2,11,19,39,191,25,30,35,135,26,44,33,171,25,15,33,273,25,1*6A
$GPGSV,3,3,11,02,26,061,22,24,18,307,17,21,17,042,20,1*59
$GLGSV,2,1,07,82,44,061,34,83,41,124,21,80,38,082,37,72,31,306,27,1*76
$GLGSV,2,2,07,74,29,294,,71,27,248,30,81,12,020,26,1*4A
$GAGSV,3,1,10,25,78,291,29,03,46,243,25,24,44,071,24,08,30,308,23,7*7D
$GAGSV,3,2,10,02,26,261,20,12,26,079,17,10,23,105,19,05,19,189,18,7*75
$GAGSV,3,3,10,11,13,131,17,33,11,026,19,7*79
$GBGSV,4,1,14,36,64,295,36,46,59,099,,27,48,089,36,30,37,160,33,1*79
$GBGSV,4,2,14,58,21,114,,28,21,043,31,22,19,266,29,21,15,318,29,1*74
$GBGSV,4,3,14,45,14,288,25,08,07,309,19,13,07,320,20,50,06,338,24,1*73
$GBGSV,4,4,14,37,06,105,21,19,03,219,21,1*74
$GNRMC,235847.000,A,4910.425618,N,12304.402950,W,0.06,26.11,051224,,,D,V*2E
$GNVTG,26.11,T,,M,0.06,N,0.10,K,D*15
$PAIRLOG,Full*51
$GNGGA,235848.000,4910.425606,N,12304.402920,W,2,33,0.47,-2.500,M,-16.816,M,,*69
$GNGLL,4910.425606,N,12304.402920,W,235848.000,A,D*56
$GNGSA,A,3,22,14,17,13,19,30,15,02,24,21,,,0.88,0.47,0.74,1*08
$GNGSA,A,3,82,83,80,72,71,81,,,,,,,0.88,0.47,0.74,2*01
$GNGSA,A,3,25,03,24,08,10,05,33,,,,,,0.88,0.47,0.74,3*0D
$GNGSA,A,3,36,27,30,28,22,21,45,08,13,37,,,0.88,0.47,0.74,4*01
$GPGSV,3,1,11,22,84,341,25,14,67,067,26,17,66,155,28,13,46,229,25,1*69
$GPGSV,3,2,11,19,39,191,26,30,35,135,25,44,33,171,25,15,33,273,25,1*6A
$GPGSV,3,3,11,02,26,061,23,24,18,307,17,21,17,042,21,1*59
$GLGSV,2,1,07,82,44,061,34,83,41,124,21,80,38,082,37,72,31,306,26,1*77
$GLGSV,2,2,07,74,29,294,,71,27,248,30,81,12,020,25,1*49
$GAGSV,3,1,10,25,78,291,29,03,46,243,25,24,44,071,24,08,30,308,23,7*7D
$GAGSV,3,2,10,02,26,261,20,12,26,079,17,10,23,105,19,05,19,189,18,7*75
$GAGSV,3,3,10,11,13,131,17,33,11,026,19,7*79
$GBGSV,4,1,14,36,64,295,36,46,59,099,,27,48,089,36,30,37,160,33,1*79
$GBGSV,4,2,14,58,21,114,,28,21,043,31,22,19,266,29,21,15,318,29,1*74
$GBGSV,4,3,14,45,14,288,25,08,07,309,19,13,07,320,21,50,06,338,24,1*72
$GBGSV,4,4,14,37,06,105,21,19,03,219,21,1*74
$GNRMC,235848.000,A,4910.425606,N,12304.402920,W,0.05,26.11,051224,,,D,V*2A
$GNVTG,26.11,T,,M,0.05,N,0.10,K,D*16
$PAIRLOG,Full*51
$GNGGA,235849.000,4910.425552,N,12304.402866,W,2,33,0.47,-2.503,M,-16.817,M,,*6B
$GNGLL,4910.425552,N,12304.402866,W,235849.000,A,D*56
$GNGSA,A,3,22,14,17,13,19,30,15,02,24,21,,,0.88,0.47,0.74,1*08
$GNGSA,A,3,82,83,80,72,71,81,,,,,,,0.88,0.47,0.74,2*01
$GNGSA,A,3,25,03,24,08,10,05,33,,,,,,0.88,0.47,0.74,3*0D
$GNGSA,A,3,36,27,30,28,22,21,45,08,13,37,,,0.88,0.47,0.74,4*01
$GPGSV,3,1,11,22,84,341,25,14,67,067,25,17,66,155,28,13,46,229,25,1*6A
$GPGSV,3,2,11,19,39,191,26,30,35,135,24,44,33,171,25,15,33,273,25,1*6B
$GPGSV,3,3,11,02,26,061,23,24,18,307,17,21,17,042,21,1*59
$GLGSV,2,1,07,82,44,061,34,83,41,124,21,80,38,082,37,72,31,306,26,1*77
$GLGSV,2,2,07,74,29,294,,71,27,248,30,81,12,020,25,1*49
$GAGSV,3,1,10,25,78,291,29,03,46,243,25,24,44,071,24,08,30,308,23,7*7D
$GAGSV,3,2,10,02,26,261,20,12,26,079,17,10,23,105,19,05,19,189,18,7*75
$GAGSV,3,3,10,11,13,131,17,33,11,026,20,7*73
$GBGSV,4,1,14,36,64,295,36,46,59,099,,27,48,089,36,30,37,160,33,1*79
$GBGSV,4,2,14,58,21,114,,28,21,043,31,22,19,266,29,21,15,318,30,1*7C
$GBGSV,4,3,14,45,14,288,25,08,07,309,19,13,07,320,22,50,06,338,24,1*71
$GBGSV,4,4,14,37,06,105,21,19,03,219,22,1*77
$GNRMC,235849.000,A,4910.425552,N,12304.402866,W,0.05,26.11,051224,,,D,V*2A
$GNVTG,26.11,T,,M,0.05,N,0.09,K,D*1E
$PAIRLOG,Full*51
$GNGGA,235850.000,4910.425426,N,12304.402848,W,2,33,0.47,-2.650,M,-16.816,M,,*69
$GNGLL,4910.425426,N,12304.402848,W,235850.000,A,D*50
$GNGSA,A,3,22,14,17,13,19,30,15,02,24,21,,,0.88,0.47,0.74,1*08
$GNGSA,A,3,82,83,80,72,71,81,,,,,,,0.88,0.47,0.74,2*01
$GNGSA,A,3,25,03,24,08,10,05,33,,,,,,0.88,0.47,0.74,3*0D
$GNGSA,A,3,36,27,30,28,22,21,45,08,13,37,,,0.88,0.47,0.74,4*01
$GPGSV,3,1,11,22,84,341,26,14,67,067,26,17,66,155,28,13,46,229,25,1*6A
$GPGSV,3,2,11,19,39,191,26,30,35,135,25,44,33,171,26,15,33,273,26,1*6A
$GPGSV,3,3,11,02,26,061,24,24,18,307,17,21,17,042,21,1*5E
$GLGSV,2,1,07,82,44,061,34,83,41,124,21,80,38,082,37,72,31,306,26,1*77
$GLGSV,2,2,07,74,29,294,,71,27,248,30,81,12,020,25,1*49
$GAGSV,3,1,10,25,78,291,29,03,46,243,25,24,44,071,25,08,30,308,23,7*7C
$GAGSV,3,2,10,02,26,261,21,12,26,079,17,10,23,105,19,05,19,189,18,7*74
$GAGSV,3,3,10,11,13,131,16,33,11,026,20,7*72
$GBGSV,4,1,14,36,64,295,36,46,59,099,,27,48,089,36,30,37,160,33,1*79
$GBGSV,4,2,14,58,21,114,,28,21,043,31,22,19,266,29,21,15,318,30,1*7C
$GBGSV,4,3,14,45,14,288,25,08,07,309,20,13,07,320,21,50,06,338,24,1*78
$GBGSV,4,4,14,37,06,105,21,19,03,219,21,1*74
$GNRMC,235850.000,A,4910.425426,N,12304.402848,W,0.05,26.11,051224,,,D,V*2C
$GNVTG,26.11,T,,M,0.05,N,0.09,K,D*1E
$PAIRLOG,Full*51
$GNGGA,235851.000,4910.425408,N,12304.402752,W,2,33,0.47,-2.664,M,-16.816,M,,*67
$GNGLL,4910.425408,N,12304.402752,W,235851.000,A,D*59
$GNGSA,A,3,22,14,17,13,19,30,15,02,24,21,,,0.88,0.47,0.74,1*08
$GNGSA,A,3,82,83,80,72,71,81,,,,,,,0.88,0.47,0.74,2*01
$GNGSA,A,3,25,03,24,08,10,05,33,,,,,,0.88,0.47,0.74,3*0D
$GNGSA,A,3,36,27,30,28,22,21,45,08,13,37,,,0.88,0.47,0.74,4*01
$GPGSV,3,1,11,22,84,342,26,14,67,067,26,17,66,155,28,13,46,229,25,1*69
$GPGSV,3,2,11,19,39,191,27,30,35,135,26,44,33,171,26,15,33,273,25,1*6B
$GPGSV,3,3,11,02,26,061,25,24,18,307,17,21,17,042,21,1*5F
$GLGSV,2,1,07,82,44,061,34,83,41,124,21,80,38,082,37,72,31,306,26,1*77
$GLGSV,2,2,07,74,29,294,,71,27,248,30,81,12,020,25,1*49
$GAGSV,3,1,10,25,78,291,29,03,46,243,25,24,44,071,25,08,30,308,23,7*7C
$GAGSV,3,2,10,02,26,261,21,12,26,079,17,10,23,105,19,05,19,189,18,7*74
$GAGSV,3,3,10,11,13,131,16,33,11,026,20,7*72
$GBGSV,4,1,14,36,64,295,36,46,59,099,,27,48,089,36,30,37,160,33,1*79
$GBGSV,4,2,14,58,21,114,,28,21,043,31,22,19,266,29,21,15,318,30,1*7C
$GBGSV,4,3,14,45,14,288,26,08,07,309,20,13,07,320,21,50,06,338,24,1*7B
$GBGSV,4,4,14,37,06,105,20,19,03,219,21,1*75
$GNRMC,235851.000,A,4910.425408,N,12304.402752,W,0.04,26.11,051224,,,D,V*24
$GNVTG,26.11,T,,M,0.04,N,0.07,K,D*11
$PAIRLOG,Full*51
$GNGGA,235852.000,4910.425312,N,12304.402704,W,2,33,0.47,-2.812,M,-16.816,M,,*64
$GNGLL,4910.425312,N,12304.402704,W,235852.000,A,D*55
$GNGSA,A,3,22,14,17,13,19,30,15,02,24,21,,,0.88,0.47,0.74,1*08
$GNGSA,A,3,82,83,80,72,71,81,,,,,,,0.88,0.47,0.74,2*01
$GNGSA,A,3,25,03,24,08,10,05,33,,,,,,0.88,0.47,0.74,3*0D
$GNGSA,A,3,36,27,30,28,22,21,45,08,13,37,,,0.88,0.47,0.74,4*01
$GPGSV,3,1,11,22,84,342,26,14,67,067,27,17,66,155,28,13,46,229,25,1*68
$GPGSV,3,2,11,19,39,191,27,30,35,135,28,44,33,171,26,15,33,273,26,1*66
$GPGSV,3,3,11,02,26,061,25,24,18,307,17,21,17,042,21,1*5F
$GLGSV,2,1,07,82,44,061,33,83,41,124,21,80,38,082,37,72,31,306,26,1*70
$GLGSV,2,2,07,74,29,294,,71,27,248,30,81,12,020,25,1*49
$GAGSV,3,1,10,25,78,291,29,03,46,243,25,24,44,071,25,08,30,308,22,7*7D
$GAGSV,3,2,10,02,26,261,22,12,26,079,17,10,23,105,19,05,19,189,18,7*77
$GAGSV,3,3,10,11,13,131,16,33,11,026,20,7*72
$GBGSV,4,1,14,36,64,295,36,46,59,099,,27,48,089,36,30,37,160,33,1*79
$GBGSV,4,2,14,58,21,114,,28,21,043,31,22,19,266,29,21,15,318,30,1*7C
$GBGSV,4,3,14,45,14,288,26,08,07,309,20,13,07,320,21,50,06,338,24,1*7B
$GBGSV,4,4,14,37,06,105,20,19,03,219,21,1*75
$GNRMC,235852.000,A,4910.425312,N,12304.402704,W,0.03,26.11,051224,,,D,V*2F
$GNVTG,26.11,T,,M,0.03,N,0.06,K,D*17
$PAIRLOG,Full*51
$GNGGA,235853.000,4910.425282,N,12304.402626,W,2,33,0.47,-2.853,M,-16.817,M,,*68
$GNGLL,4910.425282,N,12304.402626,W,235853.000,A,D*5D
$GNGSA,A,3,22,14,17,13,19,30,15,02,24,21,,,0.88,0.47,0.74,1*08
$GNGSA,A,3,82,83,80,72,71,81,,,,,,,0.88,0.47,0.74,2*01
$GNGSA,A,3,25,03,24,08,10,05,33,,,,,,0.88,0.47,0.74,3*0D
$GNGSA,A,3,36,27,30,28,22,21,45,08,13,37,,,0.88,0.47,0.74,4*01
$GPGSV,3,1,11,22,84,342,26,14,67,067,27,17,66,155,28,13,46,229,25,1*68
$GPGSV,3,2,11,19,39,191,27,30,35,135,26,44,33,171,25,15,33,273,25,1*68
$GPGSV,3,3,11,02,26,061,25,24,18,307,17,21,17,042,21,1*5F
$GLGSV,2,1,07,82,44,061,33,83,41,124,21,80,38,082,37,72,31,306,25,1*73
$GLGSV,2,2,07,74,29,294,,71,27,248,30,81,12,020,25,1*49
$GAGSV,3,1,10,25,78,291,29,03,46,243,26,24,44,071,25,08,30,308,22,7*7E
$GAGSV,3,2,10,12,26,079,17,02,26,261,21,10,23,105,19,05,19,189,18,7*74
$GAGSV,3,3,10,11,13,131,16,33,11,026,20,7*72
$GBGSV,4,1,14,36,64,295,36,27,48,089,36,30,37,160,33,58,21,114,,1*7D
$GBGSV,4,2,14,28,21,043,31,22,19,266,29,57,18,080,,21,15,318,30,1*75
$GBGSV,4,3,14,45,14,288,26,08,07,309,20,13,07,320,21,37,06,105,20,1*72
$GBGSV,4,4,14,50,06,338,24,19,03,219,21,1*7C
$GNRMC,235853.000,A,4910.425282,N,12304.402626,W,0.03,26.11,051224,,,D,V*27
$GNVTG,26.11,T,,M,0.03,N,0.06,K,D*17
$PAIRLOG,Full*51
$GNGGA,235854.000,4910.425186,N,12304.402632,W,2,33,0.47,-2.971,M,-16.816,M,,*6D
$GNGLL,4910.425186,N,12304.402632,W,235854.000,A,D*58
$GNGSA,A,3,22,14,17,13,19,30,15,02,24,21,,,0.88,0.47,0.74,1*08
$GNGSA,A,3,82,83,80,72,71,81,,,,,,,0.88,0.47,0.74,2*01
$GNGSA,A,3,25,03,24,08,10,05,33,,,,,,0.88,0.47,0.74,3*0D
$GNGSA,A,3,36,27,30,28,22,21,45,08,13,37,,,0.88,0.47,0.74,4*01
$GPGSV,3,1,11,22,84,342,26,14,67,067,26,17,66,155,28,13,46,229,24,1*68
$GPGSV,3,2,11,19,39,191,26,30,35,135,27,44,33,171,25,15,33,273,25,1*68
$GPGSV,3,3,11,02,26,061,25,24,18,307,17,21,17,042,21,1*5F
$GLGSV,2,1,07,82,44,061,33,83,41,124,20,80,38,082,37,72,31,306,25,1*72
$GLGSV,2,2,07,74,29,294,,71,27,248,31,81,12,020,25,1*48
$GAGSV,3,1,10,25,78,291,29,03,46,243,26,24,44,071,25,08,30,308,21,7*7D
$GAGSV,3,2,10,02,26,261,21,12,26,079,17,10,23,105,19,05,19,189,18,7*74
$GAGSV,3,3,10,11,13,131,17,33,11,026,20,7*73
$GBGSV,4,1,14,36,64,295,36,46,59,099,,27,48,089,35,30,37,160,32,1*7B
$GBGSV,4,2,14,58,21,114,,28,21,043,31,22,19,266,28,21,15,318,30,1*7D
$GBGSV,4,3,14,45,14,288,26,08,07,309,20,13,07,320,21,50,06,338,24,1*7B
$GBGSV,4,4,14,37,06,105,20,19,03,219,21,1*75
$GNRMC,235854.000,A,4910.425186,N,12304.402632,W,0.04,26.11,051224,,,D,V*25
$GNVTG,26.11,T,,M,0.04,N,0.07,K,D*11
$PAIRLOG,Full*51
$GNGGA,235855.000,4910.425072,N,12304.402626,W,2,33,0.47,-3.170,M,-16.816,M,,*6B
$GNGLL,4910.425072,N,12304.402626,W,235855.000,A,D*56
$GNGSA,A,3,22,14,17,13,19,30,15,02,24,21,,,0.88,0.47,0.74,1*08
$GNGSA,A,3,82,83,80,72,71,81,,,,,,,0.88,0.47,0.74,2*01
$GNGSA,A,3,25,03,24,08,10,05,33,,,,,,0.88,0.47,0.74,3*0D
$GNGSA,A,3,36,27,30,28,22,21,45,08,13,37,,,0.88,0.47,0.74,4*01
$GPGSV,3,1,11,22,84,342,26,14,67,067,27,17,66,155,28,13,46,229,24,1*69
$GPGSV,3,2,11,19,39,191,26,30,35,135,28,44,33,171,26,15,33,273,25,1*64
$GPGSV,3,3,11,02,26,061,25,24,18,307,17,21,17,042,21,1*5F
$GLGSV,2,1,07,82,44,061,33,83,41,124,20,80,38,082,37,72,31,306,26,1*71
$GLGSV,2,2,07,74,29,294,,71,27,248,31,81,12,020,25,1*48
$GAGSV,3,1,10,25,78,291,29,03,46,243,26,24,44,071,25,08,30,308,21,7*7D
$GAGSV,3,2,10,02,26,261,21,12,26,079,17,10,23,105,19,05,19,189,18,7*74
$GAGSV,3,3,10,11,13,131,17,33,11,026,20,7*73
$GBGSV,4,1,14,36,64,295,36,46,59,099,,27,48,089,35,30,37,160,32,1*7B
$GBGSV,4,2,14,58,21,114,,28,21,043,31,22,19,266,28,21,15,318,30,1*7D
$GBGSV,4,3,14,45,14,288,26,08,07,309,20,13,07,320,21,50,06,338,25,1*7A
$GBGSV,4,4,14,37,06,105,20,19,03,219,21,1*75
$GNRMC,235855.000,A,4910.425072,N,12304.402626,W,0.04,26.11,051224,,,D,V*2B
$GNVTG,26.11,T,,M,0.04,N,0.08,K,D*1E
$PAIRLOG,Full*51
$GNGGA,235856.000,4910.424988,N,12304.402650,W,2,33,0.47,-3.432,M,-16.816,M,,*67
