004712.000,4910.426746,N,12304.401726,W,2,29,0.49,4.252,M,-16.816,M,,*4A
$GNGLL,4910.426746,N,12304.401726,W,004712.000,A,D*5B
$GNGSA,A,3,17,22,19,14,24,13,15,02,30,,,,0.86,0.49,0.70,1*0F
$GNGSA,A,3,83,82,72,80,65,71,,,,,,,0.86,0.49,0.70,2*0F
$GNGSA,A,3,25,02,10,08,03,24,,,,,,,0.86,0.49,0.70,3*0E
$GNGSA,A,3,36,30,27,45,29,21,28,22,,,,,0.86,0.49,0.70,4*00
$GPGSV,4,1,13,17,73,092,29,22,70,066,29,19,61,190,29,14,47,082,26,1*69
$GPGSV,4,2,13,24,37,304,22,44,33,171,,13,27,214,24,15,24,252,25,1*64
$GPGSV,4,3,13,02,20,042,19,30,15,142,22,06,11,158,,21,07,028,,1*6B
$GPGSV,4,4,13,12,07,270,,1*57
$GLGSV,3,1,09,83,57,088,25,74,49,312,19,82,31,035,27,72,24,279,25,1*78
$GLGSV,3,2,09,84,23,169,,80,19,102,30,65,16,337,30,71,06,233,28,1*7B
$GLGSV,3,3,09,75,01,295,,1*4C
$GAGSV,3,1,11,25,80,035,28,02,40,274,24,10,35,089,20,08,34,290,18,7*7A
$GAGSV,3,2,11,03,31,228,22,12,30,061,,11,29,121,,24,29,082,25,7*75
$GAGSV,3,3,11,07,06,335,,36,04,163,,05,02,187,,7*4B
$GBGSV,3,1,11,36,83,298,36,30,57,147,34,27,43,062,34,46,41,115,,1*7B
$GBGSV,3,2,11,45,31,296,31,57,24,062,,29,15,195,29,21,13,299,28,1*7B
$GBGSV,3,3,11,28,06,035,26,22,06,251,23,42,04,345,19,1*41
$GNRMC,004712.000,A,4910.426746,N,12304.401726,W,0.01,181.98,061224,,,D,V*1D
$GNVTG,181.98,T,,M,0.01,N,0.03,K,D*2D
$PAIRLOG,Full*51
$GNGGA,004713.000,4910.426716,N,12304.401792,W,2,29,0.49,4.236,M,-16.816,M,,*43
$GNGLL,4910.426716,N,12304.401792,W,004713.000,A,D*50
$GNGSA,A,3,17,22,19,14,24,13,15,02,30,,,,0.86,0.49,0.70,1*0F
$GNGSA,A,3,83,82,72,80,65,71,,,,,,,0.86,0.49,0.70,2*0F
$GNGSA,A,3,25,02,10,08,03,24,,,,,,,0.86,0.49,0.70,3*0E
$GNGSA,A,3,36,30,27,45,29,21,22,28,,,,,0.86,0.49,0.70,4*00
$GPGSV,4,1,13,17,73,092,29,22,70,066,29,19,61,190,29,14,47,082,25,1*6A
$GPGSV,4,2,13,24,37,304,22,44,33,171,,13,27,214,23,15,24,252,24,1*62
$GPGSV,4,3,13,02,20,042,18,30,15,142,21,06,11,158,,12,07,270,,1*66
$GPGSV,4,4,13,21,07,028,,1*58
$GLGSV,3,1,09,83,57,088,25,74,49,312,19,82,31,035,27,72,24,279,25,1*78
$GLGSV,3,2,09,84,23,169,,80,19,102,31,65,16,337,30,71,06,233,28,1*7A
$GLGSV,3,3,09,75,01,295,,1*4C
$GAGSV,3,1,10,25,80,035,28,02,40,274,24,10,35,089,19,08,34,290,18,7*71
$GAGSV,3,2,10,03,31,228,22,12,30,061,,11,29,121,,24,29,082,25,7*74
$GAGSV,3,3,10,07,06,335,,36,04,163,,7*73
$GBGSV,3,1,12,36,83,298,36,30,57,147,34,27,43,062,34,46,41,115,,1*78
$GBGSV,3,2,12,45,31,296,32,57,24,062,,29,15,195,29,21,13,299,28,1*7B
$GBGSV,3,3,12,22,06,251,23,28,06,035,26,58,05,125,,42,04,345,19,1*7C
$GNRMC,004713.000,A,4910.426716,N,12304.401792,W,0.02,181.98,061224,,,D,V*15
$GNVTG,181.98,T,,M,0.02,N,0.03,K,D*2E
$PAIRLOG,Full*51
$GNGGA,004714.000,4910.426734,N,12304.401840,W,2,29,0.49,4.196,M,-16.816,M,,*4D
$GNGLL,4910.426734,N,12304.401840,W,004714.000,A,D*57
$GNGSA,A,3,17,22,19,14,24,13,15,02,30,,,,0.86,0.49,0.70,1*0F
$GNGSA,A,3,83,82,72,80,65,71,,,,,,,0.86,0.49,0.70,2*0F
$GNGSA,A,3,25,02,10,08,03,24,,,,,,,0.86,0.49,0.70,3*0E
$GNGSA,A,3,36,30,27,45,29,21,22,28,,,,,0.86,0.49,0.70,4*00
$GPGSV,4,1,13,17,73,092,29,22,70,066,29,19,61,190,29,14,47,082,27,1*68
$GPGSV,4,2,13,24,37,304,22,44,33,171,,13,27,214,25,15,24,252,24,1*64
$GPGSV,4,3,13,02,20,042,18,30,15,142,21,06,11,158,,12,07,270,,1*66
$GPGSV,4,4,13,21,07,028,,1*58
$GLGSV,3,1,09,83,57,088,26,74,49,312,19,82,31,035,27,72,24,279,25,1*7B
$GLGSV,3,2,09,84,23,169,,80,19,102,31,65,16,337,30,71,06,233,27,1*75
$GLGSV,3,3,09,75,01,295,19,1*44
$GAGSV,3,1,10,25,80,035,28,02,40,274,24,10,35,089,19,08,34,290,19,7*70
$GAGSV,3,2,10,03,31,228,22,12,30,061,,11,29,121,20,24,29,082,25,7*76
$GAGSV,3,3,10,07,06,335,,36,04,163,,7*73
$GBGSV,3,1,12,36,83,298,36,30,57,147,34,27,43,062,34,46,41,115,,1*78
$GBGSV,3,2,12,45,31,296,32,57,24,062,,29,15,195,28,21,13,299,28,1*7A
$GBGSV,3,3,12,22,06,251,23,28,06,035,26,58,05,125,,42,04,345,18,1*7D
$GNRMC,004714.000,A,4910.426734,N,12304.401840,W,0.02,181.98,061224,,,D,V*12
$GNVTG,181.98,T,,M,0.02,N,0.03,K,D*2E
$PAIRLOG,Full*51
$GNGGA,004715.000,4910.426698,N,12304.401864,W,2,29,0.49,4.188,M,-16.816,M,,*42
$GNGLL,4910.426698,N,12304.401864,W,004715.000,A,D*57
$GNGSA,A,3,17,22,19,14,24,13,15,02,30,,,,0.86,0.49,0.70,1*0F
$GNGSA,A,3,83,82,72,80,65,71,,,,,,,0.86,0.49,0.70,2*0F
$GNGSA,A,3,25,02,10,08,03,24,,,,,,,0.86,0.49,0.70,3*0E
$GNGSA,A,3,36,30,27,45,29,21,28,22,,,,,0.86,0.49,0.70,4*00
$GPGSV,3,1,10,17,73,092,29,22,70,066,29,19,61,190,29,14,47,082,27,1*6C
$GPGSV,3,2,10,24,37,304,21,44,33,171,,13,27,214,24,15,24,252,24,1*62
$GPGSV,3,3,10,02,20,042,18,30,15,142,21,1*69
$GLGSV,3,1,09,83,57,088,25,74,49,312,19,82,31,035,27,72,24,279,25,1*78
$GLGSV,3,2,09,84,23,169,,80,19,102,31,65,16,337,30,71,06,233,26,1*74
$GLGSV,3,3,09,75,01,295,18,1*45
$GAGSV,2,1,06,25,80,035,28,02,40,274,24,10,35,089,19,08,34,290,19,7*76
$GAGSV,2,2,06,03,31,228,22,24,29,082,24,7*7D
$GBGSV,3,1,09,36,83,298,36,30,57,147,33,27,43,062,34,45,31,296,31,1*7B
$GBGSV,3,2,09,29,15,195,28,21,13,299,28,28,06,035,26,22,06,251,23,1*70
$GBGSV,3,3,09,42,04,345,18,1*46
$GNRMC,004715.000,A,4910.426698,N,12304.401864,W,0.02,181.98,061224,,,D,V*12
$GNVTG,181.98,T,,M,0.02,N,0.03,K,D*2E
$PAIRLOG,Full*51
$GNGGA,004716.000,4910.426680,N,12304.401876,W,2,29,0.49,4.176,M,-16.817,M,,*4B
$GNGLL,4910.426680,N,12304.401876,W,004716.000,A,D*5E
$GNGSA,A,3,17,22,19,14,24,13,15,02,30,,,,0.86,0.49,0.70,1*0F
$GNGSA,A,3,83,82,72,80,65,71,,,,,,,0.86,0.49,0.70,2*0F
$GNGSA,A,3,25,02,10,08,03,24,,,,,,,0.86,0.49,0.70,3*0E
$GNGSA,A,3,36,30,27,45,29,21,28,22,,,,,0.86,0.49,0.70,4*00
$GPGSV,3,1,10,17,73,092,29,22,70,066,28,19,61,190,29,14,47,082,27,1*6D
$GPGSV,3,2,10,24,37,304,21,44,33,171,,13,27,214,24,15,24,252,23,1*65
$GPGSV,3,3,10,02,20,042,18,30,15,142,21,1*69
$GLGSV,3,1,09,83,57,088,24,74,49,312,19,82,31,035,27,72,24,279,25,1*79
$GLGSV,3,2,09,84,23,169,,80,19,102,31,65,16,337,30,71,06,233,26,1*74
$GLGSV,3,3,09,75,01,295,19,1*44
$GAGSV,2,1,06,25,80,035,28,02,40,274,24,10,35,089,19,08,34,290,19,7*76
$GAGSV,2,2,06,03,31,228,23,24,29,082,24,7*7C
$GBGSV,3,1,09,36,83,298,35,30,57,147,33,27,43,062,33,45,31,296,31,1*7F
$GBGSV,3,2,09,29,15,195,27,21,13,299,27,28,06,035,26,22,06,251,22,1*71
$GBGSV,3,3,09,42,04,345,18,1*46
$GNRMC,004716.000,A,4910.426680,N,12304.401876,W,0.01,181.98,061224,,,D,V*18
$GNVTG,181.98,T,,M,0.01,N,0.02,K,D*2C
$PAIRLOG,Full*51
$GNGGA,004717.000,4910.426680,N,12304.401972,W,2,29,0.49,4.196,M,-16.817,M,,*41
$GNGLL,4910.426680,N,12304.401972,W,004717.000,A,D*5A
$GNGSA,A,3,17,22,19,14,24,13,15,02,30,,,,0.86,0.49,0.70,1*0F
$GNGSA,A,3,83,82,72,80,65,71,,,,,,,0.86,0.49,0.70,2*0F
$GNGSA,A,3,25,02,10,08,03,24,,,,,,,0.86,0.49,0.70,3*0E
$GNGSA,A,3,36,30,27,45,29,21,22,28,,,,,0.86,0.49,0.70,4*00
$GPGSV,4,1,13,17,73,092,28,22,70,066,27,19,61,190,29,14,47,082,27,1*67
$GPGSV,4,2,13,24,37,304,21,44,33,171,,13,27,214,24,15,24,252,23,1*61
$GPGSV,4,3,13,02,20,042,18,30,15,142,20,06,11,158,,12,07,270,,1*67
$GPGSV,4,4,13,21,07,028,,1*58
$GLGSV,3,1,09,83,57,088,24,74,49,312,18,82,31,035,27,72,24,279,26,1*7B
$GLGSV,3,2,09,84,23,169,,80,19,102,31,65,16,337,30,71,06,233,26,1*74
$GLGSV,3,3,09,75,01,295,19,1*44
$GAGSV,3,1,10,25,80,035,28,02,40,274,23,10,35,089,19,08,34,290,19,7*77
$GAGSV,3,2,10,03,31,228,23,12,30,061,,11,29,121,,24,29,082,24,7*74
$GAGSV,3,3,10,07,06,335,,36,04,163,,7*73
$GBGSV,3,1,12,36,83,298,35,30,57,147,33,27,43,062,33,46,41,115,,1*7B
$GBGSV,3,2,12,45,31,296,31,57,24,061,,29,15,195,27,21,13,299,27,1*7A
$GBGSV,3,3,12,22,06,251,22,28,06,035,26,42,04,345,18,58,04,125,,1*7D
$GNRMC,004717.000,A,4910.426680,N,12304.401972,W,0.01,181.98,061224,,,D,V*1C
$GNVTG,181.98,T,,M,0.01,N,0.03,K,D*2D
$PAIRLOG,Full*51
$GNGGA,004718.000,4910.426614,N,12304.402002,W,2,29,0.49,4.206,M,-16.816,M,,*45
$GNGLL,4910.426614,N,12304.402002,W,004718.000,A,D*55
$GNGSA,A,3,17,22,19,14,24,13,15,02,30,,,,0.86,0.49,0.70,1*0F
$GNGSA,A,3,83,82,72,80,65,71,,,,,,,0.86,0.49,0.70,2*0F
$GNGSA,A,3,25,02,10,08,03,24,,,,,,,0.86,0.49,0.70,3*0E
$GNGSA,A,3,36,30,27,45,29,21,22,28,,,,,0.86,0.49,0.70,4*00
$GPGSV,4,1,13,17,73,092,29,22,70,066,27,19,61,190,29,14,47,082,27,1*66
$GPGSV,4,2,13,24,37,304,21,44,33,171,,13,27,214,24,15,24,252,23,1*61
$GPGSV,4,3,13,02,20,042,18,30,15,142,19,06,11,158,,12,07,270,,1*6D
$GPGSV,4,4,13,21,07,028,,1*58
$GLGSV,3,1,09,83,57,088,24,74,49,312,18,82,31,035,26,72,24,279,26,1*7A
$GLGSV,3,2,09,84,23,169,,80,19,102,31,65,16,337,30,71,06,233,26,1*74
$GLGSV,3,3,09,75,01,295,19,1*44
$GAGSV,3,1,10,25,80,035,28,02,40,274,23,10,35,089,19,08,34,290,19,7*77
$GAGSV,3,2,10,03,31,228,23,12,30,061,,11,29,121,,24,29,082,23,7*73
$GAGSV,3,3,10,07,06,335,,36,04,163,,7*73
$GBGSV,3,1,12,36,83,298,35,30,57,147,33,27,43,062,33,46,41,115,,1*7B
$GBGSV,3,2,12,45,31,296,31,57,24,061,,29,15,195,27,21,13,299,27,1*7A
$GBGSV,3,3,12,22,06,251,22,28,06,035,26,42,04,345,18,58,04,125,,1*7D
$GNRMC,004718.000,A,4910.426614,N,12304.402002,W,0.01,181.98,061224,,,D,V*13
$GNVTG,181.98,T,,M,0.01,N,0.02,K,D*2C
$PAIRLOG,Full*51
$GNGGA,004719.000,4910.426554,N,12304.402062,W,2,29,0.49,4.217,M,-16.817,M,,*44
$GNGLL,4910.426554,N,12304.402062,W,004719.000,A,D*55
$GNGSA,A,3,17,22,19,14,24,13,15,02,30,,,,0.86,0.49,0.70,1*0F
$GNGSA,A,3,83,82,72,80,65,71,,,,,,,0.86,0.49,0.70,2*0F
$GNGSA,A,3,25,02,10,08,03,24,,,,,,,0.86,0.49,0.70,3*0E
$GNGSA,A,3,36,30,27,45,29,21,22,28,,,,,0.86,0.49,0.70,4*00
$GPGSV,4,1,13,17,73,092,28,22,70,066,26,19,61,190,29,14,47,082,26,1*67
$GPGSV,4,2,13,24,37,304,21,44,33,171,,13,27,214,24,15,24,252,23,1*61
$GPGSV,4,3,13,02,20,042,18,30,15,142,19,06,11,158,,12,07,270,,1*6D
$GPGSV,4,4,13,21,07,028,,1*58
$GLGSV,3,1,09,83,57,088,24,74,49,312,18,82,31,035,26,72,24,279,26,1*7A
$GLGSV,3,2,09,84,23,169,,80,19,102,31,65,16,337,29,71,06,233,25,1*7F
$GLGSV,3,3,09,75,01,295,19,1*44
$GAGSV,3,1,10,25,80,035,27,02,40,274,22,10,35,089,19,08,34,290,19,7*79
$GAGSV,3,2,10,03,31,228,22,12,30,061,,11,29,121,18,24,29,082,22,7*7A
$GAGSV,3,3,10,07,06,335,,36,04,163,,7*73
$GBGSV,3,1,12,36,83,298,35,30,57,147,33,27,43,062,33,46,41,115,,1*7B
$GBGSV,3,2,12,45,31,296,31,57,24,061,,29,15,195,27,21,13,299,27,1*7A
$GBGSV,3,3,12,22,06,251,22,28,06,035,26,42,04,345,18,58,04,125,,1*7D
$GNRMC,004719.000,A,4910.426554,N,12304.402062,W,0.01,181.98,061224,,,D,V*13
$GNVTG,181.98,T,,M,0.01,N,0.02,K,D*2C
$PAIRLOG,Full*51
$GNGGA,004720.000,4910.426524,N,12304.402074,W,2,29,0.49,4.260,M,-16.816,M,,*4F
$GNGLL,4910.426524,N,12304.402074,W,004720.000,A,D*5F
$GNGSA,A,3,17,22,19,14,24,13,15,02,30,,,,0.86,0.49,0.70,1*0F
$GNGSA,A,3,83,82,72,80,65,71,,,,,,,0.86,0.49,0.70,2*0F
$GNGSA,A,3,25,02,10,08,03,24,,,,,,,0.86,0.49,0.70,3*0E
$GNGSA,A,3,36,30,27,45,29,21,22,28,,,,,0.86,0.49,0.70,4*00
$GPGSV,4,1,13,17,73,092,28,22,70,066,26,19,61,190,29,14,47,082,27,1*66
$GPGSV,4,2,13,24,37,304,20,44,33,171,,13,27,214,24,15,24,252,23,1*60
$GPGSV,4,3,13,02,20,042,18,30,15,142,19,06,11,158,,12,07,270,,1*6D
$GPGSV,4,4,13,21,07,028,,1*58
$GLGSV,3,1,09,83,57,088,24,74,49,312,17,82,31,035,26,72,24,279,26,1*75
$GLGSV,3,2,09,84,23,169,,80,19,102,31,65,16,337,29,71,06,233,24,1*7E
$GLGSV,3,3,09,75,01,295,19,1*44
$GAGSV,3,1,10,25,80,035,27,02,40,274,22,10,35,089,19,08,34,290,19,7*79
$GAGSV,3,2,10,03,31,228,22,12,30,061,,11,29,121,18,24,29,082,21,7*79
$GAGSV,3,3,10,07,06,335,,36,04,163,,7*73
$GBGSV,3,1,12,36,83,298,35,30,57,147,33,27,43,062,33,46,41,115,,1*7B
$GBGSV,3,2,12,45,31,296,31,57,24,061,,29,15,195,27,21,13,299,27,1*7A
$GBGSV,3,3,12,22,06,251,21,28,06,035,26,42,04,345,18,58,04,125,,1*7E
$GNRMC,004720.000,A,4910.426524,N,12304.402074,W,0.01,181.98,061224,,,D,V*19
$GNVTG,181.98,T,,M,0.01,N,0.02,K,D*2C
$PAIRLOG,Full*51
$GNGGA,004721.000,4910.426488,N,12304.402086,W,2,29,0.49,4.315,M,-16.816,M,,*47
$GNGLL,4910.426488,N,12304.402086,W,004721.000,A,D*54
$GNGSA,A,3,17,22,19,14,24,13,15,02,30,,,,0.86,0.49,0.70,1*0F
$GNGSA,A,3,83,82,72,80,65,71,,,,,,,0.86,0.49,0.70,2*0F
$GNGSA,A,3,25,02,10,08,03,24,,,,,,,0.86,0.49,0.70,3*0E
$GNGSA,A,3,36,30,27,45,29,21,22,28,,,,,0.86,0.49,0.70,4*00
$GPGSV,4,1,13,17,73,092,28,22,70,066,25,19,61,190,28,14,47,082,27,1*64
$GPGSV,4,2,13,24,37,304,19,44,33,171,,13,27,214,24,15,24,252,22,1*6B
$GPGSV,4,3,13,02,20,042,18,30,15,142,19,06,11,158,,12,07,270,,1*6D
$GPGSV,4,4,13,21,07,028,,1*58
$GLGSV,3,1,09,83,57,088,24,74,49,312,17,82,31,035,26,72,24,279,26,1*75
$GLGSV,3,2,09,84,23,169,,80,19,102,31,65,16,337,29,71,06,233,24,1*7E
$GLGSV,3,3,09,75,01,295,19,1*44
$GAGSV,3,1,10,25,80,035,26,02,40,274,21,10,35,089,18,08,34,290,19,7*7A
$GAGSV,3,2,10,03,31,228,21,12,30,061,,11,29,121,17,24,29,082,21,7*75
$GAGSV,3,3,10,07,06,335,,36,04,163,,7*73
$GBGSV,3,1,12,36,83,298,35,30,57,147,33,27,43,062,33,46,41,115,,1*7B
$GBGSV,3,2,12,45,31,296,31,57,24,061,,29,15,195,27,21,13,299,27,1*7A
$GBGSV,3,3,12,22,06,251,21,28,06,035,26,42,04,345,18,58,04,125,,1*7E
$GNRMC,004721.000,A,4910.426488,N,12304.402086,W,0.01,181.98,061224,,,D,V*12
$GNVTG,181.98,T,,M,0.01,N,0.01,K,D*2F
$PAIRLOG,Full*51
$GNGGA,004722.000,4910.426422,N,12304.402134,W,2,29,0.49,4.382,M,-16.816,M,,*42
$GNGLL,4910.426422,N,12304.402134,W,004722.000,A,D*5F
$GNGSA,A,3,17,22,19,14,24,13,15,02,30,,,,0.86,0.49,0.70,1*0F
$GNGSA,A,3,83,82,72,80,65,71,,,,,,,0.86,0.49,0.70,2*0F
$GNGSA,A,3,25,02,10,08,03,24,,,,,,,0.86,0.49,0.70,3*0E
$GNGSA,A,3,36,30,27,45,29,21,22,28,,,,,0.86,0.49,0.70,4*00
$GPGSV,4,1,13,17,73,092,28,22,70,066,24,19,61,190,28,14,47,082,27,1*65
$GPGSV,4,2,13,24,37,304,19,44,33,171,,13,27,214,24,15,24,252,22,1*6B
$GPGSV,4,3,13,02,20,042,18,30,15,142,19,06,11,158,,12,07,270,,1*6D
$GPGSV,4,4,13,21,07,028,,1*58
$GLGSV,3,1,09,83,57,088,25,74,49,312,17,82,31,035,26,72,24,279,26,1*74
$GLGSV,3,2,09,84,23,169,,80,19,102,31,65,16,337,29,71,06,233,23,1*79
$GLGSV,3,3,09,75,01,295,19,1*44
$GAGSV,3,1,10,25,80,035,26,02,40,274,21,10,35,089,18,08,34,290,19,7*7A
$GAGSV,3,2,10,03,31,228,21,12,30,061,,11,29,121,,24,29,082,21,7*73
$GAGSV,3,3,10,07,06,335,,36,04,163,,7*73
$GBGSV,3,1,12,36,83,298,35,30,57,147,33,27,43,062,33,46,41,115,,1*7B
$GBGSV,3,2,12,45,31,296,31,57,24,061,,29,15,195,27,21,13,299,27,1*7A
$GBGSV,3,3,12,22,06,251,21,28,06,035,26,42,04,345,18,58,04,125,,1*7E
$GNRMC,004722.000,A,4910.426422,N,12304.402134,W,0.01,181.98,061224,,,D,V*19
$GNVTG,181.98,T,,M,0.01,N,0.01,K,D*2F
$PAIRLOG,Full*51
$GNGGA,004723.000,4910.426392,N,12304.402116,W,2,29,0.49,4.426,M,-16.816,M,,*46
$GNGLL,4910.426392,N,12304.402116,W,004723.000,A,D*52
$GNGSA,A,3,17,22,19,14,24,13,15,02,30,,,,0.86,0.49,0.70,1*0F
$GNGSA,A,3,83,82,72,80,65,71,,,,,,,0.86,0.49,0.70,2*0F
$GNGSA,A,3,25,02,10,08,03,24,,,,,,,0.86,0.49,0.70,3*0E
$GNGSA,A,3,36,30,27,45,29,21,28,22,,,,,0.86,0.49,0.70,4*00
$GPGSV,3,1,10,17,73,092,28,22,70,066,24,19,61,190,28,14,47,082,27,1*61
$GPGSV,3,2,10,24,37,304,19,44,33,171,,13,27,214,24,15,24,252,22,1*6F
$GPGSV,3,3,10,02,20,042,18,30,15,142,20,1*68
$GLGSV,3,1,09,83,57,088,24,74,49,312,18,82,31,035,26,72,24,279,27,1*7B
$GLGSV,3,2,09,84,23,169,,80,19,102,31,65,16,337,29,71,06,233,22,1*78
$GLGSV,3,3,09,75,01,295,19,1*44
$GAGSV,2,1,06,25,80,035,26,02,40,274,21,10,35,089,18,08,34,290,19,7*7C
$GAGSV,2,2,06,03,31,228,22,24,29,082,21,7*78
$GBGSV,3,1,09,36,83,298,35,30,57,147,33,27,43,062,33,45,31,296,31,1*7F
$GBGSV,3,2,09,29,15,195,27,21,13,299,27,28,06,035,26,22,06,251,21,1*72
$GBGSV,3,3,09,42,04,345,18,1*46
$GNRMC,004723.000,A,4910.426392,N,12304.402116,W,0.01,181.98,061224,,,D,V*14
$GNVTG,181.98,T,,M,0.01,N,0.01,K,D*2F
$PAIRLOG,Full*51
$GNGGA,004724.000,4910.426350,N,12304.402170,W,2,29,0.49,4.453,M,-16.816,M,,*4D
