13,044,24,11,10,292,20,03,07,173,20,08,07,132,19,1*6F
$GPGSV,4,4,13,06,03,257,14,1*56
$GLGSV,2,1,06,78,67,046,19,69,64,321,26,68,60,139,29,79,55,212,28,1*7D
$GLGSV,2,2,06,67,11,140,19,80,03,217,17,1*7B
$GAGSV,3,1,09,09,84,100,29,31,59,128,28,06,58,115,27,05,39,298,25,7*78
$GAGSV,3,2,09,04,32,116,22,24,25,187,19,34,13,286,16,15,09,335,17,7*7F
$GAGSV,3,3,09,36,01,239,08,7*4E
$GBGSV,4,1,13,37,64,212,37,20,59,292,34,23,57,064,36,32,52,166,34,1*76
$GBGSV,4,2,13,19,14,316,27,38,12,333,26,46,11,227,,25,07,053,24,1*74
$GBGSV,4,3,13,08,06,342,21,12,03,020,24,41,02,146,14,34,02,046,,1*79
$GBGSV,4,4,13,04,01,262,,1*47
$GNRMC,191136.000,A,4910.425786,N,12304.403928,W,0.02,0.00,051224,,,D,V*14
$GNVTG,0.00,T,,M,0.02,N,0.04,K,D*20
$PAIR010,0,1,2343,414714*3F
$GNGGA,191137.000,4910.425732,N,12304.404120,W,2,30,0.50,9.432,M,-16.816,M,,*4E
$GNGLL,4910.425732,N,12304.404120,W,191137.000,A,D*52
$GNGSA,A,3,09,07,04,16,20,30,27,26,11,03,08,,0.78,0.50,0.59,1*01
$GNGSA,A,3,69,68,79,67,,,,,,,,,0.78,0.50,0.59,2*0A
$GNGSA,A,3,09,31,06,05,04,24,34,15,,,,,0.78,0.50,0.59,3*0C
$GNGSA,A,3,37,20,23,32,19,38,25,,,,,,0.78,0.50,0.59,4*00
$GPGSV,4,1,13,09,87,147,37,07,58,258,34,04,56,117,30,16,40,060,29,1*6C
$GPGSV,4,2,13,46,33,188,28,20,22,315,29,30,21,254,27,27,15,101,25,1*67
$GPGSV,4,3,13,26,13,044,24,11,10,292,20,03,07,173,20,08,07,132,20,1*65
$GPGSV,4,4,13,06,03,257,12,1*50
$GLGSV,2,1,07,78,67,046,18,69,64,321,26,68,60,139,29,79,55,212,28,1*7D
$GLGSV,2,2,07,67,11,140,19,86,09,003,,80,03,217,18,1*41
$GAGSV,3,1,09,09,84,100,29,31,59,128,28,06,58,115,28,05,39,298,25,7*77
$GAGSV,3,2,09,04,32,116,23,24,25,187,19,34,13,286,16,15,09,335,17,7*7E
$GAGSV,3,3,09,36,01,239,08,7*4E
$GBGSV,4,1,13,37,64,212,37,20,59,292,34,23,57,064,36,32,52,166,34,1*76
$GBGSV,4,2,13,19,14,316,27,38,12,333,26,46,11,227,,25,07,053,24,1*74
$GBGSV,4,3,13,08,06,342,21,12,03,020,24,34,02,046,,41,02,146,15,1*78
$GBGSV,4,4,13,04,01,262,,1*47
$GNRMC,191137.000,A,4910.425732,N,12304.404120,W,0.02,0.00,051224,,,D,V*1D
$GNVTG,0.00,T,,M,0.02,N,0.03,K,D*27
$GNGGA,191138.000,4910.425804,N,12304.404006,W,2,30,0.50,9.494,M,-16.816,M,,*42
$GNGLL,4910.425804,N,12304.404006,W,191138.000,A,D*52
$GNGSA,A,3,09,07,04,16,20,30,27,26,11,03,08,,0.78,0.50,0.59,1*01
$GNGSA,A,3,69,68,79,67,,,,,,,,,0.78,0.50,0.59,2*0A
$GNGSA,A,3,09,31,06,05,04,24,34,15,,,,,0.78,0.50,0.59,3*0C
$GNGSA,A,3,37,20,23,32,19,38,25,,,,,,0.78,0.50,0.59,4*00
$GPGSV,4,1,13,09,87,147,37,07,58,258,34,04,56,117,30,16,40,060,29,1*6C
$GPGSV,4,2,13,46,33,188,28,20,22,315,29,30,21,254,27,27,15,101,25,1*67
$GPGSV,4,3,13,26,13,044,24,11,10,292,20,03,07,173,20,08,07,132,21,1*64
$GPGSV,4,4,13,06,03,257,12,1*50
$GLGSV,2,1,07,78,67,046,18,69,64,321,27,68,60,139,29,79,55,212,28,1*7C
$GLGSV,2,2,07,67,11,140,19,86,09,003,,80,03,217,18,1*41
$GAGSV,3,1,09,09,84,100,29,31,59,128,28,06,58,115,28,05,39,298,25,7*77
$GAGSV,3,2,09,04,32,116,23,24,25,187,19,34,13,286,16,15,09,335,16,7*7F
$GAGSV,3,3,09,36,01,239,08,7*4E
$GBGSV,4,1,13,37,64,212,37,20,59,292,34,23,57,064,36,32,52,166,34,1*76
$GBGSV,4,2,13,19,14,316,28,38,12,333,26,46,11,227,,25,07,053,24,1*7B
$GBGSV,4,3,13,08,06,342,21,12,03,020,24,34,02,046,,41,02,146,15,1*78
$GBGSV,4,4,13,04,01,262,,1*47
$GNRMC,191138.000,A,4910.425804,N,12304.404006,W,0.01,0.00,051224,,,D,V*1E
$GNVTG,0.00,T,,M,0.01,N,0.03,K,D*24
$GNGGA,191139.000,4910.425774,N,12304.404120,W,2,30,0.50,9.342,M,-16.816,M,,*42
$GNGLL,4910.425774,N,12304.404120,W,191139.000,A,D*5E
$GNGSA,A,3,09,07,04,16,20,30,27,26,11,03,08,,0.78,0.50,0.59,1*01
$GNGSA,A,3,69,68,79,67,,,,,,,,,0.78,0.50,0.59,2*0A
$GNGSA,A,3,09,31,06,05,04,24,34,15,,,,,0.78,0.50,0.59,3*0C
$GNGSA,A,3,37,20,23,32,19,38,25,,,,,,0.78,0.50,0.59,4*00
$GPGSV,4,1,13,09,87,147,37,07,58,258,34,04,56,117,30,16,40,060,29,1*6C
$GPGSV,4,2,13,46,33,188,28,20,22,315,29,30,21,254,27,27,15,101,24,1*66
$GPGSV,4,3,13,26,13,044,24,11,10,292,19,03,07,173,20,08,07,132,21,1*6E
$GPGSV,4,4,13,06,03,257,14,1*56
$GLGSV,2,1,07,78,67,046,18,69,64,321,27,68,60,139,29,79,55,212,28,1*7C
$GLGSV,2,2,07,67,11,140,18,86,09,003,,80,03,217,17,1*4F
$GAGSV,3,1,09,09,84,100,29,31,59,128,28,06,58,115,28,05,39,298,25,7*77
$GAGSV,3,2,09,04,32,116,23,24,25,187,19,34,13,286,16,15,09,335,16,7*7F
$GAGSV,3,3,09,36,01,239,09,7*4F
$GBGSV,4,1,13,37,64,212,37,20,59,292,34,23,57,064,36,32,52,166,34,1*76
$GBGSV,4,2,13,19,14,316,28,38,12,333,26,46,11,227,,25,07,053,24,1*7B
$GBGSV,4,3,13,08,06,342,21,12,03,020,24,34,02,046,,41,02,146,15,1*78
$GBGSV,4,4,13,04,01,262,,1*47
$GNRMC,191139.000,A,4910.425774,N,12304.404120,W,0.01,0.00,051224,,,D,V*12
$GNVTG,0.00,T,,M,0.01,N,0.02,K,D*25
$GNGGA,191140.000,4910.425732,N,12304.404240,W,2,30,0.50,9.277,M,-16.816,M,,*4C
$GNGLL,4910.425732,N,12304.404240,W,191140.000,A,D*57
$GNGSA,A,3,09,07,04,16,20,30,27,26,11,03,08,,0.78,0.50,0.59,1*01
$GNGSA,A,3,69,68,79,67,,,,,,,,,0.78,0.50,0.59,2*0A
$GNGSA,A,3,09,31,06,05,04,24,34,15,,,,,0.78,0.50,0.59,3*0C
$GNGSA,A,3,37,20,23,32,19,38,25,,,,,,0.78,0.50,0.59,4*00
$GPGSV,4,1,13,09,87,147,37,07,58,258,34,04,56,117,30,16,40,060,29,1*6C
$GPGSV,4,2,13,46,33,188,28,20,22,315,29,30,21,254,26,27,15,101,24,1*67
$GPGSV,4,3,13,26,13,044,24,11,10,292,20,03,07,173,20,08,07,132,21,1*64
$GPGSV,4,4,13,06,03,257,13,1*51
$GLGSV,2,1,07,78,67,046,18,69,64,321,27,68,60,139,29,79,55,212,28,1*7C
$GLGSV,2,2,07,67,11,140,18,86,09,003,,80,03,217,18,1*40
$GAGSV,3,1,09,09,84,100,29,31,59,128,28,06,58,115,28,05,39,298,25,7*77
$GAGSV,3,2,09,04,32,116,23,24,25,187,19,34,13,286,16,15,09,335,17,7*7E
$GAGSV,3,3,09,36,01,239,09,7*4F
$GBGSV,4,1,13,37,64,212,37,20,59,292,34,23,57,064,36,32,52,166,34,1*76
$GBGSV,4,2,13,19,14,316,28,38,12,333,26,46,11,227,,25,07,053,24,1*7B
$GBGSV,4,3,13,08,06,342,21,12,03,020,24,34,02,046,,41,02,146,15,1*78
$GBGSV,4,4,13,04,01,262,,1*47
$GNRMC,191140.000,A,4910.425732,N,12304.404240,W,0.01,0.00,051224,,,D,V*1B
$GNVTG,0.00,T,,M,0.01,N,0.02,K,D*25
$GNGGA,191141.000,4910.425780,N,12304.404240,W,2,30,0.50,9.267,M,-16.816,M,,*45
$GNGLL,4910.425780,N,12304.404240,W,191141.000,A,D*5F
$GNGSA,A,3,09,07,04,16,20,30,27,26,11,03,08,,0.78,0.50,0.59,1*01
$GNGSA,A,3,69,68,79,67,,,,,,,,,0.78,0.50,0.59,2*0A
$GNGSA,A,3,09,31,06,05,04,24,34,15,,,,,0.78,0.50,0.59,3*0C
$GNGSA,A,3,37,20,23,32,19,38,25,,,,,,0.78,0.50,0.59,4*00
$GPGSV,4,1,13,09,87,147,37,07,58,258,34,04,56,117,30,16,40,060,29,1*6C
$GPGSV,4,2,13,46,33,188,28,20,22,315,29,30,21,254,25,27,15,101,23,1*63
$GPGSV,4,3,13,26,13,044,23,11,10,292,20,03,07,173,20,08,07,132,21,1*63
$GPGSV,4,4,13,06,03,257,15,1*57
$GLGSV,2,1,07,78,67,046,18,69,64,321,27,68,60,139,29,79,55,212,28,1*7C
$GLGSV,2,2,07,67,11,140,18,86,09,003,,80,03,217,18,1*40
$GAGSV,3,1,09,09,84,100,29,31,59,128,28,06,58,115,28,05,39,298,25,7*77
$GAGSV,3,2,09,04,32,116,23,24,25,187,19,34,13,286,16,15,09,335,17,7*7E
$GAGSV,3,3,09,36,01,239,09,7*4F
$GBGSV,4,1,13,37,64,212,37,20,59,292,34,23,57,064,36,32,52,166,34,1*76
$GBGSV,4,2,13,19,14,316,28,38,12,333,26,46,11,227,,25,07,053,24,1*7B
$GBGSV,4,3,13,08,06,342,21,12,03,020,23,34,02,046,,41,02,146,16,1*7C
$GBGSV,4,4,13,04,01,262,,1*47
$GNRMC,191141.000,A,4910.425780,N,12304.404240,W,0.01,0.00,051224,,,D,V*13
$GNVTG,0.00,T,,M,0.01,N,0.02,K,D*25
$GNGGA,191142.000,4910.425774,N,12304.404240,W,2,30,0.50,9.249,M,-16.817,M,,*40
$GNGLL,4910.425774,N,12304.404240,W,191142.000,A,D*57
$GNGSA,A,3,09,07,04,16,20,30,27,26,11,03,08,,0.78,0.50,0.59,1*01
$GNGSA,A,3,69,68,79,67,,,,,,,,,0.78,0.50,0.59,2*0A
$GNGSA,A,3,09,31,06,05,04,24,34,15,,,,,0.78,0.50,0.59,3*0C
$GNGSA,A,3,37,20,23,32,19,38,25,,,,,,0.78,0.50,0.59,4*00
$GPGSV,4,1,13,09,87,147,37,07,58,258,34,04,56,117,30,16,40,060,29,1*6C
$GPGSV,4,2,13,46,33,188,28,20,22,315,29,30,21,254,27,27,15,101,24,1*66
$GPGSV,4,3,13,26,13,044,23,11,10,292,20,03,07,173,20,08,07,132,21,1*63
$GPGSV,4,4,13,06,03,257,13,1*51
$GLGSV,2,1,07,78,67,046,17,69,64,321,27,68,60,139,29,79,55,212,28,1*73
$GLGSV,2,2,07,67,11,140,18,86,09,003,,80,03,217,18,1*40
$GAGSV,3,1,09,09,84,100,29,31,59,128,28,06,58,115,27,05,39,298,25,7*78
$GAGSV,3,2,09,04,32,116,23,24,25,187,19,34,13,286,16,15,09,335,17,7*7E
$GAGSV,3,3,09,36,01,239,10,7*47
$GBGSV,4,1,13,37,64,212,37,20,59,292,34,23,57,064,36,32,52,166,34,1*76
$GBGSV,4,2,13,19,14,316,28,38,12,333,26,46,11,227,,25,07,053,24,1*7B
$GBGSV,4,3,13,08,06,342,21,12,03,020,23,34,02,046,,41,02,146,16,1*7C
$GBGSV,4,4,13,04,01,262,,1*47
$GNRMC,191142.000,A,4910.425774,N,12304.404240,W,0.01,0.00,051224,,,D,V*1B
$GNVTG,0.00,T,,M,0.01,N,0.02,K,D*25
$GNGGA,191143.000,4910.425780,N,12304.404246,W,2,30,0.50,9.201,M,-16.817,M,,*40
$GNGLL,4910.425780,N,12304.404246,W,191143.000,A,D*5B
$GNGSA,A,3,09,07,04,16,20,30,27,26,11,03,08,,0.78,0.50,0.59,1*01
$GNGSA,A,3,69,68,79,67,,,,,,,,,0.78,0.50,0.59,2*0A
$GNGSA,A,3,09,31,06,05,04,24,34,15,,,,,0.78,0.50,0.59,3*0C
$GNGSA,A,3,37,20,23,32,19,38,25,,,,,,0.78,0.50,0.59,4*00
$GPGSV,4,1,13,09,87,147,37,07,58,258,34,04,56,117,30,16,40,060,29,1*6C
$GPGSV,4,2,13,46,33,188,28,20,22,315,29,30,21,254,27,27,15,101,25,1*67
$GPGSV,4,3,13,26,13,044,24,11,10,292,21,03,07,173,20,08,07,132,21,1*65
$GPGSV,4,4,13,06,03,257,13,1*51
$GLGSV,2,1,07,78,67,046,17,69,64,321,27,68,60,139,29,79,55,212,28,1*73
$GLGSV,2,2,07,67,11,140,18,86,09,003,,80,03,217,18,1*40
$GAGSV,3,1,09,09,84,100,29,31,59,128,28,06,58,115,27,05,39,298,25,7*78
$GAGSV,3,2,09,04,32,116,23,24,25,187,19,34,13,286,16,15,09,335,17,7*7E
$GAGSV,3,3,09,36,01,239,10,7*47
$GBGSV,4,1,13,37,64,212,37,20,59,292,34,23,57,064,36,32,52,166,34,1*76
$GBGSV,4,2,13,19,14,316,28,38,12,333,26,46,11,227,,25,07,053,24,1*7B
$GBGSV,4,3,13,08,06,342,21,12,03,020,22,34,02,046,,41,02,146,14,1*7F
$GBGSV,4,4,13,04,01,262,,1*47
$GNRMC,191143.000,A,4910.425780,N,12304.404246,W,0.01,0.00,051224,,,D,V*17
$GNVTG,0.00,T,,M,0.01,N,0.01,K,D*26
$GNGGA,191144.000,4910.425804,N,12304.404300,W,2,30,0.50,9.166,M,-16.816,M,,*44
$GNGLL,4910.425804,N,12304.404300,W,191144.000,A,D*5C
$GNGSA,A,3,09,07,04,16,20,30,27,26,11,03,08,,0.78,0.50,0.59,1*01
$GNGSA,A,3,69,68,79,67,,,,,,,,,0.78,0.50,0.59,2*0A
$GNGSA,A,3,09,31,06,05,04,24,34,15,,,,,0.78,0.50,0.59,3*0C
$GNGSA,A,3,37,20,23,32,19,38,25,,,,,,0.78,0.50,0.59,4*00
$GPGSV,4,1,13,09,87,147,36,07,58,258,34,04,56,117,30,16,40,060,29,1*6D
$GPGSV,4,2,13,46,33,188,28,20,22,315,29,30,21,254,26,27,15,101,25,1*66
$GPGSV,4,3,13,26,13,044,23,11,10,292,21,03,07,173,20,08,07,132,21,1*62
$GPGSV,4,4,13,06,03,257,15,1*57
$GLGSV,2,1,07,78,67,046,17,69,64,321,27,68,60,139,29,79,55,212,28,1*73
$GLGSV,2,2,07,67,11,140,18,86,09,003,,80,03,217,17,1*4F
$GAGSV,3,1,09,09,84,100,29,31,59,128,28,06,58,115,27,05,39,298,25,7*78
$GAGSV,3,2,09,04,32,116,23,24,25,187,19,34,13,286,15,15,09,335,17,7*7D
$GAGSV,3,3,09,36,01,239,11,7*46
$GBGSV,4,1,13,37,64,212,37,20,59,292,34,23,57,064,36,32,52,166,34,1*76
$GBGSV,4,2,13,19,14,316,28,38,12,333,26,46,11,227,,25,07,053,24,1*7B
$GBGSV,4,3,13,08,06,342,22,12,03,020,22,34,02,046,,41,02,146,14,1*7C
$GBGSV,4,4,13,04,01,262,,1*47
$GNRMC,191144.000,A,4910.425804,N,12304.404300,W,0.01,0.00,051224,,,D,V*10
$GNVTG,0.00,T,,M,0.01,N,0.03,K,D*24
$GNGGA,191145.000,4910.425774,N,12304.404348,W,2,30,0.50,9.185,M,-16.816,M,,*4C
$GNGLL,4910.425774,N,12304.404348,W,191145.000,A,D*59
$GNGSA,A,3,09,07,04,16,20,30,27,26,11,03,08,,0.78,0.50,0.59,1*01
$GNGSA,A,3,69,68,79,67,,,,,,,,,0.78,0.50,0.59,2*0A
$GNGSA,A,3,09,31,06,05,04,24,34,15,,,,,0.78,0.50,0.59,3*0C
$GNGSA,A,3,37,20,23,32,19,38,25,,,,,,0.78,0.50,0.59,4*00
$GPGSV,4,1,13,09,87,147,36,07,58,258,34,04,56,117,30,16,40,060,29,1*6D
$GPGSV,4,2,13,46,33,188,28,20,22,315,29,30,21,254,26,27,15,101,25,1*66
$GPGSV,4,3,13,26,13,044,23,11,10,292,21,03,07,173,20,08,07,132,21,1*62
$GPGSV,4,4,13,06,03,257,13,1*51
$GLGSV,2,1,07,78,67,046,16,69,64,321,27,68,60,139,30,79,55,212,28,1*7A
$GLGSV,2,2,07,67,11,140,19,86,09,003,,80,03,217,17,1*4E
$GAGSV,3,1,09,09,84,100,29,31,59,128,28,06,58,115,27,05,39,298,26,7*7B
$GAGSV,3,2,09,04,32,116,23,24,25,187,19,34,13,286,15,15,09,335,17,7*7D
$GAGSV,3,3,09,36,01,239,11,7*46
$GBGSV,4,1,13,37,64,212,37,20,59,292,34,23,57,064,36,32,52,166,34,1*76
$GBGSV,4,2,13,19,14,316,27,38,12,333,25,46,11,227,,25,07,053,24,1*77
$GBGSV,4,3,13,08,06,342,21,12,03,020,21,34,02,046,,41,02,146,13,1*7B
$GBGSV,4,4,13,04,01,262,,1*47
$GNRMC,191145.000,A,4910.425774,N,12304.404348,W,0.01,0.00,051224,,,D,V*15
$GNVTG,0.00,T,,M,0.01,N,0.02,K,D*25
$GNGGA,191146.000,4910.425792,N,12304.404192,W,2,30,0.50,9.289,M,-16.816,M,,*4D
