$PQTMPVT,1,338090000,20241030,215432.000,,3,23,18,49.17376807,-123.07336120,12.518,-16.817,0.000,-0.001,0.002,0.001,281.46,0.70,1.28*40
$PQTMDOP,1,338090000,2.18,1.28,1.76,1.07,0.70,0.58,0.39*77
$GNGGA,215432.000,4910.426084,N,12304.401672,W,1,23,0.70,12.518,M,-16.817,M,,*7C
$GNRMC,215432.000,A,4910.426084,N,12304.401672,W,0.003,281.46,301024,,,A,V*27
$GNGLL,4910.426084,N,12304.401672,W,215432.000,A,A*54
$GNVTG,281.46,T,,M,0.003,N,0.005,K,A*2C
$GNGSA,A,3,04,07,09,16,20,26,30,,,,,,1.28,0.70,1.07,1*03
$GNGSA,A,3,65,72,73,75,,,,,,,,,1.28,0.70,1.07,2*08
$GNGSA,A,3,04,06,19,21,27,,,,,,,,1.28,0.70,1.07,3*05
$GNGSA,A,3,08,19,20,22,36,37,38,,,,,,1.28,0.70,1.07,4*06
$GNGSA,A,3,,,,,,,,,,,,,1.28,0.70,1.07,5*0F
$GPGSV,3,1,09,04,47,122,25,07,63,265,29,08,,,21,09,80,144,31,1*5F
$GPGSV,3,2,09,16,35,053,25,20,25,309,25,26,06,042,19,27,,,25,1*5A
$GPGSV,3,3,09,30,29,257,25,1*52
$GPGSV,2,1,06,04,47,122,29,08,,,18,09,80,144,29,26,06,042,16,8*5C
$GPGSV,2,2,06,27,,,21,30,29,257,24,8*53
$GLGSV,1,1,04,65,63,314,24,72,51,147,25,73,07,042,19,75,69,220,29,1*75
$GAGSV,2,1,05,04,65,298,25,06,38,299,24,19,51,120,21,21,54,075,25,7*74
$GAGSV,2,2,05,27,11,038,17,7*4E
$GAGSV,2,1,05,04,65,298,27,06,38,299,23,19,51,120,23,21,54,075,26,1*76
$GAGSV,2,2,05,27,11,038,17,1*48
$GBGSV,2,1,08,08,10,340,19,19,70,250,40,20,39,163,38,22,27,312,32,1*74
$GBGSV,2,2,08,36,26,229,33,37,40,059,35,38,17,330,32,43,,,23,1*46
$GBGSV,2,1,06,19,70,250,27,20,39,163,24,22,27,312,22,36,26,229,24,5*7B
$GBGSV,2,2,06,37,40,059,25,38,17,330,18,5*7B
$GQGSV,1,1,00,1*65
$GQGSV,1,1,00,8*6C
$PQTMGEOFENCESTATUS,1,215432.000,0,0,0,0*26
$PQTMEPE,2,7.733,7.307,12.767,10.639,16.619*66
$PQTMPL,1,338090000,5.00,1,1,15466,14614,25534,533,508,809,,,*15
$PQTMPVT,1,338091000,20241030,215433.000,,3,23,18,49.17376810,-123.07336120,12.514,-16.816,0.000,-0.000,0.001,0.000,281.46,0.72,1.33*40
$PQTMDOP,1,338091000,2.28,1.33,1.84,1.12,0.72,0.60,0.41*70
$GNGGA,215433.000,4910.426086,N,12304.401672,W,1,23,0.72,12.514,M,-16.816,M,,*70
$GNRMC,215433.000,A,4910.426086,N,12304.401672,W,0.001,281.46,301024,,,A,V*26
$GNGLL,4910.426086,N,12304.401672,W,215433.000,A,A*57
$GNVTG,281.46,T,,M,0.001,N,0.001,K,A*2A
$GNGSA,A,3,04,07,09,16,20,26,30,,,,,,1.33,0.72,1.12,1*0F
$GNGSA,A,3,65,72,73,75,,,,,,,,,1.33,0.72,1.12,2*04
$GNGSA,A,3,04,06,19,21,27,,,,,,,,1.33,0.72,1.12,3*09
$GNGSA,A,3,08,19,20,22,36,37,38,,,,,,1.33,0.72,1.12,4*0A
$GNGSA,A,3,,,,,,,,,,,,,1.33,0.72,1.12,5*03
$GPGSV,3,1,09,04,47,122,24,07,63,265,28,08,,,20,09,80,144,30,1*5F
$GPGSV,3,2,09,16,35,053,20,20,25,309,24,26,06,042,19,27,,,24,1*5F
$GPGSV,3,3,09,30,29,257,24,1*53
$GPGSV,2,1,06,04,47,122,29,08,,,19,09,80,144,30,26,06,042,18,8*5B
$GPGSV,2,2,06,27,,,21,30,29,257,26,8*51
$GLGSV,1,1,04,65,63,314,24,72,51,147,24,73,07,042,19,75,69,220,29,1*74
$GAGSV,2,1,05,04,65,298,24,06,38,299,22,19,51,120,19,21,54,075,24,7*79
$GAGSV,2,2,05,27,11,038,17,7*4E
$GAGSV,2,1,05,04,65,298,27,06,38,299,24,19,51,120,24,21,54,075,29,1*79
$GAGSV,2,2,05,27,11,038,18,1*47
$GBGSV,2,1,08,08,10,340,21,19,70,250,40,20,39,163,39,22,27,312,32,1*7E
$GBGSV,2,2,08,36,26,229,33,37,40,059,36,38,17,330,31,43,,,23,1*46
$GBGSV,2,1,06,19,70,250,29,20,39,163,25,22,27,312,22,36,26,229,24,5*74
$GBGSV,2,2,06,37,40,059,26,38,17,330,18,5*78
$GQGSV,1,1,00,1*65
$GQGSV,1,1,00,8*6C
$PQTMGEOFENCESTATUS,1,215433.000,0,0,0,0*27
$PQTMEPE,2,7.649,7.231,12.698,10.526,16.493*62
$PQTMPL,1,338091000,5.00,1,1,15298,14461,25396,533,508,809,,,*1D
$PQTMPVT,1,338092000,20241030,215434.000,,3,23,18,49.17376812,-123.07336121,12.512,-16.817,0.000,-0.001,0.001,0.001,281.46,0.68,1.25*4C
$PQTMDOP,1,338092000,2.13,1.25,1.73,1.04,0.68,0.54,0.41*7F
$GNGGA,215434.000,4910.426087,N,12304.401672,W,1,23,0.68,12.512,M,-16.817,M,,*7A
$GNRMC,215434.000,A,4910.426087,N,12304.401672,W,0.001,281.46,301024,,,A,V*20
$GNGLL,4910.426087,N,12304.401672,W,215434.000,A,A*51
$GNVTG,281.46,T,,M,0.001,N,0.003,K,A*28
$GNGSA,A,3,04,07,09,16,20,26,30,,,,,,1.25,0.68,1.04,1*04
$GNGSA,A,3,65,72,73,75,,,,,,,,,1.25,0.68,1.04,2*0F
$GNGSA,A,3,04,06,19,21,27,,,,,,,,1.25,0.68,1.04,3*02
$GNGSA,A,3,08,19,20,22,36,37,38,,,,,,1.25,0.68,1.04,4*01
$GNGSA,A,3,,,,,,,,,,,,,1.25,0.68,1.04,5*08
$GPGSV,3,1,09,04,47,123,25,07,63,265,29,08,,,20,09,80,144,31,1*5F
$GPGSV,3,2,09,16,35,053,24,20,25,309,25,26,06,042,18,27,,,25,1*5A
$GPGSV,3,3,09,30,29,257,24,1*53
$GPGSV,2,1,06,04,47,123,27,08,,,18,09,80,144,30,26,06,042,17,8*5A
$GPGSV,2,2,06,27,,,21,30,29,257,25,8*52
$GLGSV,1,1,04,65,63,314,25,72,51,147,23,73,07,042,20,75,69,220,30,1*70
$GAGSV,2,1,05,04,65,298,26,06,38,299,24,19,50,120,20,21,54,075,26,7*74
$GAGSV,2,2,05,27,11,038,18,7*41
$GAGSV,2,1,05,04,65,298,27,06,38,299,24,19,50,120,24,21,54,075,27,1*76
$GAGSV,2,2,05,27,11,038,18,1*47
$GBGSV,2,1,08,08,10,340,19,19,70,250,41,20,39,163,38,22,27,312,32,1*75
$GBGSV,2,2,08,36,26,229,33,37,40,059,35,38,17,330,31,43,,,22,1*44
$GBGSV,2,1,06,19,70,250,27,20,39,163,24,22,27,312,23,36,26,229,24,5*7A
$GBGSV,2,2,06,37,40,059,25,38,17,330,17,5*74
$GQGSV,1,1,00,1*65
$GQGSV,1,1,00,8*6C
$PQTMGEOFENCESTATUS,1,215434.000,0,0,0,0*20
$PQTMEPE,2,7.601,7.187,12.558,10.461,16.344*60
$PQTMPL,1,338092000,5.00,1,1,15202,14374,25115,533,508,809,,,*17
$PQTMPVT,1,338093000,20241030,215435.000,,3,23,18,49.17376817,-123.07336122,12.508,-16.816,0.000,-0.001,0.000,0.001,281.46,0.72,1.31*4F
$PQTMDOP,1,338093000,2.21,1.31,1.79,1.09,0.72,0.60,0.40*70
$GNGGA,215435.000,4910.426090,N,12304.401673,W,1,23,0.72,12.508,M,-16.816,M,,*7D
$GNRMC,215435.000,A,4910.426090,N,12304.401673,W,0.003,281.46,301024,,,A,V*24
$GNGLL,4910.426090,N,12304.401673,W,215435.000,A,A*57
$GNVTG,281.46,T,,M,0.003,N,0.005,K,A*2C
$GNGSA,A,3,04,07,09,16,20,26,30,,,,,,1.31,0.72,1.09,1*07
$GNGSA,A,3,65,72,73,75,,,,,,,,,1.31,0.72,1.09,2*0C
$GNGSA,A,3,04,06,19,21,27,,,,,,,,1.31,0.72,1.09,3*01
$GNGSA,A,3,08,19,20,22,36,37,38,,,,,,1.31,0.72,1.09,4*02
$GNGSA,A,3,,,,,,,,,,,,,1.31,0.72,1.09,5*0B
$GPGSV,3,1,09,04,47,123,25,07,63,265,29,08,,,20,09,80,144,31,1*5F
$GPGSV,3,2,09,16,35,053,25,20,25,309,26,26,06,042,17,27,,,24,1*56
$GPGSV,3,3,09,30,29,257,24,1*53
$GPGSV,2,1,06,04,47,123,27,08,,,18,09,80,144,29,26,06,042,17,8*52
$GPGSV,2,2,06,27,,,20,30,29,257,24,8*52
$GLGSV,1,1,04,65,63,314,24,72,51,147,25,73,07,042,21,75,69,220,30,1*76
$GAGSV,2,1,05,04,65,298,25,06,38,299,24,19,50,120,20,21,54,075,25,7*74
$GAGSV,2,2,05,27,11,038,18,7*41
$GAGSV,2,1,05,04,65,298,26,06,38,299,24,19,50,120,23,21,54,075,25,1*72
$GAGSV,2,2,05,27,11,038,17,1*48
$GBGSV,2,1,08,08,10,340,20,19,70,250,41,20,39,163,38,22,27,312,34,1*79
$GBGSV,2,2,08,36,26,229,33,37,40,059,35,38,17,330,32,43,,,22,1*47
$GBGSV,2,1,06,19,70,250,26,20,39,163,24,22,27,312,21,36,26,229,23,5*7E
$GBGSV,2,2,06,37,40,059,24,38,17,330,18,5*7A
$GQGSV,1,1,00,1*65
$GQGSV,1,1,00,8*6C
$PQTMGEOFENCESTATUS,1,215435.000,0,0,0,0*21
$PQTMEPE,2,7.545,7.136,12.333,10.385,16.124*6B
$PQTMPL,1,338093000,5.00,1,1,15090,14272,24666,533,508,809,,,*1A
$PQTMPVT,1,338094000,20241030,215436.000,,3,23,18,49.17376823,-123.07336122,12.506,-16.816,0.000,-0.001,0.001,0.001,281.46,0.73,1.28*4A
$PQTMDOP,1,338094000,2.16,1.28,1.73,1.05,0.73,0.60,0.41*7D
$GNGGA,215436.000,4910.426094,N,12304.401673,W,1,23,0.73,12.506,M,-16.816,M,,*75
$GNRMC,215436.000,A,4910.426094,N,12304.401673,W,0.002,281.46,301024,,,A,V*22
$GNGLL,4910.426094,N,12304.401673,W,215436.000,A,A*50
$GNVTG,281.46,T,,M,0.002,N,0.004,K,A*2C
$GNGSA,A,3,04,07,09,16,20,26,30,,,,,,1.28,0.73,1.05,1*02
$GNGSA,A,3,65,72,73,75,,,,,,,,,1.28,0.73,1.05,2*09
$GNGSA,A,3,04,06,19,21,27,,,,,,,,1.28,0.73,1.05,3*04
$GNGSA,A,3,08,19,20,22,36,37,38,,,,,,1.28,0.73,1.05,4*07
$GNGSA,A,3,,,,,,,,,,,,,1.28,0.73,1.05,5*0E
$GPGSV,3,1,09,04,47,123,23,07,63,265,28,08,,,19,09,80,144,30,1*53
$GPGSV,3,2,09,16,35,053,24,20,25,309,23,26,06,042,17,27,,,23,1*55
$GPGSV,3,3,09,30,29,257,23,1*54
$GPGSV,2,1,06,04,47,123,29,08,,,19,09,80,144,29,26,06,042,16,8*5C
$GPGSV,2,2,06,27,,,20,30,29,257,25,8*53
$GLGSV,1,1,04,65,63,314,23,72,51,147,25,73,07,042,21,75,69,220,30,1*71
$GAGSV,2,1,05,04,65,298,24,06,38,299,22,19,50,120,19,21,54,075,22,7*7E
$GAGSV,2,2,05,27,11,038,17,7*4E
$GAGSV,2,1,05,04,65,298,26,06,38,299,25,19,50,120,24,21,54,075,26,1*77
$GAGSV,2,2,05,27,11,038,18,1*47
$GBGSV,2,1,08,08,10,340,20,19,70,250,41,20,39,163,39,22,27,312,33,1*7F
$GBGSV,2,2,08,36,26,229,33,37,40,059,36,38,17,330,32,43,,,22,1*44
$GBGSV,2,1,06,19,70,250,27,20,39,163,24,22,27,312,23,36,26,229,24,5*7A
$GBGSV,2,2,06,37,40,059,24,38,17,330,17,5*75
$GQGSV,1,1,00,1*65
$GQGSV,1,1,00,8*6C
$PQTMGEOFENCESTATUS,1,215436.000,0,0,0,0*22
$PQTMEPE,2,7.525,7.118,11.882,10.359,15.763*64
$PQTMPL,1,338094000,5.00,1,1,15050,14236,23763,533,508,809,,,*12
$PQTMPVT,1,338095000,20241030,215437.000,,3,23,18,49.17376828,-123.07336123,12.503,-16.816,0.000,-0.002,0.002,0.002,281.46,0.58,1.06*43
$PQTMDOP,1,338095000,1.82,1.06,1.48,0.88,0.58,0.45,0.37*7D
$GNGGA,215437.000,4910.426097,N,12304.401674,W,1,23,0.58,12.503,M,-16.816,M,,*7C
$GNRMC,215437.000,A,4910.426097,N,12304.401674,W,0.004,281.46,301024,,,A,V*21
$GNGLL,4910.426097,N,12304.401674,W,215437.000,A,A*55
$GNVTG,281.46,T,,M,0.004,N,0.007,K,A*29
$GNGSA,A,3,04,07,09,16,20,26,30,,,,,,1.06,0.58,0.88,1*03
$GNGSA,A,3,65,72,73,75,,,,,,,,,1.06,0.58,0.88,2*08
$GNGSA,A,3,04,06,19,21,27,,,,,,,,1.06,0.58,0.88,3*05
$GNGSA,A,3,08,19,20,22,36,37,38,,,,,,1.06,0.58,0.88,4*06
$GNGSA,A,3,,,,,,,,,,,,,1.06,0.58,0.88,5*0F
$GPGSV,3,1,09,04,47,123,25,07,63,265,30,08,,,20,09,80,144,32,1*54
$GPGSV,3,2,09,16,35,053,25,20,25,309,26,26,06,042,19,27,,,25,1*59
$GPGSV,3,3,09,30,29,257,25,1*52
$GPGSV,2,1,06,04,47,123,28,08,,,18,09,80,144,29,26,06,042,14,8*5E
$GPGSV,2,2,06,27,,,20,30,29,257,23,8*55
$GLGSV,1,1,04,65,63,314,23,72,51,147,24,73,07,042,19,75,69,220,29,1*73
$GAGSV,2,1,05,04,65,298,26,06,38,299,24,19,50,120,19,21,54,075,25,7*7D
$GAGSV,2,2,05,27,11,038,18,7*41
$GAGSV,2,1,05,04,65,298,25,06,38,299,22,19,50,120,23,21,54,075,26,1*74
$GAGSV,2,2,05,27,11,038,17,1*48
$GBGSV,2,1,08,08,10,340,20,19,70,250,41,20,39,163,38,22,27,312,33,1*7E
$GBGSV,2,2,08,36,26,229,31,37,40,059,35,38,17,330,32,43,,,23,1*44
$GBGSV,2,1,06,19,70,250,25,20,39,163,24,22,27,312,22,36,26,229,22,5*7F
$GBGSV,2,2,06,37,40,059,24,38,17,330,17,5*75
$GQGSV,1,1,00,1*65
$GQGSV,1,1,00,8*6C
$PQTMGEOFENCESTATUS,1,215437.000,0,0,0,0*23
$PQTMEPE,2,7.491,7.087,12.198,10.313,15.973*6D
$PQTMPL,1,338095000,5.00,1,1,14982,14174,24395,533,508,809,,,*1B
$PQTMPVT,1,338096000,20241030,215438.000,,3,23,18,49.17376833,-123.07336123,12.502,-16.816,0.000,-0.002,0.001,0.002,281.46,0.63,1.17*4F
$PQTMDOP,1,338096000,2.01,1.17,1.64,0.98,0.63,0.48,0.40*7C
$GNGGA,215438.000,4910.426100,N,12304.401674,W,1,23,0.63,12.502,M,-16.816,M,,*75
$GNRMC,215438.000,A,4910.426100,N,12304.401674,W,0.003,281.46,301024,,,A,V*26
$GNGLL,4910.426100,N,12304.401674,W,215438.000,A,A*55
$GNVTG,281.46,T,,M,0.003,N,0.006,K,A*2F
$GNGSA,A,3,04,07,09,16,20,26,30,,,,,,1.17,0.63,0.98,1*0A
$GNGSA,A,3,65,72,73,75,,,,,,,,,1.17,0.63,0.98,2*01
$GNGSA,A,3,04,06,19,21,27,,,,,,,,1.17,0.63,0.98,3*0C
$GNGSA,A,3,08,19,20,22,36,37,38,,,,,,1.17,0.63,0.98,4*0F
$GNGSA,A,3,,,,,,,,,,,,,1.17,0.63,0.98,5*06
$GPGSV,3,1,09,04,47,123,24,07,63,265,26,08,,,21,09,80,144,29,1*59
$GPGSV,3,2,09,16,35,053,24,20,25,309,24,26,06,042,17,27,,,23,1*52
$GPGSV,3,3,09,30,29,257,24,1*53
$GPGSV,2,1,06,04,47,123,28,08,,,19,09,80,144,30,26,06,042,16,8*55
$GPGSV,2,2,06,27,,,21,30,29,257,24,8*53
$GLGSV,1,1,04,65,63,314,23,72,51,147,23,73,07,042,20,75,69,220,29,1*7E
$GAGSV,2,1,05,04,65,298,25,06,38,299,23,19,50,120,20,21,54,075,25,7*73
$GAGSV,2,2,05,27,11,038,17,7*4E
$GAGSV,2,1,05,04,65,298,27,06,38,299,23,19,50,120,23,21,54,075,26,1*77
$GAGSV,2,2,05,27,11,038,17,1*48
$GBGSV,2,1,08,08,10,340,19,19,70,250,40,20,39,163,38,22,27,312,32,1*74
$GBGSV,2,2,08,36,26,229,30,37,40,059,35,38,17,330,30,43,,,20,1*44
$GBGSV,2,1,06,19,70,250,27,20,39,163,23,22,27,312,23,36,26,229,23,5*7A
$GBGSV,2,2,06,37,40,059,25,38,17,330,17,5*74
$GQGSV,1,1,00,1*65
$GQGSV,1,1,00,8*6C
$PQTMGEOFENCESTATUS,1,215438.000,0,0,0,0*2C
$PQTMEPE,2,7.460,7.058,12.473,10.270,16.157*68
$PQTMPL,1,338096000,5.00,1,1,14919,14116,24946,533,508,809,,,*1A
$PQTMPVT,1,338097000,20241030,215439.000,,3,24,18,49.17376840,-123.07336121,12.500,-16.816,0.000,-0.002,0.001,0.002,281.46,0.63,1.10*4B
$PQTMDOP,1,338097000,1.90,1.10,1.55,0.90,0.63,0.49,0.40*7A
$GNGGA,215439.000,4910.426104,N,12304.401673,W,1,24,0.63,12.500,M,-16.816,M,,*72
$GNRMC,215439.000,A,4910.426104,N,12304.401673,W,0.004,281.46,301024,,,A,V*23
$GNGLL,4910.426104,N,12304.401673,W,215439.000,A,A*57
$GNVTG,281.46,T,,M,0.004,N,0.008,K,A*26
$GNGSA,A,3,04,07,09,11,16,20,26,30,,,,,1.10,0.63,0.90,1*05
$GNGSA,A,3,65,72,73,75,,,,,,,,,1.10,0.63,0.90,2*0E
$GNGSA,A,3,04,06,19,21,27,,,,,,,,1.10,0.63,0.90,3*03
$GNGSA,A,3,08,19,20,22,36,37,38,,,,,,1.10,0.63,0.90,4*00
$GNGSA,A,3,,,,,,,,,,,,,1.10,0.63,0.90,5*09
$GPGSV,3,1,10,04,47,123,23,07,63,265,27,08,,,19,09,80,144,28,1*5D
$GPGSV,3,2,10,11,06,286,12,16,35,053,23,20,25,309,22,26,06,042,17,1*66
$GPGSV,3,3,10,27,,,21,30,29,257,23,1*5A
$GPGSV,2,1,06,04,47,123,28,08,,,18,09,80,144,29,26,06,042,16,8*5C
$GPGSV,2,2,06,27,,,21,30,29,257,24,8*53
$GLGSV,1,1,04,65,63,314,25,72,51,147,27,73,07,042,20,75,69,220,30,1*74
$GAGSV,2,1,05,04,65,298,23,06,38,299,21,19,50,120,18,21,54,075,21,7*78
$GAGSV,2,2,05,27,11,038,16,7*4F
$GAGSV,2,1,05,04,65,298,26,06,38,299,23,19,50,120,23,21,54,075,25,1*75
$GAGSV,2,2,05,27,11,038,17,1*48
$GBGSV,2,1,08,08,10,340,21,19,70,250,41,20,39,163,38,22,27,312,34,1*78
$GBGSV,2,2,08,36,26,229,32,37,40,059,36,38,17,330,31,43,,,22,1*46
$GBGSV,2,1,06,19,70,250,26,20,39,163,23,22,27,312,22,36,26,229,22,5*7B
$GBGSV,2,2,06,37,40,059,23,38,17,330,15,5*70
$GQGSV,1,1,00,1*65
$GQGSV,1,1,00,8*6C
$PQTMGEOFENCESTATUS,1,215439.000,0,0,0,0*2D
$PQTMEPE,2,7.431,7.032,11.609,10.230,15.474*6F
$PQTMPL,1,338097000,5.00,1,1,14861,14063,23218,533,508,809,,,*11
$PQTMPVT,1,338098000,20241030,215440.000,,3,24,18,49.17376848,-123.07336121,12.499,-16.817,0.000,-0.002,0.001,0.002,281.46,0.58,1.04*4F
$PQTMDOP,1,338098000,1.74,1.04,1.40,0.86,0.58,0.45,0.36*7C
$GNGGA,215440.000,4910.426109,N,12304.401673,W,1,24,0.58,12.499,M,-16.817,M,,*79
$GNRMC,215440.000,A,4910.426109,N,12304.401673,W,0.004,281.46,301024,,,A,V*20
$GNGLL,4910.426109,N,12304.401673,W,215440.000,A,A*54
$GNVTG,281.46,T,,M,0.004,N,0.008,K,A*26
$GNGSA,A,3,04,07,09,11,16,20,26,30,,,,,1.04,0.58,0.86,1*0F
$GNGSA,A,3,65,72,73,75,,,,,,,,,1.04,0.58,0.86,2*04
$GNGSA,A,3,04,06,19,21,27,,,,,,,,1.04,0.58,0.86,3*09
$GNGSA,A,3,08,19,20,22,36,37,38,,,,,,1.04,0.58,0.86,4*0A
$GNGSA,A,3,,,,,,,,,,,,,1.04,0.58,0.86,5*03
$GPGSV,3,1,10,04,47,123,24,07,63,265,26,08,,,19,09,80,144,28,1*5B
$GPGSV,3,2,10,11,06,286,13,16,35,053,24,20,25,309,22,26,06,042,15,1*62
$GPGSV,3,3,10,27,,,21,30,29,258,23,1*55
$GPGSV,2,1,06,04,47,123,28,08,,,18,09,80,144,30,26,06,042,16,8*54
$GPGSV,2,2,06,27,,,20,30,29,258,25,8*5C
$GLGSV,1,1,04,65,63,314,23,72,51,147,25,73,07,042,18,75,69,220,28,1*72
$GAGSV,2,1,05,04,65,298,23,06,38,299,21,19,50,120,19,21,54,075,22,7*7A
$GAGSV,2,2,05,27,11,038,16,7*4F
$GAGSV,2,1,05,04,65,298,26,06,38,299,23,19,50,120,24,21,54,075,27,1*70
$GAGSV,2,2,05,27,11,038,17,1*48
$GBGSV,2,1,08,08,10,340,21,19,70,250,41,20,39,163,39,22,27,312,34,1*79
$GBGSV,2,2,08,36,26,229,32,37,40,059,36,38,17,330,31,43,,,22,1*46
$GBGSV,2,1,06,19,70,250,26,20,39,163,24,22,27,312,23,36,26,229,23,5*7C
$GBGSV,2,2,06,37,40,059,25,38,17,330,17,5*74
$GQGSV,1,1,00,1*65
$GQGSV,1,1,00,8*6C
$PQTMGEOFENCESTATUS,1,215440.000,0,0,0,0*23
$PQTMEPE,2,7.395,6.999,11.815,10.182,15.597*6A
$PQTMPL,1,338098000,5.00,1,1,14789,13998,23630,533,508,809,,,*13
$PQTMPVT,1,338099000,20241030,215441.000,,3,24,18,49.17376856,-123.07336122,12.496,-16.816,0.000,-0.002,0.001,0.002,281.46,0.66,1.22*44
$PQTMDOP,1,338099000,2.08,1.22,1.69,1.02,0.66,0.51,0.41*7F
$GNGGA,215441.000,4910.426113,N,12304.401673,W,1,24,0.66,12.496,M,-16.816,M,,*70
$GNRMC,215441.000,A,4910.426113,N,12304.401673,W,0.004,281.46,301024,,,A,V*2A
$GNGLL,4910.426113,N,12304.401673,W,215441.000,A,A*5E
$GNVTG,281.46,T,,M,0.004,N,0.007,K,A*29
$GNGSA,A,3,04,07,09,11,16,20,26,30,,,,,1.22,0.66,1.02,1*0B
$GNGSA,A,3,65,72,73,75,,,,,,,,,1.22,0.66,1.02,2*00
$GNGSA,A,3,04,06,19,21,27,,,,,,,,1.22,0.66,1.02,3*0D
$GNGSA,A,3,08,19,20,22,36,37,38,,,,,,1.22,0.66,1.02,4*0E
$GNGSA,A,3,,,,,,,,,,,,,1.22,0.66,1.02,5*07
$GPGSV,3,1,10,04,47,123,26,07,63,265,29,08,,,20,09,80,144,31,1*54
$GPGSV,3,2,10,11,06,286,14,16,35,053,24,20,25,309,26,26,06,042,17,1*63
$GPGSV,3,3,10,27,,,25,30,29,258,25,1*57
$GPGSV,2,1,06,04,47,123,27,08,,,19,09,80,144,29,26,06,042,17,8*53
$GPGSV,2,2,06,27,,,22,30,29,258,23,8*58
$GLGSV,1,1,04,65,63,314,23,72,51,147,25,73,07,042,19,75,69,220,30,1*7A
$GAGSV,2,1,05,04,65,298,26,06,38,299,23,19,50,120,20,21,54,075,26,7*73
$GAGSV,2,2,05,27,11,038,16,7*4F
$GAGSV,2,1,05,04,65,298,25,06,38,299,23,19,50,120,23,21,54,075,25,1*76
$GAGSV,2,2,05,27,11,038,17,1*48
$GBGSV,2,1,08,08,10,340,20,19,70,250,41,20,39,163,38,22,27,312,35,1*78
$GBGSV,2,2,08,36,26,229,32,37,40,059,36,38,17,330,31,43,,,23,1*47
$GBGSV,2,1,06,19,70,250,27,20,39,163,23,22,27,312,21,36,26,229,22,5*79
$GBGSV,2,2,06,37,40,059,24,38,17,330,16,5*74
$GQGSV,1,1,00,1*65
$GQGSV,1,1,00,8*6C
$PQTMGEOFENCESTATUS,1,215441.000,0,0,0,0*22
$PQTMEPE,2,7.431,7.032,12.315,10.231,16.010*60
$PQTMPL,1,338099000,5.00,1,1,14861,14064,24629,533,508,809,,,*19
$PQTMPVT,1,338100000,20241030,215442.000,,3,24,18,49.17376863,-123.07336122,12.494,-16.816,0.000,-0.001,0.000,0.001,281.46,0.66,1.20*41
$PQTMDOP,1,338100000,2.09,1.20,1.71,1.01,0.66,0.51,0.42*74
$GNGGA,215442.000,4910.426118,N,12304.401673,W,1,24,0.66,12.494,M,-16.816,M,,*7A
$GNRMC,215442.000,A,4910.426118,N,12304.401673,W,0.003,281.46,301024,,,A,V*25
$GNGLL,4910.426118,N,12304.401673,W,215442.000,A,A*56
$GNVTG,281.46,T,,M,0.003,N,0.005,K,A*2C
$GNGSA,A,3,04,07,09,11,16,20,26,30,,,,,1.20,0.66,1.01,1*0A
$GNGSA,A,3,65,72,73,75,,,,,,,,,1.20,0.66,1.01,2*01
$GNGSA,A,3,04,06,19,21,27,,,,,,,,1.20,0.66,1.01,3*0C
$GNGSA,A,3,08,19,20,22,36,37,38,,,,,,1.20,0.66,1.01,4*0F
$GNGSA,A,3,,,,,,,,,,,,,1.20,0.66,1.01,5*06
$GPGSV,3,1,10,04,47,123,24,07,63,265,27,08,,,20,09,80,144,28,1*50
$GPGSV,3,2,10,11,06,286,14,16,35,053,22,20,25,309,25,26,06,042,15,1*64
$GPGSV,3,3,10,27,,,22,30,29,258,23,1*56
$GPGSV,2,1,06,04,47,123,29,08,,,19,09,80,144,29,26,06,042,17,8*5D
$GPGSV,2,2,06,27,,,21,30,29,258,24,8*5C
$GLGSV,1,1,04,65,63,314,23,72,51,147,24,73,07,042,18,75,69,220,28,1*73
$GAGSV,2,1,05,04,65,298,24,06,38,299,22,19,50,120,19,21,54,075,25,7*79
$GAGSV,2,2,05,27,11,038,16,7*4F
$GAGSV,2,1,05,04,65,298,24,06,38,299,23,19,50,120,23,21,54,075,25,1*77
$GAGSV,2,2,05,27,11,038,17,1*48
$GBGSV,2,1,08,08,10,340,20,19,70,250,41,20,39,163,38,22,27,312,34,1*79
$GBGSV,2,2,08,36,26,229,31,37,40,059,36,38,17,330,30,43,,,23,1*45
$GBGSV,2,1,06,19,70,250,26,20,39,163,23,22,27,312,22,36,26,229,23,5*7A
$GBGSV,2,2,06,37,40,059,24,38,17,330,17,5*75
$GQGSV,1,1,00,1*65
$GQGSV,1,1,00,8*6C
$PQTMGEOFENCESTATUS,1,215442.000,0,0,0,0*21
$PQTMEPE,2,7.416,7.019,12.130,10.211,15.856*62
$PQTMPL,1,338100000,5.00,1,1,14831,14037,24260,533,508,809,,,*12
$PQTMPVT,1,338101000,20241030,215443.000,,3,24,18,49.17376870,-123.07336123,12.493,-16.816,0.000,-0.002,0.000,0.002,281.46,0.69,1.29*43
$PQTMDOP,1,338101000,2.21,1.29,1.80,1.09,0.69,0.57,0.40*7B
$GNGGA,215443.000,4910.426122,N,12304.401674,W,1,24,0.69,12.493,M,-16.816,M,,*7D
$GNRMC,215443.000,A,4910.426122,N,12304.401674,W,0.004,281.46,301024,,,A,V*2D
$GNGLL,4910.426122,N,12304.401674,W,215443.000,A,A*59
$GNVTG,281.46,T,,M,0.004,N,0.008,K,A*26
$GNGSA,A,3,04,07,09,11,16,20,26,30,,,,,1.29,0.69,1.09,1*04
$GNGSA,A,3,65,72,73,75,,,,,,,,,1.29,0.69,1.09,2*0F
$GNGSA,A,3,04,06,19,21,27,,,,,,,,1.29,0.69,1.09,3*02
$GNGSA,A,3,08,19,20,22,36,37,38,,,,,,1.29,0.69,1.09,4*01
$GNGSA,A,3,,,,,,,,,,,,,1.29,0.69,1.09,5*08
$GPGSV,3,1,10,04,47,123,24,07,63,265,29,08,,,20,09,80,144,30,1*57
$GPGSV,3,2,10,11,06,286,13,16,35,053,23,20,25,309,25,26,06,042,17,1*60
$GPGSV,3,3,10,27,,,24,30,29,258,23,1*50
$GPGSV,2,1,06,04,47,123,28,08,,,18,09,80,144,28,26,06,042,16,8*5D
$GPGSV,2,2,06,27,,,21,30,29,258,24,8*5C
$GLGSV,1,1,04,65,63,314,22,72,51,147,24,73,07,042,17,75,69,220,28,1*7D
$GAGSV,2,1,05,04,65,298,25,06,38,299,22,19,50,120,18,21,54,075,24,7*78
$GAGSV,2,2,05,27,11,038,16,7*4F
$GAGSV,2,1,05,04,65,298,25,06,38,299,21,19,50,120,22,21,54,075,25,1*75
$GAGSV,2,2,05,27,11,038,17,1*48
$GBGSV,2,1,08,08,10,340,20,19,70,250,41,20,39,163,38,22,27,312,34,1*79
$GBGSV,2,2,08,36,26,229,32,37,40,059,36,38,17,330,32,43,,,23,1*44
$GBGSV,2,1,06,19,70,250,24,20,39,163,23,22,27,312,20,36,26,229,22,5*7B
$GBGSV,2,2,06,37,40,059,23,38,17,330,16,5*73
$GQGSV,1,1,00,1*65
$GQGSV,1,1,00,8*6C
$PQTMGEOFENCESTATUS,1,215443.000,0,0,0,0*20
$PQTMEPE,2,7.462,7.060,12.472,10.272,16.158*6D
$PQTMPL,1,338101000,5.00,1,1,14923,14120,24944,533,508,809,,,*1B
$PQTMPVT,1,338102000,20241030,215444.000,,3,24,18,49.17376878,-123.07336125,12.492,-16.816,0.001,-0.003,0.000,0.003,281.46,0.69,1.24*44
$PQTMDOP,1,338102000,2.10,1.24,1.70,1.03,0.69,0.56,0.39*7D
$GNGGA,215444.000,4910.426127,N,12304.401675,W,1,24,0.69,12.492,M,-16.816,M,,*7F
$GNRMC,215444.000,A,4910.426127,N,12304.401675,W,0.005,281.46,301024,,,A,V*2F
$GNGLL,4910.426127,N,12304.401675,W,215444.000,A,A*5A
$GNVTG,281.46,T,,M,0.005,N,0.010,K,A*2E
$GNGSA,A,3,04,07,09,11,16,20,26,30,,,,,1.24,0.69,1.03,1*03
$GNGSA,A,3,65,72,73,75,,,,,,,,,1.24,0.69,1.03,2*08
$GNGSA,A,3,04,06,19,21,27,,,,,,,,1.24,0.69,1.03,3*05
$GNGSA,A,3,08,19,20,22,36,37,38,,,,,,1.24,0.69,1.03,4*06
$GNGSA,A,3,,,,,,,,,,,,,1.24,0.69,1.03,5*0F
$GPGSV,3,1,10,04,47,123,24,07,63,265,28,08,,,20,09,80,144,29,1*5E
$GPGSV,3,2,10,11,06,286,14,16,35,053,23,20,25,309,24,26,06,042,16,1*67
$GPGSV,3,3,10,27,,,23,30,29,258,23,1*57
$GPGSV,2,1,06,04,47,123,27,08,,,19,09,80,144,28,26,06,042,17,8*52
$GPGSV,2,2,06,27,,,22,30,29,258,25,8*5E
$GLGSV,1,1,04,65,63,314,23,72,51,147,25,73,07,042,17,75,69,220,28,1*7D
$GAGSV,2,1,05,04,65,298,25,06,38,299,23,19,50,120,19,21,54,075,25,7*79
$GAGSV,2,2,05,27,11,038,16,7*4F
$GAGSV,2,1,05,04,65,298,25,06,38,299,22,19,50,120,22,21,54,075,26,1*75
$GAGSV,2,2,05,27,11,038,17,1*48
$GBGSV,2,1,08,08,10,340,20,19,70,250,41,20,39,163,38,22,27,312,33,1*7E
$GBGSV,2,2,08,36,26,229,32,37,40,059,35,38,17,330,31,43,,,23,1*44
$GBGSV,2,1,06,19,70,250,25,20,39,163,24,22,27,312,22,36,26,229,23,5*7E
$GBGSV,2,2,06,37,40,059,24,38,17,330,16,5*74
$GQGSV,1,1,00,1*65
$GQGSV,1,1,00,8*6C
$PQTMGEOFENCESTATUS,1,215444.000,0,0,0,0*27
$PQTMEPE,2,7.537,7.129,12.172,10.375,15.993*6F
$PQTMPL,1,338102000,5.00,1,1,15074,14258,24343,533,508,809,,,*13
$PQTMPVT,1,338103000,20241030,215445.000,,3,24,18,49.17376883,-123.07336128,12.492,-16.816,0.000,-0.002,0.002,0.002,281.46,0.64,1.19*4D
$PQTMDOP,1,338103000,2.03,1.19,1.65,1.00,0.64,0.51,0.39*7D
$GNGGA,215445.000,4910.426130,N,12304.401677,W,1,24,0.64,12.492,M,-16.816,M,,*77
$GNRMC,215445.000,A,4910.426130,N,12304.401677,W,0.004,281.46,301024,,,A,V*2B
$GNGLL,4910.426130,N,12304.401677,W,215445.000,A,A*5F
$GNVTG,281.46,T,,M,0.004,N,0.006,K,A*28
$GNGSA,A,3,04,07,09,11,16,20,26,30,,,,,1.19,0.64,1.00,1*03
$GNGSA,A,3,65,72,73,75,,,,,,,,,1.19,0.64,1.00,2*08
$GNGSA,A,3,04,06,19,21,27,,,,,,,,1.19,0.64,1.00,3*05
$GNGSA,A,3,08,19,20,22,36,37,38,,,,,,1.19,0.64,1.00,4*06
$GNGSA,A,3,,,,,,,,,,,,,1.19,0.64,1.00,5*0F
$GPGSV,3,1,10,04,47,123,24,07,63,265,28,08,,,19,09,80,144,28,1*55
$GPGSV,3,2,10,11,06,286,13,16,35,053,22,20,25,309,25,26,06,042,17,1*61
$GPGSV,3,3,10,27,,,24,30,29,258,24,1*57
$GPGSV,2,1,06,04,47,123,28,08,,,18,09,80,144,29,26,06,042,16,8*5C
$GPGSV,2,2,06,27,,,22,30,29,258,23,8*58
$GLGSV,1,1,04,65,63,314,24,72,51,147,23,73,07,042,18,75,69,220,28,1*73
$GAGSV,2,1,05,04,65,298,25,06,38,299,23,19,50,120,19,21,54,075,24,7*78
$GAGSV,2,2,05,27,11,038,16,7*4F
$GAGSV,2,1,05,04,65,298,25,06,38,299,23,19,50,120,22,21,54,075,25,1*77
$GAGSV,2,2,05,27,11,038,17,1*48
$GBGSV,2,1,08,08,10,340,20,19,70,250,40,20,39,163,37,22,27,312,32,1*71
$GBGSV,2,2,08,36,26,229,32,37,40,059,35,38,17,330,32,43,,,21,1*45
$GBGSV,2,1,06,19,70,250,27,20,39,163,23,22,27,312,21,36,26,229,22,5*79
$GBGSV,2,2,06,37,40,059,24,38,17,330,17,5*75
$GQGSV,1,1,00,1*65
$GQGSV,1,1,00,8*6C
$PQTMGEOFENCESTATUS,1,215445.000,0,0,0,0*26
$PQTMEPE,2,7.568,7.157,12.641,10.417,16.380*63
$PQTMPL,1,338103000,5.00,1,1,15136,14314,25281,533,508,809,,,*12
$PQTMPVT,1,338104000,20241030,215446.000,,3,24,18,49.17376889,-123.07336128,12.491,-16.816,0.000,-0.001,0.001,0.001,281.46,0.64,1.19*43
$PQTMDOP,1,338104000,2.03,1.19,1.65,1.00,0.64,0.51,0.39*7A
$GNGGA,215446.000,4910.426134,N,12304.401677,W,1,24,0.64,12.491,M,-16.816,M,,*73
$GNRMC,215446.000,A,4910.426134,N,12304.401677,W,0.002,281.46,301024,,,A,V*2A
$GNGLL,4910.426134,N,12304.401677,W,215446.000,A,A*58
$GNVTG,281.46,T,,M,0.002,N,0.003,K,A*2B
$GNGSA,A,3,04,07,09,11,16,20,26,30,,,,,1.19,0.64,1.00,1*03
$GNGSA,A,3,65,72,73,75,,,,,,,,,1.19,0.64,1.00,2*08
$GNGSA,A,3,04,06,19,21,27,,,,,,,,1.19,0.64,1.00,3*05
$GNGSA,A,3,08,19,20,22,36,37,38,,,,,,1.19,0.64,1.00,4*06
$GNGSA,A,3,,,,,,,,,,,,,1.19,0.64,1.00,5*0F
$GPGSV,3,1,10,04,47,123,23,07,63,265,26,08,,,18,09,80,144,26,1*53
$GPGSV,3,2,10,11,06,286,14,16,35,053,20,20,25,309,23,26,06,042,16,1*63
$GPGSV,3,3,10,27,,,22,30,29,258,22,1*57
$GPGSV,2,1,06,04,47,123,28,08,,,18,09,80,144,29,26,06,042,16,8*5C
$GPGSV,2,2,06,27,,,21,30,29,258,24,8*5C
$GLGSV,1,1,04,65,63,314,25,72,51,147,23,73,07,042,18,75,69,220,29,1*73
$GAGSV,2,1,05,04,65,298,23,06,38,299,22,19,50,120,18,21,54,075,23,7*79
$GAGSV,2,2,05,27,11,038,16,7*4F
$GAGSV,2,1,05,04,65,298,25,06,38,299,22,19,50,120,23,21,54,075,26,1*74
$GAGSV,2,2,05,27,11,038,17,1*48
$GBGSV,2,1,08,08,10,340,20,19,70,250,40,20,39,163,38,22,27,312,32,1*7E
$GBGSV,2,2,08,36,26,229,33,37,40,059,36,38,17,330,31,43,,,20,1*45
$GBGSV,2,1,06,19,70,250,25,20,39,163,24,22,27,312,22,36,26,229,23,5*7E
$GBGSV,2,2,06,37,40,059,25,38,17,330,14,5*77
$GQGSV,1,1,00,1*65
$GQGSV,1,1,00,8*6C
$PQTMGEOFENCESTATUS,1,215446.000,0,0,0,0*25
$PQTMEPE,2,7.603,7.189,12.715,10.464,16.467*64
$PQTMPL,1,338104000,5.00,1,1,15206,14378,25430,533,508,809,,,*13
$PAIR010,0,0,2338,338104*3C
$PAIR010,0,1,2338,338104*3D
$PQTMPVT,1,338105000,20241030,215447.000,,3,24,18,49.17376895,-123.07336127,12.490,-16.817,0.000,-0.001,0.001,0.001,281.46,0.59,1.12*44
$PQTMDOP,1,338105000,1.95,1.12,1.60,0.95,0.59,0.45,0.38*7E
$GNGGA,215447.000,4910.426137,N,12304.401676,W,1,24,0.59,12.490,M,-16.817,M,,*7E
$GNRMC,215447.000,A,4910.426137,N,12304.401676,W,0.002,281.46,301024,,,A,V*29
$GNGLL,4910.426137,N,12304.401676,W,215447.000,A,A*5B
$GNVTG,281.46,T,,M,0.002,N,0.004,K,A*2C
$GNGSA,A,3,04,07,09,11,16,20,26,30,,,,,1.12,0.59,0.95,1*0B
$GNGSA,A,3,65,72,73,75,,,,,,,,,1.12,0.59,0.95,2*00
$GNGSA,A,3,04,06,19,21,27,,,,,,,,1.12,0.59,0.95,3*0D
$GNGSA,A,3,08,19,20,22,36,37,38,,,,,,1.12,0.59,0.95,4*0E
$GNGSA,A,3,,,,,,,,,,,,,1.12,0.59,0.95,5*07
$GPGSV,3,1,10,04,47,123,25,07,63,265,30,08,,,21,09,80,144,32,1*5D
$GPGSV,3,2,10,11,06,286,12,16,35,053,23,20,25,309,28,26,06,042,17,1*6C
$GPGSV,3,3,10,27,,,25,30,29,258,25,1*57
$GPGSV,2,1,06,04,47,123,29,08,,,20,09,80,144,30,26,06,042,17,8*5F
$GPGSV,2,2,06,27,,,22,30,29,258,25,8*5E
$GLGSV,1,1,04,65,63,314,27,72,51,147,24,73,07,042,19,75,69,220,32,1*7D
$GAGSV,2,1,05,04,65,298,27,06,38,299,24,19,50,120,20,21,54,075,26,7*75
$GAGSV,2,2,05,27,11,038,18,7*41
$GAGSV,2,1,05,04,65,298,27,06,38,299,22,19,50,120,23,21,54,075,28,1*78
$GAGSV,2,2,05,27,11,038,17,1*48
$GBGSV,2,1,08,08,10,340,19,19,70,250,40,20,39,163,37,22,27,312,32,1*7B
$GBGSV,2,2,08,36,26,229,32,37,40,059,35,38,17,330,30,43,,,20,1*46
$GBGSV,2,1,06,19,70,250,26,20,39,163,24,22,27,312,23,36,26,229,24,5*7B
$GBGSV,2,2,06,37,40,059,25,38,17,330,17,5*74
$GQGSV,1,1,00,1*65
$GQGSV,1,1,00,8*6C
$PQTMGEOFENCESTATUS,1,215447.000,0,0,0,0*24
$PQTMEPE,2,7.632,7.215,13.033,10.502,16.738*6A
$PQTMPL,1,338105000,5.00,1,1,15263,14430,26065,533,508,809,,,*1D
$PQTMPVT,1,338106000,20241030,215448.000,,3,24,18,49.17376899,-123.07336124,12.487,-16.816,0.000,-0.001,0.000,0.001,281.46,0.63,1.29*40
$PQTMDOP,1,338106000,2.28,1.29,1.88,1.13,0.63,0.47,0.42*7F
$GNGGA,215448.000,4910.426139,N,12304.401675,W,1,24,0.63,12.487,M,-16.816,M,,*72
$GNRMC,215448.000,A,4910.426139,N,12304.401675,W,0.003,281.46,301024,,,A,V*2A
$GNGLL,4910.426139,N,12304.401675,W,215448.000,A,A*59
$GNVTG,281.46,T,,M,0.003,N,0.005,K,A*2C
$GNGSA,A,3,04,07,09,11,16,20,26,30,,,,,1.29,0.63,1.13,1*05
$GNGSA,A,3,65,72,73,75,,,,,,,,,1.29,0.63,1.13,2*0E
$GNGSA,A,3,04,06,19,21,27,,,,,,,,1.29,0.63,1.13,3*03
$GNGSA,A,3,08,19,20,22,36,37,38,,,,,,1.29,0.63,1.13,4*00
$GNGSA,A,3,,,,,,,,,,,,,1.29,0.63,1.13,5*09
$GPGSV,3,1,10,04,47,123,28,07,63,265,33,08,,,22,09,80,144,33,1*51
$GPGSV,3,2,10,11,06,286,12,16,35,053,26,20,25,309,29,26,06,042,17,1*68
$GPGSV,3,3,10,27,,,26,30,29,258,27,1*56
$GPGSV,2,1,06,04,47,123,28,08,,,19,09,80,144,29,26,06,042,17,8*5C
$GPGSV,2,2,06,27,,,21,30,29,258,25,8*5D
$GLGSV,1,1,04,65,63,314,27,72,51,147,24,73,07,042,18,75,69,220,31,1*7F
$GAGSV,2,1,05,04,65,298,29,06,38,299,27,19,50,120,22,21,54,075,28,7*74
$GAGSV,2,2,05,27,11,038,20,7*4A
$GAGSV,2,1,05,04,65,298,26,06,38,299,22,19,50,120,23,21,54,075,26,1*77
$GAGSV,2,2,05,27,11,038,17,1*48
$GBGSV,2,1,08,08,10,340,20,19,70,249,40,20,39,163,37,22,27,312,33,1*78
$GBGSV,2,2,08,36,26,229,32,37,40,059,36,38,17,330,31,43,,,20,1*44
$GBGSV,2,1,06,19,70,249,25,20,39,163,23,22,27,312,22,36,26,229,23,5*71
$GBGSV,2,2,06,37,40,059,26,38,17,330,17,5*77
$GQGSV,1,1,00,1*65
$GQGSV,1,1,00,8*6C
$PQTMGEOFENCESTATUS,1,215448.000,0,0,0,0*2B
$PQTMEPE,2,7.637,7.220,14.144,10.510,17.621*64
$PQTMPL,1,338106000,5.00,1,1,15274,14440,28287,533,508,809,,,*1F
$PQTMPVT,1,338107000,20241030,215449.000,,3,24,18,49.17376906,-123.07336124,12.486,-16.816,0.000,-0.002,0.002,0.002,281.46,0.61,1.27*48
$PQTMDOP,1,338107000,2.23,1.27,1.83,1.12,0.61,0.46,0.40*70
$GNGGA,215449.000,4910.426144,N,12304.401674,W,1,24,0.61,12.486,M,-16.816,M,,*7B
$GNRMC,215449.000,A,4910.426144,N,12304.401674,W,0.004,281.46,301024,,,A,V*27
$GNGLL,4910.426144,N,12304.401674,W,215449.000,A,A*53
$GNVTG,281.46,T,,M,0.004,N,0.008,K,A*26
$GNGSA,A,3,04,07,09,11,16,20,26,30,,,,,1.27,0.61,1.12,1*08
$GNGSA,A,3,65,72,73,75,,,,,,,,,1.27,0.61,1.12,2*03
$GNGSA,A,3,04,06,19,21,27,,,,,,,,1.27,0.61,1.12,3*0E
$GNGSA,A,3,08,19,20,22,36,37,38,,,,,,1.27,0.61,1.12,4*0D
$GNGSA,A,3,,,,,,,,,,,,,1.27,0.61,1.12,5*04
$GPGSV,3,1,10,04,47,123,29,07,63,265,33,08,,,23,09,80,144,34,1*56
$GPGSV,3,2,10,11,06,286,16,16,35,053,27,20,25,309,29,26,06,042,20,1*69
$GPGSV,3,3,10,27,,,26,30,29,258,28,1*59
$GPGSV,2,1,06,04,47,123,27,08,,,20,09,80,144,28,26,06,042,17,8*58
$GPGSV,2,2,06,27,,,21,30,29,258,24,8*5C
$GLGSV,1,1,04,65,63,314,25,72,51,147,25,73,07,042,17,75,69,220,30,1*72
$GAGSV,2,1,05,04,65,298,30,06,38,299,26,19,50,120,22,21,54,075,29,7*7C
$GAGSV,2,2,05,27,11,038,20,7*4A
$GAGSV,2,1,05,04,65,298,25,06,38,299,23,19,50,120,23,21,54,075,26,1*75
$GAGSV,2,2,05,27,11,038,16,1*49
$GBGSV,2,1,08,08,10,340,20,19,70,249,40,20,39,163,37,22,27,312,33,1*78
$GBGSV,2,2,08,36,26,229,32,37,40,059,36,38,17,330,31,43,,,20,1*44
$GBGSV,2,1,06,19,70,249,26,20,39,163,24,22,27,312,21,36,26,229,23,5*76
$GBGSV,2,2,06,37,40,059,25,38,17,330,16,5*75
$GQGSV,1,1,00,1*65
$GQGSV,1,1,00,8*6C
$PQTMGEOFENCESTATUS,1,215449.000,0,0,0,0*2A
$PQTMEPE,2,7.640,7.222,14.433,10.513,17.856*6E
$PQTMPL,1,338107000,5.00,1,1,15279,14444,28865,533,508,809,,,*11
$PQTMPVT,1,338108000,20241030,215450.000,,3,24,18,49.17376914,-123.07336120,12.484,-16.816,0.000,-0.001,0.001,0.001,281.46,0.58,1.10*47
$PQTMDOP,1,338108000,1.90,1.10,1.55,0.94,0.58,0.46,0.36*7F
$GNGGA,215450.000,4910.426148,N,12304.401672,W,1,24,0.58,12.484,M,-16.816,M,,*71
$GNRMC,215450.000,A,4910.426148,N,12304.401672,W,0.003,281.46,301024,,,A,V*22
$GNGLL,4910.426148,N,12304.401672,W,215450.000,A,A*51
$GNVTG,281.46,T,,M,0.003,N,0.005,K,A*2C
$GNGSA,A,3,04,07,09,11,16,20,26,30,,,,,1.10,0.58,0.94,1*09
$GNGSA,A,3,65,72,73,75,,,,,,,,,1.10,0.58,0.94,2*02
$GNGSA,A,3,04,06,19,21,27,,,,,,,,1.10,0.58,0.94,3*0F
$GNGSA,A,3,08,19,20,22,36,37,38,,,,,,1.10,0.58,0.94,4*0C
$GNGSA,A,3,,,,,,,,,,,,,1.10,0.58,0.94,5*05
$GPGSV,3,1,10,04,47,123,25,07,63,265,28,08,,,20,09,80,144,29,1*5F
$GPGSV,3,2,10,11,06,286,14,16,35,053,23,20,25,309,24,26,06,042,18,1*69
$GPGSV,3,3,10,27,,,25,30,29,258,24,1*56
$GPGSV,2,1,06,04,47,123,26,08,,,18,09,80,144,29,26,06,042,16,8*52
$GPGSV,2,2,06,27,,,19,30,29,258,24,8*57
$GLGSV,1,1,04,65,63,314,22,72,51,147,27,73,07,042,17,75,69,220,27,1*71
$GAGSV,2,1,05,04,65,298,25,06,38,299,23,19,50,120,20,21,54,075,25,7*73
$GAGSV,2,2,05,27,11,038,19,7*40
$GAGSV,2,1,05,04,65,298,26,06,38,299,22,19,50,120,23,21,54,075,24,1*75
$GAGSV,2,2,05,27,11,038,16,1*49
$GBGSV,2,1,08,08,10,340,20,19,70,249,41,20,39,163,38,22,27,312,33,1*76
$GBGSV,2,2,08,36,26,229,33,37,40,059,37,38,17,330,32,43,,,22,1*45
$GBGSV,2,1,06,19,70,249,25,20,39,163,23,22,27,312,21,36,26,229,23,5*72
$GBGSV,2,2,06,37,40,059,24,38,17,330,16,5*74
$GQGSV,1,1,00,1*65
$GQGSV,1,1,00,8*6C
$PQTMGEOFENCESTATUS,1,215450.000,0,0,0,0*22
$PQTMEPE,2,7.659,7.240,13.143,10.539,16.847*6E
$PQTMPL,1,338108000,5.00,1,1,15317,14479,26286,533,508,809,,,*10
$PQTMPVT,1,338109000,20241030,215451.000,,3,24,18,49.17376922,-123.07336117,12.481,-16.816,0.000,-0.002,0.001,0.002,281.46,0.58,1.06*44
$PQTMDOP,1,338109000,1.82,1.06,1.48,0.89,0.58,0.46,0.35*79
$GNGGA,215451.000,4910.426153,N,12304.401670,W,1,24,0.58,12.481,M,-16.816,M,,*7D
$GNRMC,215451.000,A,4910.426153,N,12304.401670,W,0.005,281.46,301024,,,A,V*2D
$GNGLL,4910.426153,N,12304.401670,W,215451.000,A,A*58
$GNVTG,281.46,T,,M,0.005,N,0.009,K,A*26
$GNGSA,A,3,04,07,09,11,16,20,26,30,,,,,1.06,0.58,0.89,1*02
$GNGSA,A,3,65,72,73,75,,,,,,,,,1.06,0.58,0.89,2*09
$GNGSA,A,3,04,06,19,21,27,,,,,,,,1.06,0.58,0.89,3*04
$GNGSA,A,3,08,19,20,22,36,37,38,,,,,,1.06,0.58,0.89,4*07
$GNGSA,A,3,,,,,,,,,,,,,1.06,0.58,0.89,5*0E
$GPGSV,3,1,10,04,47,123,26,07,63,265,31,08,,,20,09,80,144,32,1*5E
$GPGSV,3,2,10,11,06,286,14,16,35,053,24,20,25,309,27,26,06,042,17,1*62
$GPGSV,3,3,10,27,,,24,30,29,258,24,1*57
$GPGSV,2,1,06,04,47,123,28,08,,,18,09,80,144,29,26,06,042,16,8*5C
$GPGSV,2,2,06,27,,,21,30,29,258,24,8*5C
$GLGSV,1,1,04,65,63,314,23,72,51,147,22,73,07,042,17,75,69,220,29,1*7B
$GAGSV,2,1,05,04,65,298,28,06,38,299,24,19,50,120,20,21,54,075,27,7*7B
$GAGSV,2,2,05,27,11,038,20,7*4A
$GAGSV,2,1,05,04,65,298,25,06,38,299,21,19,50,120,23,21,54,075,26,1*77
$GAGSV,2,2,05,27,11,038,16,1*49
$GBGSV,2,1,08,08,10,340,20,19,70,249,41,20,39,163,38,22,27,312,33,1*76
$GBGSV,2,2,08,36,26,229,33,37,40,059,37,38,17,330,32,43,,,20,1*47
$GBGSV,2,1,06,19,70,249,24,20,39,163,23,22,27,312,20,36,26,229,24,5*75
$GBGSV,2,2,06,37,40,059,23,38,17,330,16,5*73
$GQGSV,1,1,00,1*65
$GQGSV,1,1,00,8*6C
$PQTMGEOFENCESTATUS,1,215451.000,0,0,0,0*23
$PQTMEPE,2,7.665,7.245,12.752,10.547,16.548*68
$PQTMPL,1,338109000,5.00,1,1,15329,14489,25503,533,508,809,,,*1A
$PQTMPVT,1,338110000,20241030,215452.000,,3,24,18,49.17376932,-123.07336111,12.478,-16.816,0.000,-0.002,0.001,0.002,281.46,0.58,1.10*49
$PQTMDOP,1,338110000,1.90,1.10,1.55,0.94,0.58,0.46,0.36*76
$GNGGA,215452.000,4910.426159,N,12304.401667,W,1,24,0.58,12.478,M,-16.816,M,,*74
$GNRMC,215452.000,A,4910.426159,N,12304.401667,W,0.004,281.46,301024,,,A,V*23
$GNGLL,4910.426159,N,12304.401667,W,215452.000,A,A*57
$GNVTG,281.46,T,,M,0.004,N,0.007,K,A*29
$GNGSA,A,3,04,07,09,11,16,20,26,30,,,,,1.10,0.58,0.94,1*09
$GNGSA,A,3,65,72,73,75,,,,,,,,,1.10,0.58,0.94,2*02
$GNGSA,A,3,04,06,19,21,27,,,,,,,,1.10,0.58,0.94,3*0F
$GNGSA,A,3,08,19,20,22,36,37,38,,,,,,1.10,0.58,0.94,4*0C
$GNGSA,A,3,,,,,,,,,,,,,1.10,0.58,0.94,5*05
$GPGSV,3,1,10,04,47,123,28,07,63,265,30,08,,,23,09,80,144,31,1*51
$GPGSV,3,2,10,11,06,286,15,16,35,053,25,20,25,309,27,26,06,042,18,1*6D
$GPGSV,3,3,10,27,,,25,30,29,258,26,1*54
$GPGSV,2,1,06,04,47,123,28,08,,,19,09,80,144,30,26,06,042,17,8*54
$GPGSV,2,2,06,27,,,22,30,29,258,26,8*5D
$GLGSV,1,1,04,65,63,314,21,72,51,147,24,73,07,042,17,75,69,220,27,1*71
$GAGSV,2,1,05,04,65,298,28,06,38,299,26,19,50,120,23,21,54,075,29,7*74
$GAGSV,2,2,05,27,11,038,21,7*4B
$GAGSV,2,1,05,04,65,298,26,06,38,299,23,19,50,120,24,21,54,075,27,1*70
$GAGSV,2,2,05,27,11,038,17,1*48
$GBGSV,2,1,08,08,10,340,21,19,70,249,42,20,39,163,39,22,27,312,34,1*72
$GBGSV,2,2,08,36,26,229,35,37,40,059,38,38,17,330,32,43,,,22,1*4C
$GBGSV,2,1,06,19,70,249,25,20,39,163,24,22,27,312,22,36,26,229,24,5*71
$GBGSV,2,2,06,37,40,059,26,38,17,330,18,5*78
$GQGSV,1,1,00,1*65
$GQGSV,1,1,00,8*6C
$PQTMGEOFENCESTATUS,1,215452.000,0,0,0,0*20
$PQTMEPE,2,7.646,7.228,13.115,10.521,16.814*62
$PQTMPL,1,338110000,5.00,1,1,15291,14455,26230,533,508,809,,,*15
$PQTMPVT,1,338111000,20241030,215453.000,,3,24,18,49.17376942,-123.07336105,12.474,-16.816,0.000,-0.002,0.001,0.002,281.46,0.58,1.10*47
$PQTMDOP,1,338111000,1.90,1.10,1.55,0.94,0.58,0.46,0.36*77
$GNGGA,215453.000,4910.426165,N,12304.401663,W,1,24,0.58,12.474,M,-16.816,M,,*72
$GNRMC,215453.000,A,4910.426165,N,12304.401663,W,0.004,281.46,301024,,,A,V*29
$GNGLL,4910.426165,N,12304.401663,W,215453.000,A,A*5D
$GNVTG,281.46,T,,M,0.004,N,0.007,K,A*29
$GNGSA,A,3,04,07,09,11,16,20,26,30,,,,,1.10,0.58,0.94,1*09
$GNGSA,A,3,65,72,73,75,,,,,,,,,1.10,0.58,0.94,2*02
$GNGSA,A,3,04,06,19,21,27,,,,,,,,1.10,0.58,0.94,3*0F
$GNGSA,A,3,08,19,20,22,36,37,38,,,,,,1.10,0.58,0.94,4*0C
$GNGSA,A,3,,,,,,,,,,,,,1.10,0.58,0.94,5*05
$GPGSV,3,1,10,04,47,123,27,07,63,265,30,08,,,22,09,80,144,33,1*5D
$GPGSV,3,2,10,11,06,286,15,16,35,053,25,20,25,309,28,26,06,042,18,1*62
$GPGSV,3,3,10,27,,,25,30,29,258,25,1*57
$GPGSV,2,1,06,04,47,123,28,08,,,18,09,80,144,29,26,06,042,17,8*5D
$GPGSV,2,2,06,27,,,22,30,29,258,24,8*5F
$GLGSV,1,1,04,65,63,314,25,72,51,147,24,73,07,042,17,75,69,220,29,1*7B
$GAGSV,2,1,05,04,65,298,29,06,38,299,26,19,50,120,23,21,54,075,28,7*74
$GAGSV,2,2,05,27,11,038,21,7*4B
$GAGSV,2,1,05,04,65,298,26,06,38,299,22,19,50,120,23,21,54,075,25,1*74
$GAGSV,2,2,05,27,11,038,17,1*48
$GBGSV,2,1,08,08,10,340,20,19,70,249,42,20,39,163,39,22,27,312,35,1*72
$GBGSV,2,2,08,36,26,229,35,37,40,059,38,38,17,330,33,43,,,22,1*4D
$GBGSV,2,1,06,19,70,249,24,20,39,163,22,22,27,312,21,36,26,229,24,5*75
$GBGSV,2,2,06,37,40,059,24,38,17,330,18,5*7A
$GQGSV,1,1,00,1*65
$GQGSV,1,1,00,8*6C
$PQTMGEOFENCESTATUS,1,215453.000,0,0,0,0*21
$PQTMEPE,2,7.660,7.240,13.145,10.540,16.849*62
$PQTMPL,1,338111000,5.00,1,1,15319,14480,26290,533,508,809,,,*17
$PQTMPVT,1,338112000,20241030,215454.000,,3,24,18,49.17376951,-123.07336099,12.473,-16.816,0.000,-0.002,0.002,0.002,281.46,0.68,1.26*47
$PQTMDOP,1,338112000,2.19,1.26,1.79,1.06,0.68,0.55,0.39*79
$GNGGA,215454.000,4910.426171,N,12304.401660,W,1,24,0.68,12.473,M,-16.816,M,,*77
$GNRMC,215454.000,A,4910.426171,N,12304.401660,W,0.004,281.46,301024,,,A,V*28
$GNGLL,4910.426171,N,12304.401660,W,215454.000,A,A*5C
$GNVTG,281.46,T,,M,0.004,N,0.008,K,A*26
$GNGSA,A,3,04,07,09,11,16,20,26,30,,,,,1.26,0.68,1.06,1*05
$GNGSA,A,3,65,72,73,75,,,,,,,,,1.26,0.68,1.06,2*0E
$GNGSA,A,3,04,06,19,21,27,,,,,,,,1.26,0.68,1.06,3*03
$GNGSA,A,3,08,19,20,22,36,37,38,,,,,,1.26,0.68,1.06,4*00
$GNGSA,A,3,,,,,,,,,,,,,1.26,0.68,1.06,5*09
$GPGSV,3,1,10,04,47,123,27,07,63,265,30,08,,,23,09,80,144,32,1*5D
$GPGSV,3,2,10,11,06,286,15,16,35,053,25,20,25,309,26,26,06,042,17,1*63
$GPGSV,3,3,10,27,,,25,30,29,258,24,1*56
$GPGSV,2,1,06,04,47,123,29,08,,,20,09,80,144,30,26,06,042,17,8*5F
$GPGSV,2,2,06,27,,,21,30,29,258,25,8*5D
$GLGSV,1,1,04,65,63,314,24,72,51,147,24,73,07,042,17,75,69,220,27,1*74
$GAGSV,2,1,05,04,65,298,29,06,38,299,26,19,50,120,22,21,54,075,29,7*74
$GAGSV,2,2,05,27,11,038,21,7*4B
$GAGSV,2,1,05,04,65,298,27,06,38,299,24,19,50,120,24,21,54,075,28,1*79
$GAGSV,2,2,05,27,11,038,17,1*48
$GBGSV,2,1,08,08,10,340,21,19,70,249,41,20,39,163,39,22,27,312,34,1*71
$GBGSV,2,2,08,36,26,229,34,37,40,059,37,38,17,330,32,43,,,20,1*40
$GBGSV,2,1,06,19,70,249,26,20,39,163,24,22,27,312,23,36,26,229,24,5*73
$GBGSV,2,2,06,37,40,059,25,38,17,330,18,5*7B
$GQGSV,1,1,00,1*65
$GQGSV,1,1,00,8*6C
$PQTMGEOFENCESTATUS,1,215454.000,0,0,0,0*26
$PQTMEPE,2,7.653,7.235,12.883,10.532,16.640*60
$PQTMPL,1,338112000,5.00,1,1,15306,14469,25765,533,508,809,,,*11
$PQTMPVT,1,338113000,20241030,215455.000,,3,24,18,49.17376959,-123.07336091,12.471,-16.816,0.000,-0.002,0.001,0.002,281.46,0.69,1.37*47
$PQTMDOP,1,338113000,2.39,1.37,1.96,1.18,0.69,0.56,0.42*7A
$GNGGA,215455.000,4910.426175,N,12304.401654,W,1,24,0.69,12.471,M,-16.816,M,,*76
$GNRMC,215455.000,A,4910.426175,N,12304.401654,W,0.005,281.46,301024,,,A,V*2B
$GNGLL,4910.426175,N,12304.401654,W,215455.000,A,A*5E
$GNVTG,281.46,T,,M,0.005,N,0.009,K,A*26
$GNGSA,A,3,04,07,09,11,16,20,26,30,,,,,1.37,0.69,1.18,1*0B
$GNGSA,A,3,65,72,73,75,,,,,,,,,1.37,0.69,1.18,2*00
$GNGSA,A,3,04,06,19,21,27,,,,,,,,1.37,0.69,1.18,3*0D
$GNGSA,A,3,08,19,20,22,36,37,38,,,,,,1.37,0.69,1.18,4*0E
$GNGSA,A,3,,,,,,,,,,,,,1.37,0.69,1.18,5*07
$GPGSV,3,1,10,04,47,123,28,07,63,265,31,08,,,22,09,80,144,33,1*53
$GPGSV,3,2,10,11,06,286,15,16,35,053,26,20,25,309,27,26,06,042,19,1*6F
$GPGSV,3,3,10,27,,,26,30,29,258,25,1*54
$GPGSV,2,1,06,04,47,123,29,08,,,21,09,80,144,31,26,06,042,17,8*5F
$GPGSV,2,2,06,27,,,22,30,29,258,26,8*5D
$GLGSV,1,1,04,65,63,314,25,72,51,147,21,73,07,042,17,75,69,220,27,1*70
$GAGSV,2,1,05,04,65,298,28,06,38,299,25,19,50,120,22,21,54,075,28,7*77
$GAGSV,2,2,05,27,11,038,22,7*48
$GAGSV,2,1,05,04,65,298,26,06,38,299,23,19,50,120,23,21,54,075,27,1*77
$GAGSV,2,2,05,27,11,038,17,1*48
$GBGSV,2,1,08,08,10,340,20,19,70,249,40,20,39,163,37,22,27,312,33,1*78
$GBGSV,2,2,08,36,26,229,32,37,40,059,37,38,17,330,31,43,,,20,1*45
$GBGSV,2,1,06,19,70,249,28,20,39,163,24,22,27,312,22,36,26,229,23,5*7B
$GBGSV,2,2,06,37,40,059,25,38,17,330,17,5*74
$GQGSV,1,1,00,1*65
$GQGSV,1,1,00,8*6C
$PQTMGEOFENCESTATUS,1,215455.000,0,0,0,0*27
$PQTMEPE,2,7.675,7.255,13.793,10.561,17.372*6E
$PQTMPL,1,338113000,5.00,1,1,15350,14509,27586,533,508,809,,,*19
$PQTMPVT,1,338114000,20241030,215456.000,,3,24,18,49.17376962,-123.07336088,12.470,-16.817,0.000,-0.001,0.001,0.002,281.46,0.64,1.28*43
$PQTMDOP,1,338114000,2.25,1.28,1.86,1.11,0.64,0.49,0.40*77
$GNGGA,215456.000,4910.426177,N,12304.401653,W,1,24,0.64,12.470,M,-16.817,M,,*7D
$GNRMC,215456.000,A,4910.426177,N,12304.401653,W,0.003,281.46,301024,,,A,V*2B
$GNGLL,4910.426177,N,12304.401653,W,215456.000,A,A*58
$GNVTG,281.46,T,,M,0.003,N,0.005,K,A*2C
$GNGSA,A,3,04,07,09,11,16,20,26,30,,,,,1.28,0.64,1.11,1*01
$GNGSA,A,3,65,72,73,75,,,,,,,,,1.28,0.64,1.11,2*0A
$GNGSA,A,3,04,06,19,21,27,,,,,,,,1.28,0.64,1.11,3*07
$GNGSA,A,3,08,19,20,22,36,37,38,,,,,,1.28,0.64,1.11,4*04
$GNGSA,A,3,,,,,,,,,,,,,1.28,0.64,1.11,5*0D
$GPGSV,3,1,10,04,47,123,27,07,63,265,29,08,,,23,09,80,144,32,1*55
$GPGSV,3,2,10,11,06,286,13,16,35,053,26,20,25,309,27,26,06,042,20,1*63
$GPGSV,3,3,10,27,,,24,30,29,258,24,1*57
$GPGSV,2,1,06,04,47,123,28,08,,,20,09,80,144,29,26,06,042,15,8*54
$GPGSV,2,2,06,27,,,20,30,29,258,25,8*5C
$GLGSV,1,1,04,65,64,314,24,72,51,147,25,73,07,042,16,75,70,220,27,1*7B
$GAGSV,2,1,05,04,65,298,27,06,38,299,24,19,50,120,20,21,54,075,28,7*7B
$GAGSV,2,2,05,27,11,038,20,7*4A
$GAGSV,2,1,05,04,65,298,26,06,38,299,22,19,50,120,23,21,54,075,26,1*77
$GAGSV,2,2,05,27,11,038,17,1*48
$GBGSV,2,1,08,08,10,340,19,19,70,249,40,20,39,163,36,22,27,312,33,1*73
$GBGSV,2,2,08,36,26,229,33,37,40,059,36,38,17,330,31,43,,,18,1*4E
$GBGSV,2,1,06,19,70,249,27,20,39,163,24,22,27,312,23,36,26,229,23,5*75
$GBGSV,2,2,06,37,40,059,25,38,17,330,17,5*74
$GQGSV,1,1,00,1*65
$GQGSV,1,1,00,8*6C
$PQTMGEOFENCESTATUS,1,215456.000,0,0,0,0*24
$PQTMEPE,2,7.687,7.265,14.031,10.576,17.571*6B
$PQTMPL,1,338114000,5.00,1,1,15373,14529,28062,533,508,809,,,*1D
$PQTMPVT,1,338115000,20241030,215457.000,,3,24,18,49.17376965,-123.07336086,12.468,-16.816,0.000,-0.001,0.001,0.001,281.46,0.60,1.16*48
$PQTMDOP,1,338115000,2.05,1.16,1.69,0.99,0.60,0.46,0.38*7D
$GNGGA,215457.000,4910.426179,N,12304.401652,W,1,24,0.60,12.468,M,-16.816,M,,*7F
$GNRMC,215457.000,A,4910.426179,N,12304.401652,W,0.002,281.46,301024,,,A,V*24
$GNGLL,4910.426179,N,12304.401652,W,215457.000,A,A*56
$GNVTG,281.46,T,,M,0.002,N,0.003,K,A*2B
$GNGSA,A,3,04,07,09,11,16,20,26,30,,,,,1.16,0.60,0.99,1*09
$GNGSA,A,3,65,72,73,75,,,,,,,,,1.16,0.60,0.99,2*02
$GNGSA,A,3,04,06,19,21,27,,,,,,,,1.16,0.60,0.99,3*0F
$GNGSA,A,3,08,19,20,22,36,37,38,,,,,,1.16,0.60,0.99,4*0C
$GNGSA,A,3,,,,,,,,,,,,,1.16,0.60,0.99,5*05
$GPGSV,3,1,10,04,47,123,27,07,63,265,31,08,,,23,09,80,144,34,1*5A
$GPGSV,3,2,10,11,06,286,14,16,35,053,27,20,25,309,29,26,06,042,19,1*61
$GPGSV,3,3,10,27,,,26,30,29,258,26,1*57
$GPGSV,2,1,06,04,47,123,29,08,,,20,09,80,144,30,26,06,042,15,8*5D
$GPGSV,2,2,06,27,,,21,30,29,258,25,8*5D
$GLGSV,1,1,04,65,64,314,23,72,51,147,24,73,07,042,16,75,70,220,25,1*7F
$GAGSV,2,1,05,04,65,298,28,06,38,299,26,19,50,120,22,21,54,075,29,7*75
$GAGSV,2,2,05,27,11,038,20,7*4A
$GAGSV,2,1,05,04,65,298,27,06,38,299,23,19,50,120,24,21,54,075,27,1*71
$GAGSV,2,2,05,27,11,038,17,1*48
$GBGSV,2,1,08,08,10,340,20,19,70,249,40,20,39,163,37,22,27,312,33,1*78
$GBGSV,2,2,08,36,26,229,33,37,40,059,36,38,17,330,30,43,,,19,1*4E
$GBGSV,2,1,06,19,70,249,27,20,39,163,25,22,27,312,22,36,26,229,24,5*72
$GBGSV,2,2,06,37,40,059,24,38,17,330,18,5*7A
$GQGSV,1,1,00,1*65
$GQGSV,1,1,00,8*6C
$PQTMGEOFENCESTATUS,1,215457.000,0,0,0,0*25
$PQTMEPE,2,7.686,7.265,13.538,10.576,17.180*6B
$PQTMPL,1,338115000,5.00,1,1,15372,14529,27076,533,508,809,,,*17
$PQTMPVT,1,338116000,20241030,215458.000,,3,24,18,49.17376966,-123.07336084,12.468,-16.816,0.000,-0.001,0.000,0.001,281.46,0.62,1.22*41
$PQTMDOP,1,338116000,2.19,1.22,1.82,1.05,0.62,0.49,0.39*79
$GNGGA,215458.000,4910.426180,N,12304.401650,W,1,24,0.62,12.468,M,-16.816,M,,*76
$GNRMC,215458.000,A,4910.426180,N,12304.401650,W,0.001,281.46,301024,,,A,V*2C
$GNGLL,4910.426180,N,12304.401650,W,215458.000,A,A*5D
$GNVTG,281.46,T,,M,0.001,N,0.003,K,A*28
$GNGSA,A,3,04,07,09,11,16,20,26,30,,,,,1.22,0.62,1.05,1*08
$GNGSA,A,3,65,72,73,75,,,,,,,,,1.22,0.62,1.05,2*03
$GNGSA,A,3,04,06,19,21,27,,,,,,,,1.22,0.62,1.05,3*0E
$GNGSA,A,3,08,19,20,22,36,37,38,,,,,,1.22,0.62,1.05,4*0D
$GNGSA,A,3,,,,,,,,,,,,,1.22,0.62,1.05,5*04
$GPGSV,3,1,10,04,47,123,24,07,63,265,27,08,,,20,09,80,144,29,1*51
$GPGSV,3,2,10,11,06,286,14,16,35,053,22,20,25,309,24,26,06,042,18,1*68
$GPGSV,3,3,10,27,,,23,30,29,258,21,1*55
$GPGSV,2,1,06,04,47,123,28,08,,,21,09,80,144,30,26,06,042,16,8*5E
$GPGSV,2,2,06,27,,,22,30,29,258,26,8*5D
$GLGSV,1,1,04,65,64,314,20,72,51,147,23,73,07,042,17,75,70,220,25,1*7A
$GAGSV,2,1,05,04,65,298,25,06,38,299,23,19,50,120,19,21,54,075,24,7*78
$GAGSV,2,2,05,27,11,038,18,7*41
$GAGSV,2,1,05,04,65,298,25,06,38,299,23,19,50,120,23,21,54,075,27,1*74
$GAGSV,2,2,05,27,11,038,17,1*48
$GBGSV,2,1,08,08,10,340,18,19,70,249,39,20,39,163,37,22,27,312,32,1*7C
$GBGSV,2,2,08,36,26,229,32,37,40,059,35,38,17,330,30,43,,,18,1*4D
$GBGSV,2,1,06,19,70,249,26,20,39,163,24,22,27,312,22,36,26,229,24,5*72
$GBGSV,2,2,06,37,40,059,25,38,17,330,17,5*74
$GQGSV,1,1,00,1*65
$GQGSV,1,1,00,8*6C
$PQTMGEOFENCESTATUS,1,215458.000,0,0,0,0*2A
$PQTMEPE,2,7.706,7.283,13.690,10.603,17.316*67
$PQTMPL,1,338116000,5.00,1,1,15412,14565,27379,533,508,809,,,*11
$PQTMPVT,1,338117000,20241030,215459.000,,3,24,18,49.17376967,-123.07336084,12.468,-16.817,0.000,-0.001,0.001,0.001,281.46,0.64,1.28*4C
$PQTMDOP,1,338117000,2.25,1.28,1.85,1.11,0.64,0.48,0.43*75
$GNGGA,215459.000,4910.426180,N,12304.401650,W,1,24,0.64,12.468,M,-16.817,M,,*70
$GNRMC,215459.000,A,4910.426180,N,12304.401650,W,0.003,281.46,301024,,,A,V*2F
$GNGLL,4910.426180,N,12304.401650,W,215459.000,A,A*5C
$GNVTG,281.46,T,,M,0.003,N,0.005,K,A*2C
$GNGSA,A,3,04,07,09,11,16,20,26,30,,,,,1.28,0.64,1.11,1*01
$GNGSA,A,3,65,72,73,75,,,,,,,,,1.28,0.64,1.11,2*0A
$GNGSA,A,3,04,06,19,21,27,,,,,,,,1.28,0.64,1.11,3*07
$GNGSA,A,3,08,19,20,22,36,37,38,,,,,,1.28,0.64,1.11,4*04
$GNGSA,A,3,,,,,,,,,,,,,1.28,0.64,1.11,5*0D
$GPGSV,3,1,10,04,47,123,25,07,63,265,27,08,,,19,09,80,144,29,1*5A
$GPGSV,3,2,10,11,06,286,12,16,35,053,22,20,25,309,24,26,06,042,17,1*61
$GPGSV,3,3,10,27,,,23,30,29,258,21,1*55
$GPGSV,2,1,06,04,47,123,27,08,,,19,09,80,144,29,26,06,042,16,8*52
$GPGSV,2,2,06,27,,,20,30,29,258,24,8*5D
$GLGSV,1,1,04,65,64,314,20,72,51,147,24,73,07,042,17,75,70,220,24,1*7C
$GAGSV,2,1,05,04,65,298,24,06,38,299,22,19,50,120,19,21,54,075,25,7*79
$GAGSV,2,2,05,27,11,038,17,7*4E
$GAGSV,2,1,05,04,65,298,26,06,38,299,22,19,50,120,23,21,54,075,26,1*77
$GAGSV,2,2,05,27,11,038,17,1*48
$GBGSV,2,1,08,08,10,340,19,19,70,249,40,20,39,163,36,22,27,312,31,1*71
$GBGSV,2,2,08,36,26,229,33,37,40,059,36,38,17,330,31,43,,,18,1*4E
$GBGSV,2,1,06,19,70,249,26,20,39,163,23,22,27,312,22,36,26,229,23,5*72
$GBGSV,2,2,06,37,40,059,24,38,17,330,17,5*75
$GQGSV,1,1,00,1*65
$GQGSV,1,1,00,8*6C
$PQTMGEOFENCESTATUS,1,215459.000,0,0,0,0*2B
$PQTMEPE,2,7.721,7.296,14.015,10.623,17.586*67
$PQTMPL,1,338117000,5.00,1,1,15441,14591,28029,533,508,809,,,*14
$PQTMPVT,1,338118000,20241030,215500.000,,3,24,18,49.17376968,-123.07336085,12.468,-16.816,0.000,-0.001,0.001,0.001,281.46,0.64,1.28*41
$PQTMDOP,1,338118000,2.25,1.28,1.85,1.11,0.64,0.48,0.43*7A
$GNGGA,215500.000,4910.426181,N,12304.401651,W,1,24,0.64,12.468,M,-16.816,M,,*7C
$GNRMC,215500.000,A,4910.426181,N,12304.401651,W,0.002,281.46,301024,,,A,V*23
$GNGLL,4910.426181,N,12304.401651,W,215500.000,A,A*51
$GNVTG,281.46,T,,M,0.002,N,0.003,K,A*2B
$GNGSA,A,3,04,07,09,11,16,20,26,30,,,,,1.28,0.64,1.11,1*01
$GNGSA,A,3,65,72,73,75,,,,,,,,,1.28,0.64,1.11,2*0A
$GNGSA,A,3,04,06,19,21,27,,,,,,,,1.28,0.64,1.11,3*07
$GNGSA,A,3,08,19,20,22,36,37,38,,,,,,1.28,0.64,1.11,4*04
$GNGSA,A,3,,,,,,,,,,,,,1.28,0.64,1.11,5*0D
$GPGSV,3,1,10,04,47,123,26,07,63,265,29,08,,,20,09,80,144,31,1*54
$GPGSV,3,2,10,11,06,286,12,16,35,053,24,20,25,309,25,26,06,042,17,1*66
$GPGSV,3,3,10,27,,,24,30,29,258,24,1*57
$GPGSV,2,1,06,04,47,123,27,08,,,20,09,80,144,29,26,06,042,17,8*59
$GPGSV,2,2,06,27,,,21,30,29,258,25,8*5D
$GLGSV,1,1,04,65,64,314,24,72,51,147,23,73,07,042,17,75,70,220,27,1*7C
$GAGSV,2,1,05,04,65,298,27,06,38,299,23,19,50,120,20,21,54,075,26,7*72
$GAGSV,2,2,05,27,11,038,18,7*41
$GAGSV,2,1,05,04,65,298,25,06,38,299,22,19,50,120,23,21,54,075,28,1*7A
$GAGSV,2,2,05,27,11,038,17,1*48
$GBGSV,2,1,08,08,10,340,19,19,70,249,40,20,39,163,37,22,27,312,33,1*72
$GBGSV,2,2,08,36,26,229,32,37,40,059,36,38,17,330,31,43,,,20,1*44
$GBGSV,2,1,06,19,70,249,27,20,39,163,23,22,27,312,22,36,26,229,22,5*72
$GBGSV,2,2,06,37,40,059,25,38,17,330,17,5*74
$GQGSV,1,1,00,1*65
$GQGSV,1,1,00,8*6C
$PQTMGEOFENCESTATUS,1,215500.000,0,0,0,0*26
$PQTMEPE,2,7.727,7.301,14.029,10.631,17.602*6D
$PQTMPL,1,338118000,5.00,1,1,15453,14602,28058,533,508,809,,,*17
$PQTMPVT,1,338119000,20241030,215501.000,,3,24,18,49.17376973,-123.07336073,12.467,-16.816,0.000,-0.001,0.002,0.001,281.46,0.59,1.10*4B
$PQTMDOP,1,338119000,1.95,1.10,1.61,0.93,0.59,0.46,0.37*7A
$GNGGA,215501.000,4910.426184,N,12304.401644,W,1,24,0.59,12.467,M,-16.816,M,,*7D
$GNRMC,215501.000,A,4910.426184,N,12304.401644,W,0.001,281.46,301024,,,A,V*20
$GNGLL,4910.426184,N,12304.401644,W,215501.000,A,A*51
$GNVTG,281.46,T,,M,0.001,N,0.002,K,A*29
$GNGSA,A,3,04,07,09,11,16,20,26,30,,,,,1.10,0.59,0.93,1*0F
$GNGSA,A,3,65,72,73,75,,,,,,,,,1.10,0.59,0.93,2*04
$GNGSA,A,3,04,06,19,21,27,,,,,,,,1.10,0.59,0.93,3*09
$GNGSA,A,3,08,19,20,22,36,37,38,,,,,,1.10,0.59,0.93,4*0A
$GNGSA,A,3,,,,,,,,,,,,,1.10,0.59,0.93,5*03
$GPGSV,3,1,10,04,47,123,26,07,63,265,28,08,,,20,09,80,144,32,1*56
$GPGSV,3,2,10,11,06,286,12,16,35,053,24,20,25,309,25,26,06,042,17,1*66
$GPGSV,3,3,10,27,,,23,30,29,258,23,1*57
$GPGSV,2,1,06,04,47,123,27,08,,,19,09,80,144,29,26,06,042,18,8*5C
$GPGSV,2,2,06,27,,,20,30,29,258,24,8*5D
$GLGSV,1,1,04,65,64,314,24,72,51,147,22,73,07,042,16,75,70,220,29,1*72
$GAGSV,2,1,05,04,65,298,25,06,38,299,23,19,50,120,20,21,54,075,25,7*73
$GAGSV,2,2,05,27,11,038,17,7*4E
$GAGSV,2,1,05,04,65,298,25,06,38,299,22,19,50,120,22,21,54,075,26,1*75
$GAGSV,2,2,05,27,11,038,17,1*48
$GBGSV,2,1,08,08,10,340,19,19,70,249,41,20,39,163,38,22,27,312,33,1*7C
$GBGSV,2,2,08,36,26,229,34,37,40,059,36,38,17,330,32,43,,,19,1*4B
$GBGSV,2,1,06,19,70,249,26,20,39,163,23,22,27,312,21,36,26,229,23,5*71
$GBGSV,2,2,06,37,40,059,24,38,17,330,17,5*75
$GQGSV,1,1,00,1*65
$GQGSV,1,1,00,8*6C
$PQTMGEOFENCESTATUS,1,215501.000,0,0,0,0*27
$PQTMEPE,2,7.752,7.325,13.200,10.665,16.970*6D
$PQTMPL,1,338119000,5.00,1,1,15504,14649,26399,533,508,809,,,*1A
$PQTMPVT,1,338120000,20241030,215502.000,,3,25,18,49.17376979,-123.07336061,12.466,-16.816,0.000,-0.002,0.001,0.002,281.46,0.58,1.08*40
$PQTMDOP,1,338120000,1.90,1.08,1.56,0.92,0.58,0.46,0.36*79
$GNGGA,215502.000,4910.426187,N,12304.401637,W,1,25,0.58,12.466,M,-16.816,M,,*78
$GNRMC,215502.000,A,4910.426187,N,12304.401637,W,0.004,281.46,301024,,,A,V*21
$GNGLL,4910.426187,N,12304.401637,W,215502.000,A,A*55
$GNVTG,281.46,T,,M,0.004,N,0.007,K,A*29
$GNGSA,A,3,04,07,09,11,16,20,26,27,30,,,,1.08,0.58,0.92,1*03
$GNGSA,A,3,65,72,73,75,,,,,,,,,1.08,0.58,0.92,2*0D
$GNGSA,A,3,04,06,19,21,27,,,,,,,,1.08,0.58,0.92,3*00
$GNGSA,A,3,08,19,20,22,36,37,38,,,,,,1.08,0.58,0.92,4*03
$GNGSA,A,3,,,,,,,,,,,,,1.08,0.58,0.92,5*0A
$GPGSV,3,1,10,04,47,123,29,07,63,265,31,08,,,22,09,80,144,33,1*52
$GPGSV,3,2,10,11,06,286,13,16,35,053,28,20,25,309,28,26,06,042,20,1*62
$GPGSV,3,3,10,27,20,094,26,30,29,258,25,1*6B
$GPGSV,2,1,06,04,47,123,28,08,,,20,09,80,144,30,26,06,042,17,8*5E
$GPGSV,2,2,06,27,20,094,20,30,29,258,25,8*63
$GLGSV,1,1,04,65,64,314,24,72,51,147,23,73,07,042,15,75,70,220,29,1*70
$GAGSV,2,1,05,04,65,298,29,06,38,299,27,19,50,120,22,21,54,075,29,7*75
$GAGSV,2,2,05,27,11,038,19,7*40
$GAGSV,2,1,05,04,65,298,27,06,38,299,22,19,50,120,24,21,54,075,27,1*70
$GAGSV,2,2,05,27,11,038,17,1*48
$GBGSV,2,1,08,08,10,340,20,19,70,249,40,20,39,163,38,22,27,312,32,1*76
$GBGSV,2,2,08,36,26,229,33,37,40,059,36,38,17,330,30,43,,,18,1*4F
$GBGSV,2,1,06,19,70,249,27,20,39,163,25,22,27,312,22,36,26,229,24,5*72
$GBGSV,2,2,06,37,40,059,25,38,17,330,17,5*74
$GQGSV,1,1,00,1*65
$GQGSV,1,1,00,8*6C
$PQTMGEOFENCESTATUS,1,215502.000,0,0,0,0*24
$PQTMEPE,2,7.756,7.328,13.175,10.670,16.953*60
$PQTMPL,1,338120000,5.00,1,1,15511,14655,26349,533,508,809,,,*14
$PQTMPVT,1,338121000,20241030,215503.000,,3,25,18,49.17376983,-123.07336053,12.463,-16.816,0.000,-0.002,0.002,0.002,281.46,0.61,1.14*45
$PQTMDOP,1,338121000,2.08,1.14,1.74,0.96,0.61,0.48,0.38*79
$GNGGA,215503.000,4910.426190,N,12304.401632,W,1,25,0.61,12.463,M,-16.816,M,,*75
$GNRMC,215503.000,A,4910.426190,N,12304.401632,W,0.003,281.46,301024,,,A,V*24
$GNGLL,4910.426190,N,12304.401632,W,215503.000,A,A*57
$GNVTG,281.46,T,,M,0.003,N,0.006,K,A*2F
$GNGSA,A,3,04,07,09,11,16,20,26,27,30,,,,1.14,0.61,0.96,1*00
$GNGSA,A,3,65,72,73,75,,,,,,,,,1.14,0.61,0.96,2*0E
$GNGSA,A,3,04,06,19,21,27,,,,,,,,1.14,0.61,0.96,3*03
$GNGSA,A,3,08,19,20,22,36,37,38,,,,,,1.14,0.61,0.96,4*00
$GNGSA,A,3,,,,,,,,,,,,,1.14,0.61,0.96,5*09
$GPGSV,3,1,10,04,47,123,26,07,63,265,30,08,,,20,09,80,144,32,1*5F
$GPGSV,3,2,10,11,06,286,11,16,35,053,24,20,25,309,28,26,06,042,18,1*67
$GPGSV,3,3,10,27,20,094,24,30,29,258,24,1*68
$GPGSV,2,1,06,04,47,123,27,08,,,20,09,80,144,30,26,06,042,16,8*50
$GPGSV,2,2,06,27,20,094,20,30,29,258,23,8*65
$GLGSV,1,1,04,65,64,314,24,72,51,147,23,73,07,042,16,75,70,220,28,1*72
$GAGSV,2,1,05,04,65,298,27,06,38,299,25,19,50,120,22,21,54,075,28,7*78
$GAGSV,2,2,05,27,11,038,20,7*4A
$GAGSV,2,1,05,04,65,298,25,06,38,299,22,19,50,120,23,21,54,075,27,1*75
$GAGSV,2,2,05,27,11,038,17,1*48
$GBGSV,2,1,08,08,10,340,19,19,70,249,39,20,39,163,36,22,27,312,31,1*7F
$GBGSV,2,2,08,36,26,229,31,37,40,059,35,38,17,330,30,43,,,19,1*4F
$GBGSV,2,1,06,19,70,249,27,20,39,163,24,22,27,312,21,36,26,229,23,5*77
$GBGSV,2,2,06,37,40,059,25,38,17,330,17,5*74
$GQGSV,1,1,00,1*65
$GQGSV,1,1,00,8*6C
$PQTMGEOFENCESTATUS,1,215503.000,0,0,0,0*25
$PQTMEPE,2,7.777,7.347,13.183,10.699,16.979*6C
$PQTMPL,1,338121000,5.00,1,1,15554,14694,26366,533,508,809,,,*14
$PQTMPVT,1,338122000,20241030,215504.000,,3,25,18,49.17376986,-123.07336051,12.462,-16.816,0.000,-0.001,0.001,0.001,281.46,0.61,1.14*44
$PQTMDOP,1,338122000,2.08,1.14,1.74,0.96,0.61,0.48,0.38*7A
$GNGGA,215504.000,4910.426192,N,12304.401631,W,1,25,0.61,12.462,M,-16.816,M,,*72
$GNRMC,215504.000,A,4910.426192,N,12304.401631,W,0.002,281.46,301024,,,A,V*23
$GNGLL,4910.426192,N,12304.401631,W,215504.000,A,A*51
$GNVTG,281.46,T,,M,0.002,N,0.004,K,A*2C
$GNGSA,A,3,04,07,09,11,16,20,26,27,30,,,,1.14,0.61,0.96,1*00
$GNGSA,A,3,65,72,73,75,,,,,,,,,1.14,0.61,0.96,2*0E
$GNGSA,A,3,04,06,19,21,27,,,,,,,,1.14,0.61,0.96,3*03
$GNGSA,A,3,08,19,20,22,36,37,38,,,,,,1.14,0.61,0.96,4*00
$GNGSA,A,3,,,,,,,,,,,,,1.14,0.61,0.96,5*09
$GPGSV,3,1,10,04,47,123,27,07,63,265,30,08,,,20,09,80,144,32,1*5E
$GPGSV,3,2,10,11,06,286,12,16,35,053,26,20,25,309,28,26,06,042,18,1*66
$GPGSV,3,3,10,27,20,094,25,30,29,258,24,1*69
$GPGSV,2,1,06,04,47,123,28,08,,,19,09,80,144,30,26,06,042,16,8*55
$GPGSV,2,2,06,27,20,094,21,30,29,258,25,8*62
$GLGSV,1,1,04,65,64,314,23,72,51,147,24,73,07,042,15,75,70,220,26,1*7F
$GAGSV,2,1,05,04,65,298,27,06,38,299,25,19,50,120,22,21,54,075,29,7*79
$GAGSV,2,2,05,27,11,038,20,7*4A
$GAGSV,2,1,05,04,65,298,26,06,38,299,22,19,50,120,22,21,54,075,26,1*76
$GAGSV,2,2,05,27,11,038,17,1*48
$GBGSV,2,1,08,08,10,340,18,19,70,249,39,20,39,163,36,22,27,312,32,1*7D
$GBGSV,2,2,08,36,26,229,32,37,40,059,35,38,17,330,30,43,,,19,1*4C
$GBGSV,2,1,06,19,70,249,28,20,39,163,24,22,27,312,23,36,26,229,22,5*7B
$GBGSV,2,2,06,37,40,059,25,38,17,330,18,5*7B
$GQGSV,1,1,00,1*65
$GQGSV,1,1,00,8*6C
$PQTMGEOFENCESTATUS,1,215504.000,0,0,0,0*22
$PQTMEPE,2,7.786,7.356,13.203,10.711,17.002*6C
$PQTMPL,1,338122000,5.00,1,1,15572,14711,26405,533,508,809,,,*1D
$PQTMPVT,1,338123000,20241030,215505.000,,3,25,18,49.17376990,-123.07336047,12.461,-16.816,0.000,-0.002,0.000,0.002,281.46,0.62,1.19*48
$PQTMDOP,1,338123000,2.16,1.19,1.81,1.02,0.62,0.48,0.38*7C
$GNGGA,215505.000,4910.426194,N,12304.401628,W,1,25,0.62,12.461,M,-16.816,M,,*7D
$GNRMC,215505.000,A,4910.426194,N,12304.401628,W,0.004,281.46,301024,,,A,V*2A
$GNGLL,4910.426194,N,12304.401628,W,215505.000,A,A*5E
$GNVTG,281.46,T,,M,0.004,N,0.007,K,A*29
$GNGSA,A,3,04,07,09,11,16,20,26,27,30,,,,1.19,0.62,1.02,1*02
$GNGSA,A,3,65,72,73,75,,,,,,,,,1.19,0.62,1.02,2*0C
$GNGSA,A,3,04,06,19,21,27,,,,,,,,1.19,0.62,1.02,3*01
$GNGSA,A,3,08,19,20,22,36,37,38,,,,,,1.19,0.62,1.02,4*02
$GNGSA,A,3,,,,,,,,,,,,,1.19,0.62,1.02,5*0B
$GPGSV,3,1,10,04,47,123,28,07,63,265,28,08,,,21,09,80,144,30,1*5B
$GPGSV,3,2,10,11,06,286,14,16,35,053,24,20,25,309,26,26,06,042,18,1*6C
$GPGSV,3,3,10,27,20,094,23,30,29,258,23,1*68
$GPGSV,2,1,06,04,47,123,27,08,,,20,09,80,144,30,26,06,042,17,8*51
$GPGSV,2,2,06,27,20,094,22,30,29,258,24,8*60
$GLGSV,1,1,04,65,64,314,19,72,51,147,24,73,07,042,14,75,70,220,25,1*74
$GAGSV,2,1,05,04,65,298,26,06,38,299,25,19,50,120,20,21,54,075,27,7*74
$GAGSV,2,2,05,27,11,038,20,7*4A
$GAGSV,2,1,05,04,65,298,26,06,38,299,22,19,50,120,23,21,54,075,26,1*77
$GAGSV,2,2,05,27,11,038,17,1*48
$GBGSV,2,1,08,08,10,340,17,19,70,249,40,20,39,163,36,22,27,312,32,1*7C
$GBGSV,2,2,08,36,26,229,33,37,40,059,36,38,17,330,32,43,,,20,1*46
$GBGSV,2,1,06,19,70,249,26,20,39,163,24,22,27,312,20,36,26,229,23,5*77
$GBGSV,2,2,06,37,40,059,26,38,17,330,17,5*77
$GQGSV,1,1,00,1*65
$GQGSV,1,1,00,8*6C
$PQTMGEOFENCESTATUS,1,215505.000,0,0,0,0*23
$PQTMEPE,2,7.811,7.378,13.727,10.745,17.433*65
$PQTMPL,1,338123000,5.00,1,1,15622,14756,27454,533,508,809,,,*1C
$PQTMPVT,1,338124000,20241030,215506.000,,3,25,18,49.17376996,-123.07336033,12.459,-16.816,0.000,-0.001,0.000,0.001,281.46,0.58,1.09*4A
$PQTMDOP,1,338124000,1.93,1.09,1.60,0.93,0.58,0.45,0.36*78
$GNGGA,215506.000,4910.426198,N,12304.401620,W,1,25,0.58,12.459,M,-16.816,M,,*78
$GNRMC,215506.000,A,4910.426198,N,12304.401620,W,0.003,281.46,301024,,,A,V*2A
$GNGLL,4910.426198,N,12304.401620,W,215506.000,A,A*59
$GNVTG,281.46,T,,M,0.003,N,0.005,K,A*2C
$GNGSA,A,3,04,07,09,11,16,20,26,27,30,,,,1.09,0.58,0.93,1*03
$GNGSA,A,3,65,72,73,75,,,,,,,,,1.09,0.58,0.93,2*0D
$GNGSA,A,3,04,06,19,21,27,,,,,,,,1.09,0.58,0.93,3*00
$GNGSA,A,3,08,19,20,22,36,37,38,,,,,,1.09,0.58,0.93,4*03
$GNGSA,A,3,,,,,,,,,,,,,1.09,0.58,0.93,5*0A
$GPGSV,3,1,10,04,47,123,26,07,63,265,28,08,,,19,09,80,144,32,1*5C
$GPGSV,3,2,10,11,06,286,12,16,35,053,24,20,25,309,27,26,06,042,17,1*64
$GPGSV,3,3,10,27,20,094,23,30,29,258,24,1*6F
$GPGSV,2,1,06,04,47,123,27,08,,,19,09,80,144,30,26,06,042,17,8*5B
$GPGSV,2,2,06,27,20,094,21,30,29,258,24,8*63
$GLGSV,1,1,04,65,64,314,22,72,51,147,25,73,07,042,15,75,70,220,25,1*7C
$GAGSV,2,1,05,04,65,298,27,06,38,299,24,19,50,120,20,21,54,075,28,7*7B
$GAGSV,2,2,05,27,11,038,19,7*40
$GAGSV,2,1,05,04,65,298,25,06,38,299,21,19,50,120,22,21,54,075,28,1*78
$GAGSV,2,2,05,27,11,038,17,1*48
$GBGSV,2,1,08,08,10,340,17,19,70,249,40,20,39,163,37,22,27,312,32,1*7D
$GBGSV,2,2,08,36,26,229,33,37,40,059,36,38,17,330,31,43,,,19,1*4F
$GBGSV,2,1,06,19,70,249,27,20,39,163,22,22,27,312,20,36,26,229,23,5*70
$GBGSV,2,2,06,37,40,059,25,38,17,330,16,5*75
$GQGSV,1,1,00,1*65
$GQGSV,1,1,00,8*6C
