$GNRMC,231101.000,A,4910.427478,N,12304.405482,W,0.01,347.33,080125,,,D,V*1F
$GNGGA,231101.000,4910.427478,N,12304.405482,W,2,47,0.45,26.315,M,-16.816,M,,*7A
$GNVTG,347.33,T,,M,0.01,N,0.02,K,D*25
$GNGSA,A,3,19,17,24,14,06,12,13,15,02,,,,0.78,0.45,0.64,1*01
$GNGSA,A,3,76,85,75,86,67,68,,,,,,,0.78,0.45,0.64,2*01
$GNGSA,A,3,24,31,33,12,05,03,25,10,26,09,,,0.78,0.45,0.64,3*05
$GNGSA,A,3,45,29,26,35,30,36,33,,,,,,0.78,0.45,0.64,4*06
$GPGSV,3,1,12,19,81,150,41,17,56,061,38,24,52,287,38,46,33,188,33,1*68
$GPGSV,3,2,12,14,30,095,34,06,29,152,31,12,21,281,31,13,10,206,26,1*68
$GPGSV,3,3,12,15,10,238,31,02,08,031,26,11,04,177,26,03,01,066,,1*66
$GPGSV,1,1,03,24,52,287,31,14,30,095,23,06,29,152,24,8*56
$GLGSV,3,1,09,76,63,327,29,85,59,062,28,75,46,105,29,86,45,169,24,1*7D
$GLGSV,3,2,09,67,18,314,23,77,18,306,,84,13,026,,66,10,263,,1*7F
$GLGSV,3,3,09,68,07,000,17,1*4E
$GAGSV,3,1,10,24,74,302,36,31,48,087,32,33,40,075,33,12,30,144,26,7*72
$GAGSV,3,2,10,05,28,251,30,03,23,307,26,25,22,280,30,10,16,163,26,7*73
$GAGSV,3,3,10,26,12,030,28,09,06,203,21,7*71
$GAGSV,2,1,07,24,74,302,27,31,48,087,25,33,40,075,23,12,30,144,19,1*78
$GAGSV,2,2,07,05,28,251,19,03,23,307,19,25,22,280,20,1*42
$GBGSV,3,1,10,45,69,133,33,29,66,104,31,26,49,299,30,35,32,197,28,1*7C
$GBGSV,3,2,10,30,22,047,26,36,19,125,25,33,06,327,20,14,06,302,17,1*78
$GBGSV,3,3,10,42,03,278,,24,02,303,,1*7B
$GBGSV,2,1,05,45,69,133,29,29,66,104,27,26,49,299,25,35,32,197,20,5*7D
$GBGSV,2,2,05,30,22,047,18,5*4E
$GNGLL,4910.427478,N,12304.405482,W,231101.000,A,D*5D
$GNRMC,231102.000,A,4910.427502,N,12304.405374,W,0.02,347.33,080125,,,D,V*1D
$GNGGA,231102.000,4910.427502,N,12304.405374,W,2,47,0.45,26.263,M,-16.816,M,,*7B
$GNVTG,347.33,T,,M,0.02,N,0.03,K,D*27
$GNGSA,A,3,19,17,24,14,06,12,13,15,02,,,,0.78,0.45,0.64,1*01
$GNGSA,A,3,76,85,75,86,67,68,,,,,,,0.78,0.45,0.64,2*01
$GNGSA,A,3,24,31,33,12,05,03,25,10,26,09,,,0.78,0.45,0.64,3*05
$GNGSA,A,3,45,29,26,35,30,36,33,,,,,,0.78,0.45,0.64,4*06
$GPGSV,3,1,12,19,81,150,41,17,56,061,38,24,52,287,38,46,33,188,33,1*68
$GPGSV,3,2,12,14,30,095,35,06,29,152,31,12,21,281,31,13,10,206,26,1*69
$GPGSV,3,3,12,15,10,238,31,02,08,031,26,11,04,177,26,03,01,066,,1*66
$GPGSV,1,1,03,24,52,287,31,14,30,095,23,06,29,152,24,8*56
$GLGSV,2,1,08,76,63,327,29,85,59,062,28,75,46,105,29,86,45,169,23,1*7A
$GLGSV,2,2,08,67,18,314,23,77,18,306,,84,13,026,,68,07,000,17,1*76
$GAGSV,3,1,10,24,74,302,36,31,48,087,32,33,40,075,33,12,30,144,26,7*72
$GAGSV,3,2,10,05,28,251,30,03,23,307,26,25,22,280,30,10,16,163,26,7*73
$GAGSV,3,3,10,26,12,030,28,09,06,203,21,7*71
$GAGSV,2,1,08,24,74,302,27,31,48,087,25,33,40,075,23,12,30,144,19,1*77
$GAGSV,2,2,08,05,28,251,19,03,23,307,19,25,22,280,20,26,12,030,14,1*7C
$GBGSV,3,1,11,45,69,133,33,29,66,104,31,26,49,299,30,35,32,197,28,1*7D
$GBGSV,3,2,11,30,22,047,26,36,19,125,25,57,09,043,,14,06,302,17,1*77
$GBGSV,3,3,11,33,06,327,20,42,03,278,,24,02,303,,1*48
$GBGSV,2,1,05,45,69,133,29,29,66,104,27,26,49,299,25,35,32,197,20,5*7D
$GBGSV,2,2,05,30,22,047,18,5*4E
$GNGLL,4910.427502,N,12304.405374,W,231102.000,A,D*5C
$GNRMC,231103.000,A,4910.427514,N,12304.405290,W,0.01,347.33,080125,,,D,V*13
$GNGGA,231103.000,4910.427514,N,12304.405290,W,2,47,0.45,26.180,M,-16.816,M,,*78
$GNVTG,347.33,T,,M,0.01,N,0.03,K,D*24
$GNGSA,A,3,19,17,24,14,06,12,13,15,02,,,,0.78,0.45,0.64,1*01
$GNGSA,A,3,76,85,75,86,67,68,,,,,,,0.78,0.45,0.64,2*01
$GNGSA,A,3,24,31,33,12,05,03,25,10,26,09,,,0.78,0.45,0.64,3*05
$GNGSA,A,3,45,29,26,35,30,36,33,,,,,,0.78,0.45,0.64,4*06
$GPGSV,3,1,12,19,81,150,41,17,56,061,38,24,52,287,38,46,33,188,33,1*68
$GPGSV,3,2,12,14,30,095,35,06,29,152,31,12,21,281,31,13,10,206,26,1*69
$GPGSV,3,3,12,15,10,238,31,02,08,031,25,11,04,177,26,03,01,066,,1*65
$GPGSV,1,1,03,24,52,287,31,14,30,095,23,06,29,152,24,8*56
$GLGSV,3,1,09,76,63,327,29,85,59,062,28,75,46,105,29,86,45,169,23,1*7A
$GLGSV,3,2,09,67,18,314,24,77,18,306,,84,13,026,,68,07,000,17,1*71
$GLGSV,3,3,09,87,04,191,,1*43
$GAGSV,3,1,10,24,74,302,36,31,48,087,32,33,40,075,33,12,30,144,26,7*72
$GAGSV,3,2,10,05,28,251,30,03,23,307,26,25,22,280,30,10,16,163,26,7*73
$GAGSV,3,3,10,26,12,030,28,09,06,203,21,7*71
$GAGSV,2,1,08,24,74,302,27,31,48,087,25,33,40,075,23,12,30,144,19,1*77
$GAGSV,2,2,08,05,28,251,19,03,23,307,19,25,22,280,20,26,12,030,13,1*7B
$GBGSV,3,1,11,45,69,133,33,29,66,104,31,26,49,299,30,35,32,197,28,1*7D
$GBGSV,3,2,11,30,22,047,26,36,19,125,24,57,09,043,,33,06,327,20,1*70
$GBGSV,3,3,11,14,06,302,17,42,03,278,,24,02,303,,1*4E
$GBGSV,2,1,05,45,69,133,29,29,66,104,27,26,49,299,25,35,32,197,20,5*7D
$GBGSV,2,2,05,30,22,047,18,5*4E
$GNGLL,4910.427514,N,12304.405290,W,231103.000,A,D*51
$GNRMC,231104.000,A,4910.427550,N,12304.405260,W,0.02,347.33,080125,,,D,V*18
$GNGGA,231104.000,4910.427550,N,12304.405260,W,2,49,0.45,26.101,M,-16.817,M,,*76
$GNVTG,347.33,T,,M,0.02,N,0.03,K,D*27
$GNGSA,A,3,19,17,24,14,06,12,15,13,02,,,,0.78,0.45,0.64,1*01
$GNGSA,A,3,76,85,75,86,67,68,,,,,,,0.78,0.45,0.64,2*01
$GNGSA,A,3,24,31,33,12,05,03,25,10,26,09,,,0.78,0.45,0.64,3*05
$GNGSA,A,3,45,29,26,35,30,36,33,,,,,,0.78,0.45,0.64,4*06
$GPGSV,3,1,12,19,81,150,41,17,56,061,38,24,52,287,38,46,33,188,33,1*68
$GPGSV,3,2,12,14,30,095,35,06,29,152,31,12,21,281,31,15,10,238,31,1*64
$GPGSV,3,3,12,13,10,206,26,02,08,031,25,11,04,177,26,03,01,066,,1*68
$GPGSV,1,1,03,24,52,287,31,14,30,095,23,06,29,152,24,8*56
$GLGSV,2,1,08,76,63,327,29,85,59,062,28,75,46,105,29,86,45,169,24,1*7D
$GLGSV,2,2,08,77,18,306,,67,18,314,24,68,07,000,17,87,04,191,,1*79
$GAGSV,3,1,10,24,74,302,36,31,48,087,32,33,40,075,33,12,30,144,26,7*72
$GAGSV,3,2,10,05,28,251,30,03,23,307,26,25,22,280,30,10,16,163,27,7*72
$GAGSV,3,3,10,26,12,030,28,09,06,203,21,7*71
$GAGSV,3,1,09,24,74,302,27,31,48,087,25,33,40,075,23,12,30,144,19,1*77
$GAGSV,3,2,09,05,28,251,20,03,23,307,19,25,22,280,20,26,12,030,12,1*70
$GAGSV,3,3,09,09,06,203,17,1*44
$GBGSV,3,1,11,45,69,133,33,29,66,104,31,26,49,299,30,35,32,197,28,1*7D
$GBGSV,3,2,11,30,22,047,26,36,19,125,26,57,09,043,,33,06,327,19,1*78
$GBGSV,3,3,11,14,06,302,17,42,03,278,,24,02,303,,1*4E
$GBGSV,2,1,06,45,69,133,29,29,66,104,27,26,49,299,25,35,32,197,20,5*7E
$GBGSV,2,2,06,30,22,047,18,33,06,327,16,5*7A
$GNGLL,4910.427550,N,12304.405260,W,231104.000,A,D*59
$GNRMC,231105.000,A,4910.427592,N,12304.405164,W,0.02,347.33,080125,,,D,V*10
$GNGGA,231105.000,4910.427592,N,12304.405164,W,2,49,0.45,26.024,M,-16.816,M,,*79
$GNVTG,347.33,T,,M,0.02,N,0.03,K,D*27
$GNGSA,A,3,19,17,24,14,06,12,13,15,02,,,,0.78,0.45,0.64,1*01
$GNGSA,A,3,76,85,75,86,67,68,,,,,,,0.78,0.45,0.64,2*01
$GNGSA,A,3,24,31,33,12,05,03,25,10,26,09,,,0.78,0.45,0.64,3*05
$GNGSA,A,3,45,29,26,35,30,36,33,,,,,,0.78,0.45,0.64,4*06
$GPGSV,3,1,12,19,81,150,41,17,56,061,38,24,52,287,38,46,33,188,33,1*68
$GPGSV,3,2,12,14,30,095,35,06,29,152,31,12,21,281,31,13,10,206,27,1*68
$GPGSV,3,3,12,15,10,238,31,02,08,031,25,11,04,177,26,03,01,066,,1*65
$GPGSV,1,1,03,24,52,287,31,14,30,095,23,06,29,152,24,8*56
$GLGSV,2,1,07,76,63,327,29,85,59,062,28,75,46,105,29,86,45,169,24,1*72
$GLGSV,2,2,07,77,18,306,,67,18,314,25,68,07,000,17,1*45
$GAGSV,3,1,10,24,74,302,36,31,48,087,33,33,40,075,33,12,30,144,27,7*72
$GAGSV,3,2,10,05,28,251,30,03,23,307,26,25,22,280,30,10,16,163,27,7*72
$GAGSV,3,3,10,26,12,030,28,09,06,203,21,7*71
$GAGSV,3,1,09,24,74,302,27,31,48,087,25,33,40,075,23,12,30,144,20,1*7D
$GAGSV,3,2,09,05,28,251,20,03,23,307,19,25,22,280,20,26,12,030,13,1*71
$GAGSV,3,3,09,09,06,203,17,1*44
$GBGSV,3,1,11,45,69,133,33,29,66,104,31,26,49,299,30,35,32,197,28,1*7D
$GBGSV,3,2,11,30,22,047,26,36,19,125,25,57,09,043,,33,06,327,19,1*7B
$GBGSV,3,3,11,14,06,302,17,42,03,278,,24,02,303,,1*4E
$GBGSV,2,1,06,45,69,133,29,29,66,104,27,26,49,299,25,35,32,197,20,5*7E
$GBGSV,2,2,06,30,22,047,18,33,06,327,17,5*7B
$GNGLL,4910.427592,N,12304.405164,W,231105.000,A,D*51
$GNRMC,231106.000,A,4910.427592,N,12304.405086,W,0.02,347.33,080125,,,D,V*1E
$GNGGA,231106.000,4910.427592,N,12304.405086,W,2,49,0.45,25.891,M,-16.816,M,,*72
$GNVTG,347.33,T,,M,0.02,N,0.03,K,D*27
$GNGSA,A,3,19,17,24,14,06,12,13,15,02,,,,0.78,0.45,0.64,1*01
$GNGSA,A,3,76,85,75,86,67,68,,,,,,,0.78,0.45,0.64,2*01
$GNGSA,A,3,24,31,33,12,05,03,25,10,26,09,,,0.78,0.45,0.64,3*05
$GNGSA,A,3,45,29,26,35,30,36,33,,,,,,0.78,0.45,0.64,4*06
$GPGSV,3,1,12,19,81,150,41,17,56,061,38,24,52,287,38,46,33,188,33,1*68
$GPGSV,3,2,12,14,30,095,35,06,29,152,31,12,21,281,31,13,10,206,27,1*68
$GPGSV,3,3,12,15,10,238,31,02,08,031,25,11,04,177,26,03,01,066,,1*65
$GPGSV,1,1,03,24,52,287,31,14,30,095,22,06,29,152,24,8*57
$GLGSV,3,1,09,76,63,327,29,85,59,062,28,75,46,105,30,86,45,169,24,1*75
$GLGSV,3,2,09,67,18,314,24,77,18,306,,84,13,026,,66,10,263,,1*78
$GLGSV,3,3,09,68,07,000,17,1*4E
$GAGSV,3,1,10,24,74,302,36,31,48,087,33,33,40,075,33,12,30,144,27,7*72
$GAGSV,3,2,10,05,28,251,30,03,23,307,26,25,22,280,30,10,16,163,27,7*72
$GAGSV,3,3,10,26,12,030,28,09,06,203,21,7*71
$GAGSV,3,1,09,24,74,302,27,31,48,087,25,33,40,075,23,12,30,144,20,1*7D
$GAGSV,3,2,09,05,28,251,20,03,23,307,20,25,22,280,20,26,12,030,13,1*7B
$GAGSV,3,3,09,09,06,203,18,1*4B
$GBGSV,3,1,11,45,69,133,33,29,66,104,31,26,49,299,30,35,32,197,28,1*7D
$GBGSV,3,2,11,30,22,047,26,36,19,125,24,57,09,043,,33,06,327,19,1*7A
$GBGSV,3,3,11,14,06,302,16,42,03,278,,24,02,303,,1*4F
$GBGSV,2,1,06,45,69,133,29,29,66,104,27,26,49,299,25,35,32,197,20,5*7E
$GBGSV,2,2,06,30,22,047,18,33,06,327,17,5*7B
$GNGLL,4910.427592,N,12304.405086,W,231106.000,A,D*5F
$GNRMC,231107.000,A,4910.427568,N,12304.405044,W,0.01,347.33,080125,,,D,V*17
$GNGGA,231107.000,4910.427568,N,12304.405044,W,2,49,0.45,25.710,M,-16.816,M,,*7E
$GNVTG,347.33,T,,M,0.01,N,0.03,K,D*24
$GNGSA,A,3,19,17,24,14,06,12,13,15,02,,,,0.78,0.45,0.64,1*01
$GNGSA,A,3,76,85,75,86,67,68,,,,,,,0.78,0.45,0.64,2*01
$GNGSA,A,3,24,31,33,12,05,03,25,10,26,09,,,0.78,0.45,0.64,3*05
$GNGSA,A,3,45,29,26,35,30,36,33,,,,,,0.78,0.45,0.64,4*06
$GPGSV,3,1,12,19,81,150,41,17,56,061,38,24,52,287,38,46,33,188,34,1*6F
$GPGSV,3,2,12,14,30,095,35,06,29,152,31,12,21,281,31,13,10,206,27,1*68
$GPGSV,3,3,12,15,10,238,31,02,08,031,25,11,04,177,26,03,01,066,,1*65
$GPGSV,1,1,03,24,52,287,31,14,30,095,22,06,29,152,24,8*57
$GLGSV,2,1,08,76,63,327,28,85,59,062,28,75,46,105,30,86,45,169,24,1*74
$GLGSV,2,2,08,67,18,314,24,77,18,306,,84,13,026,,68,07,000,17,1*71
$GAGSV,3,1,10,24,74,302,36,31,48,087,33,33,40,075,33,12,30,144,27,7*72
$GAGSV,3,2,10,05,28,251,30,03,23,307,27,25,22,280,30,10,16,163,27,7*73
$GAGSV,3,3,10,26,12,030,28,09,06,203,22,7*72
$GAGSV,3,1,09,24,74,302,27,31,48,087,25,33,40,075,23,12,30,144,21,1*7C
$GAGSV,3,2,09,05,28,251,20,03,23,307,20,25,22,280,20,26,12,030,16,1*7E
$GAGSV,3,3,09,09,06,203,18,1*4B
$GBGSV,3,1,11,45,69,133,33,29,66,104,31,26,49,299,30,35,32,197,28,1*7D
$GBGSV,3,2,11,30,22,047,26,36,19,125,25,57,09,043,,14,06,302,16,1*76
$GBGSV,3,3,11,33,06,327,19,42,03,278,,24,02,303,,1*42
$GBGSV,2,1,06,45,69,133,29,29,66,104,27,26,49,299,25,35,32,197,20,5*7E
$GBGSV,2,2,06,30,22,047,18,33,06,327,16,5*7A
$GNGLL,4910.427568,N,12304.405044,W,231107.000,A,D*55
$GNRMC,231108.000,A,4910.427592,N,12304.404942,W,0.01,347.33,080125,,,D,V*13
$GNGGA,231108.000,4910.427592,N,12304.404942,W,2,50,0.45,25.518,M,-16.816,M,,*78
$GNVTG,347.33,T,,M,0.01,N,0.02,K,D*25
$GNGSA,A,3,19,17,24,14,06,12,13,15,02,,,,0.78,0.45,0.64,1*01
$GNGSA,A,3,76,85,75,86,67,68,,,,,,,0.78,0.45,0.64,2*01
$GNGSA,A,3,24,31,33,12,05,03,25,10,26,09,,,0.78,0.45,0.64,3*05
$GNGSA,A,3,45,29,26,35,30,36,33,,,,,,0.78,0.45,0.64,4*06
$GPGSV,3,1,12,19,81,150,41,17,56,061,39,24,52,287,38,46,33,188,35,1*6F
$GPGSV,3,2,12,14,30,095,36,06,29,152,32,12,21,281,32,13,10,206,27,1*6B
$GPGSV,3,3,12,15,10,238,31,02,08,031,25,11,04,177,26,03,01,066,,1*65
$GPGSV,1,1,03,24,52,287,31,14,30,095,22,06,29,152,24,8*57
$GLGSV,2,1,07,76,63,327,29,85,59,062,29,75,46,105,30,86,45,169,24,1*7B
$GLGSV,2,2,07,77,18,306,,67,18,314,25,68,07,000,17,1*45
$GAGSV,3,1,10,24,74,302,37,31,48,087,33,33,40,075,34,12,30,144,28,7*7B
$GAGSV,3,2,10,05,28,251,31,03,23,307,27,25,22,280,30,10,16,163,27,7*72
$GAGSV,3,3,10,26,12,030,29,09,06,203,22,7*73
$GAGSV,3,1,09,24,74,302,27,31,48,087,25,33,40,075,24,12,30,144,21,1*7B
$GAGSV,3,2,09,05,28,251,20,03,23,307,20,25,22,280,19,26,12,030,15,1*77
$GAGSV,3,3,09,09,06,203,18,1*4B
$GBGSV,3,1,11,45,69,133,33,29,66,104,31,26,49,299,30,35,32,197,28,1*7D
$GBGSV,3,2,11,30,22,047,26,36,19,125,25,57,09,043,,33,06,327,19,1*7B
$GBGSV,3,3,11,14,06,302,16,42,03,278,,24,02,303,,1*4F
$GBGSV,2,1,06,45,69,133,29,29,66,104,27,26,49,299,25,35,32,197,20,5*7E
$GBGSV,2,2,06,30,22,047,18,33,06,327,16,5*7A
$GNGLL,4910.427592,N,12304.404942,W,231108.000,A,D*51
$GNRMC,231109.000,A,4910.427568,N,12304.404828,W,0.01,347.33,080125,,,D,V*1A
$GNGGA,231109.000,4910.427568,N,12304.404828,W,2,50,0.45,25.345,M,-16.816,M,,*7F
$GNVTG,347.33,T,,M,0.01,N,0.02,K,D*25
$GNGSA,A,3,19,17,24,14,06,12,13,15,02,,,,0.78,0.45,0.64,1*01
$GNGSA,A,3,76,85,75,86,67,68,,,,,,,0.78,0.45,0.64,2*01
$GNGSA,A,3,24,31,33,12,05,03,25,10,26,09,,,0.78,0.45,0.64,3*05
$GNGSA,A,3,45,29,26,35,30,36,33,,,,,,0.78,0.45,0.64,4*06
$GPGSV,3,1,12,19,81,150,41,17,56,061,39,24,52,287,38,46,33,188,34,1*6E
$GPGSV,3,2,12,14,30,095,36,06,29,152,32,12,21,281,32,13,10,206,27,1*6B
$GPGSV,3,3,12,15,10,238,31,02,08,031,25,11,04,177,26,03,01,066,,1*65
$GPGSV,1,1,03,24,52,287,31,14,30,095,22,06,29,152,24,8*57
$GLGSV,2,1,08,76,63,327,29,85,59,062,29,75,46,105,30,86,45,169,24,1*74
$GLGSV,2,2,08,77,18,306,,67,18,314,24,68,07,000,17,87,04,191,,1*79
$GAGSV,3,1,10,24,74,302,37,31,48,087,33,33,40,075,34,12,30,144,28,7*7B
$GAGSV,3,2,10,05,28,251,31,03,23,307,27,25,22,280,30,10,16,163,27,7*72
$GAGSV,3,3,10,26,12,030,29,09,06,203,22,7*73
$GAGSV,3,1,09,24,74,302,27,31,48,087,25,33,40,075,24,12,30,144,20,1*7A
$GAGSV,3,2,09,05,28,251,20,03,23,307,20,25,22,280,19,26,12,030,14,1*76
$GAGSV,3,3,09,09,06,203,18,1*4B
$GBGSV,3,1,10,45,69,133,33,29,66,104,31,26,49,299,30,35,32,197,27,1*73
$GBGSV,3,2,10,30,22,047,26,36,19,125,25,33,06,327,19,14,06,302,16,1*73
$GBGSV,3,3,10,42,03,278,,24,02,303,,1*7B
$GBGSV,2,1,06,45,69,133,29,29,66,104,27,26,49,299,25,35,32,197,20,5*7E
$GBGSV,2,2,06,30,22,047,18,33,06,327,16,5*7A
$GNGLL,4910.427568,N,12304.404828,W,231109.000,A,D*58
$GNRMC,231110.000,A,4910.427586,N,12304.404714,W,0.01,347.33,080125,,,D,V*12
$GNGGA,231110.000,4910.427586,N,12304.404714,W,2,50,0.45,25.251,M,-16.816,M,,*73
$GNVTG,347.33,T,,M,0.01,N,0.02,K,D*25
$GNGSA,A,3,19,17,24,14,06,12,13,15,02,,,,0.78,0.45,0.64,1*01
$GNGSA,A,3,76,85,75,86,67,68,,,,,,,0.78,0.45,0.64,2*01
$GNGSA,A,3,24,31,33,12,05,03,25,10,26,09,,,0.78,0.45,0.64,3*05
$GNGSA,A,3,45,29,26,35,30,36,33,,,,,,0.78,0.45,0.64,4*06
$GPGSV,3,1,12,19,81,150,41,17,56,061,39,24,52,287,38,46,33,188,34,1*6E
$GPGSV,3,2,12,14,30,095,36,06,29,152,32,12,21,281,32,13,10,206,27,1*6B
$GPGSV,3,3,12,15,10,238,31,02,08,031,25,11,04,177,26,03,01,066,,1*65
$GPGSV,1,1,03,24,52,287,31,14,30,095,22,06,29,152,24,8*57
$GLGSV,2,1,08,76,63,327,29,85,59,062,29,75,46,105,30,86,45,169,24,1*74
$GLGSV,2,2,08,77,18,306,,67,18,314,25,68,07,000,17,87,04,191,,1*78
$GAGSV,3,1,10,24,74,302,37,31,48,087,33,33,40,075,34,12,30,144,28,7*7B
$GAGSV,3,2,10,05,28,251,31,03,23,307,27,25,22,280,30,10,16,163,28,7*7D
$GAGSV,3,3,10,26,12,030,29,09,06,203,22,7*73
$GAGSV,3,1,09,24,74,302,27,31,48,087,25,33,40,075,24,12,30,144,20,1*7A
$GAGSV,3,2,09,05,28,251,20,03,23,307,20,25,22,280,19,26,12,030,13,1*71
$GAGSV,3,3,09,09,06,203,18,1*4B
$GBGSV,3,1,10,45,69,133,33,29,66,104,31,26,49,299,30,35,32,197,27,1*73
$GBGSV,3,2,10,30,22,047,26,36,19,125,25,33,06,327,19,14,06,302,16,1*73
$GBGSV,3,3,10,42,03,278,,24,02,303,,1*7B
$GBGSV,2,1,06,45,69,133,29,29,66,104,27,26,49,299,25,35,32,197,20,5*7E
$GBGSV,2,2,06,30,22,047,17,33,06,327,16,5*75
$GNGLL,4910.427586,N,12304.404714,W,231110.000,A,D*50
$GNRMC,231111.000,A,4910.427622,N,12304.404576,W,0.02,347.33,080125,,,D,V*1B
$GNGGA,231111.000,4910.427622,N,12304.404576,W,2,49,0.45,25.170,M,-16.817,M,,*70
$GNVTG,347.33,T,,M,0.02,N,0.03,K,D*27
$GNGSA,A,3,19,17,24,14,06,12,13,15,02,,,,0.78,0.45,0.64,1*01
$GNGSA,A,3,76,85,75,86,67,68,,,,,,,0.78,0.45,0.64,2*01
$GNGSA,A,3,24,31,33,12,05,03,25,10,26,09,,,0.78,0.45,0.64,3*05
$GNGSA,A,3,45,29,26,35,30,36,33,,,,,,0.78,0.45,0.64,4*06
$GPGSV,3,1,12,19,81,150,41,17,56,061,39,24,52,287,38,46,33,188,34,1*6E
$GPGSV,3,2,12,14,30,095,36,06,29,152,32,12,21,281,32,13,10,206,27,1*6B
$GPGSV,3,3,12,15,10,238,31,02,08,031,25,11,04,177,26,03,01,066,,1*65
$GPGSV,1,1,03,24,52,287,31,14,30,095,22,06,29,152,24,8*57
$GLGSV,2,1,07,76,63,327,29,85,59,062,29,75,46,105,30,86,45,169,24,1*7B
$GLGSV,2,2,07,67,18,314,25,68,07,000,17,87,04,191,,1*4B
$GAGSV,3,1,10,24,74,302,37,31,48,087,33,33,40,075,34,12,30,144,28,7*7B
$GAGSV,3,2,10,05,28,251,31,03,23,307,27,25,22,280,30,10,16,163,28,7*7D
$GAGSV,3,3,10,26,12,030,29,09,06,203,22,7*73
$GAGSV,2,1,08,24,74,302,27,31,48,087,25,33,40,075,24,12,30,144,20,1*7A
$GAGSV,2,2,08,05,28,251,19,03,23,307,20,25,22,280,19,09,06,203,17,1*75
$GBGSV,3,1,09,45,69,133,33,29,66,104,31,26,49,299,30,35,32,197,27,1*7B
$GBGSV,3,2,09,30,22,047,26,36,19,125,25,33,06,327,19,14,06,302,16,1*7B
$GBGSV,3,3,09,42,03,278,,1*47
$GBGSV,2,1,06,45,69,133,29,29,66,104,27,26,49,299,25,35,32,197,20,5*7E
$GBGSV,2,2,06,30,22,047,17,33,06,327,16,5*75
$GNGLL,4910.427622,N,12304.404576,W,231111.000,A,D*5A
$GNRMC,231112.000,A,4910.427664,N,12304.404438,W,0.02,347.33,080125,,,D,V*11
$GNGGA,231112.000,4910.427664,N,12304.404438,W,2,49,0.45,24.984,M,-16.817,M,,*78
$GNVTG,347.33,T,,M,0.02,N,0.03,K,D*27
$GNGSA,A,3,19,17,24,14,06,12,13,15,02,,,,0.78,0.45,0.64,1*01
$GNGSA,A,3,76,85,75,86,67,68,,,,,,,0.78,0.45,0.64,2*01
$GNGSA,A,3,24,31,33,12,05,03,25,10,26,09,,,0.78,0.45,0.64,3*05
$GNGSA,A,3,45,29,26,35,30,36,33,,,,,,0.78,0.45,0.64,4*06
$GPGSV,3,1,12,19,81,150,41,17,56,061,39,24,52,287,38,46,33,188,34,1*6E
$GPGSV,3,2,12,14,30,095,36,06,29,152,32,12,21,281,32,13,10,206,27,1*6B
$GPGSV,3,3,12,15,10,238,31,02,08,031,25,11,04,177,27,03,01,066,,1*64
$GPGSV,1,1,03,24,52,287,31,14,30,095,22,06,29,152,24,8*57
$GLGSV,2,1,08,76,63,327,29,85,59,062,29,75,46,105,30,86,45,169,24,1*74
$GLGSV,2,2,08,77,18,306,,67,18,314,25,68,07,000,17,87,04,191,,1*78
$GAGSV,3,1,10,24,74,302,37,31,48,087,33,33,40,075,34,12,30,144,28,7*7B
$GAGSV,3,2,10,05,28,251,31,03,23,307,28,25,22,280,30,10,16,163,28,7*72
$GAGSV,3,3,10,26,12,030,29,09,06,203,22,7*73
$GAGSV,3,1,09,24,74,302,27,31,48,087,26,33,40,075,24,12,30,144,20,1*79
$GAGSV,3,2,09,05,28,251,19,03,23,307,20,25,22,280,19,26,12,030,16,1*7E
$GAGSV,3,3,09,09,06,203,17,1*44
$GBGSV,3,1,09,45,69,133,33,29,66,104,31,26,49,299,30,35,32,197,27,1*7B
$GBGSV,3,2,09,30,22,047,26,36,19,125,25,33,06,327,19,14,06,302,16,1*7B
$GBGSV,3,3,09,42,03,278,,1*47
$GBGSV,2,1,06,45,69,133,29,29,66,104,27,26,49,299,25,35,32,197,20,5*7E
$GBGSV,2,2,06,30,22,047,17,33,06,327,17,5*74
$GNGLL,4910.427664,N,12304.404438,W,231112.000,A,D*50
$GNRMC,231113.000,A,4910.427694,N,12304.404396,W,0.01,347.33,080125,,,D,V*1F
$GNGGA,231113.000,4910.427694,N,12304.404396,W,2,50,0.45,24.892,M,-16.816,M,,*7A
$GNVTG,347.33,T,,M,0.01,N,0.03,K,D*24
$GNGSA,A,3,19,17,24,14,06,12,13,15,02,,,,0.78,0.45,0.64,1*01
$GNGSA,A,3,76,85,75,86,67,68,,,,,,,0.78,0.45,0.64,2*01
$GNGSA,A,3,24,31,33,12,05,03,25,10,26,09,,,0.78,0.45,0.64,3*05
$GNGSA,A,3,45,29,26,35,30,36,33,,,,,,0.78,0.45,0.64,4*06
$GPGSV,3,1,12,19,81,150,41,17,56,061,39,24,52,287,38,46,33,188,35,1*6F
$GPGSV,3,2,12,14,30,095,36,06,29,152,32,12,21,281,32,13,10,206,27,1*6B
$GPGSV,3,3,12,15,10,238,31,02,08,031,25,11,04,177,27,03,01,066,,1*64
$GPGSV,1,1,03,24,52,287,31,14,30,095,22,06,29,152,24,8*57
$GLGSV,3,1,09,76,63,327,29,85,59,062,29,75,46,105,30,86,45,169,24,1*74
$GLGSV,3,2,09,67,18,314,25,77,18,306,,84,13,026,,68,07,000,16,1*71
$GLGSV,3,3,09,87,04,191,,1*43
$GAGSV,3,1,10,24,74,302,37,31,48,087,33,33,40,075,34,12,30,144,28,7*7B
$GAGSV,3,2,10,05,28,251,31,03,23,307,28,25,22,280,30,10,16,163,28,7*72
$GAGSV,3,3,10,26,12,030,29,09,06,203,22,7*73
$GAGSV,3,1,09,24,74,302,27,31,48,087,26,33,40,075,24,12,30,144,20,1*79
$GAGSV,3,2,09,05,28,251,19,03,23,307,20,25,22,280,19,26,12,030,14,1*7C
$GAGSV,3,3,09,09,06,203,17,1*44
$GBGSV,3,1,11,45,69,133,33,29,66,104,31,26,51,299,30,35,32,197,27,1*7B
$GBGSV,3,2,11,30,22,047,25,36,19,125,25,57,09,043,,33,06,327,19,1*78
$GBGSV,3,3,11,14,06,302,16,42,03,278,,24,02,303,,1*4F
$GBGSV,2,1,06,45,69,133,29,29,66,104,28,26,51,299,25,35,32,197,20,5*78
$GBGSV,2,2,06,30,22,047,17,33,06,327,17,5*74
$GNGLL,4910.427694,N,12304.404396,W,231113.000,A,D*5D
$GNRMC,231114.000,A,4910.427712,N,12304.404366,W,0.01,347.33,080125,,,D,V*18
$GNGGA,231114.000,4910.427712,N,12304.404366,W,2,50,0.45,24.839,M,-16.816,M,,*7C
$GNVTG,347.33,T,,M,0.01,N,0.02,K,D*25
$GNGSA,A,3,19,17,24,14,06,12,13,15,02,,,,0.78,0.45,0.64,1*01
$GNGSA,A,3,76,85,75,86,67,68,,,,,,,0.78,0.45,0.64,2*01
$GNGSA,A,3,24,31,33,12,05,03,25,10,26,09,,,0.78,0.45,0.64,3*05
$GNGSA,A,3,45,29,26,35,30,36,33,,,,,,0.78,0.45,0.64,4*06
$GPGSV,3,1,12,19,81,150,41,17,56,061,39,24,52,287,38,46,33,188,35,1*6F
$GPGSV,3,2,12,14,30,095,36,06,29,152,32,12,21,281,32,13,10,206,27,1*6B
$GPGSV,3,3,12,15,10,238,31,02,08,031,25,11,04,177,27,03,01,066,,1*64
$GPGSV,1,1,03,24,52,287,31,14,30,095,22,06,29,152,24,8*57
$GLGSV,3,1,09,76,63,327,29,85,59,062,29,75,46,105,30,86,45,169,24,1*74
$GLGSV,3,2,09,67,18,314,25,77,18,306,,84,13,026,,68,07,000,16,1*71
$GLGSV,3,3,09,87,04,191,,1*43
$GAGSV,3,1,10,24,74,302,37,31,48,087,33,33,40,075,34,12,30,144,28,7*7B
$GAGSV,3,2,10,05,28,251,31,03,23,307,28,25,22,280,30,10,16,163,28,7*72
$GAGSV,3,3,10,26,12,030,29,09,06,203,22,7*73
$GAGSV,3,1,09,24,74,302,27,31,48,087,26,33,40,075,24,12,30,144,20,1*79
$GAGSV,3,2,09,05,28,251,19,03,23,307,20,25,22,280,19,26,12,030,12,1*7A
$GAGSV,3,3,09,09,06,203,17,1*44
$GBGSV,3,1,10,45,69,133,33,29,66,104,31,26,51,299,30,35,32,197,27,1*7A
$GBGSV,3,2,10,30,22,047,27,36,19,125,25,33,06,327,20,14,06,302,16,1*78
$GBGSV,3,3,10,42,03,278,,24,02,303,,1*7B
$GBGSV,2,1,06,45,69,133,29,29,66,104,28,26,51,299,24,35,32,197,20,5*79
$GBGSV,2,2,06,30,22,047,17,33,06,327,17,5*74
$GNGLL,4910.427712,N,12304.404366,W,231114.000,A,D*5A
$GNRMC,231115.000,A,4910.427718,N,12304.404336,W,0.01,347.33,080125,,,D,V*16
$GNGGA,231115.000,4910.427718,N,12304.404336,W,2,50,0.45,24.693,M,-16.817,M,,*7D
$GNVTG,347.33,T,,M,0.01,N,0.02,K,D*25
$GNGSA,A,3,19,17,24,14,06,12,13,15,02,,,,0.78,0.45,0.64,1*01
$GNGSA,A,3,76,85,75,86,67,68,,,,,,,0.78,0.45,0.64,2*01
$GNGSA,A,3,24,31,33,12,05,03,25,10,26,09,,,0.78,0.45,0.64,3*05
$GNGSA,A,3,45,29,26,35,30,36,33,,,,,,0.78,0.45,0.64,4*06
$GPGSV,3,1,12,19,81,150,41,17,56,061,39,24,52,287,38,46,33,188,35,1*6F
$GPGSV,3,2,12,14,30,095,36,06,29,152,32,12,21,281,32,13,10,206,27,1*6B
$GPGSV,3,3,12,15,10,238,31,02,08,031,25,11,04,177,27,03,01,066,,1*64
$GPGSV,1,1,03,24,52,287,31,14,30,095,22,06,29,152,24,8*57
$GLGSV,3,1,09,76,63,327,29,85,59,062,29,75,46,105,30,86,45,169,24,1*74
$GLGSV,3,2,09,67,18,314,25,77,18,306,,84,13,026,,68,07,000,16,1*71
$GLGSV,3,3,09,87,04,191,,1*43
$GAGSV,3,1,10,24,74,302,37,31,48,087,33,33,40,075,34,12,30,144,28,7*7B
$GAGSV,3,2,10,05,28,251,31,03,23,307,28,25,22,280,30,10,16,163,28,7*72
$GAGSV,3,3,10,26,12,030,29,09,06,203,23,7*72
$GAGSV,3,1,09,24,74,302,27,31,48,087,25,33,40,075,24,12,30,144,20,1*7A
$GAGSV,3,2,09,05,28,251,19,03,23,307,20,25,22,280,18,26,12,030,14,1*7D
$GAGSV,3,3,09,09,06,203,17,1*44
$GBGSV,3,1,10,45,69,133,32,29,66,104,30,26,51,299,29,35,32,197,27,1*72
$GBGSV,3,2,10,30,22,047,24,36,19,125,24,57,09,043,,33,06,327,20,1*73
$GBGSV,3,3,10,14,06,302,16,42,03,278,,1*7A
$GBGSV,2,1,06,45,69,133,29,29,66,104,28,26,51,299,24,35,32,197,20,5*79
$GBGSV,2,2,06,30,22,047,17,33,06,327,17,5*74
$GNGLL,4910.427718,N,12304.404336,W,231115.000,A,D*54
$GNRMC,231116.000,A,4910.427712,N,12304.404312,W,0.01,347.33,080125,,,D,V*19
$GNGGA,231116.000,4910.427712,N,12304.404312,W,2,50,0.45,24.639,M,-16.816,M,,*73
$GNVTG,347.33,T,,M,0.01,N,0.01,K,D*26
$GNGSA,A,3,19,17,24,14,06,12,13,15,02,,,,0.78,0.45,0.64,1*01
$GNGSA,A,3,76,85,75,86,67,68,,,,,,,0.78,0.45,0.64,2*01
$GNGSA,A,3,24,31,33,12,05,03,25,10,26,09,,,0.78,0.45,0.64,3*05
$GNGSA,A,3,45,29,26,35,30,36,33,,,,,,0.78,0.45,0.64,4*06
$GPGSV,3,1,12,19,81,150,41,17,56,061,39,24,52,287,38,46,33,188,35,1*6F
$GPGSV,3,2,12,14,30,095,36,06,29,152,32,12,21,281,32,13,10,206,26,1*6A
$GPGSV,3,3,12,15,10,238,31,02,08,031,25,11,04,177,27,03,01,066,,1*64
$GPGSV,1,1,03,24,52,287,31,14,30,095,22,06,29,152,24,8*57
$GLGSV,3,1,09,76,63,327,29,85,59,062,28,75,46,105,30,86,45,169,23,1*72
$GLGSV,3,2,09,67,18,314,24,77,18,306,,84,13,026,,68,07,000,16,1*70
$GLGSV,3,3,09,87,04,191,,1*43
$GAGSV,3,1,10,24,74,302,37,31,48,087,33,33,40,075,34,12,30,144,28,7*7B
$GAGSV,3,2,10,05,28,251,31,03,23,307,28,25,22,280,29,10,16,163,28,7*7A
$GAGSV,3,3,10,26,12,030,29,09,06,203,23,7*72
$GAGSV,3,1,09,24,74,302,27,31,48,087,24,33,40,075,24,12,30,144,19,1*71
$GAGSV,3,2,09,05,28,251,19,03,23,307,19,25,22,280,18,26,12,030,13,1*70
$GAGSV,3,3,09,09,06,203,17,1*44
$GBGSV,3,1,10,45,69,133,31,29,66,101,30,26,51,299,29,35,32,197,27,1*74
$GBGSV,3,2,10,30,22,047,24,36,19,125,24,57,09,043,,33,06,327,20,1*73
$GBGSV,3,3,10,14,06,302,16,42,03,278,,1*7A
$GBGSV,2,1,06,45,69,133,28,29,66,101,27,26,51,299,24,35,32,197,20,5*72
$GBGSV,2,2,06,30,22,047,17,33,06,327,17,5*74
$GNGLL,4910.427712,N,12304.404312,W,231116.000,A,D*5B
$GNRMC,231117.000,A,4910.427730,N,12304.404210,W,0.01,347.33,080125,,,D,V*1B
$GNGGA,231117.000,4910.427730,N,12304.404210,W,2,50,0.45,24.587,M,-16.817,M,,*76
$GNVTG,347.33,T,,M,0.01,N,0.02,K,D*25
$GNGSA,A,3,19,17,24,14,06,12,13,15,02,,,,0.78,0.45,0.64,1*01
$GNGSA,A,3,76,85,75,86,67,68,,,,,,,0.78,0.45,0.64,2*01
$GNGSA,A,3,24,31,33,12,05,03,25,10,26,09,,,0.78,0.45,0.64,3*05
$GNGSA,A,3,45,29,26,35,30,36,33,,,,,,0.78,0.45,0.64,4*06
$GPGSV,3,1,12,19,81,150,41,17,56,061,39,24,52,287,38,46,33,188,34,1*6E
$GPGSV,3,2,12,14,30,095,36,06,29,152,32,12,21,281,32,13,10,206,26,1*6A
$GPGSV,3,3,12,15,10,238,31,02,08,031,25,11,04,177,27,03,01,066,,1*64
$GPGSV,1,1,03,24,52,287,30,14,30,095,22,06,29,152,24,8*56
$GLGSV,3,1,09,76,63,327,29,85,59,062,28,75,46,105,30,86,45,169,23,1*72
$GLGSV,3,2,09,67,18,314,24,77,18,306,,84,13,026,,68,07,000,16,1*70
$GLGSV,3,3,09,87,04,191,,1*43
$GAGSV,3,1,10,24,74,302,37,31,48,087,33,33,40,075,34,12,30,144,28,7*7B
$GAGSV,3,2,10,05,28,251,31,03,23,307,28,25,22,280,29,10,16,163,27,7*75
$GAGSV,3,3,10,26,12,030,29,09,06,203,22,7*73
$GAGSV,3,1,09,24,74,302,27,31,48,087,24,33,40,075,24,12,30,144,18,1*70
$GAGSV,3,2,09,05,28,251,19,03,23,307,19,25,22,280,18,26,12,030,14,1*77
$GAGSV,3,3,09,09,06,203,17,1*44
$GBGSV,3,1,11,45,69,133,31,29,66,101,30,26,51,299,29,35,32,197,27,1*75
$GBGSV,3,2,11,30,21,046,25,36,19,125,24,57,09,043,,33,06,327,20,1*71
$GBGSV,3,3,11,14,06,302,16,42,03,278,,24,02,303,,1*4F
$GBGSV,2,1,06,45,69,133,28,29,66,101,27,26,51,299,24,35,32,197,20,5*72
$GBGSV,2,2,06,30,21,046,17,33,06,327,17,5*76
$GNGLL,4910.427730,N,12304.404210,W,231117.000,A,D*59
$GNRMC,231118.000,A,4910.427748,N,12304.404174,W,0.01,347.33,080125,,,D,V*1A
$GNGGA,231118.000,4910.427748,N,12304.404174,W,2,50,0.45,24.573,M,-16.816,M,,*7D
$GNVTG,347.33,T,,M,0.01,N,0.02,K,D*25
$GNGSA,A,3,19,17,24,14,06,12,13,15,02,,,,0.78,0.45,0.64,1*01
$GNGSA,A,3,76,85,75,86,67,68,,,,,,,0.78,0.45,0.64,2*01
$GNGSA,A,3,24,31,33,12,05,03,25,10,26,09,,,0.78,0.45,0.64,3*05
$GNGSA,A,3,45,29,26,35,30,36,33,,,,,,0.78,0.45,0.64,4*06
$GPGSV,3,1,12,19,81,150,41,17,56,061,39,24,52,287,38,46,33,188,34,1*6E
$GPGSV,3,2,12,14,30,095,36,06,29,152,32,12,21,281,32,13,10,206,26,1*6A
$GPGSV,3,3,12,15,10,238,31,02,08,031,25,11,04,177,27,03,01,066,,1*64
$GPGSV,1,1,03,24,52,287,30,14,30,095,22,06,29,152,24,8*56
$GLGSV,3,1,09,76,63,327,29,85,59,062,29,75,46,105,30,86,45,169,23,1*73
$GLGSV,3,2,09,67,18,314,24,77,18,306,,84,13,026,,68,07,000,16,1*70
$GLGSV,3,3,09,87,04,191,,1*43
$GAGSV,3,1,10,24,74,302,37,31,48,087,33,33,40,075,34,12,30,144,28,7*7B
$GAGSV,3,2,10,05,28,251,30,03,23,307,28,25,22,280,29,10,16,163,27,7*74
$GAGSV,3,3,10,26,12,030,29,09,06,203,22,7*73
$GAGSV,3,1,09,24,74,302,27,31,48,087,24,33,40,075,24,12,30,144,18,1*70
$GAGSV,3,2,09,05,28,251,19,03,23,307,19,25,22,280,19,26,12,030,16,1*74
$GAGSV,3,3,09,09,06,203,17,1*44
$GBGSV,3,1,11,45,69,133,31,29,66,101,30,26,51,299,29,35,32,197,27,1*75
$GBGSV,3,2,11,30,21,046,24,36,19,125,24,57,09,043,,33,06,327,20,1*70
$GBGSV,3,3,11,14,06,302,16,42,03,278,,24,02,303,,1*4F
$GBGSV,2,1,06,45,69,133,28,29,66,101,27,26,51,299,24,35,32,197,20,5*72
$GBGSV,2,2,06,30,21,046,17,33,06,327,17,5*76
$GNGLL,4910.427748,N,12304.404174,W,231118.000,A,D*58
$GNRMC,231119.000,A,4910.427802,N,12304.404156,W,0.01,347.33,080125,,,D,V*1A
$GNGGA,231119.000,4910.427802,N,12304.404156,W,2,50,0.45,24.546,M,-16.816,M,,*7B
$GNVTG,347.33,T,,M,0.01,N,0.02,K,D*25
$GNGSA,A,3,19,17,24,14,06,12,13,15,02,,,,0.78,0.45,0.64,1*01
$GNGSA,A,3,76,85,75,86,67,68,,,,,,,0.78,0.45,0.64,2*01
$GNGSA,A,3,24,31,33,12,05,03,25,10,26,09,,,0.78,0.45,0.64,3*05
$GNGSA,A,3,45,29,26,35,30,36,33,,,,,,0.78,0.45,0.64,4*06
$GPGSV,3,1,12,19,81,150,41,17,56,061,39,24,52,287,38,46,33,188,34,1*6E
$GPGSV,3,2,12,14,30,095,36,06,29,152,32,12,21,281,32,13,10,206,26,1*6A
$GPGSV,3,3,12,15,10,238,31,02,08,031,26,11,04,177,26,03,01,066,,1*66
$GPGSV,1,1,03,24,52,287,30,14,30,095,23,06,29,152,24,8*57
$GLGSV,3,1,09,76,63,327,29,85,59,062,29,75,46,105,30,86,45,169,23,1*73
$GLGSV,3,2,09,67,18,314,24,77,18,306,,84,13,026,,68,07,000,16,1*70
$GLGSV,3,3,09,87,04,191,,1*43
$GAGSV,3,1,10,24,74,302,37,31,48,087,33,33,40,075,34,12,30,144,28,7*7B
$GAGSV,3,2,10,05,28,251,30,03,23,307,28,25,22,280,29,10,16,163,27,7*74
$GAGSV,3,3,10,26,12,030,29,09,06,203,22,7*73
$GAGSV,3,1,09,24,74,302,27,31,48,087,24,33,40,075,24,12,30,144,18,1*70
$GAGSV,3,2,09,05,28,251,19,03,23,307,19,25,22,280,19,26,12,030,14,1*76
$GAGSV,3,3,09,09,06,203,17,1*44
$GBGSV,3,1,11,45,69,133,31,29,66,101,30,26,51,299,30,35,32,197,27,1*7D
$GBGSV,3,2,11,30,21,046,25,36,19,125,25,57,09,043,,33,06,327,20,1*70
$GBGSV,3,3,11,14,06,302,16,42,03,278,,24,02,303,,1*4F
$GBGSV,2,1,06,45,69,133,28,29,66,101,27,26,51,299,24,35,32,197,20,5*72
$GBGSV,2,2,06,30,21,046,17,33,06,327,17,5*76
$GNGLL,4910.427802,N,12304.404156,W,231119.000,A,D*58
$GNRMC,231120.000,A,4910.427886,N,12304.404114,W,0.01,347.33,080125,,,D,V*1A
$GNGGA,231120.000,4910.427886,N,12304.404114,W,2,50,0.45,24.558,M,-16.817,M,,*75
$GNVTG,347.33,T,,M,0.01,N,0.02,K,D*25
$GNGSA,A,3,19,17,24,14,06,12,13,15,02,,,,0.78,0.45,0.64,1*01
$GNGSA,A,3,76,85,75,86,67,68,,,,,,,0.78,0.45,0.64,2*01
$GNGSA,A,3,24,31,33,12,05,03,25,10,26,09,,,0.78,0.45,0.64,3*05
$GNGSA,A,3,45,29,26,35,30,36,33,,,,,,0.78,0.45,0.64,4*06
$GPGSV,3,1,12,19,81,150,41,17,56,061,39,24,52,287,38,46,33,188,34,1*6E
$GPGSV,3,2,12,14,30,095,36,06,29,152,32,12,21,281,32,13,10,206,26,1*6A
$GPGSV,3,3,12,15,10,238,30,02,08,031,26,11,04,177,26,03,01,066,,1*67
$GPGSV,1,1,03,24,52,287,30,14,30,095,22,06,29,152,23,8*51
$GLGSV,2,1,07,76,63,327,29,85,59,062,29,75,46,105,30,86,45,169,24,1*7B
$GLGSV,2,2,07,77,18,306,,67,18,314,24,68,07,000,16,1*45
$GAGSV,3,1,10,24,74,302,37,31,48,087,33,33,40,075,34,12,30,144,28,7*7B
$GAGSV,3,2,10,05,28,251,30,03,23,307,27,25,22,280,29,10,16,163,27,7*7B
$GAGSV,3,3,10,26,12,030,29,09,06,203,21,7*70
$GAGSV,3,1,09,24,74,302,27,31,48,087,24,33,40,075,24,12,30,144,18,1*70
$GAGSV,3,2,09,05,28,251,19,03,23,307,19,25,22,280,19,26,12,030,14,1*76
$GAGSV,3,3,09,09,06,203,17,1*44
$GBGSV,3,1,11,45,69,133,31,29,66,101,31,26,51,299,30,35,32,197,27,1*7C
$GBGSV,3,2,11,30,21,046,25,36,19,125,25,57,09,043,,33,06,326,20,1*71
$GBGSV,3,3,11,14,06,302,16,42,03,278,,24,02,303,,1*4F
$GBGSV,2,1,06,45,69,133,28,29,66,101,27,26,51,299,24,35,32,197,20,5*72
$GBGSV,2,2,06,30,21,046,17,33,06,326,17,5*77
$GNGLL,4910.427886,N,12304.404114,W,231120.000,A,D*58
$GNRMC,231121.000,A,4910.427910,N,12304.404102,W,0.01,347.33,080125,,,D,V*12
$GNGGA,231121.000,4910.427910,N,12304.404102,W,2,50,0.45,24.609,M,-16.817,M,,*7A
$GNVTG,347.33,T,,M,0.01,N,0.03,K,D*24
$GNGSA,A,3,19,17,24,14,06,12,13,15,02,,,,0.78,0.45,0.64,1*01
$GNGSA,A,3,76,85,75,86,67,68,,,,,,,0.78,0.45,0.64,2*01
$GNGSA,A,3,24,31,33,12,05,03,25,10,26,09,,,0.78,0.45,0.64,3*05
$GNGSA,A,3,45,29,26,35,30,36,33,,,,,,0.78,0.45,0.64,4*06
$GPGSV,3,1,12,19,81,150,41,17,56,061,39,24,52,287,38,46,33,188,34,1*6E
$GPGSV,3,2,12,14,30,095,36,06,29,152,32,12,21,281,32,13,10,206,25,1*69
$GPGSV,3,3,12,15,10,238,30,02,08,031,26,11,04,177,26,03,01,066,,1*67
$GPGSV,1,1,03,24,52,287,30,14,30,095,22,06,29,152,23,8*51
$GLGSV,2,1,07,76,63,327,29,85,59,062,29,75,46,105,30,86,45,169,24,1*7B
$GLGSV,2,2,07,77,18,306,,67,18,314,24,68,07,000,16,1*45
$GAGSV,3,1,10,24,74,302,37,31,48,087,33,33,40,075,34,12,30,144,28,7*7B
$GAGSV,3,2,10,05,28,251,30,03,23,307,27,25,22,280,29,10,16,163,27,7*7B
$GAGSV,3,3,10,26,12,030,29,09,06,203,21,7*70
$GAGSV,3,1,09,24,74,302,27,31,48,087,24,33,40,075,24,12,30,144,19,1*71
$GAGSV,3,2,09,05,28,251,19,03,23,307,19,25,22,280,19,26,12,030,14,1*76
$GAGSV,3,3,09,09,06,203,17,1*44
$GBGSV,3,1,10,45,69,133,31,29,66,101,31,26,51,299,30,35,32,197,27,1*7D
$GBGSV,3,2,10,30,21,046,27,36,19,125,25,33,06,326,20,14,06,302,16,1*7B
$GBGSV,3,3,10,42,03,278,,24,02,303,,1*7B
$GBGSV,2,1,06,45,69,133,28,29,66,101,27,26,51,299,24,35,32,197,21,5*73
$GBGSV,2,2,06,30,21,046,17,33,06,326,17,5*77
$GNGLL,4910.427910,N,12304.404102,W,231121.000,A,D*50
$GNRMC,231122.000,A,4910.427916,N,12304.404108,W,0.01,347.33,080125,,,D,V*1D
$GNGGA,231122.000,4910.427916,N,12304.404108,W,2,50,0.45,24.585,M,-16.816,M,,*73
$GNVTG,347.33,T,,M,0.01,N,0.02,K,D*25
$GNGSA,A,3,19,17,24,14,06,12,13,15,02,,,,0.78,0.45,0.64,1*01
$GNGSA,A,3,76,85,75,86,67,68,,,,,,,0.78,0.45,0.64,2*01
$GNGSA,A,3,24,31,33,12,05,03,25,10,26,09,,,0.78,0.45,0.64,3*05
$GNGSA,A,3,45,29,26,35,30,36,33,,,,,,0.78,0.45,0.64,4*06
$GPGSV,3,1,12,19,81,150,41,17,56,061,39,24,52,287,38,46,33,188,34,1*6E
$GPGSV,3,2,12,14,30,095,36,06,29,152,32,12,21,281,32,13,10,206,25,1*69
$GPGSV,3,3,12,15,10,238,30,02,08,031,26,11,04,177,26,03,01,066,,1*67
$GPGSV,1,1,03,24,52,287,30,14,30,095,22,06,29,152,24,8*56
$GLGSV,2,1,07,76,63,327,28,85,59,062,28,75,46,105,30,86,45,169,24,1*7B
$GLGSV,2,2,07,77,18,306,,67,18,314,24,68,07,000,15,1*46
$GAGSV,3,1,10,24,74,302,37,31,48,087,33,33,40,075,34,12,30,144,28,7*7B
$GAGSV,3,2,10,05,28,251,30,03,23,307,27,25,22,280,29,10,16,163,27,7*7B
$GAGSV,3,3,10,26,12,030,29,09,06,203,21,7*70
$GAGSV,3,1,09,24,74,302,27,31,48,087,24,33,40,075,24,12,30,144,19,1*71
$GAGSV,3,2,09,05,28,251,19,03,23,307,20,25,22,280,19,26,12,030,14,1*7C
$GAGSV,3,3,09,09,06,203,17,1*44
$GBGSV,3,1,10,45,69,133,31,29,66,101,31,26,51,299,30,35,33,197,27,1*7C
$GBGSV,3,2,10,30,21,046,25,36,19,125,25,33,06,326,19,14,06,302,16,1*73
$GBGSV,3,3,10,42,03,278,,24,02,303,,1*7B
$GBGSV,2,1,06,45,69,133,29,29,66,101,27,26,51,299,24,35,33,197,21,5*73
$GBGSV,2,2,06,30,21,046,17,33,06,326,17,5*77
$GNGLL,4910.427916,N,12304.404108,W,231122.000,A,D*5F
$GNRMC,231123.000,A,4910.427874,N,12304.404108,W,0.01,347.33,080125,,,D,V*19
$GNGGA,231123.000,4910.427874,N,12304.404108,W,2,50,0.45,24.601,M,-16.817,M,,*79
$GNVTG,347.33,T,,M,0.01,N,0.02,K,D*25
$GNGSA,A,3,19,17,24,14,06,12,13,15,02,,,,0.78,0.45,0.64,1*01
$GNGSA,A,3,76,85,75,86,67,68,,,,,,,0.78,0.45,0.64,2*01
$GNGSA,A,3,24,31,33,12,05,03,25,10,26,09,,,0.78,0.45,0.64,3*05
$GNGSA,A,3,45,29,26,35,30,36,33,,,,,,0.78,0.45,0.64,4*06
$GPGSV,3,1,12,19,81,150,41,17,56,061,39,24,52,287,38,46,33,188,34,1*6E
$GPGSV,3,2,12,14,30,095,36,06,29,152,32,12,21,281,32,13,10,206,25,1*69
$GPGSV,3,3,12,15,10,238,30,02,08,031,26,11,04,177,26,03,01,066,,1*67
$GPGSV,1,1,03,24,52,287,30,14,30,095,22,06,29,152,24,8*56
$GLGSV,2,1,08,76,63,327,28,85,59,062,29,75,46,105,30,86,45,169,24,1*75
$GLGSV,2,2,08,67,18,314,24,77,18,306,,84,13,026,,68,07,000,15,1*73
$GAGSV,3,1,10,24,74,302,37,31,48,087,33,33,40,075,34,12,30,144,28,7*7B
$GAGSV,3,2,10,05,28,251,30,03,23,307,27,25,22,280,29,10,16,163,27,7*7B
$GAGSV,3,3,10,26,12,030,29,09,06,203,21,7*70
$GAGSV,3,1,09,24,74,302,27,31,48,087,24,33,40,075,24,12,30,144,19,1*71
$GAGSV,3,2,09,05,28,251,19,03,23,307,20,25,22,280,19,26,12,030,14,1*7C
$GAGSV,3,3,09,09,06,203,17,1*44
$GBGSV,3,1,11,45,69,133,31,29,66,101,31,26,51,299,30,35,33,197,27,1*7D
$GBGSV,3,2,11,30,21,046,25,36,18,126,25,57,09,043,,14,06,302,16,1*75
$GBGSV,3,3,11,33,06,326,19,42,03,278,,24,02,303,,1*43
$GBGSV,2,1,06,45,69,133,29,29,66,101,27,26,51,299,24,35,33,197,21,5*73
$GBGSV,2,2,06,30,21,046,17,33,06,326,17,5*77
$GNGLL,4910.427874,N,12304.404108,W,231123.000,A,D*5B
$GNRMC,231124.000,A,4910.427916,N,12304.404036,W,0.01,347.33,080125,,,D,V*17
$GNGGA,231124.000,4910.427916,N,12304.404036,W,2,48,0.46,24.579,M,-16.817,M,,*71
$GNVTG,347.33,T,,M,0.01,N,0.02,K,D*25
$GNGSA,A,3,19,17,24,14,06,12,13,15,02,,,,0.80,0.46,0.66,1*07
$GNGSA,A,3,76,85,75,86,67,68,,,,,,,0.80,0.46,0.66,2*07
$GNGSA,A,3,24,31,33,12,05,03,25,10,09,,,,0.80,0.46,0.66,3*07
$GNGSA,A,3,45,29,26,35,30,36,33,,,,,,0.80,0.46,0.66,4*00
$GPGSV,3,1,12,19,81,150,41,17,56,061,39,24,52,287,38,46,33,188,34,1*6E
$GPGSV,3,2,12,14,30,095,36,06,29,152,32,12,21,281,32,13,10,206,25,1*69
$GPGSV,3,3,12,15,10,238,30,02,08,031,26,11,04,177,26,03,01,066,,1*67
$GPGSV,1,1,03,24,52,287,31,14,30,095,22,06,29,152,24,8*57
$GLGSV,2,1,08,76,63,327,27,85,59,062,29,75,46,105,29,86,45,169,24,1*72
$GLGSV,2,2,08,67,18,314,24,77,18,306,,84,13,026,,68,07,000,15,1*73
$GAGSV,3,1,10,24,74,302,37,31,48,087,33,33,40,075,34,12,30,144,28,7*7B
$GAGSV,3,2,10,05,28,251,30,03,23,307,28,25,22,280,29,10,16,163,27,7*74
$GAGSV,3,3,10,26,12,030,,09,06,203,22,7*78
$GAGSV,2,1,08,24,74,302,27,31,48,087,24,33,40,075,24,12,30,144,19,1*71
$GAGSV,2,2,08,05,28,251,20,03,23,307,21,25,22,280,19,09,06,203,17,1*7E
$GBGSV,3,1,11,45,69,133,31,29,66,101,31,26,51,299,30,35,33,197,27,1*7D
$GBGSV,3,2,11,30,21,046,25,36,18,126,25,57,09,043,,14,06,302,16,1*75
$GBGSV,3,3,11,33,06,326,20,42,03,278,,24,02,303,,1*49
$GBGSV,2,1,06,45,69,133,29,29,66,101,27,26,51,299,24,35,33,197,21,5*73
$GBGSV,2,2,06,30,21,046,17,33,06,326,17,5*77
$GNGLL,4910.427916,N,12304.404036,W,231124.000,A,D*55
$GNRMC,231125.000,A,4910.427970,N,12304.404000,W,0.01,347.33,080125,,,D,V*13
$GNGGA,231125.000,4910.427970,N,12304.404000,W,2,49,0.45,24.451,M,-16.816,M,,*7D
$GNVTG,347.33,T,,M,0.01,N,0.02,K,D*25
$GNGSA,A,3,19,17,24,14,06,12,15,13,02,,,,0.78,0.45,0.64,1*01
$GNGSA,A,3,76,85,75,86,67,68,,,,,,,0.78,0.45,0.64,2*01
$GNGSA,A,3,24,31,33,12,05,03,25,10,26,09,,,0.78,0.45,0.64,3*05
$GNGSA,A,3,45,29,26,35,30,36,33,,,,,,0.78,0.45,0.64,4*06
$GPGSV,3,1,12,19,81,150,41,17,56,061,39,24,52,287,38,46,33,188,34,1*6E
$GPGSV,3,2,12,14,30,095,36,06,29,152,32,12,21,281,33,15,10,238,30,1*67
$GPGSV,3,3,12,13,10,206,25,02,08,031,26,11,04,177,26,03,01,066,,1*68
$GPGSV,1,1,03,24,52,287,31,14,30,095,22,06,29,152,24,8*57
$GLGSV,2,1,08,76,63,327,27,85,59,062,29,75,46,105,29,86,45,169,24,1*72
$GLGSV,2,2,08,77,18,306,,67,18,314,24,68,07,000,16,87,04,191,,1*78
$GAGSV,3,1,10,24,74,302,37,31,48,087,33,33,40,075,34,12,30,144,28,7*7B
$GAGSV,3,2,10,05,28,251,30,03,23,307,28,25,22,280,29,10,16,163,27,7*74
$GAGSV,3,3,10,26,12,030,29,09,06,203,22,7*73
$GAGSV,2,1,08,24,74,302,27,31,48,087,24,33,40,075,24,12,30,144,19,1*71
$GAGSV,2,2,08,05,28,251,20,03,23,307,21,25,22,280,19,09,06,203,17,1*7E
$GBGSV,3,1,11,45,69,133,31,29,66,101,31,26,51,299,30,35,33,197,27,1*7D
$GBGSV,3,2,11,30,21,046,26,36,18,126,25,57,09,043,,33,06,326,19,1*7A
$GBGSV,3,3,11,14,06,302,16,42,03,278,,24,02,303,,1*4F
$GBGSV,2,1,06,45,69,133,30,29,66,101,27,26,51,299,24,35,33,197,21,5*7B
$GBGSV,2,2,06,30,21,046,17,33,06,326,17,5*77
$GNGLL,4910.427970,N,12304.404000,W,231125.000,A,D*51
$GNRMC,231126.000,A,4910.428012,N,12304.403940,W,0.01,347.33,080125,,,D,V*18
$GNGGA,231126.000,4910.428012,N,12304.403940,W,2,49,0.45,24.336,M,-16.817,M,,*71
$GNVTG,347.33,T,,M,0.01,N,0.02,K,D*25
$GNGSA,A,3,19,17,24,14,06,12,13,15,02,,,,0.78,0.45,0.64,1*01
$GNGSA,A,3,76,85,75,86,67,68,,,,,,,0.78,0.45,0.64,2*01
$GNGSA,A,3,24,31,33,12,05,03,25,10,26,09,,,0.78,0.45,0.64,3*05
$GNGSA,A,3,45,29,26,35,30,36,33,,,,,,0.78,0.45,0.64,4*06
$GPGSV,3,1,12,19,81,150,41,17,56,061,39,24,52,287,38,46,33,188,34,1*6E
$GPGSV,3,2,12,14,30,095,36,06,29,152,32,12,21,281,33,13,10,206,25,1*68
$GPGSV,3,3,12,15,10,238,30,02,08,031,26,11,04,177,26,03,01,066,,1*67
$GPGSV,1,1,03,24,52,287,31,14,30,095,22,06,29,152,24,8*57
$GLGSV,3,1,09,76,63,327,27,85,59,062,30,75,46,105,29,86,45,169,24,1*7A
$GLGSV,3,2,09,67,18,314,24,77,18,306,,84,13,026,,68,07,000,16,1*70
$GLGSV,3,3,09,87,04,191,,1*43
$GAGSV,3,1,10,24,74,302,37,31,48,087,33,33,40,075,34,12,30,144,28,7*7B
$GAGSV,3,2,10,05,28,251,30,03,23,307,28,25,22,280,29,10,16,163,27,7*74
$GAGSV,3,3,10,26,12,030,29,09,06,203,22,7*73
$GAGSV,2,1,08,24,74,302,27,31,48,087,24,33,40,075,24,12,30,144,19,1*71
$GAGSV,2,2,08,05,28,251,20,03,23,307,21,25,22,280,19,09,06,203,17,1*7E
$GBGSV,3,1,10,45,69,133,31,29,66,101,31,26,51,299,30,35,33,197,27,1*7C
$GBGSV,3,2,10,30,21,046,25,36,18,126,25,57,09,043,,33,06,326,19,1*78
$GBGSV,3,3,10,14,06,302,17,42,03,278,,1*7B
$GBGSV,2,1,06,45,69,133,30,29,66,101,28,26,51,299,25,35,33,197,21,5*75
$GBGSV,2,2,06,30,21,046,17,33,06,326,17,5*77
$GNGLL,4910.428012,N,12304.403940,W,231126.000,A,D*5A
$GNRMC,231127.000,A,4910.428072,N,12304.403916,W,0.02,347.33,080125,,,D,V*1F
$GNGGA,231127.000,4910.428072,N,12304.403916,W,2,49,0.45,24.326,M,-16.817,M,,*74
$GNVTG,347.33,T,,M,0.02,N,0.03,K,D*27
$GNGSA,A,3,19,17,24,14,06,12,13,15,02,,,,0.78,0.45,0.64,1*01
$GNGSA,A,3,76,85,75,86,67,68,,,,,,,0.78,0.45,0.64,2*01
$GNGSA,A,3,24,31,33,12,05,03,25,10,26,09,,,0.78,0.45,0.64,3*05
$GNGSA,A,3,45,29,26,35,30,36,33,,,,,,0.78,0.45,0.64,4*06
$GPGSV,3,1,12,19,81,150,41,17,56,061,39,24,52,287,38,46,33,188,34,1*6E
$GPGSV,3,2,12,14,30,095,36,06,29,152,32,12,21,281,33,13,10,206,25,1*68
$GPGSV,3,3,12,15,10,238,30,02,08,031,27,11,04,177,26,03,01,066,,1*66
$GPGSV,1,1,03,24,52,287,30,14,30,095,22,06,29,152,24,8*56
$GLGSV,3,1,09,76,63,327,28,85,59,062,30,75,46,105,29,86,45,169,25,1*74
$GLGSV,3,2,09,67,18,314,25,77,18,306,,84,13,026,,68,07,000,16,1*71
$GLGSV,3,3,09,87,04,191,,1*43
$GAGSV,3,1,10,24,74,302,37,31,48,087,33,33,40,075,34,12,30,144,28,7*7B
$GAGSV,3,2,10,05,28,251,30,03,23,307,28,25,22,280,29,10,16,163,27,7*74
$GAGSV,3,3,10,26,12,030,29,09,06,203,22,7*73
$GAGSV,2,1,08,24,74,302,27,31,48,087,24,33,40,075,23,12,30,144,19,1*76
$GAGSV,2,2,08,05,28,251,20,03,23,307,21,25,22,280,19,09,06,203,16,1*7F
$GBGSV,3,1,10,45,69,133,31,29,66,101,31,26,51,299,30,35,33,197,27,1*7C
$GBGSV,3,2,10,30,21,046,25,36,18,126,25,57,09,043,,33,06,326,19,1*78
$GBGSV,3,3,10,14,06,302,17,42,03,278,,1*7B
$GBGSV,2,1,06,45,69,133,30,29,66,101,28,26,51,299,25,35,33,197,21,5*75
$GBGSV,2,2,06,30,21,046,17,33,06,326,17,5*77
$GNGLL,4910.428072,N,12304.403916,W,231127.000,A,D*5E
$GNRMC,231128.000,A,4910.428096,N,12304.403832,W,0.01,347.33,080125,,,D,V*1E
$GNGGA,231128.000,4910.428096,N,12304.403832,W,2,49,0.45,24.278,M,-16.816,M,,*7D
$GNVTG,347.33,T,,M,0.01,N,0.02,K,D*25
$GNGSA,A,3,19,17,24,14,06,12,13,15,02,,,,0.78,0.45,0.64,1*01
$GNGSA,A,3,76,85,75,86,67,68,,,,,,,0.78,0.45,0.64,2*01
$GNGSA,A,3,24,31,33,12,05,03,25,10,26,09,,,0.78,0.45,0.64,3*05
$GNGSA,A,3,45,29,26,35,30,36,33,,,,,,0.78,0.45,0.64,4*06
$GPGSV,3,1,12,19,81,150,41,17,56,061,39,24,52,287,38,46,33,188,34,1*6E
$GPGSV,3,2,12,14,30,095,36,06,29,152,32,12,21,281,33,13,10,206,25,1*68
$GPGSV,3,3,12,15,10,238,30,02,08,031,27,11,04,177,26,03,01,066,,1*66
$GPGSV,1,1,03,24,52,287,30,14,30,095,22,06,29,152,24,8*56
$GLGSV,2,1,08,76,63,327,28,85,59,062,30,75,46,105,30,86,45,169,26,1*7F
$GLGSV,2,2,08,67,18,314,25,77,18,306,,84,13,026,,68,07,000,16,1*71
$GAGSV,3,1,10,24,74,302,37,31,48,087,33,33,40,075,34,12,30,144,28,7*7B
$GAGSV,3,2,10,05,28,251,30,03,23,307,28,25,22,280,29,10,16,163,27,7*74
$GAGSV,3,3,10,26,12,030,29,09,06,203,22,7*73
$GAGSV,2,1,08,24,74,302,27,31,48,087,24,33,40,075,23,12,30,144,19,1*76
$GAGSV,2,2,08,05,28,251,20,03,23,307,21,25,22,280,19,09,06,203,16,1*7F
$GBGSV,3,1,11,45,69,133,31,29,66,101,31,26,51,299,30,35,33,197,27,1*7D
$GBGSV,3,2,11,30,21,046,25,36,18,126,25,57,09,043,,14,06,302,17,1*74
$GBGSV,3,3,11,33,06,326,19,42,03,278,,24,02,303,,1*43
$GBGSV,2,1,06,45,69,133,30,29,66,101,28,26,51,299,25,35,33,197,21,5*75
$GBGSV,2,2,06,30,21,046,17,33,06,326,17,5*77
$GNGLL,4910.428096,N,12304.403832,W,231128.000,A,D*5C
$GNRMC,231129.000,A,4910.428162,N,12304.403784,W,0.01,347.33,080125,,,D,V*17
$GNGGA,231129.000,4910.428162,N,12304.403784,W,2,49,0.45,24.262,M,-16.816,M,,*7F
$GNVTG,347.33,T,,M,0.01,N,0.03,K,D*24
$GNGSA,A,3,19,17,24,14,06,12,13,15,02,,,,0.78,0.45,0.64,1*01
$GNGSA,A,3,76,85,75,86,67,68,,,,,,,0.78,0.45,0.64,2*01
$GNGSA,A,3,24,31,33,12,05,03,25,10,26,09,,,0.78,0.45,0.64,3*05
$GNGSA,A,3,45,29,26,35,30,36,33,,,,,,0.78,0.45,0.64,4*06
$GPGSV,3,1,12,19,81,150,41,17,56,061,39,24,52,287,38,46,33,188,34,1*6E
$GPGSV,3,2,12,14,30,095,36,06,29,152,32,12,21,281,33,13,10,206,26,1*6B
$GPGSV,3,3,12,15,10,238,30,02,08,031,27,11,04,177,26,03,01,066,,1*66
$GPGSV,1,1,03,24,52,287,30,14,30,095,22,06,29,152,24,8*56
$GLGSV,3,1,09,76,63,327,27,85,59,062,29,75,46,105,30,86,45,169,25,1*7B
$GLGSV,3,2,09,67,18,314,23,77,18,306,,84,13,026,,68,07,000,16,1*77
$GLGSV,3,3,09,87,04,191,,1*43
$GAGSV,3,1,10,24,74,302,37,31,48,087,33,33,40,075,34,12,30,144,28,7*7B
$GAGSV,3,2,10,05,28,251,30,03,23,307,28,25,22,280,29,10,16,163,27,7*74
$GAGSV,3,3,10,26,12,030,29,09,06,203,22,7*73
$GAGSV,2,1,08,24,74,302,27,31,48,087,24,33,40,075,23,12,30,144,19,1*76
$GAGSV,2,2,08,05,28,251,20,03,23,307,21,25,22,280,19,09,06,203,16,1*7F
$GBGSV,3,1,11,45,69,133,31,29,66,101,31,26,51,299,30,35,33,197,27,1*7D
$GBGSV,3,2,11,30,21,046,25,36,18,126,25,57,09,043,,33,06,326,19,1*79
$GBGSV,3,3,11,14,06,302,17,42,03,277,,24,02,303,,1*41
$GBGSV,2,1,06,45,69,133,30,29,66,101,28,26,51,299,25,35,33,197,21,5*75
$GBGSV,2,2,06,30,21,046,17,33,06,326,17,5*77
$GNGLL,4910.428162,N,12304.403784,W,231129.000,A,D*55
$GNRMC,231130.000,A,4910.428180,N,12304.403706,W,0.01,347.33,080125,,,D,V*19
$GNGGA,231130.000,4910.428180,N,12304.403706,W,2,49,0.45,24.246,M,-16.816,M,,*77
$GNVTG,347.33,T,,M,0.01,N,0.02,K,D*25
$GNGSA,A,3,19,17,24,14,06,12,15,13,02,,,,0.78,0.45,0.64,1*01
$GNGSA,A,3,76,85,75,86,67,68,,,,,,,0.78,0.45,0.64,2*01
$GNGSA,A,3,24,31,33,12,05,03,25,10,26,09,,,0.78,0.45,0.64,3*05
$GNGSA,A,3,45,29,26,35,30,36,33,,,,,,0.78,0.45,0.64,4*06
$GPGSV,3,1,12,19,81,150,41,17,56,061,39,24,52,287,38,46,33,188,34,1*6E
$GPGSV,3,2,12,14,30,095,36,06,29,152,32,12,21,281,33,15,10,238,30,1*67
$GPGSV,3,3,12,13,10,206,26,02,08,031,27,11,04,177,26,03,01,066,,1*6A
$GPGSV,1,1,03,24,52,287,30,14,30,095,22,06,29,152,23,8*51
$GLGSV,2,1,08,76,63,327,27,85,59,062,29,75,46,105,30,86,45,169,25,1*7B
$GLGSV,2,2,08,77,18,306,,67,18,314,24,68,07,000,15,87,04,191,,1*7B
$GAGSV,3,1,10,24,74,302,37,31,48,087,33,33,40,075,34,12,30,144,28,7*7B
$GAGSV,3,2,10,05,28,251,30,03,23,307,28,25,22,280,29,10,16,163,27,7*74
$GAGSV,3,3,10,26,12,030,29,09,06,203,22,7*73
$GAGSV,2,1,08,24,74,302,27,31,48,087,24,33,40,075,23,12,30,144,19,1*76
$GAGSV,2,2,08,05,28,251,20,03,23,307,21,25,22,280,19,09,06,203,16,1*7F
$GBGSV,3,1,11,45,69,133,31,29,66,101,31,26,51,299,30,35,33,197,27,1*7D
$GBGSV,3,2,11,30,21,046,25,36,18,126,25,57,09,043,,33,06,326,19,1*79
$GBGSV,3,3,11,14,06,302,17,42,03,277,,24,02,303,,1*41
$GBGSV,2,1,06,45,69,133,30,29,66,101,28,26,51,299,25,35,33,197,21,5*75
