$GNGGA,231101.000,4910.427556,N,12304.399290,W,2,30,0.46,2.357,M,-16.816,M,,*43
$GNGLL,4910.427556,N,12304.399290,W,231101.000,A,D*57
$GNGSA,A,3,19,17,24,14,06,12,15,13,02,11,,,0.77,0.46,0.62,1*0B
$GNGSA,A,3,76,85,75,67,68,,,,,,,,0.77,0.46,0.62,2*05
$GNGSA,A,3,24,31,33,05,03,26,09,,,,,,0.77,0.46,0.62,3*0A
$GNGSA,A,3,45,29,26,35,30,36,14,33,,,,,0.77,0.46,0.62,4*09
$GPGSV,3,1,12,19,82,145,37,17,55,060,34,24,52,286,33,46,33,188,32,1*6B
$GPGSV,3,2,12,14,30,095,30,06,29,151,26,12,22,281,25,15,10,238,25,1*67
$GPGSV,3,3,12,13,09,205,23,02,08,031,22,11,05,176,22,03,02,065,,1*65
$GLGSV,2,1,07,76,64,327,35,85,59,062,34,75,46,105,32,86,45,169,,1*79
$GLGSV,2,2,07,67,18,314,26,84,13,026,16,68,07,000,18,1*48
$GAGSV,3,1,10,24,74,302,33,31,48,087,30,33,40,075,30,12,31,144,23,7*72
$GAGSV,3,2,10,05,28,250,26,03,23,307,25,25,22,280,25,10,16,163,22,7*76
$GAGSV,3,3,10,26,12,030,23,09,06,203,18,7*70
$GBGSV,3,1,11,45,69,134,30,29,66,102,32,26,50,299,29,35,33,197,27,1*72
$GBGSV,3,2,11,30,21,046,24,36,18,126,23,57,09,042,,14,06,302,17,1*72
$GBGSV,3,3,11,33,06,326,18,42,03,278,,24,02,303,,1*42
$GNRMC,231101.000,A,4910.427556,N,12304.399290,W,0.02,40.03,080125,,,D,V*21
$GNVTG,40.03,T,,M,0.02,N,0.04,K,D*17
$PAIRLOG,Full*51
$GNGGA,231102.000,4910.427646,N,12304.399386,W,2,30,0.46,2.589,M,-16.816,M,,*41
$GNGLL,4910.427646,N,12304.399386,W,231102.000,A,D*50
$GNGSA,A,3,19,17,24,14,06,12,15,13,02,11,,,0.77,0.46,0.62,1*0B
$GNGSA,A,3,76,85,75,67,68,,,,,,,,0.77,0.46,0.62,2*05
$GNGSA,A,3,24,31,33,05,03,26,09,,,,,,0.77,0.46,0.62,3*0A
$GNGSA,A,3,45,29,26,35,30,36,14,33,,,,,0.77,0.46,0.62,4*09
$GPGSV,3,1,12,19,82,145,37,17,55,060,34,24,52,286,33,46,33,188,32,1*6B
$GPGSV,3,2,12,14,30,095,30,06,29,151,26,12,22,281,26,15,10,238,25,1*64
$GPGSV,3,3,12,13,09,205,23,02,08,031,22,11,05,176,22,03,02,065,,1*65
$GLGSV,2,1,07,76,64,327,35,85,59,062,34,75,46,105,32,86,45,169,,1*79
$GLGSV,2,2,07,67,18,314,26,84,13,026,16,68,07,000,18,1*48
$GAGSV,3,1,10,24,74,302,33,31,48,087,30,33,40,075,30,12,31,144,23,7*72
$GAGSV,3,2,10,05,28,250,26,03,23,307,25,25,22,280,25,10,16,163,22,7*76
$GAGSV,3,3,10,26,12,030,23,09,06,203,18,7*70
$GBGSV,3,1,11,45,69,134,30,29,66,102,31,26,50,299,28,35,33,197,27,1*70
$GBGSV,3,2,11,30,21,046,24,36,18,126,23,57,09,042,,14,06,302,17,1*72
$GBGSV,3,3,11,33,06,326,18,42,03,278,,24,02,303,,1*42
$GNRMC,231102.000,A,4910.427646,N,12304.399386,W,0.03,40.03,080125,,,D,V*27
$GNVTG,40.03,T,,M,0.03,N,0.05,K,D*17
$PAIRLOG,Full*51
$PAIR010,0,1,2348,342680*3C
$GNGGA,231103.000,4910.427700,N,12304.399596,W,2,30,0.46,2.725,M,-16.817,M,,*41
$GNGLL,4910.427700,N,12304.399596,W,231103.000,A,D*55
$GNGSA,A,3,19,17,24,14,06,12,15,13,02,11,,,0.77,0.46,0.62,1*0B
$GNGSA,A,3,76,85,75,67,68,,,,,,,,0.77,0.46,0.62,2*05
$GNGSA,A,3,24,31,33,05,03,26,09,,,,,,0.77,0.46,0.62,3*0A
$GNGSA,A,3,45,29,26,35,30,36,14,33,,,,,0.77,0.46,0.62,4*09
$GPGSV,3,1,12,19,82,145,37,17,55,060,34,24,52,286,33,46,33,188,32,1*6B
$GPGSV,3,2,12,14,30,095,30,06,29,151,26,12,22,281,26,15,10,238,25,1*64
$GPGSV,3,3,12,13,09,205,24,02,08,031,22,11,05,176,22,03,02,065,,1*62
$GLGSV,2,1,07,76,64,327,35,85,59,062,34,75,46,105,32,86,45,169,,1*79
$GLGSV,2,2,07,67,18,314,26,84,13,026,16,68,07,000,18,1*48
$GAGSV,3,1,10,24,74,302,33,31,48,087,30,33,40,075,30,12,31,144,23,7*72
$GAGSV,3,2,10,05,28,250,26,03,23,307,25,25,22,280,25,10,16,163,23,7*77
$GAGSV,3,3,10,26,12,030,23,09,06,203,18,7*70
$GBGSV,3,1,11,45,69,134,30,29,66,102,31,26,50,299,28,35,33,197,27,1*70
$GBGSV,3,2,11,30,21,046,24,36,18,126,23,57,09,042,,14,06,302,17,1*72
$GBGSV,3,3,11,33,06,326,18,42,03,278,,24,02,303,,1*42
$GNRMC,231103.000,A,4910.427700,N,12304.399596,W,0.03,40.03,080125,,,D,V*22
$GNVTG,40.03,T,,M,0.03,N,0.05,K,D*17
$PAIRLOG,Full*51
$GNGGA,231104.000,4910.427760,N,12304.399866,W,2,30,0.46,2.816,M,-16.816,M,,*4C
$GNGLL,4910.427760,N,12304.399866,W,231104.000,A,D*56
$GNGSA,A,3,19,17,24,14,06,12,15,13,02,11,,,0.77,0.46,0.62,1*0B
$GNGSA,A,3,76,85,75,67,68,,,,,,,,0.77,0.46,0.62,2*05
$GNGSA,A,3,24,31,33,05,03,26,09,,,,,,0.77,0.46,0.62,3*0A
$GNGSA,A,3,45,29,26,35,30,36,14,33,,,,,0.77,0.46,0.62,4*09
$GPGSV,3,1,12,19,82,145,37,17,55,060,34,24,52,286,33,46,33,188,32,1*6B
$GPGSV,3,2,12,14,30,095,30,06,29,151,26,12,22,281,27,15,10,238,25,1*65
$GPGSV,3,3,12,13,09,205,23,02,08,031,22,11,05,176,22,03,02,065,,1*65
$GLGSV,2,1,07,76,64,327,35,85,59,062,34,75,46,105,32,86,45,169,,1*79
$GLGSV,2,2,07,67,18,314,27,84,13,026,16,68,07,000,18,1*49
$GAGSV,3,1,10,24,74,302,33,31,48,087,30,33,40,075,30,12,31,144,23,7*72
$GAGSV,3,2,10,05,28,250,27,03,23,307,25,25,22,280,24,10,16,163,22,7*76
$GAGSV,3,3,10,26,12,030,23,09,06,203,18,7*70
$GBGSV,3,1,11,45,69,134,30,29,66,102,31,26,50,299,28,35,33,197,27,1*70
$GBGSV,3,2,11,30,21,046,24,36,18,126,23,57,09,042,,14,06,302,17,1*72
$GBGSV,3,3,11,33,06,326,18,42,03,278,,24,02,303,,1*42
$GNRMC,231104.000,A,4910.427760,N,12304.399866,W,0.03,40.03,080125,,,D,V*21
$GNVTG,40.03,T,,M,0.03,N,0.06,K,D*14
$PAIRLOG,Full*51
$GNGGA,231105.000,4910.427832,N,12304.400178,W,2,30,0.46,2.993,M,-16.816,M,,*48
$GNGLL,4910.427832,N,12304.400178,W,231105.000,A,D*5E
$GNGSA,A,3,19,17,24,14,06,12,15,13,02,11,,,0.77,0.46,0.62,1*0B
$GNGSA,A,3,76,85,75,67,68,,,,,,,,0.77,0.46,0.62,2*05
$GNGSA,A,3,24,31,33,05,03,26,09,,,,,,0.77,0.46,0.62,3*0A
$GNGSA,A,3,45,29,26,35,30,36,14,33,,,,,0.77,0.46,0.62,4*09
$GPGSV,3,1,12,19,82,145,37,17,55,060,34,24,52,286,33,46,33,188,32,1*6B
$GPGSV,3,2,12,14,30,095,30,06,29,151,26,12,22,281,27,15,10,238,26,1*66
$GPGSV,3,3,12,13,09,205,24,02,08,031,22,11,05,176,23,03,02,065,,1*63
$GLGSV,2,1,07,76,64,327,35,85,59,062,34,75,46,105,32,86,45,169,,1*79
$GLGSV,2,2,07,67,18,314,26,84,13,026,16,68,07,000,18,1*48
$GAGSV,3,1,10,24,74,302,33,31,48,087,30,33,40,075,31,12,31,144,23,7*73
$GAGSV,3,2,10,05,28,250,27,03,23,307,25,25,22,280,24,10,16,163,22,7*76
$GAGSV,3,3,10,26,12,030,23,09,06,203,18,7*70
$GBGSV,3,1,11,45,69,134,29,29,66,102,31,26,50,299,28,35,33,197,26,1*79
$GBGSV,3,2,11,30,21,046,23,36,18,126,22,57,09,042,,14,06,302,16,1*75
$GBGSV,3,3,11,33,06,326,18,42,03,278,,24,02,303,,1*42
$GNRMC,231105.000,A,4910.427832,N,12304.400178,W,0.03,40.03,080125,,,D,V*29
$GNVTG,40.03,T,,M,0.03,N,0.06,K,D*14
$PAIRLOG,Full*51
$GNGGA,231106.000,4910.427964,N,12304.400466,W,2,30,0.46,3.124,M,-16.816,M,,*46
$GNGLL,4910.427964,N,12304.400466,W,231106.000,A,D*55
$GNGSA,A,3,19,17,24,14,06,12,15,13,02,11,,,0.77,0.46,0.62,1*0B
$GNGSA,A,3,76,85,75,67,68,,,,,,,,0.77,0.46,0.62,2*05
$GNGSA,A,3,24,31,33,05,03,26,09,,,,,,0.77,0.46,0.62,3*0A
$GNGSA,A,3,45,29,26,35,30,36,14,33,,,,,0.77,0.46,0.62,4*09
$GPGSV,3,1,12,19,82,145,38,17,55,060,35,24,52,286,34,46,33,188,32,1*62
$GPGSV,3,2,12,14,30,095,30,06,29,151,26,12,22,281,28,15,10,238,27,1*68
$GPGSV,3,3,12,13,09,205,24,02,08,031,23,11,05,176,23,03,02,065,,1*62
$GLGSV,2,1,07,76,64,327,35,85,59,062,34,75,46,105,32,86,45,169,,1*79
$GLGSV,2,2,07,67,18,314,26,84,13,026,16,68,07,000,17,1*47
$GAGSV,3,1,10,24,74,302,33,31,48,087,31,33,40,075,31,12,31,144,24,7*75
$GAGSV,3,2,10,05,28,250,27,03,23,307,26,25,22,280,24,10,16,163,23,7*74
$GAGSV,3,3,10,26,12,030,24,09,06,203,18,7*77
$GBGSV,3,1,11,45,69,134,28,29,66,102,31,26,50,299,27,35,33,197,26,1*77
$GBGSV,3,2,11,30,21,046,22,36,18,126,21,57,09,042,,14,06,302,15,1*74
$GBGSV,3,3,11,33,06,326,18,42,03,278,,24,02,303,,1*42
$GNRMC,231106.000,A,4910.427964,N,12304.400466,W,0.04,40.03,080125,,,D,V*25
$GNVTG,40.03,T,,M,0.04,N,0.07,K,D*12
$PAIRLOG,Full*51
$GNGGA,231107.000,4910.428072,N,12304.400568,W,2,30,0.46,3.111,M,-16.816,M,,*4F
$GNGLL,4910.428072,N,12304.400568,W,231107.000,A,D*5A
$GNGSA,A,3,19,17,24,14,06,12,15,13,02,11,,,0.77,0.46,0.62,1*0B
$GNGSA,A,3,76,85,75,67,68,,,,,,,,0.77,0.46,0.62,2*05
$GNGSA,A,3,24,31,33,05,03,26,09,,,,,,0.77,0.46,0.62,3*0A
$GNGSA,A,3,45,29,26,35,30,36,14,33,,,,,0.77,0.46,0.62,4*09
$GPGSV,3,1,12,19,82,145,38,17,55,060,35,24,52,286,34,46,33,188,32,1*62
$GPGSV,3,2,12,14,30,095,30,06,29,151,26,12,22,281,27,15,10,238,27,1*67
$GPGSV,3,3,12,13,09,205,24,02,08,031,23,11,05,176,23,03,02,065,,1*62
$GLGSV,2,1,07,76,64,327,35,85,59,062,34,75,46,105,31,86,45,169,,1*7A
$GLGSV,2,2,07,67,18,314,27,84,13,026,16,68,07,000,17,1*46
$GAGSV,3,1,10,24,74,302,33,31,48,087,31,33,40,075,31,12,31,144,23,7*72
$GAGSV,3,2,10,05,28,250,26,03,23,307,26,25,22,280,24,10,16,163,23,7*75
$GAGSV,3,3,10,26,12,030,25,09,06,203,19,7*77
$GBGSV,3,1,11,45,69,134,28,29,66,102,31,26,50,299,27,35,33,197,26,1*77
$GBGSV,3,2,11,30,21,046,22,36,18,126,22,57,09,042,,14,06,302,15,1*77
$GBGSV,3,3,11,33,06,326,18,42,03,278,,24,02,303,,1*42
$GNRMC,231107.000,A,4910.428072,N,12304.400568,W,0.03,40.03,080125,,,D,V*2D
$GNVTG,40.03,T,,M,0.03,N,0.06,K,D*14
$PAIRLOG,Full*51
$GNGGA,231108.000,4910.428114,N,12304.400688,W,2,30,0.46,3.095,M,-16.816,M,,*41
$GNGLL,4910.428114,N,12304.400688,W,231108.000,A,D*59
$GNGSA,A,3,19,17,24,14,06,12,15,13,02,11,,,0.77,0.46,0.62,1*0B
$GNGSA,A,3,76,85,75,67,68,,,,,,,,0.77,0.46,0.62,2*05
$GNGSA,A,3,24,31,33,05,03,26,09,,,,,,0.77,0.46,0.62,3*0A
$GNGSA,A,3,45,29,26,35,30,36,14,33,,,,,0.77,0.46,0.62,4*09
$GPGSV,3,1,12,19,82,145,38,17,55,060,35,24,52,286,34,46,33,188,33,1*63
$GPGSV,3,2,12,14,30,095,30,06,29,151,26,12,22,281,27,15,10,238,27,1*67
$GPGSV,3,3,12,13,09,205,24,02,08,031,23,11,05,176,23,03,02,065,,1*62
$GLGSV,2,1,07,76,64,327,36,85,59,062,35,75,46,105,31,86,45,169,,1*78
$GLGSV,2,2,07,67,18,314,27,84,13,026,16,68,07,000,17,1*46
$GAGSV,3,1,10,24,74,302,33,31,48,087,31,33,40,075,31,12,31,144,23,7*72
$GAGSV,3,2,10,05,28,250,26,03,23,307,26,25,22,280,24,10,16,163,23,7*75
$GAGSV,3,3,10,26,12,030,25,09,06,203,19,7*77
$GBGSV,3,1,11,45,69,134,28,29,66,102,31,26,50,299,27,35,33,197,26,1*77
$GBGSV,3,2,11,30,21,046,23,36,18,126,22,57,09,042,,14,06,302,17,1*74
$GBGSV,3,3,11,33,06,326,18,42,03,278,,24,02,303,,1*42
$GNRMC,231108.000,A,4910.428114,N,12304.400688,W,0.03,40.03,080125,,,D,V*2E
$GNVTG,40.03,T,,M,0.03,N,0.06,K,D*14
$PAIRLOG,Full*51
$GNGGA,231109.000,4910.428126,N,12304.400802,W,2,30,0.46,3.152,M,-16.817,M,,*46
$GNGLL,4910.428126,N,12304.400802,W,231109.000,A,D*55
$GNGSA,A,3,19,17,24,14,06,12,15,13,02,11,,,0.77,0.46,0.62,1*0B
$GNGSA,A,3,76,85,75,67,68,,,,,,,,0.77,0.46,0.62,2*05
$GNGSA,A,3,24,31,33,05,03,26,09,,,,,,0.77,0.46,0.62,3*0A
$GNGSA,A,3,45,29,26,35,30,36,14,33,,,,,0.77,0.46,0.62,4*09
$GPGSV,3,1,12,19,82,145,38,17,55,060,35,24,52,286,34,46,33,188,33,1*63
$GPGSV,3,2,12,14,30,095,30,06,29,151,26,12,22,281,27,15,10,238,27,1*67
$GPGSV,3,3,12,13,09,205,24,02,08,031,23,11,05,176,23,03,02,065,,1*62
$GLGSV,2,1,07,76,64,327,36,85,59,062,35,75,46,105,31,86,45,169,,1*78
$GLGSV,2,2,07,67,18,314,28,84,13,026,16,68,07,000,17,1*49
$GAGSV,3,1,10,24,74,302,33,31,48,087,31,33,40,075,31,12,31,144,23,7*72
$GAGSV,3,2,10,05,28,250,26,03,23,307,26,25,22,280,25,10,16,163,23,7*74
$GAGSV,3,3,10,26,12,030,25,09,06,203,19,7*77
$GBGSV,3,1,11,45,69,134,28,29,66,102,30,26,50,299,27,35,33,197,26,1*76
$GBGSV,3,2,11,30,21,046,23,36,18,126,22,57,09,042,,14,06,302,15,1*76
$GBGSV,3,3,11,33,06,326,18,42,03,278,,24,02,303,,1*42
$GNRMC,231109.000,A,4910.428126,N,12304.400802,W,0.03,40.03,080125,,,D,V*22
$GNVTG,40.03,T,,M,0.03,N,0.06,K,D*14
$PAIRLOG,Full*51
$GNGGA,231110.000,4910.428138,N,12304.400940,W,2,30,0.46,3.154,M,-16.816,M,,*41
$GNGLL,4910.428138,N,12304.400940,W,231110.000,A,D*55
$GNGSA,A,3,19,17,24,14,06,12,15,13,02,11,,,0.77,0.46,0.62,1*0B
$GNGSA,A,3,76,85,75,67,68,,,,,,,,0.77,0.46,0.62,2*05
$GNGSA,A,3,24,31,33,05,03,26,09,,,,,,0.77,0.46,0.62,3*0A
$GNGSA,A,3,45,29,26,35,30,36,14,33,,,,,0.77,0.46,0.62,4*09
$GPGSV,3,1,12,19,82,145,38,17,55,060,35,24,52,286,34,46,33,188,33,1*63
$GPGSV,3,2,12,14,30,095,31,06,29,151,26,12,22,281,28,15,10,238,28,1*66
$GPGSV,3,3,12,13,09,205,24,02,08,031,23,11,05,176,23,03,02,065,,1*62
$GLGSV,2,1,07,76,64,327,36,85,59,062,35,75,46,105,31,86,45,169,,1*78
$GLGSV,2,2,07,67,18,314,28,84,13,026,16,68,07,000,17,1*49
$GAGSV,3,1,10,24,74,302,33,31,48,087,32,33,40,075,31,12,31,144,24,7*76
$GAGSV,3,2,10,05,28,250,26,03,23,307,26,25,22,280,25,10,16,163,23,7*74
$GAGSV,3,3,10,26,12,030,25,09,06,203,19,7*77
$GBGSV,3,1,11,45,69,134,29,29,66,102,30,26,50,299,27,35,33,197,26,1*77
$GBGSV,3,2,11,30,21,046,22,36,18,126,22,57,09,042,,14,06,302,16,1*74
$GBGSV,3,3,11,33,06,326,18,42,03,278,,24,02,303,,1*42
$GNRMC,231110.000,A,4910.428138,N,12304.400940,W,0.03,40.03,080125,,,D,V*22
$GNVTG,40.03,T,,M,0.03,N,0.06,K,D*14
$PAIRLOG,Full*51
$GNGGA,231111.000,4910.428216,N,12304.400946,W,2,30,0.46,3.166,M,-16.816,M,,*48
$GNGLL,4910.428216,N,12304.400946,W,231111.000,A,D*5D
$GNGSA,A,3,19,17,24,14,06,12,15,13,02,11,,,0.77,0.46,0.62,1*0B
$GNGSA,A,3,76,85,75,67,68,,,,,,,,0.77,0.46,0.62,2*05
$GNGSA,A,3,24,31,33,05,03,26,09,,,,,,0.77,0.46,0.62,3*0A
$GNGSA,A,3,45,29,26,35,30,36,14,33,,,,,0.77,0.46,0.62,4*09
$GPGSV,3,1,12,19,82,145,38,17,55,060,35,24,52,286,34,46,33,188,33,1*63
$GPGSV,3,2,12,14,30,095,31,06,29,151,27,12,22,281,28,15,10,238,28,1*67
$GPGSV,3,3,12,13,09,205,24,02,08,031,24,11,05,176,23,03,02,065,,1*65
$GLGSV,2,1,07,76,64,327,36,85,59,062,34,75,46,105,31,86,45,169,,1*79
$GLGSV,2,2,07,67,18,314,28,84,13,026,16,68,07,000,17,1*49
$GAGSV,3,1,10,24,74,302,33,31,48,087,32,33,40,075,31,12,31,144,24,7*76
$GAGSV,3,2,10,05,28,250,26,03,23,307,26,25,22,280,25,10,16,163,23,7*74
$GAGSV,3,3,10,26,12,030,24,09,06,203,19,7*76
$GBGSV,3,1,11,45,69,134,29,29,66,102,30,26,50,299,27,35,33,197,26,1*77
$GBGSV,3,2,11,30,21,046,21,36,18,126,22,57,09,042,,14,06,302,15,1*74
$GBGSV,3,3,11,33,06,326,18,42,03,278,,24,02,303,,1*42
$GNRMC,231111.000,A,4910.428216,N,12304.400946,W,0.03,40.03,080125,,,D,V*2A
$GNVTG,40.03,T,,M,0.03,N,0.05,K,D*17
$PAIRLOG,Full*51
$GNGGA,231112.000,4910.428270,N,12304.401018,W,2,30,0.46,3.162,M,-16.816,M,,*4C
$GNGLL,4910.428270,N,12304.401018,W,231112.000,A,D*5D
$GNGSA,A,3,19,17,24,14,06,12,15,13,02,11,,,0.77,0.46,0.62,1*0B
$GNGSA,A,3,76,85,75,67,68,,,,,,,,0.77,0.46,0.62,2*05
$GNGSA,A,3,24,31,33,05,03,26,09,,,,,,0.77,0.46,0.62,3*0A
$GNGSA,A,3,45,29,26,35,30,36,14,33,,,,,0.77,0.46,0.62,4*09
$GPGSV,3,1,12,19,82,145,38,17,55,060,35,24,52,286,34,46,33,188,33,1*63
$GPGSV,3,2,12,14,30,095,31,06,29,151,27,12,22,281,28,15,10,238,27,1*68
$GPGSV,3,3,12,13,09,205,24,02,08,031,24,11,05,176,23,03,02,065,,1*65
$GLGSV,2,1,07,76,64,327,36,85,59,062,35,75,46,105,31,86,45,169,,1*78
$GLGSV,2,2,07,67,18,314,28,84,13,026,16,68,07,000,17,1*49
$GAGSV,3,1,10,24,74,302,33,31,48,087,32,33,40,075,31,12,31,144,24,7*76
$GAGSV,3,2,10,05,28,250,26,03,23,307,26,25,22,280,25,10,16,163,23,7*74
$GAGSV,3,3,10,26,12,030,24,09,06,203,19,7*76
$GBGSV,3,1,11,45,69,134,29,29,66,102,30,26,50,299,27,35,33,197,26,1*77
$GBGSV,3,2,11,30,21,046,21,36,18,126,22,57,09,042,,14,06,302,16,1*77
$GBGSV,3,3,11,33,06,326,18,42,03,278,,24,02,303,,1*42
$GNRMC,231112.000,A,4910.428270,N,12304.401018,W,0.03,40.03,080125,,,D,V*2A
$GNVTG,40.03,T,,M,0.03,N,0.05,K,D*17
$PAIRLOG,Full*51
$GNGGA,231113.000,4910.428324,N,12304.401060,W,2,30,0.46,3.041,M,-16.816,M,,*42
$GNGLL,4910.428324,N,12304.401060,W,231113.000,A,D*53
$GNGSA,A,3,19,17,24,14,06,12,15,13,02,11,,,0.77,0.46,0.62,1*0B
$GNGSA,A,3,76,85,75,67,68,,,,,,,,0.77,0.46,0.62,2*05
$GNGSA,A,3,24,31,33,05,03,26,09,,,,,,0.77,0.46,0.62,3*0A
$GNGSA,A,3,45,29,26,35,30,36,14,33,,,,,0.77,0.46,0.62,4*09
$GPGSV,3,1,12,19,82,145,37,17,55,060,35,24,52,286,34,46,33,188,33,1*6C
$GPGSV,3,2,12,14,30,095,31,06,30,151,27,12,22,281,28,15,10,238,27,1*60
$GPGSV,3,3,12,13,09,205,24,02,08,031,24,11,05,176,22,03,02,065,,1*64
$GLGSV,2,1,07,76,64,328,36,85,58,061,35,75,46,106,31,86,45,169,,1*76
$GLGSV,2,2,07,67,18,314,27,84,13,026,16,68,07,000,17,1*46
$GAGSV,3,1,10,24,74,303,33,31,48,087,32,33,40,074,31,12,31,144,24,7*76
$GAGSV,3,2,10,05,28,250,26,03,23,307,26,25,22,280,25,10,16,163,23,7*74
$GAGSV,3,3,10,26,12,029,24,09,05,203,19,7*7D
$GBGSV,3,1,11,45,68,134,28,29,66,101,30,26,51,299,26,35,33,197,26,1*74
$GBGSV,3,2,11,30,21,046,21,36,18,126,22,57,09,042,,14,06,302,15,1*74
$GBGSV,3,3,11,33,06,326,18,42,03,277,,24,02,303,,1*4D
$GNRMC,231113.000,A,4910.428324,N,12304.401060,W,0.03,40.03,080125,,,D,V*24
$GNVTG,40.03,T,,M,0.03,N,0.05,K,D*17
$PAIRLOG,Full*51
$GNGGA,231114.000,4910.428384,N,12304.401102,W,2,30,0.46,2.869,M,-16.816,M,,*49
$GNGLL,4910.428384,N,12304.401102,W,231114.000,A,D*5B
$GNGSA,A,3,19,17,24,14,06,12,15,13,02,11,,,0.77,0.46,0.62,1*0B
$GNGSA,A,3,76,85,75,67,68,,,,,,,,0.77,0.46,0.62,2*05
$GNGSA,A,3,24,31,33,05,03,26,09,,,,,,0.77,0.46,0.62,3*0A
$GNGSA,A,3,45,29,26,35,30,36,14,33,,,,,0.77,0.46,0.62,4*09
$GPGSV,3,1,12,19,82,145,37,17,55,060,35,24,52,286,34,46,33,188,33,1*6C
$GPGSV,3,2,12,14,30,095,31,06,30,151,27,12,22,281,28,15,10,238,27,1*60
$GPGSV,3,3,12,13,09,205,24,02,08,031,24,11,05,176,23,03,02,065,,1*65
$GLGSV,2,1,07,76,64,328,36,85,58,061,35,75,46,106,31,86,45,169,,1*76
$GLGSV,2,2,07,67,18,314,26,84,13,026,16,68,07,000,17,1*47
$GAGSV,3,1,10,24,74,303,33,31,48,087,31,33,40,074,30,12,31,144,24,7*74
$GAGSV,3,2,10,05,28,250,26,03,23,307,26,25,22,280,25,10,16,163,23,7*74
$GAGSV,3,3,10,26,12,029,24,09,05,203,19,7*7D
$GBGSV,3,1,11,45,68,134,28,29,66,101,30,26,51,299,26,35,33,197,25,1*77
$GBGSV,3,2,11,30,21,046,21,36,18,126,22,57,09,042,,14,06,302,15,1*74
$GBGSV,3,3,11,33,06,326,17,42,03,277,,24,02,303,,1*42
$GNRMC,231114.000,A,4910.428384,N,12304.401102,W,0.02,40.03,080125,,,D,V*2D
$GNVTG,40.03,T,,M,0.02,N,0.04,K,D*17
$PAIRLOG,Full*51
$GNGGA,231115.000,4910.428402,N,12304.401156,W,2,30,0.46,2.750,M,-16.817,M,,*44
$GNGLL,4910.428402,N,12304.401156,W,231115.000,A,D*52
$GNGSA,A,3,19,17,24,14,06,12,15,13,02,11,,,0.77,0.46,0.62,1*0B
$GNGSA,A,3,76,85,75,67,68,,,,,,,,0.77,0.46,0.62,2*05
$GNGSA,A,3,24,31,33,05,03,26,09,,,,,,0.77,0.46,0.62,3*0A
$GNGSA,A,3,45,29,26,35,30,36,14,33,,,,,0.77,0.46,0.62,4*09
$GPGSV,3,1,12,19,82,145,37,17,55,060,35,24,52,286,34,46,33,188,33,1*6C
$GPGSV,3,2,12,14,30,095,31,06,30,151,28,12,22,281,28,15,10,238,27,1*6F
$GPGSV,3,3,12,13,09,205,23,02,08,031,24,11,05,176,23,03,02,065,,1*62
$GLGSV,2,1,07,76,64,328,36,85,58,061,34,75,46,106,31,86,45,169,,1*77
$GLGSV,2,2,07,67,18,314,26,84,13,026,16,68,07,000,17,1*47
$GAGSV,3,1,10,24,74,303,33,31,48,087,31,33,40,074,30,12,31,144,24,7*74
$GAGSV,3,2,10,05,28,250,26,03,23,307,26,25,22,280,25,10,16,163,23,7*74
$GAGSV,3,3,10,26,12,029,24,09,05,203,19,7*7D
$GBGSV,3,1,11,45,68,134,27,29,66,101,29,26,51,299,25,35,33,197,24,1*72
$GBGSV,3,2,11,30,21,046,20,36,18,126,21,57,09,042,,14,06,302,15,1*76
$GBGSV,3,3,11,33,06,326,16,42,03,277,,24,02,303,,1*43
$GNRMC,231115.000,A,4910.428402,N,12304.401156,W,0.02,40.03,080125,,,D,V*24
$GNVTG,40.03,T,,M,0.02,N,0.04,K,D*17
$PAIRLOG,Full*51
$GNGGA,231116.000,4910.428372,N,12304.401228,W,2,30,0.46,2.603,M,-16.816,M,,*4B
$GNGLL,4910.428372,N,12304.401228,W,231116.000,A,D*5B
$GNGSA,A,3,19,17,24,14,06,12,15,13,02,11,,,0.77,0.46,0.62,1*0B
$GNGSA,A,3,76,85,75,67,68,,,,,,,,0.77,0.46,0.62,2*05
$GNGSA,A,3,24,31,33,05,03,26,09,,,,,,0.77,0.46,0.62,3*0A
$GNGSA,A,3,45,29,26,35,30,36,14,33,,,,,0.77,0.46,0.62,4*09
$GPGSV,3,1,12,19,82,145,37,17,55,060,35,24,52,286,34,46,33,188,33,1*6C
$GPGSV,3,2,12,14,30,095,31,06,30,151,28,12,22,281,28,15,10,238,27,1*6F
$GPGSV,3,3,12,13,09,205,23,02,08,031,24,11,05,176,23,03,02,065,,1*62
$GLGSV,2,1,07,76,64,328,36,85,58,061,34,75,46,106,31,86,45,169,,1*77
$GLGSV,2,2,07,67,18,314,25,84,13,026,16,68,07,000,17,1*44
$GAGSV,3,1,10,24,74,303,33,31,48,087,31,33,40,074,30,12,31,144,24,7*74
$GAGSV,3,2,10,05,28,250,26,03,23,307,26,25,22,280,25,10,16,163,23,7*74
$GAGSV,3,3,10,26,12,029,24,09,05,203,19,7*7D
$GBGSV,3,1,11,45,68,134,27,29,66,101,29,26,51,299,25,35,33,197,24,1*72
$GBGSV,3,2,11,30,21,046,20,36,18,126,21,57,09,042,,14,06,302,15,1*76
$GBGSV,3,3,11,33,06,326,16,42,03,277,,24,02,303,,1*43
$GNRMC,231116.000,A,4910.428372,N,12304.401228,W,0.02,40.03,080125,,,D,V*2D
$GNVTG,40.03,T,,M,0.02,N,0.04,K,D*17
$PAIRLOG,Full*51
$GNGGA,231117.000,4910.428360,N,12304.401306,W,2,30,0.46,2.562,M,-16.816,M,,*40
$GNGLL,4910.428360,N,12304.401306,W,231117.000,A,D*54
$GNGSA,A,3,19,17,24,14,06,12,15,13,02,11,,,0.77,0.46,0.62,1*0B
$GNGSA,A,3,76,85,75,67,68,,,,,,,,0.77,0.46,0.62,2*05
$GNGSA,A,3,24,31,33,05,03,26,09,,,,,,0.77,0.46,0.62,3*0A
$GNGSA,A,3,45,29,26,35,30,36,33,14,,,,,0.77,0.46,0.62,4*09
$GPGSV,3,1,12,19,82,145,38,17,55,060,35,24,52,286,34,46,33,188,33,1*63
$GPGSV,3,2,12,14,30,095,32,06,30,151,28,12,22,281,29,15,10,238,27,1*6D
$GPGSV,3,3,12,13,09,205,23,02,08,031,24,11,05,176,23,03,02,065,,1*62
$GLGSV,2,1,07,76,64,328,36,85,58,061,34,75,46,106,32,86,45,169,,1*74
$GLGSV,2,2,07,67,18,314,25,84,13,026,16,68,07,000,17,1*44
$GAGSV,3,1,10,24,74,303,33,31,48,087,31,33,40,074,30,12,31,144,24,7*74
$GAGSV,3,2,10,05,28,250,26,03,23,307,26,25,22,280,25,10,16,163,23,7*74
$GAGSV,3,3,10,26,12,029,24,09,05,203,19,7*7D
$GBGSV,3,1,10,45,68,134,27,29,66,101,29,26,51,299,25,35,33,197,24,1*73
$GBGSV,3,2,10,30,21,046,20,36,18,126,21,57,09,042,,33,06,326,16,1*77
$GBGSV,3,3,10,14,06,302,16,24,02,303,,1*76
$GNRMC,231117.000,A,4910.428360,N,12304.401306,W,0.02,40.03,080125,,,D,V*22
$GNVTG,40.03,T,,M,0.02,N,0.03,K,D*10
$PAIRLOG,Full*51
$GNGGA,231118.000,4910.428282,N,12304.401384,W,2,30,0.46,2.403,M,-16.817,M,,*4F
$GNGLL,4910.428282,N,12304.401384,W,231118.000,A,D*5C
$GNGSA,A,3,19,17,24,14,06,12,15,13,02,11,,,0.77,0.46,0.62,1*0B
$GNGSA,A,3,76,85,75,67,68,,,,,,,,0.77,0.46,0.62,2*05
$GNGSA,A,3,24,31,33,05,03,26,09,,,,,,0.77,0.46,0.62,3*0A
$GNGSA,A,3,45,29,26,35,30,36,14,33,,,,,0.77,0.46,0.62,4*09
$GPGSV,3,1,12,19,82,145,38,17,55,060,35,24,52,286,34,46,33,188,33,1*63
$GPGSV,3,2,12,14,30,095,32,06,30,151,28,12,22,281,29,15,10,238,27,1*6D
$GPGSV,3,3,12,13,09,205,22,02,08,031,24,11,05,176,23,03,02,065,,1*63
$GLGSV,2,1,07,76,64,328,36,85,58,061,34,75,46,106,32,86,45,169,,1*74
$GLGSV,2,2,07,67,18,314,26,84,13,026,16,68,07,000,17,1*47
$GAGSV,3,1,10,24,74,303,33,31,48,087,31,33,40,074,30,12,31,144,24,7*74
$GAGSV,3,2,10,05,28,250,26,03,23,307,26,25,22,280,24,10,16,163,23,7*75
$GAGSV,3,3,10,26,12,029,24,09,05,203,19,7*7D
$GBGSV,3,1,11,45,68,134,27,29,66,101,29,26,51,299,26,35,33,197,24,1*71
$GBGSV,3,2,11,30,21,046,20,36,18,126,21,57,09,042,,14,06,302,16,1*75
$GBGSV,3,3,11,33,06,326,16,42,03,277,,24,02,303,,1*43
$GNRMC,231118.000,A,4910.428282,N,12304.401384,W,0.02,40.03,080125,,,D,V*2A
$GNVTG,40.03,T,,M,0.02,N,0.03,K,D*10
$PAIRLOG,Full*51
$GNGGA,231119.000,4910.428192,N,12304.401420,W,2,30,0.46,2.302,M,-16.816,M,,*42
$GNGLL,4910.428192,N,12304.401420,W,231119.000,A,D*56
$GNGSA,A,3,19,17,24,14,06,12,15,13,02,11,,,0.77,0.46,0.62,1*0B
$GNGSA,A,3,76,85,75,67,68,,,,,,,,0.77,0.46,0.62,2*05
$GNGSA,A,3,24,31,33,05,03,26,09,,,,,,0.77,0.46,0.62,3*0A
$GNGSA,A,3,45,29,26,35,30,36,14,33,,,,,0.77,0.46,0.62,4*09
$GPGSV,3,1,12,19,82,145,38,17,55,060,35,24,52,286,34,46,33,188,33,1*63
$GPGSV,3,2,12,14,30,095,32,06,30,151,28,12,22,281,29,15,10,238,26,1*6C
$GPGSV,3,3,12,13,09,205,22,02,08,031,24,11,05,176,23,03,02,065,,1*63
$GLGSV,2,1,07,76,64,328,36,85,58,061,34,75,46,106,32,86,45,169,,1*74
$GLGSV,2,2,07,67,18,314,26,84,13,026,16,68,07,000,17,1*47
$GAGSV,3,1,10,24,74,303,33,31,48,087,30,33,40,074,30,12,31,144,24,7*75
$GAGSV,3,2,10,05,28,250,26,03,23,307,26,25,22,280,24,10,16,163,23,7*75
$GAGSV,3,3,10,26,12,029,24,09,05,203,19,7*7D
$GBGSV,3,1,11,45,68,134,26,29,66,101,29,26,51,299,26,35,33,197,24,1*70
$GBGSV,3,2,11,30,21,046,20,36,18,126,21,57,09,042,,14,06,302,16,1*75
$GBGSV,3,3,11,33,06,326,16,42,03,277,,24,02,303,,1*43
$GNRMC,231119.000,A,4910.428192,N,12304.401420,W,0.02,40.03,080125,,,D,V*20
$GNVTG,40.03,T,,M,0.02,N,0.03,K,D*10
$PAIRLOG,Full*51
$GNGGA,231120.000,4910.428072,N,12304.401468,W,2,30,0.46,2.264,M,-16.816,M,,*4A
$GNGLL,4910.428072,N,12304.401468,W,231120.000,A,D*5F
$GNGSA,A,3,19,17,24,14,06,12,15,13,02,11,,,0.77,0.46,0.62,1*0B
$GNGSA,A,3,76,85,75,67,68,,,,,,,,0.77,0.46,0.62,2*05
$GNGSA,A,3,24,31,33,05,03,26,09,,,,,,0.77,0.46,0.62,3*0A
$GNGSA,A,3,45,29,26,35,30,36,14,33,,,,,0.77,0.46,0.62,4*09
$GPGSV,3,1,12,19,82,145,38,17,55,060,35,24,52,286,34,46,33,188,33,1*63
$GPGSV,3,2,12,14,30,095,31,06,30,151,28,12,22,281,29,15,10,238,26,1*6F
$GPGSV,3,3,12,13,09,205,22,02,08,031,24,11,05,176,23,03,02,065,,1*63
$GLGSV,2,1,07,76,64,328,36,85,58,061,34,75,46,106,33,86,45,169,,1*75
$GLGSV,2,2,07,67,18,314,26,84,13,026,16,68,07,000,17,1*47
$GAGSV,3,1,10,24,74,303,33,31,48,087,30,33,40,074,30,12,31,144,24,7*75
$GAGSV,3,2,10,05,28,250,26,03,23,307,26,25,22,280,24,10,16,163,23,7*75
$GAGSV,3,3,10,26,12,029,24,09,05,203,19,7*7D
$GBGSV,3,1,11,45,68,134,26,29,66,101,29,26,51,299,26,35,33,197,24,1*70
$GBGSV,3,2,11,30,21,046,20,36,18,126,21,57,09,042,,14,06,302,16,1*75
$GBGSV,3,3,11,33,06,326,16,42,03,277,,24,02,303,,1*43
$GNRMC,231120.000,A,4910.428072,N,12304.401468,W,0.02,40.03,080125,,,D,V*29
$GNVTG,40.03,T,,M,0.02,N,0.04,K,D*17
$PAIRLOG,Full*51
$GNGGA,231121.000,4910.428054,N,12304.401480,W,2,30,0.46,2.248,M,-16.816,M,,*47
$GNGLL,4910.428054,N,12304.401480,W,231121.000,A,D*5C
$GNGSA,A,3,19,17,24,14,06,12,15,13,02,11,,,0.77,0.46,0.62,1*0B
$GNGSA,A,3,76,85,75,67,68,,,,,,,,0.77,0.46,0.62,2*05
$GNGSA,A,3,24,31,33,05,03,26,09,,,,,,0.77,0.46,0.62,3*0A
$GNGSA,A,3,45,29,26,35,30,36,14,33,,,,,0.77,0.46,0.62,4*09
$GPGSV,3,1,12,19,82,145,38,17,55,060,35,24,52,286,34,46,33,188,33,1*63
$GPGSV,3,2,12,14,30,095,31,06,30,151,28,12,22,281,29,15,10,238,26,1*6F
$GPGSV,3,3,12,13,09,205,22,02,08,031,23,11,05,176,23,03,02,065,,1*64
$GLGSV,2,1,07,76,64,328,36,85,58,061,34,75,46,106,33,86,45,169,,1*75
$GLGSV,2,2,07,67,18,314,26,84,13,026,16,68,07,000,17,1*47
$GAGSV,3,1,10,24,74,303,33,31,48,087,30,33,40,074,30,12,31,144,23,7*72
$GAGSV,3,2,10,05,28,250,26,03,23,307,26,25,22,280,24,10,16,163,23,7*75
$GAGSV,3,3,10,26,12,029,24,09,05,203,19,7*7D
$GBGSV,3,1,11,45,68,134,26,29,66,101,29,26,51,299,26,35,33,197,24,1*70
$GBGSV,3,2,11,30,21,046,20,36,18,126,20,57,09,042,,14,06,302,16,1*74
$GBGSV,3,3,11,33,06,326,16,42,03,277,,24,02,303,,1*43
$GNRMC,231121.000,A,4910.428054,N,12304.401480,W,0.02,40.03,080125,,,D,V*2A
$GNVTG,40.03,T,,M,0.02,N,0.04,K,D*17
$PAIRLOG,Full*51
$GNGGA,231122.000,4910.427946,N,12304.401432,W,2,30,0.46,2.283,M,-16.816,M,,*4F
$GNGLL,4910.427946,N,12304.401432,W,231122.000,A,D*53
$GNGSA,A,3,19,17,24,14,06,12,15,13,02,11,,,0.77,0.46,0.62,1*0B
$GNGSA,A,3,76,85,75,67,68,,,,,,,,0.77,0.46,0.62,2*05
$GNGSA,A,3,24,31,33,05,03,26,09,,,,,,0.77,0.46,0.62,3*0A
$GNGSA,A,3,45,29,26,35,30,36,14,33,,,,,0.77,0.46,0.62,4*09
$GPGSV,3,1,12,19,82,145,38,17,55,060,35,24,52,286,34,46,33,188,33,1*63
$GPGSV,3,2,12,14,30,095,31,06,30,151,28,12,22,281,29,15,10,238,26,1*6F
$GPGSV,3,3,12,13,09,205,22,02,08,031,23,11,05,176,23,03,02,065,,1*64
$GLGSV,2,1,07,76,64,328,36,85,58,061,34,75,46,106,33,86,45,169,,1*75
$GLGSV,2,2,07,67,18,314,26,84,13,026,16,68,07,000,17,1*47
$GAGSV,3,1,10,24,74,303,33,31,48,087,30,33,40,074,30,12,31,144,23,7*72
$GAGSV,3,2,10,05,28,250,26,03,23,307,26,25,22,280,24,10,16,163,23,7*75
$GAGSV,3,3,10,26,12,029,24,09,05,203,19,7*7D
$GBGSV,3,1,11,45,68,134,27,29,66,101,29,26,51,299,26,35,33,197,25,1*70
$GBGSV,3,2,11,30,21,046,20,36,18,126,20,57,09,042,,14,06,302,16,1*74
$GBGSV,3,3,11,33,06,326,16,42,03,277,,24,02,303,,1*43
$GNRMC,231122.000,A,4910.427946,N,12304.401432,W,0.02,40.03,080125,,,D,V*25
$GNVTG,40.03,T,,M,0.02,N,0.04,K,D*17
$PAIRLOG,Full*51
$GNGGA,231123.000,4910.427856,N,12304.401486,W,2,30,0.46,2.296,M,-16.816,M,,*45
$GNGLL,4910.427856,N,12304.401486,W,231123.000,A,D*5D
$GNGSA,A,3,19,17,24,14,06,12,15,13,02,11,,,0.77,0.46,0.62,1*0B
$GNGSA,A,3,76,85,75,67,68,,,,,,,,0.77,0.46,0.62,2*05
$GNGSA,A,3,24,31,33,05,03,26,09,,,,,,0.77,0.46,0.62,3*0A
$GNGSA,A,3,45,29,26,35,30,36,14,33,,,,,0.77,0.46,0.62,4*09
$GPGSV,3,1,12,19,82,145,37,17,55,060,35,24,52,286,34,46,33,188,32,1*6D
$GPGSV,3,2,12,14,30,095,31,06,30,151,28,12,22,281,29,15,10,238,26,1*6F
$GPGSV,3,3,12,13,09,205,21,02,08,031,23,11,05,176,22,03,02,065,,1*66
$GLGSV,2,1,07,76,64,328,36,85,58,061,34,75,46,106,34,86,45,169,,1*72
$GLGSV,2,2,07,67,18,314,26,84,13,026,16,68,07,000,17,1*47
$GAGSV,3,1,10,24,74,303,32,31,48,087,30,33,40,074,30,12,31,144,23,7*73
$GAGSV,3,2,10,05,28,250,26,03,23,307,26,25,22,280,24,10,16,163,23,7*75
$GAGSV,3,3,10,26,12,029,24,09,05,203,19,7*7D
$GBGSV,3,1,11,45,68,134,28,29,66,101,29,26,51,299,26,35,33,197,25,1*7F
$GBGSV,3,2,11,30,21,046,20,36,18,126,20,57,09,042,,14,06,302,16,1*74
$GBGSV,3,3,11,33,06,326,16,42,03,277,,24,02,303,,1*43
$GNRMC,231123.000,A,4910.427856,N,12304.401486,W,0.02,40.03,080125,,,D,V*2B
$GNVTG,40.03,T,,M,0.02,N,0.04,K,D*17
$PAIRLOG,Full*51
$GNGGA,231124.000,4910.427772,N,12304.401540,W,2,30,0.46,2.406,M,-16.817,M,,*4E
$GNGLL,4910.427772,N,12304.401540,W,231124.000,A,D*58
$GNGSA,A,3,19,17,24,14,06,12,15,13,02,11,,,0.77,0.46,0.62,1*0B
$GNGSA,A,3,76,85,75,67,68,,,,,,,,0.77,0.46,0.62,2*05
$GNGSA,A,3,24,31,33,05,03,26,09,,,,,,0.77,0.46,0.62,3*0A
$GNGSA,A,3,45,29,26,35,30,36,14,33,,,,,0.77,0.46,0.62,4*09
$GPGSV,3,1,12,19,82,145,37,17,55,060,35,24,52,286,33,46,33,188,32,1*6A
$GPGSV,3,2,12,14,30,095,31,06,30,151,28,12,22,281,29,15,10,238,25,1*6C
$GPGSV,3,3,12,13,09,205,21,02,08,031,23,11,05,176,22,03,02,065,,1*66
$GLGSV,2,1,07,76,64,328,36,85,58,061,34,75,46,106,34,86,45,169,,1*72
$GLGSV,2,2,07,67,18,314,26,84,13,026,16,68,07,000,17,1*47
$GAGSV,3,1,10,24,74,303,32,31,48,087,30,33,40,074,30,12,31,144,23,7*73
$GAGSV,3,2,10,05,28,250,26,03,23,307,25,25,22,280,24,10,16,163,23,7*76
$GAGSV,3,3,10,26,12,029,23,09,05,203,19,7*7A
$GBGSV,3,1,11,45,68,134,28,29,66,101,29,26,51,299,26,35,33,197,25,1*7F
$GBGSV,3,2,11,30,21,046,20,36,18,126,20,57,09,042,,14,06,302,16,1*74
$GBGSV,3,3,11,33,06,326,16,42,03,277,,24,02,303,,1*43
$GNRMC,231124.000,A,4910.427772,N,12304.401540,W,0.02,40.03,080125,,,D,V*2E
$GNVTG,40.03,T,,M,0.02,N,0.04,K,D*17
$PAIRLOG,Full*51
$GNGGA,231125.000,4910.427706,N,12304.401540,W,2,30,0.46,2.468,M,-16.816,M,,*45
$GNGLL,4910.427706,N,12304.401540,W,231125.000,A,D*5A
$GNGSA,A,3,19,17,24,14,06,12,15,13,02,11,,,0.77,0.46,0.62,1*0B
$GNGSA,A,3,76,85,75,67,68,,,,,,,,0.77,0.46,0.62,2*05
$GNGSA,A,3,24,31,33,05,03,26,09,,,,,,0.77,0.46,0.62,3*0A
$GNGSA,A,3,45,29,26,35,30,36,14,33,,,,,0.77,0.46,0.62,4*09
$GPGSV,3,1,12,19,82,145,37,17,55,060,35,24,52,286,33,46,33,188,32,1*6A
$GPGSV,3,2,12,14,30,095,31,06,30,151,28,12,22,281,29,15,10,238,25,1*6C
$GPGSV,3,3,12,13,09,205,21,02,08,031,23,11,05,176,22,03,02,065,,1*66
$GLGSV,2,1,07,76,64,328,36,85,58,061,34,75,46,106,34,86,45,169,,1*72
$GLGSV,2,2,07,67,18,314,25,84,13,026,16,68,07,000,17,1*44
$GAGSV,3,1,10,24,74,303,32,31,48,087,30,33,40,074,30,12,31,144,23,7*73
$GAGSV,3,2,10,05,28,250,26,03,23,307,25,25,22,280,24,10,16,163,23,7*76
$GAGSV,3,3,10,26,12,029,23,09,05,203,19,7*7A
$GBGSV,3,1,11,45,68,134,28,29,66,101,29,26,51,299,26,35,33,197,25,1*7F
$GBGSV,3,2,11,30,21,046,21,36,18,126,20,57,09,042,,14,06,302,16,1*75
$GBGSV,3,3,11,33,06,326,16,42,03,277,,24,02,303,,1*43
$GNRMC,231125.000,A,4910.427706,N,12304.401540,W,0.02,40.03,080125,,,D,V*2C
$GNVTG,40.03,T,,M,0.02,N,0.04,K,D*17
$PAIRLOG,Full*51
$GNGGA,231126.000,4910.427682,N,12304.401654,W,2,30,0.46,2.470,M,-16.816,M,,*44
$GNGLL,4910.427682,N,12304.401654,W,231126.000,A,D*52
$GNGSA,A,3,19,17,24,14,06,12,15,13,02,11,,,0.77,0.46,0.62,1*0B
$GNGSA,A,3,76,85,75,67,68,,,,,,,,0.77,0.46,0.62,2*05
$GNGSA,A,3,24,31,33,05,03,26,09,,,,,,0.77,0.46,0.62,3*0A
$GNGSA,A,3,45,29,26,35,30,36,14,33,,,,,0.77,0.46,0.62,4*09
$GPGSV,3,1,12,19,82,145,37,17,55,060,35,24,52,286,33,46,33,188,32,1*6A
$GPGSV,3,2,12,14,30,095,31,06,30,151,28,12,22,281,29,15,10,238,26,1*6F
$GPGSV,3,3,12,13,09,205,21,02,08,031,22,11,05,176,22,03,02,065,,1*67
$GLGSV,2,1,07,76,64,328,36,85,58,061,34,75,46,106,35,86,45,169,,1*73
$GLGSV,2,2,07,67,18,314,25,84,13,026,17,68,07,000,17,1*45
$GAGSV,3,1,10,24,74,303,32,31,48,087,30,33,40,074,30,12,31,144,23,7*73
$GAGSV,3,2,10,05,28,250,26,03,23,307,25,25,22,280,24,10,16,163,22,7*77
$GAGSV,3,3,10,26,12,029,23,09,05,203,19,7*7A
$GBGSV,3,1,11,45,68,134,28,29,66,101,30,26,51,299,26,35,33,197,25,1*77
$GBGSV,3,2,11,30,21,046,21,36,18,126,20,57,09,042,,14,06,302,16,1*75
$GBGSV,3,3,11,33,06,326,16,42,03,277,,24,02,303,,1*43
$GNRMC,231126.000,A,4910.427682,N,12304.401654,W,0.02,40.03,080125,,,D,V*24
$GNVTG,40.03,T,,M,0.02,N,0.03,K,D*10
$PAIRLOG,Full*51
$GNGGA,231127.000,4910.427652,N,12304.401612,W,2,30,0.46,2.602,M,-16.816,M,,*4D
$GNGLL,4910.427652,N,12304.401612,W,231127.000,A,D*5C
$GNGSA,A,3,19,17,24,14,06,12,15,13,02,11,,,0.77,0.46,0.62,1*0B
$GNGSA,A,3,76,85,75,67,68,,,,,,,,0.77,0.46,0.62,2*05
$GNGSA,A,3,24,31,33,05,03,26,09,,,,,,0.77,0.46,0.62,3*0A
$GNGSA,A,3,45,29,26,35,30,36,14,33,,,,,0.77,0.46,0.62,4*09
$GPGSV,3,1,12,19,82,145,37,17,55,060,35,24,52,286,33,46,33,188,32,1*6A
$GPGSV,3,2,12,14,30,095,31,06,30,151,28,12,22,281,29,15,10,238,26,1*6F
$GPGSV,3,3,12,13,09,205,21,02,08,031,23,11,05,176,22,03,02,065,,1*66
$GLGSV,2,1,07,76,64,328,36,85,58,061,34,75,46,106,35,86,45,169,,1*73
$GLGSV,2,2,07,67,18,314,26,84,13,026,17,68,07,000,17,1*46
$GAGSV,3,1,10,24,74,303,32,31,48,087,30,33,40,074,30,12,31,144,23,7*73
$GAGSV,3,2,10,05,28,250,26,03,23,307,25,25,22,280,24,10,16,163,22,7*77
$GAGSV,3,3,10,26,12,029,23,09,05,203,19,7*7A
$GBGSV,3,1,11,45,68,134,28,29,66,101,30,26,51,299,26,35,33,197,25,1*77
$GBGSV,3,2,11,30,21,046,21,36,18,126,21,57,09,042,,14,06,302,16,1*74
$GBGSV,3,3,11,33,06,326,16,42,03,277,,24,02,303,,1*43
$GNRMC,231127.000,A,4910.427652,N,12304.401612,W,0.01,40.03,080125,,,D,V*29
$GNVTG,40.03,T,,M,0.01,N,0.03,K,D*13
$PAIRLOG,Full*51
$GNGGA,231128.000,4910.427586,N,12304.401630,W,2,30,0.46,2.757,M,-16.816,M,,*49
$GNGLL,4910.427586,N,12304.401630,W,231128.000,A,D*59
$GNGSA,A,3,19,17,24,14,06,12,15,13,02,11,,,0.77,0.46,0.62,1*0B
$GNGSA,A,3,76,85,75,67,68,,,,,,,,0.77,0.46,0.62,2*05
$GNGSA,A,3,24,31,33,05,03,26,09,,,,,,0.77,0.46,0.62,3*0A
$GNGSA,A,3,45,29,26,35,30,36,14,33,,,,,0.77,0.46,0.62,4*09
$GPGSV,3,1,12,19,82,145,37,17,55,060,35,24,52,286,33,46,33,188,32,1*6A
$GPGSV,3,2,12,14,30,095,31,06,30,151,28,12,22,281,29,15,10,238,25,1*6C
$GPGSV,3,3,12,13,09,205,21,02,08,031,22,11,05,176,22,03,02,065,,1*67
$GLGSV,2,1,07,76,64,328,36,85,58,061,33,75,46,106,35,86,45,169,,1*74
$GLGSV,2,2,07,67,18,314,25,84,13,026,17,68,07,000,16,1*44
$GAGSV,3,1,10,24,74,303,32,31,48,087,30,33,40,074,29,12,31,144,23,7*7B
$GAGSV,3,2,10,05,28,250,26,03,23,307,25,25,22,280,24,10,16,163,22,7*77
$GAGSV,3,3,10,26,12,029,23,09,05,203,19,7*7A
$GBGSV,3,1,11,45,68,134,27,29,66,101,29,26,51,299,25,35,33,197,25,1*73
$GBGSV,3,2,11,30,21,046,21,36,18,126,21,57,09,042,,14,06,302,16,1*74
$GBGSV,3,3,11,33,06,326,16,42,03,277,,24,02,303,,1*43
$GNRMC,231128.000,A,4910.427586,N,12304.401630,W,0.01,40.03,080125,,,D,V*2C
$GNVTG,40.03,T,,M,0.01,N,0.02,K,D*12
$PAIRLOG,Full*51
$GNGGA,231129.000,4910.427616,N,12304.401804,W,2,30,0.46,2.859,M,-16.816,M,,*4A
$GNGLL,4910.427616,N,12304.401804,W,231129.000,A,D*5B
$GNGSA,A,3,19,17,24,14,06,12,15,13,02,11,,,0.77,0.46,0.62,1*0B
$GNGSA,A,3,76,85,75,67,68,,,,,,,,0.77,0.46,0.62,2*05
$GNGSA,A,3,24,31,33,05,03,26,09,,,,,,0.77,0.46,0.62,3*0A
$GNGSA,A,3,45,29,26,35,30,36,14,33,,,,,0.77,0.46,0.62,4*09
$GPGSV,3,1,12,19,82,145,37,17,55,060,35,24,52,286,33,46,33,188,32,1*6A
$GPGSV,3,2,12,14,30,095,31,06,30,151,28,12,22,281,29,15,10,238,25,1*6C
$GPGSV,3,3,12,13,09,205,21,02,08,031,22,11,05,176,22,03,02,065,,1*67
$GLGSV,2,1,07,76,64,328,36,85,58,061,33,75,46,106,35,86,45,169,,1*74
$GLGSV,2,2,07,67,18,314,25,84,13,026,17,68,07,000,16,1*44
$GAGSV,3,1,10,24,74,303,32,31,48,087,30,33,40,074,29,12,31,144,23,7*7B
$GAGSV,3,2,10,05,28,250,26,03,23,307,25,25,22,280,23,10,16,163,21,7*73
$GAGSV,3,3,10,26,12,029,23,09,05,203,19,7*7A
$GBGSV,3,1,11,45,68,134,26,29,66,101,28,26,51,299,24,35,33,197,23,1*74
$GBGSV,3,2,11,30,21,046,20,36,18,126,20,57,09,042,,14,06,302,16,1*74
$GBGSV,3,3,11,33,06,326,15,42,03,277,,24,02,303,,1*40
$GNRMC,231129.000,A,4910.427616,N,12304.401804,W,0.02,40.03,080125,,,D,V*2D
$GNVTG,40.03,T,,M,0.02,N,0.03,K,D*10
$PAIRLOG,Full*51
$GNGGA,231130.000,4910.427592,N,12304.401840,W,2,30,0.46,3.100,M,-16.816,M,,*49
$GNGLL,4910.427592,N,12304.401840,W,231130.000,A,D*5C
$GNGSA,A,3,19,17,24,14,06,12,15,13,02,11,,,0.77,0.46,0.62,1*0B
$GNGSA,A,3,76,85,75,67,68,,,,,,,,0.77,0.46,0.62,2*05
$GNGSA,A,3,24,31,33,05,03,26,09,,,,,,0.77,0.46,0.62,3*0A
$GNGSA,A,3,45,29,26,35,30,36,14,33,,,,,0.77,0.46,0.62,4*09
$GPGSV,3,1,12,19,82,145,37,17,55,060,35,24,52,286,33,46,33,188,32,1*6A
$GPGSV,3,2,12,14,30,095,31,06,30,151,28,12,22,281,29,15,10,238,25,1*6C
$GPGSV,3,3,12,13,09,205,22,02,08,031,24,11,05,176,22,03,02,065,,1*62
$GLGSV,2,1,07,76,64,328,36,85,58,061,33,75,46,106,36,86,45,169,,1*77
$GLGSV,2,2,07,67,18,314,24,84,13,026,17,68,07,000,15,1*46
$GAGSV,3,1,10,24,74,303,32,31,48,087,30,33,40,074,29,12,31,144,23,7*7B
$GAGSV,3,2,10,05,28,250,26,03,23,307,25,25,22,280,23,10,16,163,21,7*73
$GAGSV,3,3,10,26,12,029,23,09,05,203,19,7*7A
