$GNGGA,192347.000,4910.426260,N,12304.399806,W,2,27,0.60,9.779,M,-16.816,M,,*4E
$GNGLL,4910.426260,N,12304.399806,W,192347.000,A,D*5B
$GNGSA,A,3,09,07,04,16,30,20,27,08,26,11,,,0.94,0.60,0.72,1*0A
$GNGSA,A,3,69,79,68,,,,,,,,,,0.94,0.60,0.72,2*03
$GNGSA,A,3,09,31,06,05,24,04,34,15,,,,,0.94,0.60,0.72,3*04
$GNGSA,A,3,37,20,23,32,19,38,,,,,,,0.94,0.60,0.72,4*0F
$GPGSV,4,1,13,09,82,140,36,07,63,263,34,04,51,121,30,16,37,056,29,1*68
$GPGSV,4,2,13,46,33,188,28,30,26,256,29,20,24,311,25,27,18,097,31,1*64
$GPGSV,4,3,13,08,11,129,23,26,09,043,25,11,08,288,15,03,03,173,,1*64
$GPGSV,4,4,13,05,02,333,18,1*5B
$GLGSV,2,1,07,69,70,318,26,78,61,043,,79,61,216,28,68,54,144,29,1*76
$GLGSV,2,2,07,86,10,358,,80,08,219,16,70,06,322,,1*41
$GAGSV,2,1,08,09,80,115,30,31,62,121,29,06,54,119,27,05,42,299,26,7*7E
$GAGSV,2,2,08,24,29,188,24,04,28,119,25,34,11,282,09,15,10,331,21,7*70
$GBGSV,3,1,12,37,70,213,39,20,63,284,40,23,52,062,37,32,46,166,36,1*72
$GBGSV,3,2,12,19,19,316,31,46,16,229,,38,14,333,28,08,08,342,21,1*7F
$GBGSV,3,3,12,34,04,042,23,12,03,016,19,25,02,055,,04,01,262,,1*78
$GNRMC,192347.000,A,4910.426260,N,12304.399806,W,0.01,0.00,051224,,,D,V*17
$GNVTG,0.00,T,,M,0.01,N,0.02,K,D*25
$GNGGA,192348.000,4910.426254,N,12304.399842,W,2,27,0.60,9.681,M,-16.816,M,,*40
$GNGLL,4910.426254,N,12304.399842,W,192348.000,A,D*53
$GNGSA,A,3,09,07,04,16,30,20,27,08,26,11,,,0.94,0.60,0.72,1*0A
$GNGSA,A,3,69,79,68,,,,,,,,,,0.94,0.60,0.72,2*03
$GNGSA,A,3,09,31,06,05,24,04,34,15,,,,,0.94,0.60,0.72,3*04
$GNGSA,A,3,37,20,23,32,19,38,,,,,,,0.94,0.60,0.72,4*0F
$GPGSV,4,1,13,09,82,140,36,07,63,263,34,04,51,121,30,16,37,056,28,1*69
$GPGSV,4,2,13,46,33,188,28,30,26,256,29,20,24,311,25,27,18,097,31,1*64
$GPGSV,4,3,13,08,11,129,23,26,09,043,25,11,08,288,14,03,02,173,,1*64
$GPGSV,4,4,13,05,02,333,18,1*5B
$GLGSV,2,1,07,69,70,318,26,78,61,043,,79,61,216,28,68,54,144,29,1*76
$GLGSV,2,2,07,86,10,358,,80,08,219,16,70,06,322,,1*41
$GAGSV,2,1,08,09,80,115,30,31,62,121,29,06,54,119,27,05,42,299,26,7*7E
$GAGSV,2,2,08,24,29,188,24,04,28,119,25,34,11,282,10,15,10,331,21,7*78
$GBGSV,3,1,12,37,70,213,39,20,63,284,40,23,52,062,37,32,46,166,36,1*72
$GBGSV,3,2,12,19,19,316,31,46,16,229,,38,14,333,28,08,08,342,21,1*7F
$GBGSV,3,3,12,34,04,042,23,12,03,016,19,25,02,055,,04,01,262,,1*78
$GNRMC,192348.000,A,4910.426254,N,12304.399842,W,0.01,0.00,051224,,,D,V*1F
$GNVTG,0.00,T,,M,0.01,N,0.03,K,D*24
$GNGGA,192349.000,4910.426242,N,12304.399824,W,2,27,0.60,9.636,M,-16.816,M,,*4A
$GNGLL,4910.426242,N,12304.399824,W,192349.000,A,D*55
$GNGSA,A,3,09,07,04,16,30,20,27,08,26,11,,,0.94,0.60,0.72,1*0A
$GNGSA,A,3,69,79,68,,,,,,,,,,0.94,0.60,0.72,2*03
$GNGSA,A,3,09,31,06,05,24,04,34,15,,,,,0.94,0.60,0.72,3*04
$GNGSA,A,3,37,20,23,32,19,38,,,,,,,0.94,0.60,0.72,4*0F
$GPGSV,4,1,13,09,82,140,36,07,63,263,34,04,49,122,30,16,37,056,28,1*63
$GPGSV,4,2,13,46,33,188,28,30,26,256,29,20,24,311,25,27,18,097,31,1*64
$GPGSV,4,3,13,08,11,129,23,26,09,043,24,11,08,288,16,03,02,173,,1*67
$GPGSV,4,4,13,05,02,333,18,1*5B
$GLGSV,2,1,07,69,70,318,26,78,61,043,,79,61,216,28,68,54,144,29,1*76
$GLGSV,2,2,07,86,10,358,,80,08,219,16,70,06,322,,1*41
$GAGSV,2,1,08,09,80,115,30,31,62,121,29,06,54,119,26,05,42,299,26,7*7F
$GAGSV,2,2,08,24,29,188,24,04,28,119,25,34,11,282,10,15,10,331,21,7*78
$GBGSV,3,1,12,37,70,213,39,20,63,284,40,23,52,062,37,32,46,166,36,1*72
$GBGSV,3,2,12,19,19,316,30,46,16,229,,38,14,333,28,08,08,342,21,1*7E
$GBGSV,3,3,12,34,04,042,23,12,03,016,19,25,02,055,,04,01,262,,1*78
$GNRMC,192349.000,A,4910.426242,N,12304.399824,W,0.01,0.00,051224,,,D,V*19
$GNVTG,0.00,T,,M,0.01,N,0.02,K,D*25
$GNGGA,192350.000,4910.426158,N,12304.400010,W,2,27,0.60,9.696,M,-16.816,M,,*48
$GNGLL,4910.426158,N,12304.400010,W,192350.000,A,D*5D
$GNGSA,A,3,09,07,04,16,30,20,27,08,26,11,,,0.94,0.60,0.72,1*0A
$GNGSA,A,3,69,79,68,,,,,,,,,,0.94,0.60,0.72,2*03
$GNGSA,A,3,09,31,06,05,24,04,34,15,,,,,0.94,0.60,0.72,3*04
$GNGSA,A,3,37,20,23,32,19,38,,,,,,,0.94,0.60,0.72,4*0F
$GPGSV,4,1,13,09,82,140,36,07,63,263,34,04,49,122,30,16,37,056,28,1*63
$GPGSV,4,2,13,46,33,188,28,30,26,256,29,20,24,311,25,27,18,097,30,1*65
$GPGSV,4,3,13,08,11,129,23,26,09,043,24,11,08,288,15,05,03,333,18,1*6C
$GPGSV,4,4,13,03,02,173,,1*52
$GLGSV,2,1,07,69,70,318,26,78,61,043,,79,61,216,28,68,54,144,29,1*76
$GLGSV,2,2,07,86,10,358,,80,08,219,16,70,06,322,,1*41
$GAGSV,2,1,08,09,80,115,29,31,62,121,29,06,54,119,26,05,42,299,26,7*77
$GAGSV,2,2,08,24,29,188,24,04,28,119,25,34,11,282,10,15,10,331,21,7*78
$GBGSV,3,1,12,37,70,213,39,20,63,284,40,23,52,062,37,32,46,166,36,1*72
$GBGSV,3,2,12,19,19,316,30,46,16,229,,38,14,333,28,08,08,342,21,1*7E
$GBGSV,3,3,12,34,04,042,23,12,03,016,19,25,02,055,,04,01,262,,1*78
$GNRMC,192350.000,A,4910.426158,N,12304.400010,W,0.02,0.00,051224,,,D,V*12
$GNVTG,0.00,T,,M,0.02,N,0.03,K,D*27
$GNGGA,192351.000,4910.426134,N,12304.400076,W,2,27,0.60,9.713,M,-16.816,M,,*4F
$GNGLL,4910.426134,N,12304.400076,W,192351.000,A,D*56
$GNGSA,A,3,09,07,04,16,30,20,27,08,26,11,,,0.94,0.60,0.72,1*0A
$GNGSA,A,3,69,79,68,,,,,,,,,,0.94,0.60,0.72,2*03
$GNGSA,A,3,09,31,06,05,24,04,34,15,,,,,0.94,0.60,0.72,3*04
$GNGSA,A,3,37,20,23,32,19,38,,,,,,,0.94,0.60,0.72,4*0F
$GPGSV,4,1,13,09,82,140,36,07,63,263,34,04,49,122,30,16,37,056,28,1*63
$GPGSV,4,2,13,46,33,188,28,30,26,256,29,20,24,311,25,27,18,097,30,1*65
$GPGSV,4,3,13,08,11,129,23,26,09,043,23,11,08,288,15,05,03,333,18,1*6B
$GPGSV,4,4,13,03,02,173,,1*52
$GLGSV,2,1,07,69,70,318,26,78,61,043,,79,61,216,28,68,54,144,29,1*76
$GLGSV,2,2,07,86,10,358,,80,08,219,16,70,06,322,,1*41
$GAGSV,2,1,08,09,80,115,29,31,62,121,29,06,54,119,26,05,42,299,26,7*77
$GAGSV,2,2,08,24,29,188,24,04,28,119,25,34,11,282,10,15,10,331,20,7*79
$GBGSV,3,1,12,37,70,213,39,20,63,284,40,23,52,062,37,32,46,166,36,1*72
$GBGSV,3,2,12,19,19,316,30,46,16,229,,38,14,333,28,08,08,342,22,1*7D
$GBGSV,3,3,12,34,04,042,23,12,03,016,19,25,02,055,,04,01,262,,1*78
$GNRMC,192351.000,A,4910.426134,N,12304.400076,W,0.02,0.00,051224,,,D,V*19
$GNVTG,0.00,T,,M,0.02,N,0.03,K,D*27
$GNGGA,192352.000,4910.426140,N,12304.400088,W,2,27,0.60,9.760,M,-16.816,M,,*4A
$GNGLL,4910.426140,N,12304.400088,W,192352.000,A,D*57
$GNGSA,A,3,09,07,04,16,30,20,27,08,26,11,,,0.94,0.60,0.72,1*0A
$GNGSA,A,3,69,79,68,,,,,,,,,,0.94,0.60,0.72,2*03
$GNGSA,A,3,09,31,06,05,24,04,34,15,,,,,0.94,0.60,0.72,3*04
$GNGSA,A,3,37,20,23,32,19,38,,,,,,,0.94,0.60,0.72,4*0F
$GPGSV,4,1,13,09,82,140,36,07,64,264,34,04,49,122,30,16,37,056,28,1*63
$GPGSV,4,2,13,46,33,188,28,30,26,256,28,20,24,311,25,27,18,097,30,1*64
$GPGSV,4,3,13,08,11,129,24,26,09,043,24,11,08,288,16,05,03,333,18,1*68
$GPGSV,4,4,13,03,02,173,,1*52
$GLGSV,2,1,07,69,70,318,26,78,61,043,,79,61,216,28,68,54,144,29,1*76
$GLGSV,2,2,07,86,10,358,,80,08,219,16,70,06,322,,1*41
$GAGSV,2,1,08,09,80,115,29,31,62,121,29,06,54,119,26,05,42,299,26,7*77
$GAGSV,2,2,08,24,29,188,23,04,28,119,25,34,11,282,10,15,10,331,20,7*7E
$GBGSV,3,1,12,37,70,213,39,20,63,284,40,23,52,062,37,32,46,166,36,1*72
$GBGSV,3,2,12,19,19,316,30,46,16,229,,38,14,333,28,08,08,342,22,1*7D
$GBGSV,3,3,12,34,04,042,23,12,03,016,19,25,02,055,,04,01,262,,1*78
$GNRMC,192352.000,A,4910.426140,N,12304.400088,W,0.01,0.00,051224,,,D,V*1B
$GNVTG,0.00,T,,M,0.01,N,0.03,K,D*24
$GNGGA,192353.000,4910.426146,N,12304.400154,W,2,27,0.60,9.765,M,-16.816,M,,*48
$GNGLL,4910.426146,N,12304.400154,W,192353.000,A,D*50
$GNGSA,A,3,09,07,04,16,30,20,27,08,26,11,,,0.94,0.60,0.72,1*0A
$GNGSA,A,3,69,79,68,,,,,,,,,,0.94,0.60,0.72,2*03
$GNGSA,A,3,09,31,06,05,24,04,34,15,,,,,0.94,0.60,0.72,3*04
$GNGSA,A,3,37,20,23,32,19,38,,,,,,,0.94,0.60,0.72,4*0F
$GPGSV,4,1,13,09,82,140,36,07,64,264,34,04,49,122,30,16,37,056,28,1*63
$GPGSV,4,2,13,46,33,188,28,30,26,256,28,20,24,311,24,27,18,097,29,1*6D
$GPGSV,4,3,13,08,12,128,23,26,09,043,25,11,08,288,17,05,03,333,18,1*6D
$GPGSV,4,4,13,03,02,173,,1*52
$GLGSV,2,1,07,69,70,318,26,78,61,043,,79,61,216,28,68,54,144,29,1*76
$GLGSV,2,2,07,86,10,358,,80,08,219,16,70,06,322,,1*41
$GAGSV,2,1,08,09,80,115,29,31,62,121,28,06,54,119,26,05,42,299,26,7*76
$GAGSV,2,2,08,24,29,188,23,04,28,119,25,34,11,282,10,15,10,331,20,7*7E
$GBGSV,3,1,12,37,70,213,39,20,63,284,40,23,52,062,37,32,46,166,36,1*72
$GBGSV,3,2,12,19,19,316,30,46,16,229,,38,14,333,28,08,08,342,22,1*7D
$GBGSV,3,3,12,34,04,042,22,12,03,016,19,25,02,055,,04,01,262,,1*79
$GNRMC,192353.000,A,4910.426146,N,12304.400154,W,0.01,0.00,051224,,,D,V*1C
$GNVTG,0.00,T,,M,0.01,N,0.02,K,D*25
$GNGGA,192354.000,4910.426158,N,12304.400202,W,2,27,0.60,9.775,M,-16.816,M,,*41
$GNGLL,4910.426158,N,12304.400202,W,192354.000,A,D*58
$GNGSA,A,3,09,07,04,16,30,20,27,08,26,11,,,0.94,0.60,0.72,1*0A
$GNGSA,A,3,69,79,68,,,,,,,,,,0.94,0.60,0.72,2*03
$GNGSA,A,3,09,31,06,05,24,04,34,15,,,,,0.94,0.60,0.72,3*04
$GNGSA,A,3,37,20,23,32,19,38,,,,,,,0.94,0.60,0.72,4*0F
$GPGSV,4,1,13,09,80,140,36,07,64,264,33,04,49,122,30,16,37,056,27,1*69
$GPGSV,4,2,13,46,33,188,28,30,26,256,28,20,24,311,24,27,18,097,29,1*6D
$GPGSV,4,3,13,08,12,128,24,26,09,043,23,11,08,288,16,05,03,333,18,1*6D
$GPGSV,4,4,13,03,02,173,,1*52
$GLGSV,2,1,07,69,70,318,25,78,61,043,,79,61,216,28,68,54,144,29,1*75
$GLGSV,2,2,07,86,10,358,,80,08,219,16,70,06,322,,1*41
$GAGSV,2,1,08,09,80,115,29,31,62,121,27,06,54,119,26,05,42,299,26,7*79
$GAGSV,2,2,08,24,29,188,23,04,28,119,25,34,11,282,10,15,10,331,20,7*7E
$GBGSV,3,1,12,37,70,213,39,20,63,284,39,23,52,062,37,32,46,166,36,1*7C
$GBGSV,3,2,12,19,19,316,30,46,16,229,,38,14,333,28,08,08,342,22,1*7D
$GBGSV,3,3,12,34,04,042,22,12,03,016,19,25,02,055,,04,01,262,,1*79
$GNRMC,192354.000,A,4910.426158,N,12304.400202,W,0.01,0.00,051224,,,D,V*14
$GNVTG,0.00,T,,M,0.01,N,0.02,K,D*25
$GNGGA,192355.000,4910.426248,N,12304.400022,W,2,27,0.60,10.168,M,-16.817,M,,*71
$GNGLL,4910.426248,N,12304.400022,W,192355.000,A,D*5B
$GNGSA,A,3,09,07,04,16,30,20,27,08,26,11,,,0.94,0.60,0.72,1*0A
$GNGSA,A,3,69,79,68,,,,,,,,,,0.94,0.60,0.72,2*03
$GNGSA,A,3,09,31,06,05,24,04,34,15,,,,,0.94,0.60,0.72,3*04
$GNGSA,A,3,37,20,23,32,19,38,,,,,,,0.94,0.60,0.72,4*0F
$GPGSV,4,1,13,09,80,140,36,07,64,264,33,04,49,122,30,16,37,056,27,1*69
$GPGSV,4,2,13,46,33,188,28,30,26,256,28,20,24,311,24,27,18,097,29,1*6D
$GPGSV,4,3,13,08,12,128,22,26,09,043,24,11,08,288,15,05,03,333,18,1*6F
$GPGSV,4,4,13,03,02,173,,1*52
$GLGSV,2,1,07,69,70,318,25,78,61,043,,79,61,216,28,68,54,144,29,1*75
$GLGSV,2,2,07,86,10,358,,80,08,219,16,70,06,322,,1*41
$GAGSV,2,1,08,09,80,115,28,31,62,121,27,06,54,119,26,05,42,299,26,7*78
$GAGSV,2,2,08,24,29,188,23,04,28,119,25,34,11,282,10,15,10,331,20,7*7E
$GBGSV,3,1,12,37,70,213,39,20,63,284,39,23,52,062,37,32,46,166,36,1*7C
$GBGSV,3,2,12,19,19,316,30,46,16,229,,38,14,333,28,08,08,342,22,1*7D
$GBGSV,3,3,12,34,04,042,22,12,03,016,19,25,02,055,,04,01,262,,1*79
$GNRMC,192355.000,A,4910.426248,N,12304.400022,W,0.02,0.00,051224,,,D,V*14
$GNVTG,0.00,T,,M,0.02,N,0.03,K,D*27
$GNGGA,192356.000,4910.426260,N,12304.400208,W,2,27,0.60,10.793,M,-16.817,M,,*70
$GNGLL,4910.426260,N,12304.400208,W,192356.000,A,D*58
$GNGSA,A,3,09,07,04,16,30,20,27,08,26,11,,,0.94,0.60,0.72,1*0A
$GNGSA,A,3,69,79,68,,,,,,,,,,0.94,0.60,0.72,2*03
$GNGSA,A,3,09,31,06,05,24,04,34,15,,,,,0.94,0.60,0.72,3*04
$GNGSA,A,3,37,20,23,32,19,38,,,,,,,0.94,0.60,0.72,4*0F
$GPGSV,4,1,13,09,80,140,36,07,64,264,33,04,49,122,30,16,37,056,27,1*69
$GPGSV,4,2,13,46,33,188,28,30,26,256,28,20,24,311,24,27,18,097,29,1*6D
$GPGSV,4,3,13,08,12,128,21,26,09,043,23,11,07,287,15,05,03,333,18,1*6B
$GPGSV,4,4,13,03,02,173,,1*52
$GLGSV,2,1,07,69,70,318,25,78,61,043,,79,61,216,28,68,54,144,29,1*75
$GLGSV,2,2,07,86,10,358,,80,08,219,17,70,06,322,,1*40
$GAGSV,2,1,08,09,80,115,28,31,62,121,27,06,54,119,26,05,42,299,26,7*78
$GAGSV,2,2,08,24,29,188,23,04,28,119,25,34,11,282,10,15,10,331,19,7*74
$GBGSV,3,1,12,37,70,213,39,20,63,284,39,23,52,062,37,32,46,166,36,1*7C
$GBGSV,3,2,12,19,19,316,30,46,16,229,,38,14,333,28,08,08,342,22,1*7D
$GBGSV,3,3,12,34,04,042,22,12,03,016,19,25,02,055,,04,01,262,,1*79
$GNRMC,192356.000,A,4910.426260,N,12304.400208,W,0.02,0.00,051224,,,D,V*17
$GNVTG,0.00,T,,M,0.02,N,0.04,K,D*20
$GNGGA,192357.000,4910.426260,N,12304.400430,W,2,26,0.61,11.188,M,-16.816,M,,*70
