527.000,A,D*57
$GNGSA,A,3,17,22,19,14,24,13,15,02,30,12,21,,0.84,0.49,0.69,1*05
$GNGSA,A,3,83,82,72,80,65,,,,,,,,0.84,0.49,0.69,2*03
$GNGSA,A,3,25,02,08,10,03,24,,,,,,,0.84,0.49,0.69,3*04
$GNGSA,A,3,36,30,27,45,29,21,28,22,,,,,0.84,0.49,0.69,4*0A
$GPGSV,4,1,13,17,73,092,25,22,70,066,24,19,61,190,20,14,47,082,23,1*64
$GPGSV,4,2,13,24,37,304,18,46,33,188,24,13,27,214,18,15,24,252,20,1*65
$GPGSV,4,3,13,02,20,042,22,30,15,142,20,06,11,158,22,12,07,270,14,1*6B
$GPGSV,4,4,13,21,07,028,17,1*5E
$GLGSV,2,1,07,83,57,089,23,74,49,312,,82,31,035,27,72,24,279,26,1*7B
$GLGSV,2,2,07,84,22,169,,80,20,102,31,65,16,338,29,1*41
$GAGSV,3,1,10,25,80,033,19,02,40,274,17,08,34,290,16,10,34,089,17,7*74
$GAGSV,3,2,10,03,31,228,16,24,30,082,21,12,30,061,17,11,29,122,15,7*7E
$GAGSV,3,3,10,07,06,335,11,36,04,163,,7*73
$GBGSV,3,1,12,36,82,299,36,30,56,148,33,27,43,063,34,46,42,115,,1*73
$GBGSV,3,2,12,45,30,296,31,57,24,062,,29,14,195,31,21,13,300,27,1*7F
$GBGSV,3,3,12,28,07,036,26,22,06,252,24,58,05,125,,42,04,346,24,1*77
$GNRMC,004527.000,A,4910.425234,N,12304.400328,W,0.02,181.98,061224,,,D,V*12
$GNVTG,181.98,T,,M,0.02,N,0.03,K,D*2E
$PAIRLOG,Full*51
$GNGGA,004528.000,4910.425198,N,12304.400232,W,2,30,0.49,11.473,M,-16.816,M,,*7F
$GNGLL,4910.425198,N,12304.400232,W,004528.000,A,D*57
$GNGSA,A,3,17,22,19,14,24,13,15,02,30,12,21,,0.84,0.49,0.69,1*05
$GNGSA,A,3,83,82,72,80,65,,,,,,,,0.84,0.49,0.69,2*03
$GNGSA,A,3,25,02,08,10,03,24,,,,,,,0.84,0.49,0.69,3*04
$GNGSA,A,3,36,30,27,45,29,21,28,22,,,,,0.84,0.49,0.69,4*0A
$GPGSV,4,1,13,17,73,092,27,22,70,066,24,19,61,190,20,14,47,082,23,1*66
$GPGSV,4,2,13,24,37,304,18,46,33,188,24,13,27,214,18,15,24,252,20,1*65
$GPGSV,4,3,13,02,20,042,21,30,15,142,20,06,11,158,21,12,07,270,10,1*6F
$GPGSV,4,4,13,21,07,028,16,1*5F
$GLGSV,2,1,07,83,57,089,23,74,49,312,,82,31,035,28,72,24,279,26,1*74
$GLGSV,2,2,07,84,22,169,,80,20,102,31,65,16,338,29,1*41
$GAGSV,3,1,10,25,80,033,19,02,40,274,17,08,34,290,16,10,34,089,17,7*74
$GAGSV,3,2,10,03,31,228,16,24,30,082,21,12,30,061,17,11,29,122,15,7*7E
$GAGSV,3,3,10,07,06,335,11,36,04,163,,7*73
$GBGSV,3,1,12,36,82,299,36,30,56,148,33,27,43,063,34,46,42,115,,1*73
$GBGSV,3,2,12,45,30,296,31,57,24,062,,29,14,195,31,21,13,300,27,1*7F
$GBGSV,3,3,12,28,07,036,26,22,06,252,24,58,05,125,,42,04,346,24,1*77
$GNRMC,004528.000,A,4910.425198,N,12304.400232,W,0.02,181.98,061224,,,D,V*12
$GNVTG,181.98,T,,M,0.02,N,0.03,K,D*2E
$PAIRLOG,Full*51
$GNGGA,004529.000,4910.425186,N,12304.400196,W,2,30,0.49,11.464,M,-16.816,M,,*7A
$GNGLL,4910.425186,N,12304.400196,W,004529.000,A,D*54
$GNGSA,A,3,17,22,19,14,24,13,15,02,30,12,21,,0.84,0.49,0.69,1*05
$GNGSA,A,3,83,82,72,80,65,,,,,,,,0.84,0.49,0.69,2*03
$GNGSA,A,3,25,02,10,08,03,24,,,,,,,0.84,0.49,0.69,3*04
$GNGSA,A,3,36,30,27,45,29,21,28,22,,,,,0.84,0.49,0.69,4*0A
$GPGSV,4,1,13,17,73,092,26,22,70,066,24,19,61,190,20,14,47,082,23,1*67
$GPGSV,4,2,13,24,37,304,18,46,33,188,24,13,27,214,18,15,24,252,21,1*64
$GPGSV,4,3,13,02,20,042,24,30,15,142,20,06,11,158,21,12,07,270,12,1*68
$GPGSV,4,4,13,21,07,028,16,1*5F
$GLGSV,2,1,07,83,57,089,23,74,49,312,,82,31,035,28,72,24,279,26,1*74
$GLGSV,2,2,07,84,22,169,,80,20,102,31,65,16,338,29,1*41
$GAGSV,3,1,10,25,80,033,19,02,40,274,17,10,35,089,17,08,34,290,16,7*75
$GAGSV,3,2,10,03,31,228,17,24,30,082,21,12,30,061,17,11,29,122,15,7*7F
$GAGSV,3,3,10,07,06,335,10,36,04,163,,7*72
$GBGSV,3,1,12,36,82,299,36,30,56,148,33,27,43,063,34,46,42,115,,1*73
$GBGSV,3,2,12,45,30,296,31,57,24,062,,29,14,195,31,21,13,300,27,1*7F
$GBGSV,3,3,12,28,07,036,26,22,06,252,24,58,05,125,,42,04,346,25,1*76
$GNRMC,004529.000,A,4910.425186,N,12304.400196,W,0.02,181.98,061224,,,D,V*11
$GNVTG,181.98,T,,M,0.02,N,0.03,K,D*2E
$PAIRLOG,Full*51
$GNGGA,004530.000,4910.425174,N,12304.400196,W,2,30,0.49,11.441,M,-16.816,M,,*78
$GNGLL,4910.425174,N,12304.400196,W,004530.000,A,D*51
$GNGSA,A,3,17,22,19,14,24,13,15,02,30,12,21,,0.84,0.49,0.69,1*05
$GNGSA,A,3,83,82,72,80,65,,,,,,,,0.84,0.49,0.69,2*03
$GNGSA,A,3,25,02,10,08,03,24,,,,,,,0.84,0.49,0.69,3*04
$GNGSA,A,3,36,30,27,45,29,21,28,22,,,,,0.84,0.49,0.69,4*0A
$GPGSV,4,1,13,17,73,092,25,22,70,066,24,19,61,190,20,14,47,082,22,1*65
$GPGSV,4,2,13,24,37,304,18,46,33,188,24,13,27,214,18,15,24,252,20,1*65
$GPGSV,4,3,13,02,20,042,22,30,15,142,20,06,11,158,21,12,07,270,12,1*6E
$GPGSV,4,4,13,21,07,028,15,1*5C
$GLGSV,2,1,07,83,57,089,23,74,49,312,,82,31,035,28,72,24,279,26,1*74
$GLGSV,2,2,07,84,22,169,,80,20,102,31,65,16,338,29,1*41
$GAGSV,3,1,10,25,80,033,19,02,40,274,17,10,35,089,17,08,34,290,16,7*75
$GAGSV,3,2,10,03,31,228,17,24,30,082,21,12,30,061,17,11,29,121,15,7*7C
$GAGSV,3,3,10,07,06,335,09,36,04,163,,7*7A
$GBGSV,3,1,12,36,82,299,36,30,56,148,33,27,43,063,34,46,42,115,,1*73
$GBGSV,3,2,12,45,30,296,31,57,24,062,,29,14,195,31,21,13,300,27,1*7F
$GBGSV,3,3,12,28,07,036,26,22,06,252,24,58,05,125,,42,04,346,25,1*76
$GNRMC,004530.000,A,4910.425174,N,12304.400196,W,0.02,181.98,061224,,,D,V*14
$GNVTG,181.98,T,,M,0.02,N,0.03,K,D*2E
$PAIRLOG,Full*51
$GNGGA,004531.000,4910.425138,N,12304.400130,W,2,30,0.49,11.386,M,-16.816,M,,*71
$GNGLL,4910.425138,N,12304.400130,W,004531.000,A,D*54
$GNGSA,A,3,17,22,19,14,24,13,15,02,30,12,21,,0.84,0.49,0.69,1*05
$GNGSA,A,3,83,82,72,80,65,,,,,,,,0.84,0.49,0.69,2*03
$GNGSA,A,3,25,02,10,08,03,24,,,,,,,0.84,0.49,0.69,3*04
$GNGSA,A,3,36,30,27,45,29,21,28,22,,,,,0.84,0.49,0.69,4*0A
$GPGSV,4,1,13,17,73,092,27,22,70,066,24,19,61,190,21,14,47,082,22,1*66
$GPGSV,4,2,13,24,37,304,18,46,33,188,24,13,27,214,18,15,24,252,21,1*64
$GPGSV,4,3,13,02,20,042,22,30,15,142,19,06,11,158,22,12,07,270,14,1*61
$GPGSV,4,4,13,21,07,028,17,1*5E
$GLGSV,2,1,07,83,57,089,23,74,49,312,,82,31,035,29,72,24,279,26,1*75
$GLGSV,2,2,07,84,22,169,,80,20,102,31,65,16,338,29,1*41
$GAGSV,3,1,10,25,80,033,20,02,40,274,17,10,35,089,18,08,34,290,17,7*71
$GAGSV,3,2,10,03,31,228,17,24,30,082,21,12,30,061,18,11,29,121,15,7*73
$GAGSV,3,3,10,07,06,335,09,36,04,163,,7*7A
$GBGSV,3,1,12,36,82,299,36,30,56,148,33,27,43,063,34,46,42,115,,1*73
$GBGSV,3,2,12,45,30,296,31,57,24,062,,29,14,195,31,21,13,300,27,1*7F
$GBGSV,3,3,12,28,07,036,26,22,06,252,24,58,05,125,,42,04,346,25,1*76
$GNRMC,004531.000,A,4910.425138,N,12304.400130,W,0.02,181.98,061224,,,D,V*11
$GNVTG,181.98,T,,M,0.02,N,0.03,K,D*2E
$PAIRLOG,Full*51
$PAIR010,0,1,2343,434749*35
$GNGGA,004532.000,4910.425102,N,12304.400214,W,2,29,0.49,11.353,M,-16.817,M,,*7F
$GNGLL,4910.425102,N,12304.400214,W,004532.000,A,D*5B
$GNGSA,A,3,17,22,19,14,24,13,15,02,30,21,,,0.86,0.49,0.71,1*0D
$GNGSA,A,3,83,82,72,80,65,,,,,,,,0.86,0.49,0.71,2*08
$GNGSA,A,3,25,02,10,08,03,24,,,,,,,0.86,0.49,0.71,3*0F
$GNGSA,A,3,36,30,27,45,29,21,28,22,,,,,0.86,0.49,0.71,4*01
$GPGSV,4,1,13,17,73,092,28,22,70,066,25,19,61,190,22,14,47,082,22,1*6B
$GPGSV,4,2,13,24,37,304,18,46,33,188,24,13,27,214,18,15,24,252,21,1*64
$GPGSV,4,3,13,02,20,042,22,30,15,142,19,06,11,158,23,12,07,270,,1*65
$GPGSV,4,4,13,21,07,028,17,1*5E
$GLGSV,2,1,07,83,57,089,23,74,49,312,,82,31,035,29,72,24,279,26,1*75
$GLGSV,2,2,07,84,22,169,,80,20,102,31,65,16,338,28,1*40
$GAGSV,3,1,10,25,80,033,20,02,40,274,17,10,35,089,18,08,34,290,17,7*71
$GAGSV,3,2,10,03,31,228,17,24,30,082,21,12,30,061,18,11,29,121,15,7*73
$GAGSV,3,3,10,07,06,335,09,36,04,163,,7*7A
$GBGSV,3,1,12,36,82,299,36,30,56,148,33,27,43,063,34,46,42,115,,1*73
$GBGSV,3,2,12,45,30,296,31,57,24,062,,29,14,195,31,21,13,300,27,1*7F
$GBGSV,3,3,12,28,07,036,26,22,06,252,24,58,05,125,,42,04,346,25,1*76
$GNRMC,004532.000,A,4910.425102,N,12304.400214,W,0.02,181.98,061224,,,D,V*1E
$GNVTG,181.98,T,,M,0.02,N,0.04,K,D*29
$PAIRLOG,Full*51
$GNGGA,004533.000,4910.425084,N,12304.400214,W,2,29,0.49,11.256,M,-16.816,M,,*74
$GNGLL,4910.425084,N,12304.400214,W,004533.000,A,D*55
$GNGSA,A,3,17,22,19,14,24,13,15,02,30,21,,,0.86,0.49,0.71,1*0D
$GNGSA,A,3,83,82,72,80,65,,,,,,,,0.86,0.49,0.71,2*08
$GNGSA,A,3,25,02,10,08,03,24,,,,,,,0.86,0.49,0.71,3*0F
$GNGSA,A,3,36,30,27,45,29,21,28,22,,,,,0.86,0.49,0.71,4*01
$GPGSV,4,1,13,17,73,092,26,22,70,066,25,19,61,190,22,14,47,082,22,1*65
$GPGSV,4,2,13,24,37,304,18,46,33,188,24,13,27,214,19,15,24,252,21,1*65
$GPGSV,4,3,13,02,20,042,22,30,15,142,18,06,11,158,23,12,07,270,,1*64
$GPGSV,4,4,13,21,07,028,17,1*5E
$GLGSV,2,1,07,83,57,089,23,74,49,312,,82,31,035,29,72,24,279,26,1*75
$GLGSV,2,2,07,84,22,169,,80,20,102,31,65,16,338,28,1*40
$GAGSV,3,1,10,25,80,033,20,02,40,274,17,10,35,089,18,08,34,290,17,7*71
$GAGSV,3,2,10,03,31,228,17,24,30,082,21,12,30,061,18,11,29,121,15,7*73
$GAGSV,3,3,10,07,06,335,09,36,04,163,,7*7A
$GBGSV,3,1,12,36,82,299,36,30,56,148,34,27,43,063,34,46,42,115,,1*74
$GBGSV,3,2,12,45,30,296,31,57,24,062,,29,14,195,31,21,13,300,27,1*7F
$GBGSV,3,3,12,28,07,036,27,22,06,252,24,58,05,125,,42,04,346,26,1*74
$GNRMC,004533.000,A,4910.425084,N,12304.400214,W,0.02,181.98,061224,,,D,V*10
$GNVTG,181.98,T,,M,0.02,N,0.03,K,D*2E
$PAIRLOG,Full*51
$GNGGA,004534.000,4910.425054,N,12304.400244,W,2,29,0.49,11.171,M,-16.816,M,,*7D
$GNGLL,4910.425054,N,12304.400244,W,004534.000,A,D*5A
$GNGSA,A,3,17,22,19,14,24,13,15,02,30,21,,,0.86,0.49,0.71,1*0D
$GNGSA,A,3,83,82,72,80,65,,,,,,,,0.86,0.49,0.71,2*08
$GNGSA,A,3,25,02,10,08,03,24,,,,,,,0.86,0.49,0.71,3*0F
$GNGSA,A,3,36,30,27,45,29,21,28,22,,,,,0.86,0.49,0.71,4*01
$GPGSV,4,1,13,17,73,092,26,22,70,066,25,19,61,190,21,14,47,082,21,1*65
$GPGSV,4,2,13,24,37,304,18,46,33,188,23,13,27,214,19,15,24,252,21,1*62
$GPGSV,4,3,13,02,20,042,22,30,15,142,18,06,11,158,22,12,07,270,,1*65
$GPGSV,4,4,13,21,07,028,17,1*5E
$GLGSV,2,1,07,83,57,089,23,74,49,312,,82,31,035,29,72,24,279,26,1*75
$GLGSV,2,2,07,84,22,169,,80,20,102,31,65,16,338,28,1*40
$GAGSV,3,1,10,25,80,033,20,02,40,274,17,10,35,089,18,08,34,290,17,7*71
$GAGSV,3,2,10,03,31,228,17,24,30,082,21,12,30,061,18,11,29,121,15,7*73
$GAGSV,3,3,10,07,06,335,09,36,04,163,,7*7A
$GBGSV,3,1,12,36,82,299,36,30,56,148,34,27,43,063,34,46,42,115,,1*74
$GBGSV,3,2,12,45,30,296,31,57,24,062,,29,14,195,31,21,13,300,27,1*7F
$GBGSV,3,3,12,28,07,036,27,22,06,252,24,58,05,125,,42,04,346,26,1*74
$GNRMC,004534.000,A,4910.425054,N,12304.400244,W,0.01,181.98,061224,,,D,V*1C
$GNVTG,181.98,T,,M,0.01,N,0.03,K,D*2D
$PAIRLOG,Full*51
$GNGGA,004535.000,4910.425036,N,12304.400346,W,2,29,0.49,11.099,M,-16.817,M,,*7D
$GNGLL,4910.425036,N,12304.400346,W,004535.000,A,D*5C
$GNGSA,A,3,17,22,19,14,24,13,15,02,30,21,,,0.86,0.49,0.71,1*0D
$GNGSA,A,3,83,82,72,80,65,,,,,,,,0.86,0.49,0.71,2*08
$GNGSA,A,3,25,02,10,08,03,24,,,,,,,0.86,0.49,0.71,3*0F
$GNGSA,A,3,36,30,27,45,29,21,28,22,,,,,0.86,0.49,0.71,4*01
$GPGSV,4,1,13,17,73,092,26,22,70,066,25,19,61,190,22,14,47,082,21,1*66
$GPGSV,4,2,13,24,37,304,18,46,33,188,23,13,27,214,19,15,24,252,21,1*62
$GPGSV,4,3,13,02,20,042,22,30,15,142,18,06,11,158,22,12,07,270,,1*65
$GPGSV,4,4,13,21,07,028,17,1*5E
$GLGSV,2,1,07,83,57,089,23,74,49,312,,82,31,035,29,72,24,279,26,1*75
$GLGSV,2,2,07,84,22,169,,80,20,102,31,65,16,338,28,1*40
$GAGSV,3,1,10,25,80,033,21,02,40,274,17,10,35,089,19,08,34,290,17,7*71
$GAGSV,3,2,10,03,31,228,16,24,30,082,21,12,30,061,18,11,29,121,15,7*72
$GAGSV,3,3,10,07,06,335,09,36,04,163,,7*7A
$GBGSV,3,1,12,36,82,299,36,30,56,148,34,27,43,063,34,46,42,115,,1*74
$GBGSV,3,2,12,45,30,296,31,57,24,062,,29,14,195,31,21,13,300,27,1*7F
$GBGSV,3,3,12,28,07,036,27,22,06,252,24,58,05,125,,42,04,346,26,1*74
$GNRMC,004535.000,A,4910.425036,N,12304.400346,W,0.01,181.98,061224,,,D,V*1A
$GNVTG,181.98,T,,M,0.01,N,0.03,K,D*2D
$PAIRLOG,Full*51
$GNGGA,004536.000,4910.425030,N,12304.400400,W,2,29,0.49,11.035,M,-16.816,M,,*7A
$GNGLL,4910.425030,N,12304.400400,W,004536.000,A,D*5C
$GNGSA,A,3,17,22,19,14,24,13,15,02,30,21,,,0.86,0.49,0.71,1*0D
$GNGSA,A,3,83,82,72,80,65,,,,,,,,0.86,0.49,0.71,2*08
$GNGSA,A,3,25,02,10,08,03,24,,,,,,,0.86,0.49,0.71,3*0F
$GNGSA,A,3,36,30,27,45,29,21,28,22,,,,,0.86,0.49,0.71,4*01
$GPGSV,4,1,13,17,73,092,27,22,70,066,25,19,61,190,22,14,47,082,21,1*67
$GPGSV,4,2,13,24,37,304,19,46,33,188,23,13,27,214,19,15,24,252,21,1*63
$GPGSV,4,3,13,02,20,042,22,30,15,142,18,06,11,158,23,12,07,270,,1*64
$GPGSV,4,4,13,21,07,028,17,1*5E
$GLGSV,2,1,07,83,57,089,23,74,49,312,,82,31,035,29,72,24,279,26,1*75
$GLGSV,2,2,07,84,22,169,,80,20,102,31,65,16,338,27,1*4F
$GAGSV,3,1,10,25,80,033,21,02,40,274,18,10,35,089,19,08,34,290,17,7*7E
$GAGSV,3,2,10,03,31,228,16,24,30,082,21,12,30,061,18,11,29,121,15,7*72
$GAGSV,3,3,10,07,06,335,09,36,04,163,,7*7A
$GBGSV,3,1,12,36,82,299,36,30,56,148,34,27,43,063,34,46,42,115,,1*74
$GBGSV,3,2,12,45,30,296,31,57,24,062,,29,14,195,31,21,13,300,27,1*7F
$GBGSV,3,3,12,28,07,036,27,22,06,252,24,58,05,125,,42,04,346,26,1*74
$GNRMC,004536.000,A,4910.425030,N,12304.400400,W,0.01,181.98,061224,,,D,V*1A
$GNVTG,181.98,T,,M,0.01,N,0.03,K,D*2D
$PAIRLOG,Full*51
$GNGGA,004537.000,4910.425018,N,12304.400520,W,2,29,0.49,11.004,M,-16.816,M,,*70
