2024-12-05 10:14:10,781 [INFO] Console logging setup complete. Logs are being saved to logs/NMEA_20241205_101410778793\console_output_20241205_101410778793.txt
2024-12-05 10:14:10,887 [INFO] Connected to serial port COM9 with baudrate 115200.
2024-12-05 10:14:11,122 [INFO] Standard NMEA Message: $GNGGA,181412.000,4910.426890,N,12304.402410,W,2,28,0.52,9.380,M,-16.817,M,,*4D
2024-12-05 10:14:11,126 [INFO] GGA - Fix Data:
  Timestamp: 18:14:12+00:00
  Latitude: 49.1737815 N
  Longitude: -123.0733735 W
  GPS Quality Indicator: 2
  Number of Satellites in Use: 28
  Horizontal Dilution of Precision (HDOP): 0.52
  Antenna Altitude (Above Mean Sea Level): 9.38 M
  Geoidal Separation: -16.817 M
  Age of Differential GPS Data: 
  Differential Reference Station ID: 

2024-12-05 10:14:11,136 [INFO] Standard NMEA Message: $GNGLL,4910.426890,N,12304.402410,W,181412.000,A,D*55
2024-12-05 10:14:11,141 [INFO] GLL - Geographic Position:
  Latitude: 49.1737815 N
  Longitude: -123.0733735 W
  Timestamp: 18:14:12+00:00
  Status: A
  FAA Mode: D

2024-12-05 10:14:11,150 [INFO] Standard NMEA Message: $GNGSA,A,3,04,09,16,07,03,26,31,11,,,,,0.91,0.52,0.75,1*04
2024-12-05 10:14:11,154 [INFO] GSA - Satellite Info:
  Mode: A
  Mode Fix Type: 3
  Satellites Used: 04, 09, 16, 07, 03, 26, 31, 11
  PDOP: 0.91
  HDOP: 0.52
  VDOP: 0.75

2024-12-05 10:14:11,162 [INFO] Standard NMEA Message: $GNGSA,A,3,68,78,67,69,79,85,,,,,,,0.91,0.52,0.75,2*03
2024-12-05 10:14:11,170 [INFO] GSA - Satellite Info:
  Mode: A
  Mode Fix Type: 3
  Satellites Used: 68, 78, 67, 69, 79, 85
  PDOP: 0.91
  HDOP: 0.52
  VDOP: 0.75

2024-12-05 10:14:11,177 [INFO] Standard NMEA Message: $GNGSA,A,3,06,09,04,31,05,34,36,21,,,,,0.91,0.52,0.75,3*03
2024-12-05 10:14:11,186 [INFO] GSA - Satellite Info:
  Mode: A
  Mode Fix Type: 3
  Satellites Used: 06, 09, 04, 31, 05, 34, 36, 21
  PDOP: 0.91
  HDOP: 0.52
  VDOP: 0.75

2024-12-05 10:14:11,195 [INFO] Standard NMEA Message: $GNGSA,A,3,32,23,37,20,25,41,,,,,,,0.91,0.52,0.75,4*0D
2024-12-05 10:14:11,204 [INFO] GSA - Satellite Info:
  Mode: A
  Mode Fix Type: 3
  Satellites Used: 32, 23, 37, 20, 25, 41
  PDOP: 0.91
  HDOP: 0.52
  VDOP: 0.75

2024-12-05 10:14:11,215 [INFO] Standard NMEA Message: $GPGSV,3,1,12,04,80,073,36,09,65,299,38,16,47,097,34,07,35,240,33,1*61
2024-12-05 10:14:11,224 [INFO] GSV - Satellites in View:
  Number of Messages: 3
  Message Number: 1
  Total Satellites in View: 12
  Satellite 1 PRN: 04 - Elevation: 80° - Azimuth: 073° - SNR: 36 dB
  Satellite 2 PRN: 09 - Elevation: 65° - Azimuth: 299° - SNR: 38 dB
  Satellite 3 PRN: 16 - Elevation: 47° - Azimuth: 097° - SNR: 34 dB
  Satellite 4 PRN: 07 - Elevation: 35° - Azimuth: 240° - SNR: 33 dB

2024-12-05 10:14:11,234 [INFO] Standard NMEA Message: $GPGSV,3,2,12,03,34,173,33,48,33,182,30,26,33,057,33,06,19,277,,1*69
2024-12-05 10:14:11,243 [INFO] GSV - Satellites in View:
  Number of Messages: 3
  Message Number: 2
  Total Satellites in View: 12
  Satellite 1 PRN: 03 - Elevation: 34° - Azimuth: 173° - SNR: 33 dB
  Satellite 2 PRN: 48 - Elevation: 33° - Azimuth: 182° - SNR: 30 dB
  Satellite 3 PRN: 26 - Elevation: 33° - Azimuth: 057° - SNR: 33 dB
  Satellite 4 PRN: 06 - Elevation: 19° - Azimuth: 277° - SNR:  dB

2024-12-05 10:14:11,249 [INFO] Standard NMEA Message: $GPGSV,3,3,12,31,17,060,28,11,14,316,29,20,04,328,23,29,03,014,19,1*6E
2024-12-05 10:14:11,260 [INFO] GSV - Satellites in View:
  Number of Messages: 3
  Message Number: 3
  Total Satellites in View: 12
  Satellite 1 PRN: 31 - Elevation: 17° - Azimuth: 060° - SNR: 28 dB
  Satellite 2 PRN: 11 - Elevation: 14° - Azimuth: 316° - SNR: 29 dB
  Satellite 3 PRN: 20 - Elevation: 04° - Azimuth: 328° - SNR: 23 dB
  Satellite 4 PRN: 29 - Elevation: 03° - Azimuth: 014° - SNR: 19 dB

2024-12-05 10:14:11,266 [INFO] Standard NMEA Message: $GLGSV,2,1,07,68,81,028,31,78,72,155,21,67,37,122,28,69,34,316,27,1*7C
2024-12-05 10:14:11,277 [INFO] GSV - Satellites in View:
  Number of Messages: 2
  Message Number: 1
  Total Satellites in View: 07
  Satellite 1 PRN: 68 - Elevation: 81° - Azimuth: 028° - SNR: 31 dB
  Satellite 2 PRN: 78 - Elevation: 72° - Azimuth: 155° - SNR: 21 dB
  Satellite 3 PRN: 67 - Elevation: 37° - Azimuth: 122° - SNR: 28 dB
  Satellite 4 PRN: 69 - Elevation: 34° - Azimuth: 316° - SNR: 27 dB

2024-12-05 10:14:11,290 [INFO] Standard NMEA Message: $GLGSV,2,2,07,79,23,199,22,85,13,340,22,84,11,289,,1*46
2024-12-05 10:14:11,298 [INFO] GSV - Satellites in View:
  Number of Messages: 2
  Message Number: 2
  Total Satellites in View: 07
  Satellite 1 PRN: 79 - Elevation: 23° - Azimuth: 199° - SNR: 22 dB
  Satellite 2 PRN: 85 - Elevation: 13° - Azimuth: 340° - SNR: 22 dB
  Satellite 3 PRN: 84 - Elevation: 11° - Azimuth: 289° - SNR:  dB
  Satellite 4 PRN: 1 - Elevation: ° - Azimuth: ° - SNR:  dB

2024-12-05 10:14:11,310 [INFO] Standard NMEA Message: $GAGSV,3,1,10,06,77,082,33,09,74,308,34,04,50,098,30,31,40,149,28,7*79
2024-12-05 10:14:11,316 [INFO] GSV - Satellites in View:
  Number of Messages: 3
  Message Number: 1
  Total Satellites in View: 10
  Satellite 1 PRN: 06 - Elevation: 77° - Azimuth: 082° - SNR: 33 dB
  Satellite 2 PRN: 09 - Elevation: 74° - Azimuth: 308° - SNR: 34 dB
  Satellite 3 PRN: 04 - Elevation: 50° - Azimuth: 098° - SNR: 30 dB
  Satellite 4 PRN: 31 - Elevation: 40° - Azimuth: 149° - SNR: 28 dB

2024-12-05 10:14:11,327 [INFO] Standard NMEA Message: $GAGSV,3,2,10,05,21,288,24,34,21,305,25,36,19,252,24,21,10,032,22,7*79
2024-12-05 10:14:11,341 [INFO] GSV - Satellites in View:
  Number of Messages: 3
  Message Number: 2
  Total Satellites in View: 10
  Satellite 1 PRN: 05 - Elevation: 21° - Azimuth: 288° - SNR: 24 dB
  Satellite 2 PRN: 34 - Elevation: 21° - Azimuth: 305° - SNR: 25 dB
  Satellite 3 PRN: 36 - Elevation: 19° - Azimuth: 252° - SNR: 24 dB
  Satellite 4 PRN: 21 - Elevation: 10° - Azimuth: 032° - SNR: 22 dB

2024-12-05 10:14:11,364 [INFO] Standard NMEA Message: $GAGSV,3,3,10,24,04,186,20,15,02,350,17,7*7B
2024-12-05 10:14:11,377 [INFO] GSV - Satellites in View:
  Number of Messages: 3
  Message Number: 3
  Total Satellites in View: 10
  Satellite 1 PRN: 24 - Elevation: 04° - Azimuth: 186° - SNR: 20 dB
  Satellite 2 PRN: 15 - Elevation: 02° - Azimuth: 350° - SNR: 17 dB
  Satellite 3 PRN: 7 - Elevation: ° - Azimuth: ° - SNR:  dB
  Satellite 4 PRN:  - Elevation: ° - Azimuth: ° - SNR:  dB

2024-12-05 10:14:11,387 [INFO] Standard NMEA Message: $GBGSV,3,1,09,32,78,171,38,23,72,106,38,37,40,205,35,20,39,306,35,1*7D
2024-12-05 10:14:11,399 [INFO] GSV - Satellites in View:
  Number of Messages: 3
  Message Number: 1
  Total Satellites in View: 09
  Satellite 1 PRN: 32 - Elevation: 78° - Azimuth: 171° - SNR: 38 dB
  Satellite 2 PRN: 23 - Elevation: 72° - Azimuth: 106° - SNR: 38 dB
  Satellite 3 PRN: 37 - Elevation: 40° - Azimuth: 205° - SNR: 35 dB
  Satellite 4 PRN: 20 - Elevation: 39° - Azimuth: 306° - SNR: 35 dB

2024-12-05 10:14:11,416 [INFO] Standard NMEA Message: $GBGSV,3,2,09,25,27,051,31,41,23,137,31,38,04,333,25,04,01,262,,1*71
2024-12-05 10:14:11,431 [INFO] GSV - Satellites in View:
  Number of Messages: 3
  Message Number: 2
  Total Satellites in View: 09
  Satellite 1 PRN: 25 - Elevation: 27° - Azimuth: 051° - SNR: 31 dB
  Satellite 2 PRN: 41 - Elevation: 23° - Azimuth: 137° - SNR: 31 dB
  Satellite 3 PRN: 38 - Elevation: 04° - Azimuth: 333° - SNR: 25 dB
  Satellite 4 PRN: 04 - Elevation: 01° - Azimuth: 262° - SNR:  dB

2024-12-05 10:14:11,443 [INFO] Standard NMEA Message: $GBGSV,3,3,09,35,01,335,,1*4D
2024-12-05 10:14:11,457 [INFO] GSV - Satellites in View:
  Number of Messages: 3
  Message Number: 3
  Total Satellites in View: 09
  Satellite 1 PRN: 35 - Elevation: 01° - Azimuth: 335° - SNR:  dB
  Satellite 2 PRN: 1 - Elevation: ° - Azimuth: ° - SNR:  dB
  Satellite 3 PRN:  - Elevation: ° - Azimuth: ° - SNR:  dB
  Satellite 4 PRN:  - Elevation: ° - Azimuth: ° - SNR:  dB

2024-12-05 10:14:11,472 [INFO] Standard NMEA Message: $GNRMC,181412.000,A,4910.426890,N,12304.402410,W,0.01,0.00,051224,,,D,V*19
2024-12-05 10:14:11,478 [INFO] RMC - Recommended Minimum:
  Timestamp: 18:14:12+00:00
  Status: A
  Latitude: 49.1737815 N
  Longitude: -123.0733735 W
  Speed over Ground: 0.01 knots
  Course over Ground: 0.0
  Date: 2024-12-05
  Magnetic Variation:  
  Mode Indicator: D
  Navigational Status: V

2024-12-05 10:14:11,493 [INFO] Standard NMEA Message: $GNVTG,0.00,T,,M,0.01,N,0.03,K,D*24
2024-12-05 10:14:11,503 [INFO] VTG - Course over Ground and Ground Speed:
  True Track: 0.0° T
  Magnetic Track: None° M
  Speed over Ground: 0.01 knots / 0.03 km/h
  FAA Mode: D

2024-12-05 10:14:12,121 [INFO] Standard NMEA Message: $GNGGA,181413.000,4910.426806,N,12304.402374,W,2,28,0.52,9.322,M,-16.816,M,,*4F
2024-12-05 10:14:12,133 [INFO] GGA - Fix Data:
  Timestamp: 18:14:13+00:00
  Latitude: 49.1737801 N
  Longitude: -123.0733729 W
  GPS Quality Indicator: 2
  Number of Satellites in Use: 28
  Horizontal Dilution of Precision (HDOP): 0.52
  Antenna Altitude (Above Mean Sea Level): 9.322 M
  Geoidal Separation: -16.816 M
  Age of Differential GPS Data: 
  Differential Reference Station ID: 

2024-12-05 10:14:12,154 [INFO] Standard NMEA Message: $GNGLL,4910.426806,N,12304.402374,W,181413.000,A,D*5E
2024-12-05 10:14:12,166 [INFO] GLL - Geographic Position:
  Latitude: 49.1737801 N
  Longitude: -123.0733729 W
  Timestamp: 18:14:13+00:00
  Status: A
  FAA Mode: D

2024-12-05 10:14:12,181 [INFO] Standard NMEA Message: $GNGSA,A,3,04,09,16,07,03,26,31,11,,,,,0.91,0.52,0.75,1*04
2024-12-05 10:14:12,191 [INFO] GSA - Satellite Info:
  Mode: A
  Mode Fix Type: 3
  Satellites Used: 04, 09, 16, 07, 03, 26, 31, 11
  PDOP: 0.91
  HDOP: 0.52
  VDOP: 0.75

2024-12-05 10:14:12,198 [INFO] Standard NMEA Message: $GNGSA,A,3,68,78,67,69,79,85,,,,,,,0.91,0.52,0.75,2*03
2024-12-05 10:14:12,208 [INFO] GSA - Satellite Info:
  Mode: A
  Mode Fix Type: 3
  Satellites Used: 68, 78, 67, 69, 79, 85
  PDOP: 0.91
  HDOP: 0.52
  VDOP: 0.75

2024-12-05 10:14:12,215 [INFO] Standard NMEA Message: $GNGSA,A,3,06,09,04,31,05,34,36,21,,,,,0.91,0.52,0.75,3*03
2024-12-05 10:14:12,224 [INFO] GSA - Satellite Info:
  Mode: A
  Mode Fix Type: 3
  Satellites Used: 06, 09, 04, 31, 05, 34, 36, 21
  PDOP: 0.91
  HDOP: 0.52
  VDOP: 0.75

2024-12-05 10:14:12,234 [INFO] Standard NMEA Message: $GNGSA,A,3,32,23,37,20,25,41,,,,,,,0.91,0.52,0.75,4*0D
2024-12-05 10:14:12,240 [INFO] GSA - Satellite Info:
  Mode: A
  Mode Fix Type: 3
  Satellites Used: 32, 23, 37, 20, 25, 41
  PDOP: 0.91
  HDOP: 0.52
  VDOP: 0.75

2024-12-05 10:14:12,251 [INFO] Standard NMEA Message: $GPGSV,3,1,12,04,80,073,36,09,65,299,38,16,47,097,34,07,35,240,33,1*61
2024-12-05 10:14:12,260 [INFO] GSV - Satellites in View:
  Number of Messages: 3
  Message Number: 1
  Total Satellites in View: 12
  Satellite 1 PRN: 04 - Elevation: 80° - Azimuth: 073° - SNR: 36 dB
  Satellite 2 PRN: 09 - Elevation: 65° - Azimuth: 299° - SNR: 38 dB
  Satellite 3 PRN: 16 - Elevation: 47° - Azimuth: 097° - SNR: 34 dB
  Satellite 4 PRN: 07 - Elevation: 35° - Azimuth: 240° - SNR: 33 dB

2024-12-05 10:14:12,269 [INFO] Standard NMEA Message: $GPGSV,3,2,12,03,34,173,33,48,33,182,30,26,33,057,33,06,19,277,,1*69
2024-12-05 10:14:12,279 [INFO] GSV - Satellites in View:
  Number of Messages: 3
  Message Number: 2
  Total Satellites in View: 12
  Satellite 1 PRN: 03 - Elevation: 34° - Azimuth: 173° - SNR: 33 dB
  Satellite 2 PRN: 48 - Elevation: 33° - Azimuth: 182° - SNR: 30 dB
  Satellite 3 PRN: 26 - Elevation: 33° - Azimuth: 057° - SNR: 33 dB
  Satellite 4 PRN: 06 - Elevation: 19° - Azimuth: 277° - SNR:  dB

2024-12-05 10:14:12,289 [INFO] Standard NMEA Message: $GPGSV,3,3,12,31,17,060,28,11,14,316,29,20,04,328,24,29,03,014,17,1*67
2024-12-05 10:14:12,300 [INFO] GSV - Satellites in View:
  Number of Messages: 3
  Message Number: 3
  Total Satellites in View: 12
  Satellite 1 PRN: 31 - Elevation: 17° - Azimuth: 060° - SNR: 28 dB
  Satellite 2 PRN: 11 - Elevation: 14° - Azimuth: 316° - SNR: 29 dB
  Satellite 3 PRN: 20 - Elevation: 04° - Azimuth: 328° - SNR: 24 dB
  Satellite 4 PRN: 29 - Elevation: 03° - Azimuth: 014° - SNR: 17 dB

2024-12-05 10:14:12,311 [INFO] Standard NMEA Message: $GLGSV,2,1,07,68,81,028,31,78,72,155,21,67,37,122,28,69,34,316,26,1*7D
2024-12-05 10:14:12,325 [INFO] GSV - Satellites in View:
  Number of Messages: 2
  Message Number: 1
  Total Satellites in View: 07
  Satellite 1 PRN: 68 - Elevation: 81° - Azimuth: 028° - SNR: 31 dB
  Satellite 2 PRN: 78 - Elevation: 72° - Azimuth: 155° - SNR: 21 dB
  Satellite 3 PRN: 67 - Elevation: 37° - Azimuth: 122° - SNR: 28 dB
  Satellite 4 PRN: 69 - Elevation: 34° - Azimuth: 316° - SNR: 26 dB

2024-12-05 10:14:12,330 [INFO] Standard NMEA Message: $GLGSV,2,2,07,79,23,199,22,85,13,340,22,84,11,289,,1*46
2024-12-05 10:14:12,340 [INFO] GSV - Satellites in View:
  Number of Messages: 2
  Message Number: 2
  Total Satellites in View: 07
  Satellite 1 PRN: 79 - Elevation: 23° - Azimuth: 199° - SNR: 22 dB
  Satellite 2 PRN: 85 - Elevation: 13° - Azimuth: 340° - SNR: 22 dB
  Satellite 3 PRN: 84 - Elevation: 11° - Azimuth: 289° - SNR:  dB
  Satellite 4 PRN: 1 - Elevation: ° - Azimuth: ° - SNR:  dB

2024-12-05 10:14:12,353 [INFO] Standard NMEA Message: $GAGSV,3,1,10,06,77,082,33,09,74,308,34,04,50,098,30,31,40,149,28,7*79
2024-12-05 10:14:12,367 [INFO] GSV - Satellites in View:
  Number of Messages: 3
  Message Number: 1
  Total Satellites in View: 10
  Satellite 1 PRN: 06 - Elevation: 77° - Azimuth: 082° - SNR: 33 dB
  Satellite 2 PRN: 09 - Elevation: 74° - Azimuth: 308° - SNR: 34 dB
  Satellite 3 PRN: 04 - Elevation: 50° - Azimuth: 098° - SNR: 30 dB
  Satellite 4 PRN: 31 - Elevation: 40° - Azimuth: 149° - SNR: 28 dB

2024-12-05 10:14:12,382 [INFO] Standard NMEA Message: $GAGSV,3,2,10,05,21,288,24,34,21,305,25,36,19,252,24,21,10,032,22,7*79
2024-12-05 10:14:12,393 [INFO] GSV - Satellites in View:
  Number of Messages: 3
  Message Number: 2
  Total Satellites in View: 10
  Satellite 1 PRN: 05 - Elevation: 21° - Azimuth: 288° - SNR: 24 dB
  Satellite 2 PRN: 34 - Elevation: 21° - Azimuth: 305° - SNR: 25 dB
  Satellite 3 PRN: 36 - Elevation: 19° - Azimuth: 252° - SNR: 24 dB
  Satellite 4 PRN: 21 - Elevation: 10° - Azimuth: 032° - SNR: 22 dB

2024-12-05 10:14:12,407 [INFO] Standard NMEA Message: $GAGSV,3,3,10,24,04,186,20,15,02,350,17,7*7B
2024-12-05 10:14:12,415 [INFO] GSV - Satellites in View:
  Number of Messages: 3
  Message Number: 3
  Total Satellites in View: 10
  Satellite 1 PRN: 24 - Elevation: 04° - Azimuth: 186° - SNR: 20 dB
  Satellite 2 PRN: 15 - Elevation: 02° - Azimuth: 350° - SNR: 17 dB
  Satellite 3 PRN: 7 - Elevation: ° - Azimuth: ° - SNR:  dB
  Satellite 4 PRN:  - Elevation: ° - Azimuth: ° - SNR:  dB

2024-12-05 10:14:12,426 [INFO] Standard NMEA Message: $GBGSV,3,1,09,32,78,171,38,23,72,106,38,37,40,205,35,20,39,306,35,1*7D
2024-12-05 10:14:12,440 [INFO] GSV - Satellites in View:
  Number of Messages: 3
  Message Number: 1
  Total Satellites in View: 09
  Satellite 1 PRN: 32 - Elevation: 78° - Azimuth: 171° - SNR: 38 dB
  Satellite 2 PRN: 23 - Elevation: 72° - Azimuth: 106° - SNR: 38 dB
  Satellite 3 PRN: 37 - Elevation: 40° - Azimuth: 205° - SNR: 35 dB
  Satellite 4 PRN: 20 - Elevation: 39° - Azimuth: 306° - SNR: 35 dB

2024-12-05 10:14:12,456 [INFO] Standard NMEA Message: $GBGSV,3,2,09,25,27,051,31,41,23,137,31,38,04,333,25,04,01,262,,1*71
2024-12-05 10:14:12,468 [INFO] GSV - Satellites in View:
  Number of Messages: 3
  Message Number: 2
  Total Satellites in View: 09
  Satellite 1 PRN: 25 - Elevation: 27° - Azimuth: 051° - SNR: 31 dB
  Satellite 2 PRN: 41 - Elevation: 23° - Azimuth: 137° - SNR: 31 dB
  Satellite 3 PRN: 38 - Elevation: 04° - Azimuth: 333° - SNR: 25 dB
  Satellite 4 PRN: 04 - Elevation: 01° - Azimuth: 262° - SNR:  dB

2024-12-05 10:14:12,474 [INFO] Standard NMEA Message: $GBGSV,3,3,09,35,01,335,,1*4D
2024-12-05 10:14:12,486 [INFO] GSV - Satellites in View:
  Number of Messages: 3
  Message Number: 3
  Total Satellites in View: 09
  Satellite 1 PRN: 35 - Elevation: 01° - Azimuth: 335° - SNR:  dB
  Satellite 2 PRN: 1 - Elevation: ° - Azimuth: ° - SNR:  dB
  Satellite 3 PRN:  - Elevation: ° - Azimuth: ° - SNR:  dB
  Satellite 4 PRN:  - Elevation: ° - Azimuth: ° - SNR:  dB

2024-12-05 10:14:12,494 [INFO] Standard NMEA Message: $GNRMC,181413.000,A,4910.426806,N,12304.402374,W,0.02,0.00,051224,,,D,V*11
2024-12-05 10:14:12,503 [INFO] RMC - Recommended Minimum:
  Timestamp: 18:14:13+00:00
  Status: A
  Latitude: 49.1737801 N
  Longitude: -123.0733729 W
  Speed over Ground: 0.02 knots
  Course over Ground: 0.0
  Date: 2024-12-05
  Magnetic Variation:  
  Mode Indicator: D
  Navigational Status: V

2024-12-05 10:14:12,512 [INFO] Standard NMEA Message: $GNVTG,0.00,T,,M,0.02,N,0.03,K,D*27
2024-12-05 10:14:12,525 [INFO] VTG - Course over Ground and Ground Speed:
  True Track: 0.0° T
  Magnetic Track: None° M
  Speed over Ground: 0.02 knots / 0.03 km/h
  FAA Mode: D

2024-12-05 10:14:13,123 [INFO] Standard NMEA Message: $GNGGA,181414.000,4910.426740,N,12304.402296,W,2,28,0.52,9.282,M,-16.817,M,,*42
2024-12-05 10:14:13,136 [INFO] GGA - Fix Data:
  Timestamp: 18:14:14+00:00
  Latitude: 49.173779 N
  Longitude: -123.0733716 W
  GPS Quality Indicator: 2
  Number of Satellites in Use: 28
  Horizontal Dilution of Precision (HDOP): 0.52
  Antenna Altitude (Above Mean Sea Level): 9.282 M
  Geoidal Separation: -16.817 M
  Age of Differential GPS Data: 
  Differential Reference Station ID: 

2024-12-05 10:14:13,159 [INFO] Standard NMEA Message: $GNGLL,4910.426740,N,12304.402296,W,181414.000,A,D*59
2024-12-05 10:14:13,172 [INFO] GLL - Geographic Position:
  Latitude: 49.173779 N
  Longitude: -123.0733716 W
  Timestamp: 18:14:14+00:00
  Status: A
  FAA Mode: D

2024-12-05 10:14:13,184 [INFO] Standard NMEA Message: $GNGSA,A,3,04,09,16,07,03,26,31,11,,,,,0.91,0.52,0.75,1*04
2024-12-05 10:14:13,196 [INFO] GSA - Satellite Info:
  Mode: A
  Mode Fix Type: 3
  Satellites Used: 04, 09, 16, 07, 03, 26, 31, 11
  PDOP: 0.91
  HDOP: 0.52
  VDOP: 0.75

2024-12-05 10:14:13,209 [INFO] Standard NMEA Message: $GNGSA,A,3,68,78,67,69,79,85,,,,,,,0.91,0.52,0.75,2*03
2024-12-05 10:14:13,220 [INFO] GSA - Satellite Info:
  Mode: A
  Mode Fix Type: 3
  Satellites Used: 68, 78, 67, 69, 79, 85
  PDOP: 0.91
  HDOP: 0.52
  VDOP: 0.75

2024-12-05 10:14:13,231 [INFO] Standard NMEA Message: $GNGSA,A,3,06,09,04,31,05,34,36,21,,,,,0.91,0.52,0.75,3*03
2024-12-05 10:14:13,242 [INFO] GSA - Satellite Info:
  Mode: A
  Mode Fix Type: 3
  Satellites Used: 06, 09, 04, 31, 05, 34, 36, 21
  PDOP: 0.91
  HDOP: 0.52
  VDOP: 0.75

2024-12-05 10:14:13,256 [INFO] Standard NMEA Message: $GNGSA,A,3,32,23,37,20,25,41,,,,,,,0.91,0.52,0.75,4*0D
2024-12-05 10:14:13,265 [INFO] GSA - Satellite Info:
  Mode: A
  Mode Fix Type: 3
  Satellites Used: 32, 23, 37, 20, 25, 41
  PDOP: 0.91
  HDOP: 0.52
  VDOP: 0.75

2024-12-05 10:14:13,281 [INFO] Standard NMEA Message: $GPGSV,3,1,12,04,80,073,36,09,65,299,38,16,47,097,34,07,35,240,33,1*61
2024-12-05 10:14:13,290 [INFO] GSV - Satellites in View:
  Number of Messages: 3
  Message Number: 1
  Total Satellites in View: 12
  Satellite 1 PRN: 04 - Elevation: 80° - Azimuth: 073° - SNR: 36 dB
  Satellite 2 PRN: 09 - Elevation: 65° - Azimuth: 299° - SNR: 38 dB
  Satellite 3 PRN: 16 - Elevation: 47° - Azimuth: 097° - SNR: 34 dB
  Satellite 4 PRN: 07 - Elevation: 35° - Azimuth: 240° - SNR: 33 dB

2024-12-05 10:14:13,301 [INFO] Standard NMEA Message: $GPGSV,3,2,12,03,34,173,33,48,33,182,30,26,33,057,33,06,19,277,,1*69
2024-12-05 10:14:13,310 [INFO] GSV - Satellites in View:
  Number of Messages: 3
  Message Number: 2
  Total Satellites in View: 12
  Satellite 1 PRN: 03 - Elevation: 34° - Azimuth: 173° - SNR: 33 dB
  Satellite 2 PRN: 48 - Elevation: 33° - Azimuth: 182° - SNR: 30 dB
  Satellite 3 PRN: 26 - Elevation: 33° - Azimuth: 057° - SNR: 33 dB
  Satellite 4 PRN: 06 - Elevation: 19° - Azimuth: 277° - SNR:  dB

2024-12-05 10:14:13,323 [INFO] Standard NMEA Message: $GPGSV,3,3,12,31,17,060,28,11,14,316,29,20,04,328,23,29,03,014,17,1*60
2024-12-05 10:14:13,332 [INFO] GSV - Satellites in View:
  Number of Messages: 3
  Message Number: 3
  Total Satellites in View: 12
  Satellite 1 PRN: 31 - Elevation: 17° - Azimuth: 060° - SNR: 28 dB
  Satellite 2 PRN: 11 - Elevation: 14° - Azimuth: 316° - SNR: 29 dB
  Satellite 3 PRN: 20 - Elevation: 04° - Azimuth: 328° - SNR: 23 dB
  Satellite 4 PRN: 29 - Elevation: 03° - Azimuth: 014° - SNR: 17 dB

2024-12-05 10:14:13,344 [INFO] Standard NMEA Message: $GLGSV,2,1,07,68,81,028,31,78,72,155,21,67,37,122,28,69,34,316,26,1*7D
2024-12-05 10:14:13,349 [INFO] GSV - Satellites in View:
  Number of Messages: 2
  Message Number: 1
  Total Satellites in View: 07
  Satellite 1 PRN: 68 - Elevation: 81° - Azimuth: 028° - SNR: 31 dB
  Satellite 2 PRN: 78 - Elevation: 72° - Azimuth: 155° - SNR: 21 dB
  Satellite 3 PRN: 67 - Elevation: 37° - Azimuth: 122° - SNR: 28 dB
  Satellite 4 PRN: 69 - Elevation: 34° - Azimuth: 316° - SNR: 26 dB

2024-12-05 10:14:13,356 [INFO] Standard NMEA Message: $GLGSV,2,2,07,79,23,199,22,85,13,340,22,84,11,289,,1*46
2024-12-05 10:14:13,367 [INFO] GSV - Satellites in View:
  Number of Messages: 2
  Message Number: 2
  Total Satellites in View: 07
  Satellite 1 PRN: 79 - Elevation: 23° - Azimuth: 199° - SNR: 22 dB
  Satellite 2 PRN: 85 - Elevation: 13° - Azimuth: 340° - SNR: 22 dB
  Satellite 3 PRN: 84 - Elevation: 11° - Azimuth: 289° - SNR:  dB
  Satellite 4 PRN: 1 - Elevation: ° - Azimuth: ° - SNR:  dB

2024-12-05 10:14:13,373 [INFO] Standard NMEA Message: $GAGSV,3,1,10,06,77,082,33,09,74,308,34,04,50,098,30,31,40,149,28,7*79
2024-12-05 10:14:13,379 [INFO] GSV - Satellites in View:
  Number of Messages: 3
  Message Number: 1
  Total Satellites in View: 10
  Satellite 1 PRN: 06 - Elevation: 77° - Azimuth: 082° - SNR: 33 dB
  Satellite 2 PRN: 09 - Elevation: 74° - Azimuth: 308° - SNR: 34 dB
  Satellite 3 PRN: 04 - Elevation: 50° - Azimuth: 098° - SNR: 30 dB
  Satellite 4 PRN: 31 - Elevation: 40° - Azimuth: 149° - SNR: 28 dB

2024-12-05 10:14:13,392 [INFO] Standard NMEA Message: $GAGSV,3,2,10,05,21,288,23,34,21,305,25,36,19,252,24,21,10,032,22,7*7E
2024-12-05 10:14:13,403 [INFO] GSV - Satellites in View:
  Number of Messages: 3
  Message Number: 2
  Total Satellites in View: 10
  Satellite 1 PRN: 05 - Elevation: 21° - Azimuth: 288° - SNR: 23 dB
  Satellite 2 PRN: 34 - Elevation: 21° - Azimuth: 305° - SNR: 25 dB
  Satellite 3 PRN: 36 - Elevation: 19° - Azimuth: 252° - SNR: 24 dB
  Satellite 4 PRN: 21 - Elevation: 10° - Azimuth: 032° - SNR: 22 dB

2024-12-05 10:14:13,416 [INFO] Standard NMEA Message: $GAGSV,3,3,10,24,04,186,20,15,02,350,17,7*7B
2024-12-05 10:14:13,427 [INFO] GSV - Satellites in View:
  Number of Messages: 3
  Message Number: 3
  Total Satellites in View: 10
  Satellite 1 PRN: 24 - Elevation: 04° - Azimuth: 186° - SNR: 20 dB
  Satellite 2 PRN: 15 - Elevation: 02° - Azimuth: 350° - SNR: 17 dB
  Satellite 3 PRN: 7 - Elevation: ° - Azimuth: ° - SNR:  dB
  Satellite 4 PRN:  - Elevation: ° - Azimuth: ° - SNR:  dB

2024-12-05 10:14:13,438 [INFO] Standard NMEA Message: $GBGSV,3,1,09,32,78,171,38,23,72,106,38,37,40,205,35,20,39,306,35,1*7D
2024-12-05 10:14:13,447 [INFO] GSV - Satellites in View:
  Number of Messages: 3
  Message Number: 1
  Total Satellites in View: 09
  Satellite 1 PRN: 32 - Elevation: 78° - Azimuth: 171° - SNR: 38 dB
  Satellite 2 PRN: 23 - Elevation: 72° - Azimuth: 106° - SNR: 38 dB
  Satellite 3 PRN: 37 - Elevation: 40° - Azimuth: 205° - SNR: 35 dB
  Satellite 4 PRN: 20 - Elevation: 39° - Azimuth: 306° - SNR: 35 dB

2024-12-05 10:14:13,459 [INFO] Standard NMEA Message: $GBGSV,3,2,09,25,27,051,31,41,23,137,31,38,04,333,25,04,01,262,,1*71
2024-12-05 10:14:13,469 [INFO] GSV - Satellites in View:
  Number of Messages: 3
  Message Number: 2
  Total Satellites in View: 09
  Satellite 1 PRN: 25 - Elevation: 27° - Azimuth: 051° - SNR: 31 dB
  Satellite 2 PRN: 41 - Elevation: 23° - Azimuth: 137° - SNR: 31 dB
  Satellite 3 PRN: 38 - Elevation: 04° - Azimuth: 333° - SNR: 25 dB
  Satellite 4 PRN: 04 - Elevation: 01° - Azimuth: 262° - SNR:  dB

2024-12-05 10:14:13,483 [INFO] Standard NMEA Message: $GBGSV,3,3,09,35,01,335,,1*4D
2024-12-05 10:14:13,493 [INFO] GSV - Satellites in View:
  Number of Messages: 3
  Message Number: 3
  Total Satellites in View: 09
  Satellite 1 PRN: 35 - Elevation: 01° - Azimuth: 335° - SNR:  dB
  Satellite 2 PRN: 1 - Elevation: ° - Azimuth: ° - SNR:  dB
  Satellite 3 PRN:  - Elevation: ° - Azimuth: ° - SNR:  dB
  Satellite 4 PRN:  - Elevation: ° - Azimuth: ° - SNR:  dB

2024-12-05 10:14:13,506 [INFO] Standard NMEA Message: $GNRMC,181414.000,A,4910.426740,N,12304.402296,W,0.01,0.00,051224,,,D,V*15
2024-12-05 10:14:13,516 [INFO] RMC - Recommended Minimum:
  Timestamp: 18:14:14+00:00
  Status: A
  Latitude: 49.173779 N
  Longitude: -123.0733716 W
  Speed over Ground: 0.01 knots
  Course over Ground: 0.0
  Date: 2024-12-05
  Magnetic Variation:  
  Mode Indicator: D
  Navigational Status: V

2024-12-05 10:14:13,530 [INFO] Standard NMEA Message: $GNVTG,0.00,T,,M,0.01,N,0.03,K,D*24
2024-12-05 10:14:13,532 [INFO] VTG - Course over Ground and Ground Speed:
  True Track: 0.0° T
  Magnetic Track: None° M
  Speed over Ground: 0.01 knots / 0.03 km/h
  FAA Mode: D

2024-12-05 10:14:14,134 [INFO] Standard NMEA Message: $GNGGA,181415.000,4910.426674,N,12304.402296,W,2,28,0.52,9.243,M,-16.816,M,,*49
2024-12-05 10:14:14,139 [INFO] GGA - Fix Data:
  Timestamp: 18:14:15+00:00
  Latitude: 49.1737779 N
  Longitude: -123.0733716 W
  GPS Quality Indicator: 2
  Number of Satellites in Use: 28
  Horizontal Dilution of Precision (HDOP): 0.52
  Antenna Altitude (Above Mean Sea Level): 9.243 M
  Geoidal Separation: -16.816 M
  Age of Differential GPS Data: 
  Differential Reference Station ID: 

2024-12-05 10:14:14,158 [INFO] Standard NMEA Message: $GNGLL,4910.426674,N,12304.402296,W,181415.000,A,D*5E
2024-12-05 10:14:14,180 [INFO] GLL - Geographic Position:
  Latitude: 49.1737779 N
  Longitude: -123.0733716 W
  Timestamp: 18:14:15+00:00
  Status: A
  FAA Mode: D

2024-12-05 10:14:14,204 [INFO] Standard NMEA Message: $GNGSA,A,3,04,09,16,07,03,26,31,11,,,,,0.91,0.52,0.75,1*04
2024-12-05 10:14:14,215 [INFO] GSA - Satellite Info:
  Mode: A
  Mode Fix Type: 3
  Satellites Used: 04, 09, 16, 07, 03, 26, 31, 11
  PDOP: 0.91
  HDOP: 0.52
  VDOP: 0.75

2024-12-05 10:14:14,224 [INFO] Standard NMEA Message: $GNGSA,A,3,68,78,67,69,79,85,,,,,,,0.91,0.52,0.75,2*03
2024-12-05 10:14:14,233 [INFO] GSA - Satellite Info:
  Mode: A
  Mode Fix Type: 3
  Satellites Used: 68, 78, 67, 69, 79, 85
  PDOP: 0.91
  HDOP: 0.52
  VDOP: 0.75

2024-12-05 10:14:14,244 [INFO] Standard NMEA Message: $GNGSA,A,3,06,09,04,31,05,34,36,21,,,,,0.91,0.52,0.75,3*03
2024-12-05 10:14:14,253 [INFO] GSA - Satellite Info:
  Mode: A
  Mode Fix Type: 3
  Satellites Used: 06, 09, 04, 31, 05, 34, 36, 21
  PDOP: 0.91
  HDOP: 0.52
  VDOP: 0.75

2024-12-05 10:14:14,264 [INFO] Standard NMEA Message: $GNGSA,A,3,32,23,37,20,25,41,,,,,,,0.91,0.52,0.75,4*0D
2024-12-05 10:14:14,274 [INFO] GSA - Satellite Info:
  Mode: A
  Mode Fix Type: 3
  Satellites Used: 32, 23, 37, 20, 25, 41
  PDOP: 0.91
  HDOP: 0.52
  VDOP: 0.75

2024-12-05 10:14:14,284 [INFO] Standard NMEA Message: $GPGSV,3,1,12,04,80,073,36,09,65,299,38,16,47,097,35,07,35,240,33,1*60
2024-12-05 10:14:14,292 [INFO] GSV - Satellites in View:
  Number of Messages: 3
  Message Number: 1
  Total Satellites in View: 12
  Satellite 1 PRN: 04 - Elevation: 80° - Azimuth: 073° - SNR: 36 dB
  Satellite 2 PRN: 09 - Elevation: 65° - Azimuth: 299° - SNR: 38 dB
  Satellite 3 PRN: 16 - Elevation: 47° - Azimuth: 097° - SNR: 35 dB
  Satellite 4 PRN: 07 - Elevation: 35° - Azimuth: 240° - SNR: 33 dB

2024-12-05 10:14:14,304 [INFO] Standard NMEA Message: $GPGSV,3,2,12,03,34,173,33,48,33,182,30,26,33,057,33,06,19,277,,1*69
2024-12-05 10:14:14,313 [INFO] GSV - Satellites in View:
  Number of Messages: 3
  Message Number: 2
  Total Satellites in View: 12
  Satellite 1 PRN: 03 - Elevation: 34° - Azimuth: 173° - SNR: 33 dB
  Satellite 2 PRN: 48 - Elevation: 33° - Azimuth: 182° - SNR: 30 dB
  Satellite 3 PRN: 26 - Elevation: 33° - Azimuth: 057° - SNR: 33 dB
  Satellite 4 PRN: 06 - Elevation: 19° - Azimuth: 277° - SNR:  dB

2024-12-05 10:14:14,326 [INFO] Standard NMEA Message: $GPGSV,3,3,12,31,17,060,28,11,14,316,29,20,04,328,24,29,03,014,18,1*68
2024-12-05 10:14:14,339 [INFO] GSV - Satellites in View:
  Number of Messages: 3
  Message Number: 3
  Total Satellites in View: 12
  Satellite 1 PRN: 31 - Elevation: 17° - Azimuth: 060° - SNR: 28 dB
  Satellite 2 PRN: 11 - Elevation: 14° - Azimuth: 316° - SNR: 29 dB
  Satellite 3 PRN: 20 - Elevation: 04° - Azimuth: 328° - SNR: 24 dB
  Satellite 4 PRN: 29 - Elevation: 03° - Azimuth: 014° - SNR: 18 dB

2024-12-05 10:14:14,350 [INFO] Standard NMEA Message: $GLGSV,2,1,07,68,81,028,31,78,72,155,21,67,37,122,28,69,34,316,26,1*7D
2024-12-05 10:14:14,356 [INFO] GSV - Satellites in View:
  Number of Messages: 2
  Message Number: 1
  Total Satellites in View: 07
  Satellite 1 PRN: 68 - Elevation: 81° - Azimuth: 028° - SNR: 31 dB
  Satellite 2 PRN: 78 - Elevation: 72° - Azimuth: 155° - SNR: 21 dB
  Satellite 3 PRN: 67 - Elevation: 37° - Azimuth: 122° - SNR: 28 dB
  Satellite 4 PRN: 69 - Elevation: 34° - Azimuth: 316° - SNR: 26 dB

2024-12-05 10:14:14,375 [INFO] Standard NMEA Message: $GLGSV,2,2,07,79,23,199,22,85,13,340,22,84,11,289,,1*46
2024-12-05 10:14:14,393 [INFO] GSV - Satellites in View:
  Number of Messages: 2
  Message Number: 2
  Total Satellites in View: 07
  Satellite 1 PRN: 79 - Elevation: 23° - Azimuth: 199° - SNR: 22 dB
  Satellite 2 PRN: 85 - Elevation: 13° - Azimuth: 340° - SNR: 22 dB
  Satellite 3 PRN: 84 - Elevation: 11° - Azimuth: 289° - SNR:  dB
  Satellite 4 PRN: 1 - Elevation: ° - Azimuth: ° - SNR:  dB

2024-12-05 10:14:14,406 [INFO] Standard NMEA Message: $GAGSV,3,1,10,06,77,082,33,09,74,308,34,04,50,098,30,31,40,149,28,7*79
2024-12-05 10:14:14,417 [INFO] GSV - Satellites in View:
  Number of Messages: 3
  Message Number: 1
  Total Satellites in View: 10
  Satellite 1 PRN: 06 - Elevation: 77° - Azimuth: 082° - SNR: 33 dB
  Satellite 2 PRN: 09 - Elevation: 74° - Azimuth: 308° - SNR: 34 dB
  Satellite 3 PRN: 04 - Elevation: 50° - Azimuth: 098° - SNR: 30 dB
  Satellite 4 PRN: 31 - Elevation: 40° - Azimuth: 149° - SNR: 28 dB

2024-12-05 10:14:14,429 [INFO] Standard NMEA Message: $GAGSV,3,2,10,05,21,288,23,34,21,305,25,36,19,252,24,21,10,032,21,7*7D
2024-12-05 10:14:14,442 [INFO] GSV - Satellites in View:
  Number of Messages: 3
  Message Number: 2
  Total Satellites in View: 10
  Satellite 1 PRN: 05 - Elevation: 21° - Azimuth: 288° - SNR: 23 dB
  Satellite 2 PRN: 34 - Elevation: 21° - Azimuth: 305° - SNR: 25 dB
  Satellite 3 PRN: 36 - Elevation: 19° - Azimuth: 252° - SNR: 24 dB
  Satellite 4 PRN: 21 - Elevation: 10° - Azimuth: 032° - SNR: 21 dB

2024-12-05 10:14:14,449 [INFO] Standard NMEA Message: $GAGSV,3,3,10,24,04,186,20,15,02,350,17,7*7B
2024-12-05 10:14:14,459 [INFO] GSV - Satellites in View:
  Number of Messages: 3
  Message Number: 3
  Total Satellites in View: 10
  Satellite 1 PRN: 24 - Elevation: 04° - Azimuth: 186° - SNR: 20 dB
  Satellite 2 PRN: 15 - Elevation: 02° - Azimuth: 350° - SNR: 17 dB
  Satellite 3 PRN: 7 - Elevation: ° - Azimuth: ° - SNR:  dB
  Satellite 4 PRN:  - Elevation: ° - Azimuth: ° - SNR:  dB

2024-12-05 10:14:14,465 [INFO] Standard NMEA Message: $GBGSV,3,1,09,32,78,171,38,23,72,106,38,37,40,205,35,20,39,306,35,1*7D
2024-12-05 10:14:14,472 [INFO] GSV - Satellites in View:
  Number of Messages: 3
  Message Number: 1
  Total Satellites in View: 09
  Satellite 1 PRN: 32 - Elevation: 78° - Azimuth: 171° - SNR: 38 dB
  Satellite 2 PRN: 23 - Elevation: 72° - Azimuth: 106° - SNR: 38 dB
  Satellite 3 PRN: 37 - Elevation: 40° - Azimuth: 205° - SNR: 35 dB
  Satellite 4 PRN: 20 - Elevation: 39° - Azimuth: 306° - SNR: 35 dB

2024-12-05 10:14:14,484 [INFO] Standard NMEA Message: $GBGSV,3,2,09,25,27,051,31,41,23,137,31,38,04,333,25,04,01,262,,1*71
2024-12-05 10:14:14,495 [INFO] GSV - Satellites in View:
  Number of Messages: 3
  Message Number: 2
  Total Satellites in View: 09
  Satellite 1 PRN: 25 - Elevation: 27° - Azimuth: 051° - SNR: 31 dB
  Satellite 2 PRN: 41 - Elevation: 23° - Azimuth: 137° - SNR: 31 dB
  Satellite 3 PRN: 38 - Elevation: 04° - Azimuth: 333° - SNR: 25 dB
  Satellite 4 PRN: 04 - Elevation: 01° - Azimuth: 262° - SNR:  dB

2024-12-05 10:14:14,501 [INFO] Standard NMEA Message: $GBGSV,3,3,09,35,01,335,,1*4D
2024-12-05 10:14:14,507 [INFO] GSV - Satellites in View:
  Number of Messages: 3
  Message Number: 3
  Total Satellites in View: 09
  Satellite 1 PRN: 35 - Elevation: 01° - Azimuth: 335° - SNR:  dB
  Satellite 2 PRN: 1 - Elevation: ° - Azimuth: ° - SNR:  dB
  Satellite 3 PRN:  - Elevation: ° - Azimuth: ° - SNR:  dB
  Satellite 4 PRN:  - Elevation: ° - Azimuth: ° - SNR:  dB

2024-12-05 10:14:14,514 [INFO] Standard NMEA Message: $GNRMC,181415.000,A,4910.426674,N,12304.402296,W,0.01,0.00,051224,,,D,V*12
2024-12-05 10:14:14,525 [INFO] RMC - Recommended Minimum:
  Timestamp: 18:14:15+00:00
  Status: A
  Latitude: 49.1737779 N
  Longitude: -123.0733716 W
  Speed over Ground: 0.01 knots
  Course over Ground: 0.0
  Date: 2024-12-05
  Magnetic Variation:  
  Mode Indicator: D
  Navigational Status: V

2024-12-05 10:14:14,537 [INFO] Standard NMEA Message: $GNVTG,0.00,T,,M,0.01,N,0.03,K,D*24
2024-12-05 10:14:14,552 [INFO] VTG - Course over Ground and Ground Speed:
  True Track: 0.0° T
  Magnetic Track: None° M
  Speed over Ground: 0.01 knots / 0.03 km/h
  FAA Mode: D

2024-12-05 10:14:15,123 [INFO] Standard NMEA Message: $GNGGA,181416.000,4910.426608,N,12304.402218,W,2,28,0.52,9.249,M,-16.816,M,,*4D
2024-12-05 10:14:15,137 [INFO] GGA - Fix Data:
  Timestamp: 18:14:16+00:00
  Latitude: 49.1737768 N
  Longitude: -123.0733703 W
  GPS Quality Indicator: 2
  Number of Satellites in Use: 28
  Horizontal Dilution of Precision (HDOP): 0.52
  Antenna Altitude (Above Mean Sea Level): 9.249 M
  Geoidal Separation: -16.816 M
  Age of Differential GPS Data: 
  Differential Reference Station ID: 

2024-12-05 10:14:15,160 [INFO] Standard NMEA Message: $GNGLL,4910.426608,N,12304.402218,W,181416.000,A,D*50
2024-12-05 10:14:15,171 [INFO] GLL - Geographic Position:
  Latitude: 49.1737768 N
  Longitude: -123.0733703 W
  Timestamp: 18:14:16+00:00
  Status: A
  FAA Mode: D

2024-12-05 10:14:15,185 [INFO] Standard NMEA Message: $GNGSA,A,3,04,09,16,07,03,26,31,11,,,,,0.91,0.52,0.75,1*04
2024-12-05 10:14:15,198 [INFO] GSA - Satellite Info:
  Mode: A
  Mode Fix Type: 3
  Satellites Used: 04, 09, 16, 07, 03, 26, 31, 11
  PDOP: 0.91
  HDOP: 0.52
  VDOP: 0.75

2024-12-05 10:14:15,211 [INFO] Standard NMEA Message: $GNGSA,A,3,68,78,67,69,79,85,,,,,,,0.91,0.52,0.75,2*03
2024-12-05 10:14:15,220 [INFO] GSA - Satellite Info:
  Mode: A
  Mode Fix Type: 3
  Satellites Used: 68, 78, 67, 69, 79, 85
  PDOP: 0.91
  HDOP: 0.52
  VDOP: 0.75

2024-12-05 10:14:15,231 [INFO] Standard NMEA Message: $GNGSA,A,3,06,09,04,31,05,34,36,21,,,,,0.91,0.52,0.75,3*03
2024-12-05 10:14:15,240 [INFO] GSA - Satellite Info:
  Mode: A
  Mode Fix Type: 3
  Satellites Used: 06, 09, 04, 31, 05, 34, 36, 21
  PDOP: 0.91
  HDOP: 0.52
  VDOP: 0.75

2024-12-05 10:14:15,251 [INFO] Standard NMEA Message: $GNGSA,A,3,32,23,37,20,25,41,,,,,,,0.91,0.52,0.75,4*0D
2024-12-05 10:14:15,260 [INFO] GSA - Satellite Info:
  Mode: A
  Mode Fix Type: 3
  Satellites Used: 32, 23, 37, 20, 25, 41
  PDOP: 0.91
  HDOP: 0.52
  VDOP: 0.75

2024-12-05 10:14:15,272 [INFO] Standard NMEA Message: $GPGSV,3,1,12,04,80,073,36,09,65,299,38,16,47,097,34,07,35,240,32,1*60
2024-12-05 10:14:15,283 [INFO] GSV - Satellites in View:
  Number of Messages: 3
  Message Number: 1
  Total Satellites in View: 12
  Satellite 1 PRN: 04 - Elevation: 80° - Azimuth: 073° - SNR: 36 dB
  Satellite 2 PRN: 09 - Elevation: 65° - Azimuth: 299° - SNR: 38 dB
  Satellite 3 PRN: 16 - Elevation: 47° - Azimuth: 097° - SNR: 34 dB
  Satellite 4 PRN: 07 - Elevation: 35° - Azimuth: 240° - SNR: 32 dB

2024-12-05 10:14:15,290 [INFO] Standard NMEA Message: $GPGSV,3,2,12,03,34,173,33,48,33,182,30,26,33,057,33,06,19,277,,1*69
2024-12-05 10:14:15,301 [INFO] GSV - Satellites in View:
  Number of Messages: 3
  Message Number: 2
  Total Satellites in View: 12
  Satellite 1 PRN: 03 - Elevation: 34° - Azimuth: 173° - SNR: 33 dB
  Satellite 2 PRN: 48 - Elevation: 33° - Azimuth: 182° - SNR: 30 dB
  Satellite 3 PRN: 26 - Elevation: 33° - Azimuth: 057° - SNR: 33 dB
  Satellite 4 PRN: 06 - Elevation: 19° - Azimuth: 277° - SNR:  dB

2024-12-05 10:14:15,308 [INFO] Standard NMEA Message: $GPGSV,3,3,12,31,17,060,28,11,14,316,29,20,04,328,23,29,03,014,18,1*6F
2024-12-05 10:14:15,310 [INFO] GSV - Satellites in View:
  Number of Messages: 3
  Message Number: 3
  Total Satellites in View: 12
  Satellite 1 PRN: 31 - Elevation: 17° - Azimuth: 060° - SNR: 28 dB
  Satellite 2 PRN: 11 - Elevation: 14° - Azimuth: 316° - SNR: 29 dB
  Satellite 3 PRN: 20 - Elevation: 04° - Azimuth: 328° - SNR: 23 dB
  Satellite 4 PRN: 29 - Elevation: 03° - Azimuth: 014° - SNR: 18 dB

2024-12-05 10:14:15,317 [INFO] Standard NMEA Message: $GLGSV,2,1,07,68,81,028,31,78,72,155,22,67,37,122,27,69,34,316,25,1*72
2024-12-05 10:14:15,319 [INFO] GSV - Satellites in View:
  Number of Messages: 2
  Message Number: 1
  Total Satellites in View: 07
  Satellite 1 PRN: 68 - Elevation: 81° - Azimuth: 028° - SNR: 31 dB
  Satellite 2 PRN: 78 - Elevation: 72° - Azimuth: 155° - SNR: 22 dB
  Satellite 3 PRN: 67 - Elevation: 37° - Azimuth: 122° - SNR: 27 dB
  Satellite 4 PRN: 69 - Elevation: 34° - Azimuth: 316° - SNR: 25 dB

2024-12-05 10:14:15,321 [INFO] Standard NMEA Message: $GLGSV,2,2,07,79,23,199,22,85,13,340,22,84,11,289,,1*46
2024-12-05 10:14:15,323 [INFO] GSV - Satellites in View:
  Number of Messages: 2
  Message Number: 2
  Total Satellites in View: 07
  Satellite 1 PRN: 79 - Elevation: 23° - Azimuth: 199° - SNR: 22 dB
  Satellite 2 PRN: 85 - Elevation: 13° - Azimuth: 340° - SNR: 22 dB
  Satellite 3 PRN: 84 - Elevation: 11° - Azimuth: 289° - SNR:  dB
  Satellite 4 PRN: 1 - Elevation: ° - Azimuth: ° - SNR:  dB

2024-12-05 10:14:15,325 [INFO] Standard NMEA Message: $GAGSV,3,1,10,06,77,082,32,09,74,308,34,04,50,098,30,31,40,149,28,7*78
2024-12-05 10:14:15,326 [INFO] GSV - Satellites in View:
  Number of Messages: 3
  Message Number: 1
  Total Satellites in View: 10
  Satellite 1 PRN: 06 - Elevation: 77° - Azimuth: 082° - SNR: 32 dB
  Satellite 2 PRN: 09 - Elevation: 74° - Azimuth: 308° - SNR: 34 dB
  Satellite 3 PRN: 04 - Elevation: 50° - Azimuth: 098° - SNR: 30 dB
  Satellite 4 PRN: 31 - Elevation: 40° - Azimuth: 149° - SNR: 28 dB

2024-12-05 10:14:15,328 [INFO] Standard NMEA Message: $GAGSV,3,2,10,05,21,288,23,34,21,305,25,36,19,252,24,21,10,032,21,7*7D
2024-12-05 10:14:15,329 [INFO] GSV - Satellites in View:
  Number of Messages: 3
  Message Number: 2
  Total Satellites in View: 10
  Satellite 1 PRN: 05 - Elevation: 21° - Azimuth: 288° - SNR: 23 dB
  Satellite 2 PRN: 34 - Elevation: 21° - Azimuth: 305° - SNR: 25 dB
  Satellite 3 PRN: 36 - Elevation: 19° - Azimuth: 252° - SNR: 24 dB
  Satellite 4 PRN: 21 - Elevation: 10° - Azimuth: 032° - SNR: 21 dB

2024-12-05 10:14:15,332 [INFO] Standard NMEA Message: $GAGSV,3,3,10,24,04,186,19,15,02,350,16,7*70
2024-12-05 10:14:15,333 [INFO] GSV - Satellites in View:
  Number of Messages: 3
  Message Number: 3
  Total Satellites in View: 10
  Satellite 1 PRN: 24 - Elevation: 04° - Azimuth: 186° - SNR: 19 dB
  Satellite 2 PRN: 15 - Elevation: 02° - Azimuth: 350° - SNR: 16 dB
  Satellite 3 PRN: 7 - Elevation: ° - Azimuth: ° - SNR:  dB
  Satellite 4 PRN:  - Elevation: ° - Azimuth: ° - SNR:  dB

2024-12-05 10:14:15,336 [INFO] Standard NMEA Message: $GBGSV,3,1,09,32,78,171,38,23,72,106,38,37,40,205,35,20,39,306,35,1*7D
2024-12-05 10:14:15,354 [INFO] GSV - Satellites in View:
  Number of Messages: 3
  Message Number: 1
  Total Satellites in View: 09
  Satellite 1 PRN: 32 - Elevation: 78° - Azimuth: 171° - SNR: 38 dB
  Satellite 2 PRN: 23 - Elevation: 72° - Azimuth: 106° - SNR: 38 dB
  Satellite 3 PRN: 37 - Elevation: 40° - Azimuth: 205° - SNR: 35 dB
  Satellite 4 PRN: 20 - Elevation: 39° - Azimuth: 306° - SNR: 35 dB

2024-12-05 10:14:15,369 [INFO] Standard NMEA Message: $GBGSV,3,2,09,25,27,051,31,41,23,137,31,38,04,333,25,04,01,262,,1*71
2024-12-05 10:14:15,383 [INFO] GSV - Satellites in View:
  Number of Messages: 3
  Message Number: 2
  Total Satellites in View: 09
  Satellite 1 PRN: 25 - Elevation: 27° - Azimuth: 051° - SNR: 31 dB
  Satellite 2 PRN: 41 - Elevation: 23° - Azimuth: 137° - SNR: 31 dB
  Satellite 3 PRN: 38 - Elevation: 04° - Azimuth: 333° - SNR: 25 dB
  Satellite 4 PRN: 04 - Elevation: 01° - Azimuth: 262° - SNR:  dB

2024-12-05 10:14:15,390 [INFO] Standard NMEA Message: $GBGSV,3,3,09,35,01,335,,1*4D
2024-12-05 10:14:15,401 [INFO] GSV - Satellites in View:
  Number of Messages: 3
  Message Number: 3
  Total Satellites in View: 09
  Satellite 1 PRN: 35 - Elevation: 01° - Azimuth: 335° - SNR:  dB
  Satellite 2 PRN: 1 - Elevation: ° - Azimuth: ° - SNR:  dB
  Satellite 3 PRN:  - Elevation: ° - Azimuth: ° - SNR:  dB
  Satellite 4 PRN:  - Elevation: ° - Azimuth: ° - SNR:  dB

2024-12-05 10:14:15,409 [INFO] Standard NMEA Message: $GNRMC,181416.000,A,4910.426608,N,12304.402218,W,0.02,0.00,051224,,,D,V*1F
2024-12-05 10:14:15,414 [INFO] RMC - Recommended Minimum:
  Timestamp: 18:14:16+00:00
  Status: A
  Latitude: 49.1737768 N
  Longitude: -123.0733703 W
  Speed over Ground: 0.02 knots
  Course over Ground: 0.0
  Date: 2024-12-05
  Magnetic Variation:  
  Mode Indicator: D
  Navigational Status: V

2024-12-05 10:14:15,425 [INFO] Standard NMEA Message: $GNVTG,0.00,T,,M,0.02,N,0.03,K,D*27
2024-12-05 10:14:15,430 [INFO] VTG - Course over Ground and Ground Speed:
  True Track: 0.0° T
  Magnetic Track: None° M
  Speed over Ground: 0.02 knots / 0.03 km/h
  FAA Mode: D

2024-12-05 10:14:16,120 [INFO] Standard NMEA Message: $GNGGA,181417.000,4910.426506,N,12304.402152,W,2,28,0.52,9.191,M,-16.816,M,,*4A
2024-12-05 10:14:16,125 [INFO] GGA - Fix Data:
  Timestamp: 18:14:17+00:00
  Latitude: 49.1737751 N
  Longitude: -123.0733692 W
  GPS Quality Indicator: 2
  Number of Satellites in Use: 28
  Horizontal Dilution of Precision (HDOP): 0.52
  Antenna Altitude (Above Mean Sea Level): 9.191 M
  Geoidal Separation: -16.816 M
  Age of Differential GPS Data: 
  Differential Reference Station ID: 

2024-12-05 10:14:16,136 [INFO] Standard NMEA Message: $GNGLL,4910.426506,N,12304.402152,W,181417.000,A,D*51
2024-12-05 10:14:16,156 [INFO] GLL - Geographic Position:
  Latitude: 49.1737751 N
  Longitude: -123.0733692 W
  Timestamp: 18:14:17+00:00
  Status: A
  FAA Mode: D

2024-12-05 10:14:16,164 [INFO] Standard NMEA Message: $GNGSA,A,3,04,09,16,07,03,26,31,11,,,,,0.91,0.52,0.75,1*04
2024-12-05 10:14:16,175 [INFO] GSA - Satellite Info:
  Mode: A
  Mode Fix Type: 3
  Satellites Used: 04, 09, 16, 07, 03, 26, 31, 11
  PDOP: 0.91
  HDOP: 0.52
  VDOP: 0.75

2024-12-05 10:14:16,190 [INFO] Standard NMEA Message: $GNGSA,A,3,68,78,67,69,79,85,,,,,,,0.91,0.52,0.75,2*03
2024-12-05 10:14:16,199 [INFO] GSA - Satellite Info:
  Mode: A
  Mode Fix Type: 3
  Satellites Used: 68, 78, 67, 69, 79, 85
  PDOP: 0.91
  HDOP: 0.52
  VDOP: 0.75

2024-12-05 10:14:16,212 [INFO] Standard NMEA Message: $GNGSA,A,3,06,09,04,31,05,34,36,21,,,,,0.91,0.52,0.75,3*03
2024-12-05 10:14:16,222 [INFO] GSA - Satellite Info:
  Mode: A
  Mode Fix Type: 3
  Satellites Used: 06, 09, 04, 31, 05, 34, 36, 21
  PDOP: 0.91
  HDOP: 0.52
  VDOP: 0.75

2024-12-05 10:14:16,235 [INFO] Standard NMEA Message: $GNGSA,A,3,32,23,37,20,25,41,,,,,,,0.91,0.52,0.75,4*0D
2024-12-05 10:14:16,244 [INFO] GSA - Satellite Info:
  Mode: A
  Mode Fix Type: 3
  Satellites Used: 32, 23, 37, 20, 25, 41
  PDOP: 0.91
  HDOP: 0.52
  VDOP: 0.75

2024-12-05 10:14:16,257 [INFO] Standard NMEA Message: $GPGSV,3,1,12,04,80,073,36,09,65,299,38,16,47,097,34,07,35,240,32,1*60
2024-12-05 10:14:16,269 [INFO] GSV - Satellites in View:
  Number of Messages: 3
  Message Number: 1
  Total Satellites in View: 12
  Satellite 1 PRN: 04 - Elevation: 80° - Azimuth: 073° - SNR: 36 dB
  Satellite 2 PRN: 09 - Elevation: 65° - Azimuth: 299° - SNR: 38 dB
  Satellite 3 PRN: 16 - Elevation: 47° - Azimuth: 097° - SNR: 34 dB
  Satellite 4 PRN: 07 - Elevation: 35° - Azimuth: 240° - SNR: 32 dB

2024-12-05 10:14:16,281 [INFO] Standard NMEA Message: $GPGSV,3,2,12,03,34,173,33,48,33,182,30,26,33,057,33,06,19,277,,1*69
2024-12-05 10:14:16,292 [INFO] GSV - Satellites in View:
  Number of Messages: 3
  Message Number: 2
  Total Satellites in View: 12
  Satellite 1 PRN: 03 - Elevation: 34° - Azimuth: 173° - SNR: 33 dB
  Satellite 2 PRN: 48 - Elevation: 33° - Azimuth: 182° - SNR: 30 dB
  Satellite 3 PRN: 26 - Elevation: 33° - Azimuth: 057° - SNR: 33 dB
  Satellite 4 PRN: 06 - Elevation: 19° - Azimuth: 277° - SNR:  dB

2024-12-05 10:14:16,305 [INFO] Standard NMEA Message: $GPGSV,3,3,12,31,17,060,28,11,14,316,29,20,04,328,24,29,03,014,18,1*68
2024-12-05 10:14:16,317 [INFO] GSV - Satellites in View:
  Number of Messages: 3
  Message Number: 3
  Total Satellites in View: 12
  Satellite 1 PRN: 31 - Elevation: 17° - Azimuth: 060° - SNR: 28 dB
  Satellite 2 PRN: 11 - Elevation: 14° - Azimuth: 316° - SNR: 29 dB
  Satellite 3 PRN: 20 - Elevation: 04° - Azimuth: 328° - SNR: 24 dB
  Satellite 4 PRN: 29 - Elevation: 03° - Azimuth: 014° - SNR: 18 dB

2024-12-05 10:14:16,330 [INFO] Standard NMEA Message: $GLGSV,2,1,07,68,81,028,31,78,72,155,22,67,37,122,26,69,34,316,25,1*73
2024-12-05 10:14:16,337 [INFO] GSV - Satellites in View:
  Number of Messages: 2
  Message Number: 1
  Total Satellites in View: 07
  Satellite 1 PRN: 68 - Elevation: 81° - Azimuth: 028° - SNR: 31 dB
  Satellite 2 PRN: 78 - Elevation: 72° - Azimuth: 155° - SNR: 22 dB
  Satellite 3 PRN: 67 - Elevation: 37° - Azimuth: 122° - SNR: 26 dB
  Satellite 4 PRN: 69 - Elevation: 34° - Azimuth: 316° - SNR: 25 dB

2024-12-05 10:14:16,339 [INFO] Standard NMEA Message: $GLGSV,2,2,07,79,23,199,22,85,13,340,21,84,11,289,,1*45
2024-12-05 10:14:16,341 [INFO] GSV - Satellites in View:
  Number of Messages: 2
  Message Number: 2
  Total Satellites in View: 07
  Satellite 1 PRN: 79 - Elevation: 23° - Azimuth: 199° - SNR: 22 dB
  Satellite 2 PRN: 85 - Elevation: 13° - Azimuth: 340° - SNR: 21 dB
  Satellite 3 PRN: 84 - Elevation: 11° - Azimuth: 289° - SNR:  dB
  Satellite 4 PRN: 1 - Elevation: ° - Azimuth: ° - SNR:  dB

2024-12-05 10:14:16,343 [INFO] Standard NMEA Message: $GAGSV,3,1,10,06,77,082,32,09,74,308,34,04,50,098,31,31,40,149,28,7*79
2024-12-05 10:14:16,345 [INFO] GSV - Satellites in View:
  Number of Messages: 3
  Message Number: 1
  Total Satellites in View: 10
  Satellite 1 PRN: 06 - Elevation: 77° - Azimuth: 082° - SNR: 32 dB
  Satellite 2 PRN: 09 - Elevation: 74° - Azimuth: 308° - SNR: 34 dB
  Satellite 3 PRN: 04 - Elevation: 50° - Azimuth: 098° - SNR: 31 dB
  Satellite 4 PRN: 31 - Elevation: 40° - Azimuth: 149° - SNR: 28 dB

2024-12-05 10:14:16,350 [INFO] Standard NMEA Message: $GAGSV,3,2,10,05,21,288,23,34,21,305,25,36,19,252,24,21,10,032,21,7*7D
2024-12-05 10:14:16,362 [INFO] GSV - Satellites in View:
  Number of Messages: 3
  Message Number: 2
  Total Satellites in View: 10
  Satellite 1 PRN: 05 - Elevation: 21° - Azimuth: 288° - SNR: 23 dB
  Satellite 2 PRN: 34 - Elevation: 21° - Azimuth: 305° - SNR: 25 dB
  Satellite 3 PRN: 36 - Elevation: 19° - Azimuth: 252° - SNR: 24 dB
  Satellite 4 PRN: 21 - Elevation: 10° - Azimuth: 032° - SNR: 21 dB

2024-12-05 10:14:16,373 [INFO] Standard NMEA Message: $GAGSV,3,3,10,24,04,186,20,15,02,350,16,7*7A
2024-12-05 10:14:16,382 [INFO] GSV - Satellites in View:
  Number of Messages: 3
  Message Number: 3
  Total Satellites in View: 10
  Satellite 1 PRN: 24 - Elevation: 04° - Azimuth: 186° - SNR: 20 dB
  Satellite 2 PRN: 15 - Elevation: 02° - Azimuth: 350° - SNR: 16 dB
  Satellite 3 PRN: 7 - Elevation: ° - Azimuth: ° - SNR:  dB
  Satellite 4 PRN:  - Elevation: ° - Azimuth: ° - SNR:  dB

2024-12-05 10:14:16,396 [INFO] Standard NMEA Message: $GBGSV,3,1,09,32,78,171,38,23,72,106,38,37,40,205,35,20,39,306,35,1*7D
2024-12-05 10:14:16,404 [INFO] GSV - Satellites in View:
  Number of Messages: 3
  Message Number: 1
  Total Satellites in View: 09
  Satellite 1 PRN: 32 - Elevation: 78° - Azimuth: 171° - SNR: 38 dB
  Satellite 2 PRN: 23 - Elevation: 72° - Azimuth: 106° - SNR: 38 dB
  Satellite 3 PRN: 37 - Elevation: 40° - Azimuth: 205° - SNR: 35 dB
  Satellite 4 PRN: 20 - Elevation: 39° - Azimuth: 306° - SNR: 35 dB

2024-12-05 10:14:16,411 [INFO] Standard NMEA Message: $GBGSV,3,2,09,25,27,051,31,41,23,137,31,38,04,333,25,04,01,262,,1*71
2024-12-05 10:14:16,425 [INFO] GSV - Satellites in View:
  Number of Messages: 3
  Message Number: 2
  Total Satellites in View: 09
  Satellite 1 PRN: 25 - Elevation: 27° - Azimuth: 051° - SNR: 31 dB
  Satellite 2 PRN: 41 - Elevation: 23° - Azimuth: 137° - SNR: 31 dB
  Satellite 3 PRN: 38 - Elevation: 04° - Azimuth: 333° - SNR: 25 dB
  Satellite 4 PRN: 04 - Elevation: 01° - Azimuth: 262° - SNR:  dB

2024-12-05 10:14:16,440 [INFO] Standard NMEA Message: $GBGSV,3,3,09,35,01,335,,1*4D
2024-12-05 10:14:16,449 [INFO] GSV - Satellites in View:
  Number of Messages: 3
  Message Number: 3
  Total Satellites in View: 09
  Satellite 1 PRN: 35 - Elevation: 01° - Azimuth: 335° - SNR:  dB
  Satellite 2 PRN: 1 - Elevation: ° - Azimuth: ° - SNR:  dB
  Satellite 3 PRN:  - Elevation: ° - Azimuth: ° - SNR:  dB
  Satellite 4 PRN:  - Elevation: ° - Azimuth: ° - SNR:  dB

2024-12-05 10:14:16,461 [INFO] Standard NMEA Message: $GNRMC,181417.000,A,4910.426506,N,12304.402152,W,0.02,0.00,051224,,,D,V*1E
2024-12-05 10:14:16,469 [INFO] RMC - Recommended Minimum:
  Timestamp: 18:14:17+00:00
  Status: A
  Latitude: 49.1737751 N
  Longitude: -123.0733692 W
  Speed over Ground: 0.02 knots
  Course over Ground: 0.0
  Date: 2024-12-05
  Magnetic Variation:  
  Mode Indicator: D
  Navigational Status: V

2024-12-05 10:14:16,481 [INFO] Standard NMEA Message: $GNVTG,0.00,T,,M,0.02,N,0.04,K,D*20
2024-12-05 10:14:16,492 [INFO] VTG - Course over Ground and Ground Speed:
  True Track: 0.0° T
  Magnetic Track: None° M
  Speed over Ground: 0.02 knots / 0.04 km/h
  FAA Mode: D

2024-12-05 10:14:17,123 [INFO] Standard NMEA Message: $GNGGA,181418.000,4910.426410,N,12304.402104,W,2,28,0.52,9.130,M,-16.817,M,,*4A
2024-12-05 10:14:17,137 [INFO] GGA - Fix Data:
  Timestamp: 18:14:18+00:00
  Latitude: 49.1737735 N
  Longitude: -123.0733684 W
  GPS Quality Indicator: 2
  Number of Satellites in Use: 28
  Horizontal Dilution of Precision (HDOP): 0.52
  Antenna Altitude (Above Mean Sea Level): 9.13 M
  Geoidal Separation: -16.817 M
  Age of Differential GPS Data: 
  Differential Reference Station ID: 

2024-12-05 10:14:17,148 [INFO] Standard NMEA Message: $GNGLL,4910.426410,N,12304.402104,W,181418.000,A,D*5B
2024-12-05 10:14:17,158 [INFO] GLL - Geographic Position:
  Latitude: 49.1737735 N
  Longitude: -123.0733684 W
  Timestamp: 18:14:18+00:00
  Status: A
  FAA Mode: D

2024-12-05 10:14:17,169 [INFO] Standard NMEA Message: $GNGSA,A,3,04,09,16,07,03,26,31,11,,,,,0.91,0.52,0.75,1*04
2024-12-05 10:14:17,178 [INFO] GSA - Satellite Info:
  Mode: A
  Mode Fix Type: 3
  Satellites Used: 04, 09, 16, 07, 03, 26, 31, 11
  PDOP: 0.91
  HDOP: 0.52
  VDOP: 0.75

2024-12-05 10:14:17,184 [INFO] Standard NMEA Message: $GNGSA,A,3,68,78,67,69,79,85,,,,,,,0.91,0.52,0.75,2*03
2024-12-05 10:14:17,193 [INFO] GSA - Satellite Info:
  Mode: A
  Mode Fix Type: 3
  Satellites Used: 68, 78, 67, 69, 79, 85
  PDOP: 0.91
  HDOP: 0.52
  VDOP: 0.75

2024-12-05 10:14:17,199 [INFO] Standard NMEA Message: $GNGSA,A,3,06,09,04,31,05,34,36,21,,,,,0.91,0.52,0.75,3*03
2024-12-05 10:14:17,209 [INFO] GSA - Satellite Info:
  Mode: A
  Mode Fix Type: 3
  Satellites Used: 06, 09, 04, 31, 05, 34, 36, 21
  PDOP: 0.91
  HDOP: 0.52
  VDOP: 0.75

2024-12-05 10:14:17,219 [INFO] Standard NMEA Message: $GNGSA,A,3,32,23,37,20,25,41,,,,,,,0.91,0.52,0.75,4*0D
2024-12-05 10:14:17,224 [INFO] GSA - Satellite Info:
  Mode: A
  Mode Fix Type: 3
  Satellites Used: 32, 23, 37, 20, 25, 41
  PDOP: 0.91
  HDOP: 0.52
  VDOP: 0.75

2024-12-05 10:14:17,234 [INFO] Standard NMEA Message: $GPGSV,3,1,12,04,80,073,36,09,65,299,38,16,47,097,34,07,35,240,32,1*60
2024-12-05 10:14:17,244 [INFO] GSV - Satellites in View:
  Number of Messages: 3
  Message Number: 1
  Total Satellites in View: 12
  Satellite 1 PRN: 04 - Elevation: 80° - Azimuth: 073° - SNR: 36 dB
  Satellite 2 PRN: 09 - Elevation: 65° - Azimuth: 299° - SNR: 38 dB
  Satellite 3 PRN: 16 - Elevation: 47° - Azimuth: 097° - SNR: 34 dB
  Satellite 4 PRN: 07 - Elevation: 35° - Azimuth: 240° - SNR: 32 dB

2024-12-05 10:14:17,255 [INFO] Standard NMEA Message: $GPGSV,3,2,12,03,34,173,33,48,33,182,30,26,33,057,33,06,19,277,,1*69
2024-12-05 10:14:17,264 [INFO] GSV - Satellites in View:
  Number of Messages: 3
  Message Number: 2
  Total Satellites in View: 12
  Satellite 1 PRN: 03 - Elevation: 34° - Azimuth: 173° - SNR: 33 dB
  Satellite 2 PRN: 48 - Elevation: 33° - Azimuth: 182° - SNR: 30 dB
  Satellite 3 PRN: 26 - Elevation: 33° - Azimuth: 057° - SNR: 33 dB
  Satellite 4 PRN: 06 - Elevation: 19° - Azimuth: 277° - SNR:  dB

2024-12-05 10:14:17,275 [INFO] Standard NMEA Message: $GPGSV,3,3,12,31,17,060,28,11,14,316,29,20,04,328,23,29,03,014,18,1*6F
2024-12-05 10:14:17,285 [INFO] GSV - Satellites in View:
  Number of Messages: 3
  Message Number: 3
  Total Satellites in View: 12
  Satellite 1 PRN: 31 - Elevation: 17° - Azimuth: 060° - SNR: 28 dB
  Satellite 2 PRN: 11 - Elevation: 14° - Azimuth: 316° - SNR: 29 dB
  Satellite 3 PRN: 20 - Elevation: 04° - Azimuth: 328° - SNR: 23 dB
  Satellite 4 PRN: 29 - Elevation: 03° - Azimuth: 014° - SNR: 18 dB

2024-12-05 10:14:17,297 [INFO] Standard NMEA Message: $GLGSV,2,1,07,68,81,028,31,78,72,155,21,67,37,122,26,69,34,316,26,1*73
2024-12-05 10:14:17,302 [INFO] GSV - Satellites in View:
  Number of Messages: 2
  Message Number: 1
  Total Satellites in View: 07
  Satellite 1 PRN: 68 - Elevation: 81° - Azimuth: 028° - SNR: 31 dB
  Satellite 2 PRN: 78 - Elevation: 72° - Azimuth: 155° - SNR: 21 dB
  Satellite 3 PRN: 67 - Elevation: 37° - Azimuth: 122° - SNR: 26 dB
  Satellite 4 PRN: 69 - Elevation: 34° - Azimuth: 316° - SNR: 26 dB

2024-12-05 10:14:17,314 [INFO] Standard NMEA Message: $GLGSV,2,2,07,79,23,199,22,85,13,340,21,84,11,289,,1*45
2024-12-05 10:14:17,323 [INFO] GSV - Satellites in View:
  Number of Messages: 2
  Message Number: 2
  Total Satellites in View: 07
  Satellite 1 PRN: 79 - Elevation: 23° - Azimuth: 199° - SNR: 22 dB
  Satellite 2 PRN: 85 - Elevation: 13° - Azimuth: 340° - SNR: 21 dB
  Satellite 3 PRN: 84 - Elevation: 11° - Azimuth: 289° - SNR:  dB
  Satellite 4 PRN: 1 - Elevation: ° - Azimuth: ° - SNR:  dB

2024-12-05 10:14:17,334 [INFO] Standard NMEA Message: $GAGSV,3,1,10,06,77,082,32,09,74,308,34,04,50,098,31,31,40,149,28,7*79
2024-12-05 10:14:17,344 [INFO] GSV - Satellites in View:
  Number of Messages: 3
  Message Number: 1
  Total Satellites in View: 10
  Satellite 1 PRN: 06 - Elevation: 77° - Azimuth: 082° - SNR: 32 dB
  Satellite 2 PRN: 09 - Elevation: 74° - Azimuth: 308° - SNR: 34 dB
  Satellite 3 PRN: 04 - Elevation: 50° - Azimuth: 098° - SNR: 31 dB
  Satellite 4 PRN: 31 - Elevation: 40° - Azimuth: 149° - SNR: 28 dB

2024-12-05 10:14:17,351 [INFO] Standard NMEA Message: $GAGSV,3,2,10,05,21,288,23,34,21,305,25,36,19,252,24,21,10,032,21,7*7D
2024-12-05 10:14:17,356 [INFO] GSV - Satellites in View:
  Number of Messages: 3
  Message Number: 2
  Total Satellites in View: 10
  Satellite 1 PRN: 05 - Elevation: 21° - Azimuth: 288° - SNR: 23 dB
  Satellite 2 PRN: 34 - Elevation: 21° - Azimuth: 305° - SNR: 25 dB
  Satellite 3 PRN: 36 - Elevation: 19° - Azimuth: 252° - SNR: 24 dB
  Satellite 4 PRN: 21 - Elevation: 10° - Azimuth: 032° - SNR: 21 dB

2024-12-05 10:14:17,367 [INFO] Standard NMEA Message: $GAGSV,3,3,10,24,04,186,20,15,02,350,16,7*7A
2024-12-05 10:14:17,380 [INFO] GSV - Satellites in View:
  Number of Messages: 3
  Message Number: 3
  Total Satellites in View: 10
  Satellite 1 PRN: 24 - Elevation: 04° - Azimuth: 186° - SNR: 20 dB
  Satellite 2 PRN: 15 - Elevation: 02° - Azimuth: 350° - SNR: 16 dB
  Satellite 3 PRN: 7 - Elevation: ° - Azimuth: ° - SNR:  dB
  Satellite 4 PRN:  - Elevation: ° - Azimuth: ° - SNR:  dB

2024-12-05 10:14:17,397 [INFO] Standard NMEA Message: $GBGSV,3,1,09,32,78,171,38,23,72,106,38,37,40,205,35,20,39,306,35,1*7D
2024-12-05 10:14:17,410 [INFO] GSV - Satellites in View:
  Number of Messages: 3
  Message Number: 1
  Total Satellites in View: 09
  Satellite 1 PRN: 32 - Elevation: 78° - Azimuth: 171° - SNR: 38 dB
  Satellite 2 PRN: 23 - Elevation: 72° - Azimuth: 106° - SNR: 38 dB
  Satellite 3 PRN: 37 - Elevation: 40° - Azimuth: 205° - SNR: 35 dB
  Satellite 4 PRN: 20 - Elevation: 39° - Azimuth: 306° - SNR: 35 dB

2024-12-05 10:14:17,421 [INFO] Standard NMEA Message: $GBGSV,3,2,09,25,27,051,31,41,23,137,30,38,04,333,25,04,01,262,,1*70
2024-12-05 10:14:17,435 [INFO] GSV - Satellites in View:
  Number of Messages: 3
  Message Number: 2
  Total Satellites in View: 09
  Satellite 1 PRN: 25 - Elevation: 27° - Azimuth: 051° - SNR: 31 dB
  Satellite 2 PRN: 41 - Elevation: 23° - Azimuth: 137° - SNR: 30 dB
  Satellite 3 PRN: 38 - Elevation: 04° - Azimuth: 333° - SNR: 25 dB
  Satellite 4 PRN: 04 - Elevation: 01° - Azimuth: 262° - SNR:  dB

2024-12-05 10:14:17,452 [INFO] Standard NMEA Message: $GBGSV,3,3,09,35,01,335,,1*4D
2024-12-05 10:14:17,464 [INFO] GSV - Satellites in View:
  Number of Messages: 3
  Message Number: 3
  Total Satellites in View: 09
  Satellite 1 PRN: 35 - Elevation: 01° - Azimuth: 335° - SNR:  dB
  Satellite 2 PRN: 1 - Elevation: ° - Azimuth: ° - SNR:  dB
  Satellite 3 PRN:  - Elevation: ° - Azimuth: ° - SNR:  dB
  Satellite 4 PRN:  - Elevation: ° - Azimuth: ° - SNR:  dB

2024-12-05 10:14:17,476 [INFO] Standard NMEA Message: $GNRMC,181418.000,A,4910.426410,N,12304.402104,W,0.03,0.00,051224,,,D,V*15
2024-12-05 10:14:17,488 [INFO] RMC - Recommended Minimum:
  Timestamp: 18:14:18+00:00
  Status: A
  Latitude: 49.1737735 N
  Longitude: -123.0733684 W
  Speed over Ground: 0.03 knots
  Course over Ground: 0.0
  Date: 2024-12-05
  Magnetic Variation:  
  Mode Indicator: D
  Navigational Status: V

2024-12-05 10:14:17,497 [INFO] Standard NMEA Message: $GNVTG,0.00,T,,M,0.03,N,0.05,K,D*20
2024-12-05 10:14:17,509 [INFO] VTG - Course over Ground and Ground Speed:
  True Track: 0.0° T
  Magnetic Track: None° M
  Speed over Ground: 0.03 knots / 0.05 km/h
  FAA Mode: D

2024-12-05 10:14:18,128 [INFO] Standard NMEA Message: $GNGGA,181419.000,4910.426272,N,12304.402158,W,2,28,0.52,8.957,M,-16.816,M,,*49
2024-12-05 10:14:18,131 [INFO] GGA - Fix Data:
  Timestamp: 18:14:19+00:00
  Latitude: 49.1737712 N
  Longitude: -123.0733693 W
  GPS Quality Indicator: 2
  Number of Satellites in Use: 28
  Horizontal Dilution of Precision (HDOP): 0.52
  Antenna Altitude (Above Mean Sea Level): 8.957 M
  Geoidal Separation: -16.816 M
  Age of Differential GPS Data: 
  Differential Reference Station ID: 

2024-12-05 10:14:18,143 [INFO] Standard NMEA Message: $GNGLL,4910.426272,N,12304.402158,W,181419.000,A,D*51
2024-12-05 10:14:18,153 [INFO] GLL - Geographic Position:
  Latitude: 49.1737712 N
  Longitude: -123.0733693 W
  Timestamp: 18:14:19+00:00
  Status: A
  FAA Mode: D

2024-12-05 10:14:18,166 [INFO] Standard NMEA Message: $GNGSA,A,3,04,09,16,07,03,26,31,11,,,,,0.91,0.52,0.75,1*04
2024-12-05 10:14:18,176 [INFO] GSA - Satellite Info:
  Mode: A
  Mode Fix Type: 3
  Satellites Used: 04, 09, 16, 07, 03, 26, 31, 11
  PDOP: 0.91
  HDOP: 0.52
  VDOP: 0.75

2024-12-05 10:14:18,188 [INFO] Standard NMEA Message: $GNGSA,A,3,68,78,67,69,79,85,,,,,,,0.91,0.52,0.75,2*03
2024-12-05 10:14:18,198 [INFO] GSA - Satellite Info:
  Mode: A
  Mode Fix Type: 3
  Satellites Used: 68, 78, 67, 69, 79, 85
  PDOP: 0.91
  HDOP: 0.52
  VDOP: 0.75

2024-12-05 10:14:18,208 [INFO] Standard NMEA Message: $GNGSA,A,3,06,09,04,31,05,34,36,21,,,,,0.91,0.52,0.75,3*03
2024-12-05 10:14:18,218 [INFO] GSA - Satellite Info:
  Mode: A
  Mode Fix Type: 3
  Satellites Used: 06, 09, 04, 31, 05, 34, 36, 21
  PDOP: 0.91
  HDOP: 0.52
  VDOP: 0.75

