$GNGGA,181412.000,4910.426890,N,12304.402410,W,2,28,0.52,9.380,M,-16.817,M,,*4D
$GNGLL,4910.426890,N,12304.402410,W,181412.000,A,D*55
$GNGSA,A,3,04,09,16,07,03,26,31,11,,,,,0.91,0.52,0.75,1*04
$GNGSA,A,3,68,78,67,69,79,85,,,,,,,0.91,0.52,0.75,2*03
$GNGSA,A,3,06,09,04,31,05,34,36,21,,,,,0.91,0.52,0.75,3*03
$GNGSA,A,3,32,23,37,20,25,41,,,,,,,0.91,0.52,0.75,4*0D
$GPGSV,3,1,12,04,80,073,36,09,65,299,38,16,47,097,34,07,35,240,33,1*61
$GPGSV,3,2,12,03,34,173,33,48,33,182,30,26,33,057,33,06,19,277,,1*69
$GPGSV,3,3,12,31,17,060,28,11,14,316,29,20,04,328,23,29,03,014,19,1*6E
$GLGSV,2,1,07,68,81,028,31,78,72,155,21,67,37,122,28,69,34,316,27,1*7C
$GLGSV,2,2,07,79,23,199,22,85,13,340,22,84,11,289,,1*46
$GAGSV,3,1,10,06,77,082,33,09,74,308,34,04,50,098,30,31,40,149,28,7*79
$GAGSV,3,2,10,05,21,288,24,34,21,305,25,36,19,252,24,21,10,032,22,7*79
$GAGSV,3,3,10,24,04,186,20,15,02,350,17,7*7B
$GBGSV,3,1,09,32,78,171,38,23,72,106,38,37,40,205,35,20,39,306,35,1*7D
$GBGSV,3,2,09,25,27,051,31,41,23,137,31,38,04,333,25,04,01,262,,1*71
$GBGSV,3,3,09,35,01,335,,1*4D
$GNRMC,181412.000,A,4910.426890,N,12304.402410,W,0.01,0.00,051224,,,D,V*19
$GNVTG,0.00,T,,M,0.01,N,0.03,K,D*24
$GNGGA,181413.000,4910.426806,N,12304.402374,W,2,28,0.52,9.322,M,-16.816,M,,*4F
$GNGLL,4910.426806,N,12304.402374,W,181413.000,A,D*5E
$GNGSA,A,3,04,09,16,07,03,26,31,11,,,,,0.91,0.52,0.75,1*04
$GNGSA,A,3,68,78,67,69,79,85,,,,,,,0.91,0.52,0.75,2*03
$GNGSA,A,3,06,09,04,31,05,34,36,21,,,,,0.91,0.52,0.75,3*03
$GNGSA,A,3,32,23,37,20,25,41,,,,,,,0.91,0.52,0.75,4*0D
$GPGSV,3,1,12,04,80,073,36,09,65,299,38,16,47,097,34,07,35,240,33,1*61
$GPGSV,3,2,12,03,34,173,33,48,33,182,30,26,33,057,33,06,19,277,,1*69
$GPGSV,3,3,12,31,17,060,28,11,14,316,29,20,04,328,24,29,03,014,17,1*67
$GLGSV,2,1,07,68,81,028,31,78,72,155,21,67,37,122,28,69,34,316,26,1*7D
$GLGSV,2,2,07,79,23,199,22,85,13,340,22,84,11,289,,1*46
$GAGSV,3,1,10,06,77,082,33,09,74,308,34,04,50,098,30,31,40,149,28,7*79
$GAGSV,3,2,10,05,21,288,24,34,21,305,25,36,19,252,24,21,10,032,22,7*79
$GAGSV,3,3,10,24,04,186,20,15,02,350,17,7*7B
$GBGSV,3,1,09,32,78,171,38,23,72,106,38,37,40,205,35,20,39,306,35,1*7D
$GBGSV,3,2,09,25,27,051,31,41,23,137,31,38,04,333,25,04,01,262,,1*71
$GBGSV,3,3,09,35,01,335,,1*4D
$GNRMC,181413.000,A,4910.426806,N,12304.402374,W,0.02,0.00,051224,,,D,V*11
$GNVTG,0.00,T,,M,0.02,N,0.03,K,D*27
$GNGGA,181414.000,4910.426740,N,12304.402296,W,2,28,0.52,9.282,M,-16.817,M,,*42
$GNGLL,4910.426740,N,12304.402296,W,181414.000,A,D*59
$GNGSA,A,3,04,09,16,07,03,26,31,11,,,,,0.91,0.52,0.75,1*04
$GNGSA,A,3,68,78,67,69,79,85,,,,,,,0.91,0.52,0.75,2*03
$GNGSA,A,3,06,09,04,31,05,34,36,21,,,,,0.91,0.52,0.75,3*03
$GNGSA,A,3,32,23,37,20,25,41,,,,,,,0.91,0.52,0.75,4*0D
$GPGSV,3,1,12,04,80,073,36,09,65,299,38,16,47,097,34,07,35,240,33,1*61
$GPGSV,3,2,12,03,34,173,33,48,33,182,30,26,33,057,33,06,19,277,,1*69
$GPGSV,3,3,12,31,17,060,28,11,14,316,29,20,04,328,23,29,03,014,17,1*60
$GLGSV,2,1,07,68,81,028,31,78,72,155,21,67,37,122,28,69,34,316,26,1*7D
$GLGSV,2,2,07,79,23,199,22,85,13,340,22,84,11,289,,1*46
$GAGSV,3,1,10,06,77,082,33,09,74,308,34,04,50,098,30,31,40,149,28,7*79
$GAGSV,3,2,10,05,21,288,23,34,21,305,25,36,19,252,24,21,10,032,22,7*7E
$GAGSV,3,3,10,24,04,186,20,15,02,350,17,7*7B
$GBGSV,3,1,09,32,78,171,38,23,72,106,38,37,40,205,35,20,39,306,35,1*7D
$GBGSV,3,2,09,25,27,051,31,41,23,137,31,38,04,333,25,04,01,262,,1*71
$GBGSV,3,3,09,35,01,335,,1*4D
$GNRMC,181414.000,A,4910.426740,N,12304.402296,W,0.01,0.00,051224,,,D,V*15
$GNVTG,0.00,T,,M,0.01,N,0.03,K,D*24
$GNGGA,181415.000,4910.426674,N,12304.402296,W,2,28,0.52,9.243,M,-16.816,M,,*49
$GNGLL,4910.426674,N,12304.402296,W,181415.000,A,D*5E
$GNGSA,A,3,04,09,16,07,03,26,31,11,,,,,0.91,0.52,0.75,1*04
$GNGSA,A,3,68,78,67,69,79,85,,,,,,,0.91,0.52,0.75,2*03
$GNGSA,A,3,06,09,04,31,05,34,36,21,,,,,0.91,0.52,0.75,3*03
$GNGSA,A,3,32,23,37,20,25,41,,,,,,,0.91,0.52,0.75,4*0D
$GPGSV,3,1,12,04,80,073,36,09,65,299,38,16,47,097,35,07,35,240,33,1*60
$GPGSV,3,2,12,03,34,173,33,48,33,182,30,26,33,057,33,06,19,277,,1*69
$GPGSV,3,3,12,31,17,060,28,11,14,316,29,20,04,328,24,29,03,014,18,1*68
$GLGSV,2,1,07,68,81,028,31,78,72,155,21,67,37,122,28,69,34,316,26,1*7D
$GLGSV,2,2,07,79,23,199,22,85,13,340,22,84,11,289,,1*46
$GAGSV,3,1,10,06,77,082,33,09,74,308,34,04,50,098,30,31,40,149,28,7*79
$GAGSV,3,2,10,05,21,288,23,34,21,305,25,36,19,252,24,21,10,032,21,7*7D
$GAGSV,3,3,10,24,04,186,20,15,02,350,17,7*7B
$GBGSV,3,1,09,32,78,171,38,23,72,106,38,37,40,205,35,20,39,306,35,1*7D
$GBGSV,3,2,09,25,27,051,31,41,23,137,31,38,04,333,25,04,01,262,,1*71
$GBGSV,3,3,09,35,01,335,,1*4D
$GNRMC,181415.000,A,4910.426674,N,12304.402296,W,0.01,0.00,051224,,,D,V*12
$GNVTG,0.00,T,,M,0.01,N,0.03,K,D*24
$GNGGA,181416.000,4910.426608,N,12304.402218,W,2,28,0.52,9.249,M,-16.816,M,,*4D
$GNGLL,4910.426608,N,12304.402218,W,181416.000,A,D*50
$GNGSA,A,3,04,09,16,07,03,26,31,11,,,,,0.91,0.52,0.75,1*04
$GNGSA,A,3,68,78,67,69,79,85,,,,,,,0.91,0.52,0.75,2*03
$GNGSA,A,3,06,09,04,31,05,34,36,21,,,,,0.91,0.52,0.75,3*03
$GNGSA,A,3,32,23,37,20,25,41,,,,,,,0.91,0.52,0.75,4*0D
$GPGSV,3,1,12,04,80,073,36,09,65,299,38,16,47,097,34,07,35,240,32,1*60
$GPGSV,3,2,12,03,34,173,33,48,33,182,30,26,33,057,33,06,19,277,,1*69
$GPGSV,3,3,12,31,17,060,28,11,14,316,29,20,04,328,23,29,03,014,18,1*6F
$GLGSV,2,1,07,68,81,028,31,78,72,155,22,67,37,122,27,69,34,316,25,1*72
$GLGSV,2,2,07,79,23,199,22,85,13,340,22,84,11,289,,1*46
$GAGSV,3,1,10,06,77,082,32,09,74,308,34,04,50,098,30,31,40,149,28,7*78
$GAGSV,3,2,10,05,21,288,23,34,21,305,25,36,19,252,24,21,10,032,21,7*7D
$GAGSV,3,3,10,24,04,186,19,15,02,350,16,7*70
$GBGSV,3,1,09,32,78,171,38,23,72,106,38,37,40,205,35,20,39,306,35,1*7D
$GBGSV,3,2,09,25,27,051,31,41,23,137,31,38,04,333,25,04,01,262,,1*71
$GBGSV,3,3,09,35,01,335,,1*4D
$GNRMC,181416.000,A,4910.426608,N,12304.402218,W,0.02,0.00,051224,,,D,V*1F
$GNVTG,0.00,T,,M,0.02,N,0.03,K,D*27
$GNGGA,181417.000,4910.426506,N,12304.402152,W,2,28,0.52,9.191,M,-16.816,M,,*4A
$GNGLL,4910.426506,N,12304.402152,W,181417.000,A,D*51
$GNGSA,A,3,04,09,16,07,03,26,31,11,,,,,0.91,0.52,0.75,1*04
$GNGSA,A,3,68,78,67,69,79,85,,,,,,,0.91,0.52,0.75,2*03
$GNGSA,A,3,06,09,04,31,05,34,36,21,,,,,0.91,0.52,0.75,3*03
$GNGSA,A,3,32,23,37,20,25,41,,,,,,,0.91,0.52,0.75,4*0D
$GPGSV,3,1,12,04,80,073,36,09,65,299,38,16,47,097,34,07,35,240,32,1*60
$GPGSV,3,2,12,03,34,173,33,48,33,182,30,26,33,057,33,06,19,277,,1*69
$GPGSV,3,3,12,31,17,060,28,11,14,316,29,20,04,328,24,29,03,014,18,1*68
$GLGSV,2,1,07,68,81,028,31,78,72,155,22,67,37,122,26,69,34,316,25,1*73
$GLGSV,2,2,07,79,23,199,22,85,13,340,21,84,11,289,,1*45
$GAGSV,3,1,10,06,77,082,32,09,74,308,34,04,50,098,31,31,40,149,28,7*79
$GAGSV,3,2,10,05,21,288,23,34,21,305,25,36,19,252,24,21,10,032,21,7*7D
$GAGSV,3,3,10,24,04,186,20,15,02,350,16,7*7A
$GBGSV,3,1,09,32,78,171,38,23,72,106,38,37,40,205,35,20,39,306,35,1*7D
$GBGSV,3,2,09,25,27,051,31,41,23,137,31,38,04,333,25,04,01,262,,1*71
$GBGSV,3,3,09,35,01,335,,1*4D
$GNRMC,181417.000,A,4910.426506,N,12304.402152,W,0.02,0.00,051224,,,D,V*1E
$GNVTG,0.00,T,,M,0.02,N,0.04,K,D*20
$GNGGA,181418.000,4910.426410,N,12304.402104,W,2,28,0.52,9.130,M,-16.817,M,,*4A
$GNGLL,4910.426410,N,12304.402104,W,181418.000,A,D*5B
$GNGSA,A,3,04,09,16,07,03,26,31,11,,,,,0.91,0.52,0.75,1*04
$GNGSA,A,3,68,78,67,69,79,85,,,,,,,0.91,0.52,0.75,2*03
$GNGSA,A,3,06,09,04,31,05,34,36,21,,,,,0.91,0.52,0.75,3*03
$GNGSA,A,3,32,23,37,20,25,41,,,,,,,0.91,0.52,0.75,4*0D
$GPGSV,3,1,12,04,80,073,36,09,65,299,38,16,47,097,34,07,35,240,32,1*60
$GPGSV,3,2,12,03,34,173,33,48,33,182,30,26,33,057,33,06,19,277,,1*69
$GPGSV,3,3,12,31,17,060,28,11,14,316,29,20,04,328,23,29,03,014,18,1*6F
$GLGSV,2,1,07,68,81,028,31,78,72,155,21,67,37,122,26,69,34,316,26,1*73
$GLGSV,2,2,07,79,23,199,22,85,13,340,21,84,11,289,,1*45
$GAGSV,3,1,10,06,77,082,32,09,74,308,34,04,50,098,31,31,40,149,28,7*79
$GAGSV,3,2,10,05,21,288,23,34,21,305,25,36,19,252,24,21,10,032,21,7*7D
$GAGSV,3,3,10,24,04,186,20,15,02,350,16,7*7A
$GBGSV,3,1,09,32,78,171,38,23,72,106,38,37,40,205,35,20,39,306,35,1*7D
$GBGSV,3,2,09,25,27,051,31,41,23,137,30,38,04,333,25,04,01,262,,1*70
$GBGSV,3,3,09,35,01,335,,1*4D
$GNRMC,181418.000,A,4910.426410,N,12304.402104,W,0.03,0.00,051224,,,D,V*15
$GNVTG,0.00,T,,M,0.03,N,0.05,K,D*20
$GNGGA,181419.000,4910.426272,N,12304.402158,W,2,28,0.52,8.957,M,-16.816,M,,*49
$GNGLL,4910.426272,N,12304.402158,W,181419.000,A,D*51
$GNGSA,A,3,04,09,16,07,03,26,31,11,,,,,0.91,0.52,0.75,1*04
$GNGSA,A,3,68,78,67,69,79,85,,,,,,,0.91,0.52,0.75,2*03
$GNGSA,A,3,06,09,04,31,05,34,36,21,,,,,0.91,0.52,0.75,3*03
$GNGSA,A,3,32,23,37,20,25,41,,,,,,,0.91,0.52,0.75,4*0D
$GPGSV,3,1,12,04,80,073,36,09,65,299,38,16,47,097,34,07,35,240,32,1*60
$GPGSV,3,2,12,03,34,173,33,48,33,182,30,26,33,057,33,06,19,277,,1*69
$GPGSV,3,3,12,31,17,060,28,11,14,316,29,20,04,328,23,29,03,014,17,1*60
$GLGSV,2,1,07,68,81,028,31,78,72,155,20,67,37,122,26,69,34,316,27,1*73
$GLGSV,2,2,07,79,23,199,22,85,13,340,21,84,11,289,,1*45
$GAGSV,3,1,10,06,77,082,32,09,74,308,33,04,50,098,31,31,40,149,28,7*7E
$GAGSV,3,2,10,05,21,288,23,34,21,305,25,36,19,252,24,21,10,032,21,7*7D
$GAGSV,3,3,10,24,04,186,20,15,02,350,17,7*7B
$GBGSV,3,1,09,32,78,171,38,23,72,106,38,37,40,205,35,20,39,306,35,1*7D
$GBGSV,3,2,09,25,27,051,31,41,23,137,30,38,04,333,25,04,01,262,,1*70
$GBGSV,3,3,09,35,01,335,,1*4D
$GNRMC,181419.000,A,4910.426272,N,12304.402158,W,0.03,0.00,051224,,,D,V*1F
$GNVTG,0.00,T,,M,0.03,N,0.05,K,D*20
$GNGGA,181420.000,4910.426122,N,12304.402080,W,2,28,0.52,8.956,M,-16.816,M,,*40
$GNGLL,4910.426122,N,12304.402080,W,181420.000,A,D*59
$GNGSA,A,3,04,09,16,07,03,26,31,11,,,,,0.91,0.52,0.75,1*04
$GNGSA,A,3,68,78,67,69,79,85,,,,,,,0.91,0.52,0.75,2*03
$GNGSA,A,3,06,09,04,31,05,34,36,21,,,,,0.91,0.52,0.75,3*03
$GNGSA,A,3,32,23,37,20,25,41,,,,,,,0.91,0.52,0.75,4*0D
$GPGSV,3,1,12,04,80,073,36,09,65,299,38,16,47,097,34,07,35,240,32,1*60
$GPGSV,3,2,12,03,34,173,33,48,33,182,30,26,33,057,33,06,19,277,,1*69
$GPGSV,3,3,12,31,17,060,28,11,14,316,29,20,04,328,22,29,03,014,17,1*61
$GLGSV,2,1,07,68,81,028,31,78,72,155,20,67,37,122,26,69,34,316,27,1*73
$GLGSV,2,2,07,79,23,199,23,85,13,340,21,84,11,289,,1*44
$GAGSV,3,1,10,06,77,082,32,09,74,308,33,04,50,098,31,31,40,149,28,7*7E
$GAGSV,3,2,10,05,21,288,23,34,21,305,25,36,19,252,24,21,10,032,21,7*7D
$GAGSV,3,3,10,24,04,186,20,15,02,350,17,7*7B
$GBGSV,3,1,09,32,78,171,38,23,72,106,38,37,40,205,34,20,39,306,35,1*7C
$GBGSV,3,2,09,25,27,051,31,41,23,137,30,38,04,333,25,04,01,262,,1*70
$GBGSV,3,3,09,35,01,335,,1*4D
$GNRMC,181420.000,A,4910.426122,N,12304.402080,W,0.03,0.00,051224,,,D,V*17
$GNVTG,0.00,T,,M,0.03,N,0.06,K,D*23
$GNGGA,181421.000,4910.426014,N,12304.402020,W,2,28,0.52,8.984,M,-16.816,M,,*40
$GNGLL,4910.426014,N,12304.402020,W,181421.000,A,D*56
$GNGSA,A,3,04,09,16,07,03,26,31,11,,,,,0.91,0.52,0.75,1*04
$GNGSA,A,3,68,78,67,69,79,85,,,,,,,0.91,0.52,0.75,2*03
$GNGSA,A,3,06,09,04,31,05,34,36,21,,,,,0.91,0.52,0.75,3*03
$GNGSA,A,3,32,23,37,20,25,41,,,,,,,0.91,0.52,0.75,4*0D
$GPGSV,3,1,12,04,80,073,36,09,65,299,38,16,47,097,34,07,35,240,32,1*60
$GPGSV,3,2,12,03,34,173,33,48,33,182,30,26,33,057,33,06,19,277,,1*69
$GPGSV,3,3,12,31,17,060,28,11,14,316,29,20,04,328,22,29,03,014,17,1*61
$GLGSV,2,1,07,68,81,028,31,78,72,155,20,67,37,122,26,69,34,316,27,1*73
$GLGSV,2,2,07,79,23,199,23,85,13,340,21,84,11,289,,1*44
$GAGSV,3,1,10,06,77,082,32,09,74,308,33,04,50,098,31,31,40,149,28,7*7E
$GAGSV,3,2,10,05,21,288,23,34,21,305,25,36,19,252,24,21,10,032,21,7*7D
$GAGSV,3,3,10,24,04,186,20,15,02,350,17,7*7B
$GBGSV,3,1,09,32,78,171,38,23,72,106,38,37,40,205,34,20,39,306,35,1*7C
$GBGSV,3,2,09,25,27,051,31,41,23,137,30,38,04,333,24,04,01,262,,1*71
$GBGSV,3,3,09,35,01,335,,1*4D
$GNRMC,181421.000,A,4910.426014,N,12304.402020,W,0.03,0.00,051224,,,D,V*18
$GNVTG,0.00,T,,M,0.03,N,0.06,K,D*23
$GNGGA,181422.000,4910.425864,N,12304.401954,W,2,28,0.52,9.015,M,-16.816,M,,*46
