$GNGGA,001435.000,4910.427262,N,12304.401342,W,2,32,0.49,5.612,M,-16.816,M,,*46
$GNGLL,4910.427262,N,12304.401342,W,001435.000,A,D*5C
$GNGSA,A,3,22,17,14,19,13,15,30,02,24,21,,,0.87,0.49,0.72,1*0F
$GNGSA,A,3,73,80,72,71,,,,,,,,,0.87,0.49,0.72,2*0A
$GNGSA,A,3,25,03,24,08,02,10,12,05,33,,,,0.87,0.49,0.72,3*0B
$GNGSA,A,3,36,27,30,45,28,22,21,08,13,,,,0.87,0.49,0.72,4*02
$GPGSV,3,1,12,22,81,031,36,17,71,141,37,14,60,072,36,19,46,192,35,1*6E
$GPGSV,3,2,12,13,40,223,34,46,33,188,32,15,31,266,34,30,28,138,30,1*65
$GPGSV,3,3,12,02,25,055,33,24,24,307,30,21,15,037,28,10,03,349,25,1*67
$GLGSV,2,1,07,73,72,358,28,83,47,117,,82,42,052,,74,34,299,,1*7B
$GLGSV,2,2,07,80,33,088,20,72,30,298,22,71,21,243,26,1*44
$GAGSV,3,1,10,25,82,319,33,03,41,237,29,24,39,075,31,08,32,303,28,7*72
$GAGSV,3,2,10,02,30,266,29,10,28,100,26,12,28,073,24,11,19,128,22,7*7D
$GAGSV,3,3,10,05,13,189,21,33,09,022,21,7*7C
$GBGSV,4,1,13,36,69,298,41,46,53,104,,27,48,080,39,30,43,158,38,1*74
$GBGSV,4,2,13,57,21,075,,45,19,291,32,28,17,040,32,22,16,261,32,1*79
$GBGSV,4,3,13,21,15,312,35,08,05,308,20,13,05,319,26,29,02,194,21,1*78
$GBGSV,4,4,13,37,02,109,,1*4A
$GNRMC,001435.000,A,4910.427262,N,12304.401342,W,0.02,342.49,061224,,,D,V*18
$GNVTG,342.49,T,,M,0.02,N,0.03,K,D*2F
$GNGGA,001436.000,4910.427298,N,12304.401378,W,2,32,0.49,5.679,M,-16.816,M,,*44
$GNGLL,4910.427298,N,12304.401378,W,001436.000,A,D*53
$GNGSA,A,3,22,17,14,19,13,15,30,02,24,21,,,0.87,0.49,0.72,1*0F
$GNGSA,A,3,73,80,72,71,,,,,,,,,0.87,0.49,0.72,2*0A
$GNGSA,A,3,25,03,24,08,02,10,12,05,33,,,,0.87,0.49,0.72,3*0B
$GNGSA,A,3,36,27,30,45,28,22,21,08,13,,,,0.87,0.49,0.72,4*02
$GPGSV,3,1,12,22,81,031,36,17,71,141,37,14,60,072,36,19,46,192,35,1*6E
$GPGSV,3,2,12,13,40,223,34,46,33,188,31,15,31,266,34,30,28,138,30,1*66
$GPGSV,3,3,12,02,25,055,32,24,24,307,29,21,15,037,28,10,03,349,23,1*68
$GLGSV,2,1,07,73,72,358,28,83,47,117,,82,42,052,,74,34,299,,1*7B
$GLGSV,2,2,07,80,33,088,20,72,30,298,21,71,21,243,25,1*44
$GAGSV,3,1,10,25,82,319,33,03,41,237,29,24,39,075,31,08,32,303,28,7*72
$GAGSV,3,2,10,02,30,266,28,10,28,100,26,12,28,073,24,11,19,128,22,7*7C
$GAGSV,3,3,10,05,13,189,21,33,09,022,21,7*7C
$GBGSV,4,1,13,36,69,298,41,46,53,104,,27,48,080,39,30,43,158,38,1*74
$GBGSV,4,2,13,57,21,075,,45,19,291,32,28,17,040,32,22,16,261,32,1*79
$GBGSV,4,3,13,21,15,312,35,08,05,308,20,13,05,319,27,29,02,194,21,1*79
$GBGSV,4,4,13,37,02,109,,1*4A
$GNRMC,001436.000,A,4910.427298,N,12304.401378,W,0.02,342.49,061224,,,D,V*17
$GNVTG,342.49,T,,M,0.02,N,0.03,K,D*2F
$GNGGA,001437.000,4910.427268,N,12304.401462,W,2,32,0.49,5.809,M,-16.816,M,,*4F
$GNGLL,4910.427268,N,12304.401462,W,001437.000,A,D*51
$GNGSA,A,3,22,17,14,19,13,15,30,02,24,21,,,0.87,0.49,0.72,1*0F
$GNGSA,A,3,73,80,72,71,,,,,,,,,0.87,0.49,0.72,2*0A
$GNGSA,A,3,25,03,24,08,02,10,12,05,33,,,,0.87,0.49,0.72,3*0B
$GNGSA,A,3,36,27,30,45,28,22,21,08,13,,,,0.87,0.49,0.72,4*02
$GPGSV,3,1,12,22,81,031,36,17,71,141,37,14,60,072,36,19,46,192,35,1*6E
$GPGSV,3,2,12,13,40,223,34,46,33,188,31,15,31,266,34,30,28,138,30,1*66
$GPGSV,3,3,12,02,25,055,32,24,24,307,29,21,15,037,28,10,03,349,24,1*6F
$GLGSV,2,1,07,73,72,358,28,83,47,117,,82,42,052,,74,34,299,,1*7B
$GLGSV,2,2,07,80,33,088,19,72,30,298,21,71,20,242,25,1*4E
$GAGSV,3,1,10,25,82,319,34,03,41,237,29,24,39,075,31,08,32,303,28,7*75
$GAGSV,3,2,10,02,30,266,28,10,28,100,26,12,28,073,24,11,19,128,21,7*7F
$GAGSV,3,3,10,05,13,189,21,33,09,022,21,7*7C
$GBGSV,4,1,13,36,69,298,41,46,53,104,,27,48,080,39,30,43,158,38,1*74
$GBGSV,4,2,13,57,21,075,,45,19,291,32,28,17,040,32,22,16,261,32,1*79
$GBGSV,4,3,13,21,15,312,35,08,05,308,20,13,05,319,26,29,02,194,21,1*78
$GBGSV,4,4,13,37,02,109,,1*4A
$GNRMC,001437.000,A,4910.427268,N,12304.401462,W,0.02,342.49,061224,,,D,V*15
$GNVTG,342.49,T,,M,0.02,N,0.03,K,D*2F
$GNGGA,001438.000,4910.427268,N,12304.401462,W,2,32,0.49,5.892,M,-16.816,M,,*42
$GNGLL,4910.427268,N,12304.401462,W,001438.000,A,D*5E
$GNGSA,A,3,22,17,14,19,13,15,30,02,24,21,,,0.87,0.49,0.72,1*0F
$GNGSA,A,3,73,80,72,71,,,,,,,,,0.87,0.49,0.72,2*0A
$GNGSA,A,3,25,03,24,08,02,10,12,05,33,,,,0.87,0.49,0.72,3*0B
$GNGSA,A,3,36,27,30,45,28,22,21,08,13,,,,0.87,0.49,0.72,4*02
$GPGSV,3,1,12,22,81,031,36,17,71,141,37,14,60,072,36,19,46,192,35,1*6E
$GPGSV,3,2,12,13,40,223,34,46,33,188,31,15,31,266,33,30,28,138,30,1*61
$GPGSV,3,3,12,02,25,055,32,24,24,307,29,21,15,037,28,10,03,349,23,1*68
$GLGSV,2,1,07,73,72,358,28,83,47,117,,82,42,052,,74,34,299,,1*7B
$GLGSV,2,2,07,80,33,088,19,72,30,296,20,71,20,242,25,1*41
$GAGSV,3,1,10,25,82,319,33,03,41,237,28,24,39,075,30,08,32,303,28,7*72
$GAGSV,3,2,10,02,30,266,27,10,28,100,26,12,28,073,23,11,19,128,21,7*77
$GAGSV,3,3,10,05,13,189,20,33,09,022,20,7*7C
$GBGSV,4,1,13,36,69,298,41,46,53,104,,27,48,080,39,30,43,158,38,1*74
$GBGSV,4,2,13,57,21,075,,45,19,291,32,28,17,040,32,22,16,261,32,1*79
$GBGSV,4,3,13,21,15,312,35,08,05,308,20,13,05,319,26,29,02,194,21,1*78
$GBGSV,4,4,13,37,02,109,,1*4A
$GNRMC,001438.000,A,4910.427268,N,12304.401462,W,0.01,342.49,061224,,,D,V*19
$GNVTG,342.49,T,,M,0.01,N,0.03,K,D*2C
$GNGGA,001439.000,4910.427292,N,12304.401492,W,2,32,0.49,6.012,M,-16.816,M,,*4A
$GNGLL,4910.427292,N,12304.401492,W,001439.000,A,D*55
$GNGSA,A,3,22,17,14,19,13,15,30,02,24,21,,,0.87,0.49,0.72,1*0F
$GNGSA,A,3,73,80,72,71,,,,,,,,,0.87,0.49,0.72,2*0A
$GNGSA,A,3,25,03,24,08,02,10,12,05,33,,,,0.87,0.49,0.72,3*0B
$GNGSA,A,3,36,27,30,45,28,22,21,08,13,,,,0.87,0.49,0.72,4*02
$GPGSV,3,1,12,22,81,031,36,17,71,141,37,14,60,072,36,19,46,192,35,1*6E
$GPGSV,3,2,12,13,40,223,34,46,33,188,32,15,31,266,33,30,28,138,30,1*62
$GPGSV,3,3,12,02,25,055,32,24,24,307,29,21,15,037,28,10,03,349,23,1*68
$GLGSV,2,1,07,73,72,002,28,83,47,117,,82,42,052,,74,34,299,,1*77
$GLGSV,2,2,07,80,33,088,20,72,30,296,20,71,20,242,25,1*4B
$GAGSV,3,1,10,25,82,319,33,03,41,237,28,24,39,075,30,08,32,303,28,7*72
$GAGSV,3,2,10,02,30,266,28,10,28,100,26,12,28,073,23,11,19,128,21,7*78
$GAGSV,3,3,10,05,13,189,20,33,09,022,20,7*7C
$GBGSV,4,1,13,36,69,298,41,46,53,104,,27,48,080,39,30,43,158,38,1*74
$GBGSV,4,2,13,57,21,075,,45,19,291,32,28,17,040,32,22,16,261,32,1*79
$GBGSV,4,3,13,21,15,312,35,08,05,308,20,13,05,319,26,29,02,194,21,1*78
$GBGSV,4,4,13,37,02,109,,1*4A
$GNRMC,001439.000,A,4910.427292,N,12304.401492,W,0.01,342.49,061224,,,D,V*12
$GNVTG,342.49,T,,M,0.01,N,0.02,K,D*2D
$GNGGA,001440.000,4910.427268,N,12304.401522,W,2,32,0.49,5.971,M,-16.816,M,,*44
$GNGLL,4910.427268,N,12304.401522,W,001440.000,A,D*54
$GNGSA,A,3,22,17,14,19,13,15,30,02,24,21,,,0.87,0.49,0.72,1*0F
$GNGSA,A,3,73,80,72,71,,,,,,,,,0.87,0.49,0.72,2*0A
$GNGSA,A,3,25,03,24,08,02,10,12,05,33,,,,0.87,0.49,0.72,3*0B
$GNGSA,A,3,36,27,30,45,28,22,21,08,13,,,,0.87,0.49,0.72,4*02
$GPGSV,3,1,12,22,81,031,36,17,71,141,37,14,60,072,36,19,46,192,35,1*6E
$GPGSV,3,2,12,13,40,223,34,46,33,188,32,15,31,266,33,30,28,138,30,1*62
$GPGSV,3,3,12,02,25,055,32,24,24,307,29,21,15,037,28,10,03,349,23,1*68
$GLGSV,2,1,07,73,72,002,28,83,47,117,,82,42,052,,74,36,300,,1*74
$GLGSV,2,2,07,80,33,088,20,72,30,296,21,71,20,242,26,1*49
$GAGSV,3,1,10,25,82,319,33,03,41,237,28,24,39,075,30,08,32,303,28,7*72
$GAGSV,3,2,10,02,30,266,28,10,28,100,26,12,28,073,23,11,19,128,21,7*78
$GAGSV,3,3,10,05,13,189,20,33,09,022,20,7*7C
$GBGSV,4,1,13,36,69,298,41,46,53,104,,27,48,080,39,30,43,158,38,1*74
$GBGSV,4,2,13,57,21,075,,45,19,291,32,28,17,040,32,22,16,261,32,1*79
$GBGSV,4,3,13,21,15,312,35,08,05,308,20,13,05,319,26,29,02,194,21,1*78
$GBGSV,4,4,13,37,02,109,,1*4A
$GNRMC,001440.000,A,4910.427268,N,12304.401522,W,0.01,342.49,061224,,,D,V*13
$GNVTG,342.49,T,,M,0.01,N,0.01,K,D*2E
$GNGGA,001441.000,4910.427232,N,12304.401498,W,2,32,0.49,6.056,M,-16.817,M,,*44
$GNGLL,4910.427232,N,12304.401498,W,001441.000,A,D*5A
$GNGSA,A,3,22,17,14,19,13,15,30,02,24,21,,,0.87,0.49,0.72,1*0F
$GNGSA,A,3,73,80,72,71,,,,,,,,,0.87,0.49,0.72,2*0A
$GNGSA,A,3,25,03,24,08,02,10,12,05,33,,,,0.87,0.49,0.72,3*0B
$GNGSA,A,3,36,27,30,45,28,22,21,08,13,,,,0.87,0.49,0.72,4*02
$GPGSV,3,1,12,22,81,031,35,17,71,141,37,14,60,072,36,19,46,192,35,1*6D
$GPGSV,3,2,12,13,40,223,34,46,33,188,31,15,31,266,32,30,28,138,30,1*60
$GPGSV,3,3,12,02,25,055,31,24,24,307,29,21,15,037,27,10,03,349,23,1*64
$GLGSV,2,1,07,73,72,002,27,83,47,117,,82,42,052,,74,36,300,,1*7B
$GLGSV,2,2,07,80,33,088,19,72,30,296,21,71,20,242,26,1*43
$GAGSV,3,1,10,25,82,319,33,03,41,237,28,24,39,075,30,08,32,303,28,7*72
$GAGSV,3,2,10,02,30,266,27,10,28,100,25,12,28,073,23,11,19,128,21,7*74
$GAGSV,3,3,10,05,13,189,20,33,09,022,20,7*7C
$GBGSV,4,1,13,36,69,298,41,46,53,104,,27,48,080,39,30,43,158,38,1*74
$GBGSV,4,2,13,57,21,075,,45,19,291,32,28,17,040,32,22,16,261,32,1*79
$GBGSV,4,3,13,21,15,312,35,08,05,308,20,13,05,319,26,29,02,194,22,1*7B
$GBGSV,4,4,13,37,02,109,,1*4A
$GNRMC,001441.000,A,4910.427232,N,12304.401498,W,0.01,342.49,061224,,,D,V*1D
$GNVTG,342.49,T,,M,0.01,N,0.02,K,D*2D
$GNGGA,001442.000,4910.427178,N,12304.401516,W,2,32,0.49,6.245,M,-16.816,M,,*4C
$GNGLL,4910.427178,N,12304.401516,W,001442.000,A,D*53
$GNGSA,A,3,22,17,14,19,13,15,30,02,24,21,,,0.87,0.49,0.72,1*0F
$GNGSA,A,3,73,80,72,71,,,,,,,,,0.87,0.49,0.72,2*0A
$GNGSA,A,3,25,03,24,08,02,10,12,05,33,,,,0.87,0.49,0.72,3*0B
$GNGSA,A,3,36,27,30,45,28,22,21,08,13,,,,0.87,0.49,0.72,4*02
$GPGSV,3,1,12,22,81,031,35,17,71,141,37,14,60,072,36,19,46,192,35,1*6D
$GPGSV,3,2,12,13,40,223,34,46,33,188,31,15,31,266,32,30,28,138,30,1*60
$GPGSV,3,3,12,02,25,055,31,24,24,307,29,21,15,037,27,10,03,349,23,1*64
$GLGSV,2,1,07,73,72,002,26,83,47,117,,82,42,052,,74,36,300,,1*7A
$GLGSV,2,2,07,80,33,088,19,72,30,296,21,71,20,242,26,1*43
$GAGSV,3,1,10,25,82,319,33,03,41,237,28,24,39,075,30,08,32,303,28,7*72
$GAGSV,3,2,10,02,30,266,27,10,28,100,25,12,28,073,23,11,19,128,21,7*74
$GAGSV,3,3,10,05,13,189,20,33,09,022,20,7*7C
$GBGSV,4,1,13,36,69,298,41,46,53,104,,27,48,080,39,30,43,158,38,1*74
$GBGSV,4,2,13,57,21,075,,45,19,291,33,28,17,040,33,22,16,261,32,1*79
$GBGSV,4,3,13,21,15,312,35,08,05,308,20,13,05,319,26,29,02,194,22,1*7B
$GBGSV,4,4,13,37,02,109,,1*4A
$GNRMC,001442.000,A,4910.427178,N,12304.401516,W,0.01,342.49,061224,,,D,V*14
$GNVTG,342.49,T,,M,0.01,N,0.01,K,D*2E
$GNGGA,001443.000,4910.427094,N,12304.401414,W,2,32,0.49,6.425,M,-16.816,M,,*4D
$GNGLL,4910.427094,N,12304.401414,W,001443.000,A,D*52
$GNGSA,A,3,22,17,14,19,13,15,30,02,24,21,,,0.87,0.49,0.72,1*0F
$GNGSA,A,3,73,80,72,71,,,,,,,,,0.87,0.49,0.72,2*0A
$GNGSA,A,3,25,03,24,08,02,10,12,05,33,,,,0.87,0.49,0.72,3*0B
$GNGSA,A,3,36,27,30,45,28,22,21,08,13,,,,0.87,0.49,0.72,4*02
$GPGSV,3,1,12,22,81,031,35,17,71,141,37,14,60,072,36,19,46,192,35,1*6D
$GPGSV,3,2,12,13,40,223,34,46,33,188,32,15,31,266,32,30,28,138,30,1*63
$GPGSV,3,3,12,02,25,055,31,24,24,307,29,21,15,037,27,10,03,349,23,1*64
$GLGSV,2,1,07,73,72,002,26,83,47,117,,82,42,052,,74,36,300,,1*7A
$GLGSV,2,2,07,80,33,088,19,72,30,296,21,71,20,242,26,1*43
$GAGSV,3,1,10,25,82,319,33,03,41,237,28,24,39,075,30,08,32,303,28,7*72
$GAGSV,3,2,10,02,30,266,28,10,28,100,25,12,28,073,23,11,19,128,21,7*7B
$GAGSV,3,3,10,05,13,189,20,33,09,022,20,7*7C
$GBGSV,4,1,13,36,69,298,41,46,53,104,,27,48,080,39,30,43,158,38,1*74
$GBGSV,4,2,13,57,21,075,,45,19,291,33,28,17,040,33,22,16,261,32,1*79
$GBGSV,4,3,13,21,15,312,35,08,05,308,21,13,05,319,26,29,02,194,22,1*7A
$GBGSV,4,4,13,37,02,109,,1*4A
$GNRMC,001443.000,A,4910.427094,N,12304.401414,W,0.02,342.49,061224,,,D,V*16
$GNVTG,342.49,T,,M,0.02,N,0.03,K,D*2F
$GNGGA,001444.000,4910.427028,N,12304.401342,W,2,32,0.49,6.577,M,-16.816,M,,*4F
$GNGLL,4910.427028,N,12304.401342,W,001444.000,A,D*56
$GNGSA,A,3,22,17,14,19,13,15,30,02,24,21,,,0.87,0.49,0.72,1*0F
$GNGSA,A,3,73,80,72,71,,,,,,,,,0.87,0.49,0.72,2*0A
$GNGSA,A,3,25,03,24,08,02,10,12,05,33,,,,0.87,0.49,0.72,3*0B
$GNGSA,A,3,36,27,30,45,28,22,21,08,13,,,,0.87,0.49,0.72,4*02
$GPGSV,3,1,12,22,81,031,35,17,71,141,37,14,60,072,36,19,46,192,35,1*6D
$GPGSV,3,2,12,13,40,223,34,46,33,188,32,15,31,266,32,30,28,138,30,1*63
$GPGSV,3,3,12,02,25,055,31,24,24,307,29,21,15,037,27,10,03,349,23,1*64
$GLGSV,2,1,07,73,72,002,27,83,47,117,,82,42,052,,74,36,300,,1*7B
$GLGSV,2,2,07,80,33,088,20,72,30,296,21,71,20,242,26,1*49
$GAGSV,3,1,10,25,82,319,33,03,41,237,28,24,39,075,30,08,32,303,27,7*7D
$GAGSV,3,2,10,02,30,266,27,10,28,100,25,12,28,073,22,11,19,128,20,7*74
$GAGSV,3,3,10,05,13,189,20,33,09,022,20,7*7C
$GBGSV,4,1,13,36,69,298,41,46,53,104,,27,48,080,39,30,43,158,38,1*74
$GBGSV,4,2,13,57,21,075,,45,19,291,32,28,17,040,33,22,16,261,32,1*78
$GBGSV,4,3,13,21,15,312,35,08,05,308,21,13,05,319,26,29,02,194,22,1*7A
$GBGSV,4,4,13,37,02,109,,1*4A
$GNRMC,001444.000,A,4910.427028,N,12304.401342,W,0.02,342.49,061224,,,D,V*12
$GNVTG,342.49,T,,M,0.02,N,0.04,K,D*28
$GNGGA,001445.000,4910.426962,N,12304.401270,W,2,32,0.49,6.606,M,-16.816,M,,*4D
$GNGLL,4910.426962,N,12304.401270,W,001445.000,A,D*51
$GNGSA,A,3,22,17,14,19,13,15,30,02,24,21,,,0.87,0.49,0.72,1*0F
$GNGSA,A,3,73,80,72,71,,,,,,,,,0.87,0.49,0.72,2*0A
$GNGSA,A,3,25,03,24,08,02,10,12,05,33,,,,0.87,0.49,0.72,3*0B
$GNGSA,A,3,36,27,30,45,28,22,21,08,13,,,,0.87,0.49,0.72,4*02
$GPGSV,3,1,12,22,81,031,35,17,71,141,37,14,60,072,36,19,46,192,35,1*6D
$GPGSV,3,2,12,13,40,223,34,46,33,188,32,15,31,266,32,30,28,138,30,1*63
$GPGSV,3,3,12,02,25,055,31,24,24,307,29,21,15,037,27,10,03,349,23,1*64
$GLGSV,2,1,07,73,72,002,27,83,47,117,,82,42,052,,74,36,300,,1*7B
$GLGSV,2,2,07,80,33,088,20,72,30,296,21,71,20,242,26,1*49
$GAGSV,3,1,10,25,82,319,33,03,41,237,28,24,39,075,30,08,32,303,27,7*7D
$GAGSV,3,2,10,02,30,266,27,10,28,100,25,12,28,073,22,11,19,128,21,7*75
$GAGSV,3,3,10,05,13,189,20,33,09,022,21,7*7D
$GBGSV,3,1,12,36,69,298,41,46,53,104,,27,48,080,39,30,43,158,38,1*72
$GBGSV,3,2,12,45,19,291,32,28,17,040,33,22,16,261,32,21,15,312,35,1*7C
$GBGSV,3,3,12,08,05,308,21,13,05,319,26,37,02,109,,29,02,194,22,1*73
$GNRMC,001445.000,A,4910.426962,N,12304.401270,W,0.02,342.49,061224,,,D,V*15
$GNVTG,342.49,T,,M,0.02,N,0.04,K,D*28
$GNGGA,001446.000,4910.426860,N,12304.401318,W,2,32,0.49,6.661,M,-16.816,M,,*43
$GNGLL,4910.426860,N,12304.401318,W,001446.000,A,D*5E
$GNGSA,A,3,22,17,14,19,13,15,30,02,24,21,,,0.87,0.49,0.72,1*0F
$GNGSA,A,3,73,80,72,71,,,,,,,,,0.87,0.49,0.72,2*0A
$GNGSA,A,3,25,03,24,08,02,10,12,05,33,,,,0.87,0.49,0.72,3*0B
$GNGSA,A,3,36,27,30,45,28,22,21,08,13,,,,0.87,0.49,0.72,4*02
$GPGSV,3,1,12,22,81,031,35,17,71,141,37,14,60,072,36,19,46,192,35,1*6D
$GPGSV,3,2,12,13,40,223,34,46,33,188,31,15,31,266,33,30,28,138,30,1*61
$GPGSV,3,3,12,02,25,055,32,24,24,307,29,21,15,037,27,10,03,349,23,1*67
$GLGSV,2,1,07,73,72,002,27,83,47,117,,82,42,052,,74,36,300,,1*7B
$GLGSV,2,2,07,80,31,089,20,72,30,296,21,71,20,242,26,1*4A
$GAGSV,3,1,10,25,82,319,33,03,41,237,28,24,39,075,30,08,32,303,27,7*7D
$GAGSV,3,2,10,02,30,266,27,10,28,100,25,12,28,073,23,11,19,128,21,7*74
$GAGSV,3,3,10,05,13,189,20,33,09,022,21,7*7D
$GBGSV,4,1,13,36,69,298,41,46,53,104,,27,48,080,39,30,43,158,38,1*74
$GBGSV,4,2,13,57,21,075,,45,19,291,32,28,17,040,33,22,16,261,32,1*78
$GBGSV,4,3,13,21,15,312,35,08,05,308,21,13,05,319,26,29,02,194,21,1*79
$GBGSV,4,4,13,37,02,109,,1*4A
$GNRMC,001446.000,A,4910.426860,N,12304.401318,W,0.02,342.49,061224,,,D,V*1A
$GNVTG,342.49,T,,M,0.02,N,0.04,K,D*28
$GNGGA,001447.000,4910.426734,N,12304.401306,W,2,32,0.49,6.657,M,-16.816,M,,*46
$GNGLL,4910.426734,N,12304.401306,W,001447.000,A,D*5E
$GNGSA,A,3,22,17,14,19,13,15,30,02,24,21,,,0.87,0.49,0.72,1*0F
$GNGSA,A,3,73,80,72,71,,,,,,,,,0.87,0.49,0.72,2*0A
$GNGSA,A,3,25,03,24,08,02,10,12,05,33,,,,0.87,0.49,0.72,3*0B
$GNGSA,A,3,36,27,30,45,28,22,21,08,13,,,,0.87,0.49,0.72,4*02
$GPGSV,3,1,12,22,81,031,35,17,71,141,37,14,60,072,36,19,46,192,35,1*6D
$GPGSV,3,2,12,13,40,223,34,46,33,188,31,15,31,266,33,30,28,138,30,1*61
$GPGSV,3,3,12,02,25,055,32,24,24,307,29,21,15,037,27,10,03,349,22,1*66
$GLGSV,2,1,07,73,72,002,26,83,47,117,,82,42,052,,74,36,300,,1*7A
$GLGSV,2,2,07,80,31,089,20,72,30,296,21,71,20,242,26,1*4A
$GAGSV,3,1,10,25,82,319,33,03,41,237,28,24,39,075,30,08,32,303,28,7*72
$GAGSV,3,2,10,02,30,266,27,10,28,100,25,12,28,073,23,11,19,128,20,7*75
$GAGSV,3,3,10,05,13,189,20,33,09,022,21,7*7D
$GBGSV,4,1,13,36,69,298,41,46,53,104,,27,48,080,39,30,43,158,38,1*74
$GBGSV,4,2,13,57,21,075,,45,19,291,32,28,17,040,33,22,16,261,32,1*78
$GBGSV,4,3,13,21,15,312,35,08,05,308,21,13,05,319,26,29,02,194,21,1*79
$GBGSV,4,4,13,37,02,109,,1*4A
$GNRMC,001447.000,A,4910.426734,N,12304.401306,W,0.03,342.49,061224,,,D,V*1B
$GNVTG,342.49,T,,M,0.03,N,0.05,K,D*28
$GNGGA,001448.000,4910.426644,N,12304.401324,W,2,32,0.49,6.732,M,-16.816,M,,*4D
$GNGLL,4910.426644,N,12304.401324,W,001448.000,A,D*57
$GNGSA,A,3,22,17,14,19,13,15,30,02,24,21,,,0.87,0.49,0.72,1*0F
$GNGSA,A,3,73,80,72,71,,,,,,,,,0.87,0.49,0.72,2*0A
$GNGSA,A,3,25,03,24,08,02,10,12,05,33,,,,0.87,0.49,0.72,3*0B
$GNGSA,A,3,36,27,30,45,28,22,21,08,13,,,,0.87,0.49,0.72,4*02
$GPGSV,3,1,12,22,81,031,35,17,71,141,37,14,60,072,36,19,46,192,35,1*6D
$GPGSV,3,2,12,13,40,223,34,46,33,188,31,15,31,266,32,30,28,138,30,1*60
$GPGSV,3,3,12,02,25,055,32,24,24,307,29,21,15,037,26,10,03,349,21,1*64
$GLGSV,2,1,07,73,72,002,26,83,47,117,,82,41,050,,74,36,300,,1*7B
$GLGSV,2,2,07,80,31,089,20,72,30,296,21,71,20,242,26,1*4A
$GAGSV,3,1,10,25,82,319,33,03,41,237,28,24,39,075,30,08,32,303,28,7*72
$GAGSV,3,2,10,02,30,266,27,10,28,100,25,12,28,073,23,11,19,128,20,7*75
$GAGSV,3,3,10,05,13,189,20,33,09,022,21,7*7D
$GBGSV,4,1,13,36,69,298,41,46,53,104,,27,48,080,39,30,43,158,38,1*74
$GBGSV,4,2,13,57,21,075,,45,19,291,32,28,17,040,33,22,16,261,32,1*78
$GBGSV,4,3,13,21,15,312,35,08,05,308,21,13,05,319,26,29,02,194,21,1*79
$GBGSV,4,4,13,37,02,109,,1*4A
$GNRMC,001448.000,A,4910.426644,N,12304.401324,W,0.03,342.49,061224,,,D,V*12
$GNVTG,342.49,T,,M,0.03,N,0.06,K,D*2B
$GNGGA,001449.000,4910.426572,N,12304.401330,W,2,32,0.49,6.792,M,-16.816,M,,*45
$GNGLL,4910.426572,N,12304.401330,W,001449.000,A,D*55
$GNGSA,A,3,22,17,14,19,13,15,30,02,24,21,,,0.87,0.49,0.72,1*0F
$GNGSA,A,3,73,80,72,71,,,,,,,,,0.87,0.49,0.72,2*0A
$GNGSA,A,3,25,03,24,08,02,10,12,05,33,,,,0.87,0.49,0.72,3*0B
$GNGSA,A,3,36,27,30,45,28,22,21,08,13,,,,0.87,0.49,0.72,4*02
$GPGSV,3,1,12,22,81,031,35,17,71,141,37,14,60,072,36,19,46,192,35,1*6D
$GPGSV,3,2,12,13,40,223,34,46,33,188,31,15,31,266,32,30,28,138,30,1*60
$GPGSV,3,3,12,02,25,055,32,24,24,307,29,21,15,037,26,10,03,349,21,1*64
$GLGSV,2,1,07,73,72,002,25,83,48,115,,82,41,050,,74,36,300,,1*75
$GLGSV,2,2,07,80,31,089,20,72,30,296,22,71,20,242,26,1*49
$GAGSV,3,1,10,25,82,319,33,03,41,237,28,24,39,075,30,08,32,303,28,7*72
$GAGSV,3,2,10,02,30,266,27,10,28,100,25,12,28,073,22,11,19,128,20,7*74
$GAGSV,3,3,10,05,13,189,20,33,09,022,21,7*7D
$GBGSV,4,1,13,36,69,298,41,46,53,104,,27,48,080,39,30,43,158,38,1*74
$GBGSV,4,2,13,57,21,075,,45,19,291,32,28,17,040,33,22,16,261,32,1*78
$GBGSV,4,3,13,21,15,312,35,08,05,308,22,13,05,319,26,29,02,194,21,1*7A
$GBGSV,4,4,13,37,02,109,,1*4A
$GNRMC,001449.000,A,4910.426572,N,12304.401330,W,0.03,342.49,061224,,,D,V*10
$GNVTG,342.49,T,,M,0.03,N,0.06,K,D*2B
$GNGGA,001450.000,4910.426476,N,12304.401468,W,2,32,0.49,6.962,M,-16.816,M,,*43
$GNGLL,4910.426476,N,12304.401468,W,001450.000,A,D*52
$GNGSA,A,3,22,17,14,19,13,15,30,02,24,21,,,0.87,0.49,0.72,1*0F
$GNGSA,A,3,73,80,72,71,,,,,,,,,0.87,0.49,0.72,2*0A
$GNGSA,A,3,25,03,24,08,02,10,12,05,33,,,,0.87,0.49,0.72,3*0B
$GNGSA,A,3,36,27,30,45,28,22,21,08,13,,,,0.87,0.49,0.72,4*02
$GPGSV,3,1,12,22,81,031,35,17,71,141,37,14,60,072,36,19,46,192,35,1*6D
$GPGSV,3,2,12,13,40,223,34,46,33,188,31,15,31,266,32,30,28,138,30,1*60
$GPGSV,3,3,12,02,25,055,32,24,24,307,29,21,15,037,26,10,03,349,21,1*64
$GLGSV,2,1,07,73,72,002,25,83,48,115,,82,41,050,,74,36,300,,1*75
$GLGSV,2,2,07,80,31,089,20,72,30,296,21,71,20,242,26,1*4A
$GAGSV,3,1,10,25,82,319,34,03,41,237,29,24,39,075,31,08,32,303,28,7*75
$GAGSV,3,2,10,02,30,266,27,10,28,100,25,12,28,073,22,11,19,128,20,7*74
$GAGSV,3,3,10,05,13,189,20,33,09,022,21,7*7D
$GBGSV,4,1,13,36,69,298,41,46,53,104,,27,48,080,39,30,43,158,38,1*74
$GBGSV,4,2,13,57,21,075,,45,19,291,33,28,17,040,33,22,16,261,32,1*79
$GBGSV,4,3,13,21,15,312,35,08,05,308,22,13,05,319,27,29,02,194,22,1*78
$GBGSV,4,4,13,37,02,109,,1*4A
$GNRMC,001450.000,A,4910.426476,N,12304.401468,W,0.03,342.49,061224,,,D,V*17
$GNVTG,342.49,T,,M,0.03,N,0.06,K,D*2B
$GNGGA,001451.000,4910.426386,N,12304.401552,W,2,32,0.49,6.958,M,-16.816,M,,*4B
$GNGLL,4910.426386,N,12304.401552,W,001451.000,A,D*53
$GNGSA,A,3,22,17,14,19,13,15,30,02,24,21,,,0.87,0.49,0.72,1*0F
$GNGSA,A,3,73,80,72,71,,,,,,,,,0.87,0.49,0.72,2*0A
$GNGSA,A,3,25,03,24,08,02,10,12,05,33,,,,0.87,0.49,0.72,3*0B
$GNGSA,A,3,36,27,30,45,28,22,21,08,13,,,,0.87,0.49,0.72,4*02
$GPGSV,3,1,12,22,81,031,35,17,71,141,37,14,60,072,36,19,46,192,35,1*6D
$GPGSV,3,2,12,13,40,223,34,46,33,188,30,15,31,266,32,30,28,138,30,1*61
$GPGSV,3,3,12,02,25,055,32,24,24,307,29,21,15,037,25,10,03,349,21,1*67
$GLGSV,2,1,07,73,72,002,25,83,48,115,,82,41,050,,74,36,300,,1*75
$GLGSV,2,2,07,80,31,089,20,72,30,296,21,71,20,242,26,1*4A
$GAGSV,3,1,10,25,82,319,33,03,41,237,29,24,39,075,30,08,32,303,28,7*73
$GAGSV,3,2,10,02,30,266,27,10,28,100,25,12,28,073,22,11,19,128,20,7*74
$GAGSV,3,3,10,05,13,189,20,33,09,022,21,7*7D
$GBGSV,4,1,13,36,69,298,41,46,53,104,,27,48,080,39,30,43,158,38,1*74
$GBGSV,4,2,13,57,21,075,,45,19,291,33,28,17,040,33,22,16,261,32,1*79
$GBGSV,4,3,13,21,15,312,35,08,05,308,22,13,05,319,27,29,02,194,23,1*79
$GBGSV,4,4,13,37,02,109,,1*4A
$GNRMC,001451.000,A,4910.426386,N,12304.401552,W,0.03,342.49,061224,,,D,V*16
$GNVTG,342.49,T,,M,0.03,N,0.05,K,D*28
$GNGGA,001452.000,4910.426326,N,12304.401672,W,2,32,0.49,6.955,M,-16.816,M,,*4E
$GNGLL,4910.426326,N,12304.401672,W,001452.000,A,D*5B
$GNGSA,A,3,22,17,14,19,13,15,30,02,24,21,,,0.87,0.49,0.72,1*0F
$GNGSA,A,3,73,80,72,71,,,,,,,,,0.87,0.49,0.72,2*0A
$GNGSA,A,3,25,03,24,08,02,10,12,05,33,,,,0.87,0.49,0.72,3*0B
$GNGSA,A,3,36,27,30,45,28,22,21,08,13,,,,0.87,0.49,0.72,4*02
$GPGSV,3,1,12,22,81,031,35,17,71,141,37,14,60,072,36,19,46,192,35,1*6D
$GPGSV,3,2,12,13,40,223,34,46,33,188,30,15,31,266,32,30,28,138,30,1*61
$GPGSV,3,3,12,02,25,055,32,24,24,307,29,21,15,037,25,10,03,349,21,1*67
$GLGSV,2,1,07,73,72,002,25,83,48,115,,82,41,050,,74,36,300,,1*75
$GLGSV,2,2,07,80,31,089,20,72,30,296,21,71,20,242,26,1*4A
$GAGSV,3,1,10,25,82,319,33,03,41,237,29,24,39,075,30,08,32,303,28,7*73
$GAGSV,3,2,10,02,30,266,27,10,28,100,25,12,28,073,22,11,19,128,20,7*74
$GAGSV,3,3,10,05,13,189,20,33,09,022,21,7*7D
$GBGSV,4,1,13,36,69,298,42,46,53,104,,27,48,080,39,30,43,158,39,1*76
$GBGSV,4,2,13,57,21,075,,45,19,291,33,28,17,040,33,22,16,261,32,1*79
$GBGSV,4,3,13,21,15,312,35,08,05,308,23,13,05,319,27,29,02,194,23,1*78
$GBGSV,4,4,13,37,02,109,,1*4A
$GNRMC,001452.000,A,4910.426326,N,12304.401672,W,0.02,342.49,061224,,,D,V*1F
$GNVTG,342.49,T,,M,0.02,N,0.04,K,D*28
$GNGGA,001453.000,4910.426284,N,12304.401840,W,2,32,0.49,7.051,M,-16.817,M,,*44
$GNGLL,4910.426284,N,12304.401840,W,001453.000,A,D*5C
$GNGSA,A,3,22,17,14,19,13,15,30,02,24,21,,,0.87,0.49,0.72,1*0F
$GNGSA,A,3,73,80,72,71,,,,,,,,,0.87,0.49,0.72,2*0A
$GNGSA,A,3,25,03,24,08,02,10,12,05,33,,,,0.87,0.49,0.72,3*0B
$GNGSA,A,3,36,27,30,45,28,22,21,08,13,,,,0.87,0.49,0.72,4*02
$GPGSV,3,1,12,22,81,031,35,17,71,141,37,14,60,072,36,19,46,192,35,1*6D
$GPGSV,3,2,12,13,40,223,34,46,33,188,30,15,31,266,32,30,28,138,30,1*61
$GPGSV,3,3,12,02,25,055,32,24,24,307,29,21,15,037,26,10,03,349,22,1*67
$GLGSV,2,1,07,73,72,002,25,83,48,115,,82,41,050,,74,36,300,,1*75
$GLGSV,2,2,07,80,31,089,20,72,30,296,21,71,20,242,25,1*49
$GAGSV,3,1,10,25,82,319,33,03,41,237,29,24,39,075,30,08,32,303,28,7*73
$GAGSV,3,2,10,02,30,266,28,10,28,100,25,12,28,073,22,11,19,128,20,7*7B
$GAGSV,3,3,10,05,13,189,20,33,09,022,21,7*7D
$GBGSV,4,1,13,36,69,298,42,46,53,104,,27,48,080,39,30,43,158,39,1*76
$GBGSV,4,2,13,57,21,075,,45,19,291,33,28,17,040,33,22,16,261,32,1*79
$GBGSV,4,3,13,21,15,312,35,08,05,308,23,13,05,319,27,29,02,194,23,1*78
$GBGSV,4,4,13,37,02,109,,1*4A
$GNRMC,001453.000,A,4910.426284,N,12304.401840,W,0.02,342.49,061224,,,D,V*18
$GNVTG,342.49,T,,M,0.02,N,0.04,K,D*28
$GNGGA,001454.000,4910.426224,N,12304.401936,W,2,32,0.49,7.191,M,-16.816,M,,*45
$GNGLL,4910.426224,N,12304.401936,W,001454.000,A,D*51
$GNGSA,A,3,22,17,14,19,13,15,30,02,24,21,,,0.87,0.49,0.72,1*0F
$GNGSA,A,3,73,80,72,71,,,,,,,,,0.87,0.49,0.72,2*0A
$GNGSA,A,3,25,03,24,08,02,10,12,05,33,,,,0.87,0.49,0.72,3*0B
$GNGSA,A,3,36,27,30,45,28,22,21,08,13,,,,0.87,0.49,0.72,4*02
$GPGSV,3,1,12,22,81,031,35,17,71,141,37,14,60,072,36,19,46,192,35,1*6D
$GPGSV,3,2,12,13,40,223,35,46,33,188,30,15,31,266,32,30,28,138,30,1*60
$GPGSV,3,3,12,02,25,055,32,24,24,307,29,21,15,037,26,10,03,349,22,1*67
$GLGSV,2,1,07,73,72,002,25,83,48,115,,82,41,050,,74,36,300,,1*75
$GLGSV,2,2,07,80,31,089,20,72,30,296,21,71,20,242,25,1*49
$GAGSV,3,1,10,25,82,319,33,03,41,237,29,24,39,075,30,08,32,303,28,7*73
$GAGSV,3,2,10,02,30,266,28,10,28,100,25,12,28,073,23,11,19,128,20,7*7A
$GAGSV,3,3,10,05,13,189,20,33,09,022,21,7*7D
$GBGSV,4,1,13,36,69,298,42,46,53,104,,27,48,080,40,30,43,158,39,1*78
$GBGSV,4,2,13,57,21,075,,45,19,291,33,28,17,040,33,22,16,261,32,1*79
$GBGSV,4,3,13,21,15,312,35,08,05,308,23,13,05,319,27,29,02,194,23,1*78
$GBGSV,4,4,13,37,02,109,,1*4A
$GNRMC,001454.000,A,4910.426224,N,12304.401936,W,0.02,342.49,061224,,,D,V*15
$GNVTG,342.49,T,,M,0.02,N,0.03,K,D*2F
$GNGGA,001455.000,4910.426206,N,12304.401990,W,2,32,0.49,7.318,M,-16.816,M,,*4B
$GNGLL,4910.426206,N,12304.401990,W,001455.000,A,D*5C
$GNGSA,A,3,22,17,14,19,13,15,30,02,24,21,,,0.87,0.49,0.72,1*0F
$GNGSA,A,3,73,80,72,71,,,,,,,,,0.87,0.49,0.72,2*0A
$GNGSA,A,3,25,03,24,08,02,10,12,05,33,,,,0.87,0.49,0.72,3*0B
$GNGSA,A,3,36,27,30,45,28,22,21,08,13,,,,0.87,0.49,0.72,4*02
$GPGSV,3,1,12,22,81,031,35,17,71,141,37,14,60,072,36,19,46,192,35,1*6D
$GPGSV,3,2,12,13,40,223,35,46,33,188,31,15,31,266,32,30,28,138,30,1*61
$GPGSV,3,3,12,02,25,055,32,24,24,307,29,21,15,037,27,10,03,349,22,1*66
$GLGSV,2,1,07,73,72,002,25,83,48,115,,82,41,050,,74,36,300,,1*75
$GLGSV,2,2,07,80,31,089,21,72,30,296,21,71,20,242,25,1*48
$GAGSV,3,1,10,25,82,319,33,03,41,237,30,24,39,075,30,08,32,303,28,7*7B
$GAGSV,3,2,10,02,30,266,29,10,28,100,25,12,28,073,24,11,19,128,20,7*7C
$GAGSV,3,3,10,05,13,189,20,33,09,022,21,7*7D
$GBGSV,4,1,13,36,69,298,42,46,53,104,,27,48,080,40,30,43,158,40,1*76
$GBGSV,4,2,13,57,21,075,,45,19,291,34,28,17,040,34,22,16,261,32,1*79
$GBGSV,4,3,13,21,15,312,35,08,05,308,23,13,05,319,28,29,02,194,23,1*77
$GBGSV,4,4,13,37,02,109,,1*4A
$GNRMC,001455.000,A,4910.426206,N,12304.401990,W,0.02,342.49,061224,,,D,V*18
$GNVTG,342.49,T,,M,0.02,N,0.03,K,D*2F
$GNGGA,001456.000,4910.426158,N,12304.401978,W,2,32,0.49,7.346,M,-16.817,M,,*4C
$GNGLL,4910.426158,N,12304.401978,W,001456.000,A,D*51
$GNGSA,A,3,22,17,14,19,13,15,30,02,24,21,,,0.87,0.49,0.72,1*0F
$GNGSA,A,3,73,80,72,71,,,,,,,,,0.87,0.49,0.72,2*0A
$GNGSA,A,3,25,03,24,08,02,10,12,05,33,,,,0.87,0.49,0.72,3*0B
$GNGSA,A,3,36,27,30,45,28,22,21,08,13,,,,0.87,0.49,0.72,4*02
$GPGSV,3,1,12,22,81,031,35,17,71,141,37,14,60,072,36,19,46,192,35,1*6D
$GPGSV,3,2,12,13,40,223,35,46,33,188,32,15,31,266,33,30,28,138,30,1*63
$GPGSV,3,3,12,02,25,055,33,24,24,307,30,21,15,037,26,10,03,349,22,1*6E
$GLGSV,2,1,07,73,72,002,25,83,48,115,,82,41,050,,74,36,300,,1*75
$GLGSV,2,2,07,80,31,089,20,72,30,296,21,71,20,242,24,1*48
$GAGSV,3,1,10,25,82,319,34,03,41,237,30,24,39,075,30,08,32,303,28,7*7C
$GAGSV,3,2,10,02,30,266,29,10,28,100,25,12,28,073,24,11,19,128,20,7*7C
$GAGSV,3,3,10,05,13,189,21,33,09,022,22,7*7F
$GBGSV,4,1,13,36,69,298,42,46,53,104,,27,48,080,40,30,43,158,40,1*76
$GBGSV,4,2,13,57,21,075,,45,19,291,34,28,17,040,34,22,16,261,32,1*79
$GBGSV,4,3,13,21,15,312,35,08,05,308,23,13,05,319,28,29,02,194,23,1*77
$GBGSV,4,4,13,37,02,109,,1*4A
$GNRMC,001456.000,A,4910.426158,N,12304.401978,W,0.02,342.49,061224,,,D,V*15
$GNVTG,342.49,T,,M,0.02,N,0.03,K,D*2F
$GNGGA,001457.000,4910.426152,N,12304.401990,W,2,32,0.49,7.279,M,-16.816,M,,*4D
$GNGLL,4910.426152,N,12304.401990,W,001457.000,A,D*5C
$GNGSA,A,3,22,17,14,19,13,15,30,02,24,21,,,0.87,0.49,0.72,1*0F
$GNGSA,A,3,73,80,72,71,,,,,,,,,0.87,0.49,0.72,2*0A
$GNGSA,A,3,25,03,24,08,02,10,12,05,33,,,,0.87,0.49,0.72,3*0B
$GNGSA,A,3,36,27,30,45,28,22,21,08,13,,,,0.87,0.49,0.72,4*02
$GPGSV,3,1,12,22,81,031,35,17,71,141,37,14,60,072,36,19,46,192,35,1*6D
$GPGSV,3,2,12,13,40,223,35,46,33,188,32,15,31,266,33,30,28,138,31,1*62
$GPGSV,3,3,12,02,25,055,33,24,24,307,30,21,15,037,28,10,03,349,22,1*60
$GLGSV,2,1,07,73,72,002,26,83,48,115,,82,41,050,,74,36,300,,1*76
$GLGSV,2,2,07,80,31,089,20,72,30,296,21,71,20,242,24,1*48
$GAGSV,3,1,10,25,82,319,35,03,41,237,30,24,39,075,31,08,32,303,28,7*7C
$GAGSV,3,2,10,02,30,266,29,10,28,100,25,12,28,073,24,11,19,128,20,7*7C
$GAGSV,3,3,10,05,13,189,21,33,09,022,22,7*7F
$GBGSV,4,1,13,36,69,298,42,46,53,104,,27,48,080,40,30,43,158,40,1*76
$GBGSV,4,2,13,57,21,075,,45,19,291,34,28,17,040,34,22,16,261,32,1*79
$GBGSV,4,3,13,21,15,312,35,08,05,308,23,13,05,319,28,29,02,194,23,1*77
$GBGSV,4,4,13,37,02,109,,1*4A
$GNRMC,001457.000,A,4910.426152,N,12304.401990,W,0.01,342.49,061224,,,D,V*1B
$GNVTG,342.49,T,,M,0.01,N,0.03,K,D*2C
$GNGGA,001458.000,4910.426164,N,12304.401978,W,2,32,0.49,7.191,M,-16.816,M,,*44
$GNGLL,4910.426164,N,12304.401978,W,001458.000,A,D*50
$GNGSA,A,3,22,17,14,19,13,15,30,02,24,21,,,0.87,0.49,0.72,1*0F
$GNGSA,A,3,73,80,72,71,,,,,,,,,0.87,0.49,0.72,2*0A
$GNGSA,A,3,25,03,24,08,02,10,12,05,33,,,,0.87,0.49,0.72,3*0B
$GNGSA,A,3,36,27,30,45,28,22,21,08,13,,,,0.87,0.49,0.72,4*02
$GPGSV,3,1,12,22,81,031,35,17,71,141,37,14,60,072,36,19,46,192,35,1*6D
$GPGSV,3,2,12,13,40,223,35,46,33,188,31,15,31,266,33,30,28,138,31,1*61
$GPGSV,3,3,12,02,25,055,33,24,24,307,30,21,15,037,25,10,03,349,22,1*6D
$GLGSV,2,1,07,73,72,002,26,83,48,115,,82,41,050,,74,36,300,,1*76
$GLGSV,2,2,07,80,31,089,21,72,30,296,21,71,20,242,24,1*49
$GAGSV,3,1,10,25,82,319,35,03,41,237,30,24,39,075,31,08,32,303,28,7*7C
$GAGSV,3,2,10,02,30,266,29,10,28,100,25,12,28,073,24,11,19,128,20,7*7C
$GAGSV,3,3,10,05,13,189,21,33,09,022,22,7*7F
$GBGSV,4,1,13,36,69,298,42,46,53,104,,27,48,080,40,30,43,158,40,1*76
$GBGSV,4,2,13,57,21,075,,45,19,291,34,28,17,040,34,22,16,261,32,1*79
$GBGSV,4,3,13,21,15,312,35,08,05,308,23,13,05,319,28,29,02,194,23,1*77
$GBGSV,4,4,13,37,02,109,,1*4A
$GNRMC,001458.000,A,4910.426164,N,12304.401978,W,0.01,342.49,061224,,,D,V*17
$GNVTG,342.49,T,,M,0.01,N,0.02,K,D*2D
$GNGGA,001459.000,4910.426278,N,12304.401966,W,2,32,0.49,7.037,M,-16.817,M,,*48
$GNGLL,4910.426278,N,12304.401966,W,001459.000,A,D*50
$GNGSA,A,3,22,17,14,19,13,15,30,02,24,21,,,0.87,0.49,0.72,1*0F
$GNGSA,A,3,73,80,72,71,,,,,,,,,0.87,0.49,0.72,2*0A
$GNGSA,A,3,25,03,24,08,02,10,12,05,33,,,,0.87,0.49,0.72,3*0B
$GNGSA,A,3,36,27,30,45,28,22,21,08,13,,,,0.87,0.49,0.72,4*02
$GPGSV,3,1,12,22,81,031,35,17,71,141,37,14,60,072,36,19,46,192,35,1*6D
$GPGSV,3,2,12,13,40,223,35,46,33,188,31,15,31,266,33,30,28,138,31,1*61
$GPGSV,3,3,12,02,25,055,33,24,24,307,30,21,15,037,25,10,03,349,22,1*6D
$GLGSV,2,1,07,73,72,002,26,83,48,115,,82,41,050,,74,36,300,,1*76
$GLGSV,2,2,07,80,31,089,22,72,30,296,22,71,20,242,24,1*49
$GAGSV,3,1,10,25,82,319,34,03,41,237,30,24,39,075,31,08,32,303,28,7*7D
$GAGSV,3,2,10,02,30,266,29,10,28,100,25,12,28,073,24,11,19,128,20,7*7C
$GAGSV,3,3,10,05,13,189,21,33,09,022,22,7*7F
$GBGSV,4,1,13,36,69,298,42,46,53,104,,27,48,080,40,30,43,158,40,1*76
$GBGSV,4,2,13,57,21,075,,45,19,291,33,28,17,040,34,22,16,261,32,1*7E
$GBGSV,4,3,13,21,15,312,35,08,05,308,23,13,05,319,28,29,02,194,23,1*77
$GBGSV,4,4,13,37,02,109,,1*4A
$GNRMC,001459.000,A,4910.426278,N,12304.401966,W,0.02,342.49,061224,,,D,V*14
$GNVTG,342.49,T,,M,0.02,N,0.03,K,D*2F
$GNGGA,001500.000,4910.426374,N,12304.401972,W,2,32,0.49,6.923,M,-16.816,M,,*41
$GNGLL,4910.426374,N,12304.401972,W,001500.000,A,D*55
$GNGSA,A,3,22,17,14,19,13,15,30,02,24,21,,,0.87,0.49,0.72,1*0F
$GNGSA,A,3,73,80,72,71,,,,,,,,,0.87,0.49,0.72,2*0A
$GNGSA,A,3,25,03,24,08,02,10,12,05,33,,,,0.87,0.49,0.72,3*0B
$GNGSA,A,3,36,27,30,45,28,22,21,08,13,,,,0.87,0.49,0.72,4*02
$GPGSV,3,1,12,22,81,031,35,17,71,141,37,14,60,072,36,19,46,192,35,1*6D
$GPGSV,3,2,12,13,40,223,35,46,33,188,31,15,31,266,33,30,28,138,31,1*61
$GPGSV,3,3,12,02,25,055,33,24,24,307,30,21,15,037,23,10,03,349,23,1*6A
$GLGSV,2,1,07,73,72,002,26,83,48,115,,82,41,050,,74,36,300,,1*76
$GLGSV,2,2,07,80,31,089,22,72,30,296,22,71,20,242,24,1*49
$GAGSV,3,1,10,25,82,319,34,03,41,237,30,24,39,075,30,08,32,303,28,7*7C
$GAGSV,3,2,10,02,30,266,28,10,28,100,25,12,28,073,23,11,19,128,20,7*7A
$GAGSV,3,3,10,05,13,189,21,33,09,022,22,7*7F
$GBGSV,4,1,13,36,69,298,42,46,53,104,,27,48,080,40,30,43,158,40,1*76
$GBGSV,4,2,13,57,21,075,,45,19,291,33,28,17,040,34,22,16,261,32,1*7E
$GBGSV,4,3,13,21,15,312,35,08,05,308,23,13,05,319,28,29,02,194,23,1*77
$GBGSV,4,4,13,37,02,109,,1*4A
$GNRMC,001500.000,A,4910.426374,N,12304.401972,W,0.02,342.49,061224,,,D,V*11
$GNVTG,342.49,T,,M,0.02,N,0.04,K,D*28
$GNGGA,001501.000,4910.426494,N,12304.401960,W,2,32,0.49,6.878,M,-16.816,M,,*45
$GNGLL,4910.426494,N,12304.401960,W,001501.000,A,D*5E
$GNGSA,A,3,22,17,14,19,13,15,30,02,24,21,,,0.87,0.49,0.72,1*0F
$GNGSA,A,3,73,80,72,71,,,,,,,,,0.87,0.49,0.72,2*0A
$GNGSA,A,3,25,03,24,08,02,10,12,05,33,,,,0.87,0.49,0.72,3*0B
$GNGSA,A,3,36,27,30,45,28,22,21,08,13,,,,0.87,0.49,0.72,4*02
$GPGSV,3,1,12,22,81,031,35,17,71,141,37,14,60,072,36,19,46,192,35,1*6D
$GPGSV,3,2,12,13,40,223,35,46,33,188,31,15,31,266,33,30,28,138,31,1*61
$GPGSV,3,3,12,02,25,055,33,24,24,307,30,21,15,037,23,10,03,349,23,1*6A
$GLGSV,2,1,07,73,72,002,26,83,48,115,,82,41,050,,74,36,300,,1*76
$GLGSV,2,2,07,80,31,089,22,72,30,296,22,71,20,242,24,1*49
$GAGSV,3,1,10,25,82,319,34,03,41,237,30,24,39,075,30,08,32,303,28,7*7C
$GAGSV,3,2,10,02,30,266,28,10,28,100,25,12,28,073,23,11,19,128,19,7*70
$GAGSV,3,3,10,05,13,189,20,33,09,022,21,7*7D
$GBGSV,4,1,13,36,69,298,42,46,53,104,,27,48,080,40,30,43,158,39,1*78
$GBGSV,4,2,13,57,21,075,,45,19,291,33,28,17,040,34,22,16,261,31,1*7D
$GBGSV,4,3,13,21,15,312,35,08,05,308,23,13,05,319,27,29,02,194,23,1*78
$GBGSV,4,4,13,37,02,109,,1*4A
$GNRMC,001501.000,A,4910.426494,N,12304.401960,W,0.03,342.49,061224,,,D,V*1B
$GNVTG,342.49,T,,M,0.03,N,0.05,K,D*28
$GNGGA,001502.000,4910.426554,N,12304.402020,W,2,32,0.49,6.865,M,-16.816,M,,*49
$GNGLL,4910.426554,N,12304.402020,W,001502.000,A,D*5E
$GNGSA,A,3,22,17,14,19,13,15,30,02,24,21,,,0.87,0.49,0.72,1*0F
$GNGSA,A,3,73,80,72,71,,,,,,,,,0.87,0.49,0.72,2*0A
$GNGSA,A,3,25,03,24,08,02,10,12,05,33,,,,0.87,0.49,0.72,3*0B
$GNGSA,A,3,36,27,30,45,28,22,21,13,08,,,,0.87,0.49,0.72,4*02
$GPGSV,3,1,12,22,81,031,35,17,71,141,37,14,60,072,36,19,46,192,35,1*6D
$GPGSV,3,2,12,13,40,223,35,46,33,188,31,15,31,266,32,30,28,138,31,1*60
$GPGSV,3,3,12,02,25,055,33,24,24,307,30,21,15,037,23,10,03,349,22,1*6B
$GLGSV,2,1,07,73,72,002,26,83,48,115,,82,41,050,,74,36,300,,1*76
$GLGSV,2,2,07,80,31,089,21,72,30,296,22,71,20,242,24,1*4A
$GAGSV,3,1,10,25,82,319,34,03,41,237,29,24,39,075,30,08,32,303,28,7*74
$GAGSV,3,2,10,02,30,266,28,10,28,100,24,12,28,073,23,11,19,128,19,7*71
$GAGSV,3,3,10,05,13,189,20,33,09,022,21,7*7D
$GBGSV,4,1,13,36,69,298,42,46,53,104,,27,48,080,40,30,43,158,39,1*78
$GBGSV,4,2,13,57,21,075,,45,19,291,33,28,17,040,34,22,16,261,31,1*7D
$GBGSV,4,3,13,21,15,312,35,13,05,319,27,08,04,308,23,29,02,194,23,1*79
$GBGSV,4,4,13,37,02,109,,1*4A
$GNRMC,001502.000,A,4910.426554,N,12304.402020,W,0.03,342.49,061224,,,D,V*1B
$GNVTG,342.49,T,,M,0.03,N,0.05,K,D*28
$GNGGA,001503.000,4910.426608,N,12304.402026,W,2,31,0.49,6.867,M,-16.816,M,,*45
$GNGLL,4910.426608,N,12304.402026,W,001503.000,A,D*53
$GNGSA,A,3,22,17,14,19,13,15,30,02,24,21,,,0.89,0.49,0.74,1*07
$GNGSA,A,3,73,80,72,71,,,,,,,,,0.89,0.49,0.74,2*02
$GNGSA,A,3,25,03,24,08,02,10,12,05,33,,,,0.89,0.49,0.74,3*03
$GNGSA,A,3,36,27,30,45,28,22,21,13,,,,,0.89,0.49,0.74,4*02
$GPGSV,3,1,12,22,81,031,35,17,71,141,37,14,60,072,36,19,46,192,35,1*6D
$GPGSV,3,2,12,13,40,223,35,46,33,188,31,15,31,266,32,30,28,138,30,1*61
$GPGSV,3,3,12,02,25,055,33,24,24,307,30,21,15,037,23,10,03,349,23,1*6A
$GLGSV,2,1,07,73,72,002,26,83,48,115,,82,41,050,,74,36,300,,1*76
$GLGSV,2,2,07,80,31,089,22,72,30,296,22,71,20,242,24,1*49
$GAGSV,3,1,10,25,82,319,34,03,41,237,29,24,39,075,30,08,32,303,28,7*74
$GAGSV,3,2,10,02,30,266,28,10,28,100,24,12,28,073,23,11,19,128,19,7*71
$GAGSV,3,3,10,05,13,189,20,33,09,022,21,7*7D
$GBGSV,4,1,13,36,69,298,42,46,53,104,,27,48,080,40,30,43,158,39,1*78
$GBGSV,4,2,13,57,21,075,,45,19,291,33,28,17,040,34,22,16,261,31,1*7D
$GBGSV,4,3,13,21,15,312,35,13,05,319,27,08,04,308,23,29,02,194,23,1*79
$GBGSV,4,4,13,37,02,109,,1*4A
$GNRMC,001503.000,A,4910.426608,N,12304.402026,W,0.02,342.49,061224,,,D,V*17
$GNVTG,342.49,T,,M,0.02,N,0.04,K,D*28
$GNGGA,001504.000,4910.426632,N,12304.401984,W,2,31,0.49,6.837,M,-16.816,M,,*4C
$GNGLL,4910.426632,N,12304.401984,W,001504.000,A,D*5F
$GNGSA,A,3,22,17,14,19,13,15,30,02,24,21,,,0.89,0.49,0.74,1*07
$GNGSA,A,3,73,80,72,71,,,,,,,,,0.89,0.49,0.74,2*02
$GNGSA,A,3,25,03,24,08,02,10,12,05,33,,,,0.89,0.49,0.74,3*03
$GNGSA,A,3,36,27,30,45,28,22,21,13,,,,,0.89,0.49,0.74,4*02
$GPGSV,3,1,12,22,81,031,35,17,71,141,37,14,60,072,36,19,46,192,35,1*6D
$GPGSV,3,2,12,13,40,223,35,46,33,188,31,15,31,266,32,30,28,138,30,1*61
$GPGSV,3,3,12,02,25,055,33,24,24,307,30,21,15,037,24,10,03,349,24,1*6A
$GLGSV,2,1,07,73,72,002,26,83,48,115,,82,41,050,,74,36,300,,1*76
$GLGSV,2,2,07,80,31,089,22,72,30,296,22,71,20,242,24,1*49
$GAGSV,3,1,10,25,82,319,34,03,41,237,29,24,39,075,30,08,32,303,28,7*74
$GAGSV,3,2,10,02,30,266,28,10,28,100,24,12,28,073,23,11,19,128,19,7*71
$GAGSV,3,3,10,05,13,189,20,33,09,022,21,7*7D
$GBGSV,4,1,13,36,69,298,42,46,53,104,,27,48,080,40,30,43,158,39,1*78
$GBGSV,4,2,13,57,21,075,,45,19,291,33,28,17,040,34,22,16,261,31,1*7D
$GBGSV,4,3,13,21,15,312,35,13,05,319,27,08,04,308,23,29,02,194,23,1*79
$GBGSV,4,4,13,37,02,109,,1*4A
$GNRMC,001504.000,A,4910.426632,N,12304.401984,W,0.02,342.49,061224,,,D,V*1B
$GNVTG,342.49,T,,M,0.02,N,0.04,K,D*28
$GNGGA,001505.000,4910.426674,N,12304.402038,W,2,31,0.49,6.981,M,-16.816,M,,*4E
