$GNGGA,190255.000,4910.426920,N,12304.403010,W,2,30,0.50,13.327,M,-16.816,M,,*7B
$GNGLL,4910.426920,N,12304.403010,W,190255.000,A,D*5F
$GNGSA,A,3,09,04,07,16,20,30,26,27,11,03,,,0.78,0.50,0.60,1*03
$GNGSA,A,3,68,69,79,67,,,,,,,,,0.78,0.50,0.60,2*00
$GNGSA,A,3,09,06,31,05,04,24,34,15,,,,,0.78,0.50,0.60,3*06
$GNGSA,A,3,37,23,20,32,19,38,25,41,,,,,0.78,0.50,0.60,4*0F
$GPGSV,4,1,13,09,88,294,36,04,60,114,32,07,55,255,34,16,43,065,32,1*67
$GPGSV,4,2,13,46,33,188,29,20,19,318,25,30,18,251,25,26,17,045,26,1*63
$GPGSV,4,3,13,27,13,104,25,11,11,295,25,03,11,174,24,06,06,259,,1*64
$GPGSV,4,4,13,08,04,134,21,1*5F
$GLGSV,2,1,07,78,71,052,,68,65,134,29,69,59,321,27,79,50,209,28,1*7E
$GLGSV,2,2,07,67,15,138,22,86,08,007,,85,07,317,19,1*46
$GAGSV,3,1,09,09,87,068,30,06,61,111,27,31,57,133,26,05,36,297,24,7*79
$GAGSV,3,2,09,04,35,113,24,24,21,187,22,34,15,288,18,15,09,337,19,7*7D
$GAGSV,3,3,09,36,04,241,12,7*4F
$GBGSV,3,1,12,37,60,211,37,23,59,066,37,20,57,296,37,32,55,165,36,1*75
$GBGSV,3,2,12,19,11,316,28,38,11,334,18,25,09,053,27,46,08,225,,1*76
$GBGSV,3,3,12,41,06,145,25,08,05,341,18,12,02,023,,04,01,262,,1*70
$GNRMC,190255.000,A,4910.426920,N,12304.403010,W,0.01,0.00,051224,,,D,V*13
$GNVTG,0.00,T,,M,0.01,N,0.03,K,D*24
$GNGGA,190256.000,4910.426908,N,12304.403022,W,2,30,0.50,13.624,M,-16.816,M,,*75
$GNGLL,4910.426908,N,12304.403022,W,190256.000,A,D*57
$GNGSA,A,3,09,04,07,16,20,30,26,27,11,03,,,0.78,0.50,0.60,1*03
$GNGSA,A,3,68,69,79,67,,,,,,,,,0.78,0.50,0.60,2*00
$GNGSA,A,3,09,06,31,05,04,24,34,15,,,,,0.78,0.50,0.60,3*06
$GNGSA,A,3,37,23,20,32,19,38,25,41,,,,,0.78,0.50,0.60,4*0F
$GPGSV,4,1,13,09,88,294,36,04,60,114,32,07,55,255,34,16,43,065,32,1*67
$GPGSV,4,2,13,46,33,188,29,20,19,318,24,30,18,251,25,26,17,045,26,1*62
$GPGSV,4,3,13,27,13,104,25,11,11,295,25,03,11,174,22,06,06,259,,1*62
$GPGSV,4,4,13,08,04,134,21,1*5F
$GLGSV,2,1,07,78,71,052,,68,65,134,29,69,59,321,27,79,50,209,28,1*7E
$GLGSV,2,2,07,67,15,138,23,86,08,007,,85,07,317,19,1*47
$GAGSV,3,1,09,09,87,068,30,06,61,111,27,31,57,133,26,05,36,297,24,7*79
$GAGSV,3,2,09,04,35,113,24,24,21,187,22,34,15,288,18,15,09,337,19,7*7D
$GAGSV,3,3,09,36,04,241,12,7*4F
$GBGSV,4,1,13,37,60,211,37,23,59,066,36,20,57,296,37,32,55,165,36,1*72
$GBGSV,4,2,13,19,11,316,27,38,11,334,18,25,09,053,27,46,08,225,,1*7F
$GBGSV,4,3,13,41,06,145,25,08,05,341,18,12,02,023,,34,01,048,,1*7F
$GBGSV,4,4,13,04,01,262,,1*47
$GNRMC,190256.000,A,4910.426908,N,12304.403022,W,0.01,0.00,051224,,,D,V*1B
$GNVTG,0.00,T,,M,0.01,N,0.02,K,D*25
$GNGGA,190257.000,4910.426860,N,12304.403082,W,2,30,0.50,13.872,M,-16.816,M,,*7C
$GNGLL,4910.426860,N,12304.403082,W,190257.000,A,D*53
$GNGSA,A,3,09,04,07,16,20,30,26,27,11,03,,,0.78,0.50,0.60,1*03
$GNGSA,A,3,68,69,79,67,,,,,,,,,0.78,0.50,0.60,2*00
$GNGSA,A,3,09,06,31,05,04,24,34,15,,,,,0.78,0.50,0.60,3*06
$GNGSA,A,3,37,23,20,32,19,38,25,41,,,,,0.78,0.50,0.60,4*0F
$GPGSV,4,1,13,09,88,294,36,04,60,114,32,07,55,255,34,16,43,065,32,1*67
$GPGSV,4,2,13,46,33,188,29,20,19,318,24,30,18,251,25,26,17,045,26,1*62
$GPGSV,4,3,13,27,13,104,26,11,11,295,24,03,11,174,23,06,06,259,,1*61
$GPGSV,4,4,13,08,04,134,21,1*5F
$GLGSV,2,1,07,78,71,052,,68,65,134,29,69,59,321,27,79,50,209,28,1*7E
$GLGSV,2,2,07,67,15,138,23,86,08,007,,85,07,317,19,1*47
$GAGSV,3,1,09,09,87,068,30,06,61,111,27,31,57,133,26,05,36,297,24,7*79
$GAGSV,3,2,09,04,35,113,24,24,21,187,21,34,15,288,18,15,09,337,19,7*7E
$GAGSV,3,3,09,36,04,241,12,7*4F
$GBGSV,4,1,13,37,60,211,37,23,59,066,36,20,57,296,37,32,55,165,36,1*72
$GBGSV,4,2,13,19,11,316,27,38,11,334,18,25,09,053,27,46,08,225,,1*7F
$GBGSV,4,3,13,41,06,145,25,08,05,341,18,12,02,023,,34,01,048,,1*7F
$GBGSV,4,4,13,04,01,262,,1*47
$GNRMC,190257.000,A,4910.426860,N,12304.403082,W,0.02,0.00,051224,,,D,V*1C
$GNVTG,0.00,T,,M,0.02,N,0.03,K,D*27
$GNGGA,190258.000,4910.426812,N,12304.403214,W,2,30,0.50,14.184,M,-16.816,M,,*7C
$GNGLL,4910.426812,N,12304.403214,W,190258.000,A,D*54
$GNGSA,A,3,09,04,07,16,20,30,26,27,11,03,,,0.78,0.50,0.60,1*03
$GNGSA,A,3,68,69,79,67,,,,,,,,,0.78,0.50,0.60,2*00
$GNGSA,A,3,09,06,31,05,04,24,34,15,,,,,0.78,0.50,0.60,3*06
$GNGSA,A,3,37,23,20,32,19,38,25,41,,,,,0.78,0.50,0.60,4*0F
$GPGSV,4,1,13,09,88,294,36,04,60,114,32,07,55,255,34,16,43,065,32,1*67
$GPGSV,4,2,13,46,33,188,29,20,19,318,25,30,18,251,25,26,17,045,26,1*63
$GPGSV,4,3,13,27,13,104,26,11,11,295,23,03,11,174,23,06,06,259,,1*66
$GPGSV,4,4,13,08,04,134,21,1*5F
$GLGSV,2,1,07,78,71,052,,68,65,134,29,69,59,321,27,79,50,209,28,1*7E
$GLGSV,2,2,07,67,15,138,23,86,08,007,,85,07,317,19,1*47
$GAGSV,3,1,09,09,87,068,30,06,61,111,27,31,57,133,26,05,36,297,24,7*79
$GAGSV,3,2,09,04,35,113,24,24,21,187,21,34,15,288,18,15,09,337,19,7*7E
$GAGSV,3,3,09,36,04,241,12,7*4F
$GBGSV,4,1,13,37,61,211,37,23,59,066,36,20,57,296,37,32,55,165,36,1*73
$GBGSV,4,2,13,19,11,316,27,38,11,334,18,25,09,053,27,46,08,225,,1*7F
$GBGSV,4,3,13,41,06,145,25,08,05,341,18,12,02,023,,34,01,048,,1*7F
$GBGSV,4,4,13,04,01,262,,1*47
$GNRMC,190258.000,A,4910.426812,N,12304.403214,W,0.02,0.00,051224,,,D,V*1B
$GNVTG,0.00,T,,M,0.02,N,0.04,K,D*20
$GNGGA,190259.000,4910.426794,N,12304.403376,W,2,30,0.50,14.478,M,-16.816,M,,*7F
$GNGLL,4910.426794,N,12304.403376,W,190259.000,A,D*51
$GNGSA,A,3,09,04,07,16,20,30,26,27,11,03,,,0.78,0.50,0.60,1*03
$GNGSA,A,3,68,69,79,67,,,,,,,,,0.78,0.50,0.60,2*00
$GNGSA,A,3,09,06,31,05,04,24,34,15,,,,,0.78,0.50,0.60,3*06
$GNGSA,A,3,37,23,20,32,38,19,25,41,,,,,0.78,0.50,0.60,4*0F
$GPGSV,4,1,13,09,88,294,36,04,60,114,32,07,55,255,34,16,43,065,32,1*67
$GPGSV,4,2,13,46,33,188,29,20,19,318,24,30,18,251,26,26,17,045,26,1*61
$GPGSV,4,3,13,27,13,104,25,11,11,295,25,03,11,174,23,06,06,259,,1*63
$GPGSV,4,4,13,08,04,134,21,1*5F
$GLGSV,2,1,07,78,71,052,,68,65,134,29,69,59,321,27,79,50,209,28,1*7E
$GLGSV,2,2,07,67,15,138,23,86,08,007,,85,07,317,19,1*47
$GAGSV,3,1,09,09,87,068,31,06,61,111,27,31,57,133,27,05,36,297,24,7*79
$GAGSV,3,2,09,04,35,113,24,24,21,187,21,34,15,288,18,15,09,337,19,7*7E
$GAGSV,3,3,09,36,04,241,12,7*4F
$GBGSV,4,1,13,37,61,211,37,23,59,066,36,20,57,296,37,32,55,165,36,1*73
$GBGSV,4,2,13,38,12,334,18,19,11,316,27,25,09,053,27,46,08,225,,1*7C
$GBGSV,4,3,13,41,06,145,25,08,05,341,18,12,02,023,,04,01,262,,1*76
$GBGSV,4,4,13,34,01,048,,1*4E
$GNRMC,190259.000,A,4910.426794,N,12304.403376,W,0.03,0.00,051224,,,D,V*1F
$GNVTG,0.00,T,,M,0.03,N,0.05,K,D*20
$GNGGA,190300.000,4910.426770,N,12304.403448,W,2,30,0.50,14.759,M,-16.816,M,,*72
