$GNGGA,232701.000,4910.428174,N,12304.400682,W,2,30,0.47,5.562,M,-16.816,M,,*4B
$GNGLL,4910.428174,N,12304.400682,W,232701.000,A,D*59
$GNGSA,A,3,19,24,17,06,12,14,11,15,13,,,,0.77,0.47,0.61,1*0B
$GNGSA,A,3,75,85,76,66,,,,,,,,,0.77,0.47,0.61,2*08
$GNGSA,A,3,02,30,36,11,07,25,08,34,10,29,,,0.77,0.47,0.61,3*06
$GNGSA,A,3,35,24,26,44,29,45,41,,,,,,0.77,0.47,0.61,4*0B
$GPGSV,4,1,13,19,82,110,39,24,55,279,38,17,51,059,36,06,34,149,34,1*6B
$GPGSV,4,2,13,46,33,188,29,12,26,283,33,14,26,098,30,11,09,176,29,1*67
$GPGSV,4,3,13,15,07,235,26,13,05,203,20,03,04,062,19,02,04,029,22,1*60
$GPGSV,4,4,13,32,02,344,,1*56
$GLGSV,2,1,07,75,74,350,34,85,55,167,30,84,54,053,20,74,42,112,,1*7C
$GLGSV,2,2,07,76,18,308,29,66,17,308,17,67,09,358,,1*4A
$GAGSV,3,1,10,02,76,068,36,30,45,286,33,36,44,114,32,11,31,051,27,7*75
$GAGSV,3,2,10,07,27,280,26,25,24,094,27,08,17,226,27,34,17,166,25,7*7C
$GAGSV,3,3,10,10,12,030,26,29,10,331,21,7*7F
$GBGSV,3,1,11,35,64,089,29,24,64,294,31,26,59,137,30,44,49,189,28,1*7A
$GBGSV,3,2,11,12,26,200,23,29,14,044,23,25,11,304,22,45,06,127,18,1*76
$GBGSV,3,3,11,41,05,314,20,32,01,003,,34,01,212,16,1*41
$GNRMC,232701.000,A,4910.428174,N,12304.400682,W,0.02,132.56,070125,,,D,V*14
$GNVTG,132.56,T,,M,0.02,N,0.04,K,D*23
$PAIRLOG,Full*51
$GNGGA,232702.000,4910.428222,N,12304.400676,W,2,30,0.47,5.595,M,-16.816,M,,*4B
$GNGLL,4910.428222,N,12304.400676,W,232702.000,A,D*51
$GNGSA,A,3,19,24,17,06,12,14,11,15,13,,,,0.77,0.47,0.61,1*0B
$GNGSA,A,3,75,85,76,66,,,,,,,,,0.77,0.47,0.61,2*08
$GNGSA,A,3,02,30,36,11,07,25,08,34,10,29,,,0.77,0.47,0.61,3*06
$GNGSA,A,3,35,24,26,44,29,45,41,,,,,,0.77,0.47,0.61,4*0B
$GPGSV,4,1,13,19,82,110,39,24,55,279,38,17,51,059,36,06,34,149,33,1*6C
$GPGSV,4,2,13,46,33,188,29,12,26,283,33,14,26,098,30,11,09,176,29,1*67
$GPGSV,4,3,13,15,07,235,26,13,05,203,20,03,04,062,19,02,04,029,21,1*63
$GPGSV,4,4,13,32,02,344,,1*56
$GLGSV,2,1,07,75,74,350,34,85,55,167,30,84,54,053,20,74,42,112,,1*7C
$GLGSV,2,2,07,76,18,308,29,66,17,308,17,67,09,358,,1*4A
$GAGSV,3,1,10,02,76,068,36,30,45,286,33,36,44,114,32,11,31,051,27,7*75
$GAGSV,3,2,10,07,27,280,26,25,24,094,27,08,17,226,27,34,17,166,25,7*7C
$GAGSV,3,3,10,10,12,030,26,29,10,331,21,7*7F
$GBGSV,3,1,11,35,64,089,29,24,64,294,30,26,59,137,29,44,49,189,27,1*7C
$GBGSV,3,2,11,12,26,200,23,29,14,044,23,25,11,304,21,45,06,127,18,1*75
$GBGSV,3,3,11,41,05,314,20,32,01,003,,34,01,212,16,1*41
$GNRMC,232702.000,A,4910.428222,N,12304.400676,W,0.02,132.56,070125,,,D,V*1C
$GNVTG,132.56,T,,M,0.02,N,0.04,K,D*23
$PAIRLOG,Full*51
$PAIR010,0,1,2348,257240*31
$GNGGA,232703.000,4910.428228,N,12304.400670,W,2,30,0.47,5.643,M,-16.817,M,,*4F
$GNGLL,4910.428228,N,12304.400670,W,232703.000,A,D*5C
$GNGSA,A,3,19,24,17,06,12,14,11,15,13,,,,0.77,0.47,0.61,1*0B
$GNGSA,A,3,75,85,76,66,,,,,,,,,0.77,0.47,0.61,2*08
$GNGSA,A,3,02,30,36,11,07,25,08,34,10,29,,,0.77,0.47,0.61,3*06
$GNGSA,A,3,35,24,26,44,29,45,41,,,,,,0.77,0.47,0.61,4*0B
$GPGSV,4,1,13,19,82,110,39,24,55,279,37,17,51,059,35,06,34,149,32,1*61
$GPGSV,4,2,13,46,33,188,29,12,26,283,32,14,26,098,29,11,09,176,29,1*6E
$GPGSV,4,3,13,15,07,235,25,13,05,203,20,03,04,062,18,02,04,029,21,1*61
$GPGSV,4,4,13,32,02,344,,1*56
$GLGSV,2,1,07,75,74,350,34,85,55,167,31,84,54,053,20,74,42,112,,1*7D
$GLGSV,2,2,07,76,18,308,28,66,17,308,16,67,09,358,,1*4A
$GAGSV,3,1,10,02,76,068,35,30,45,286,32,36,44,114,31,11,31,051,26,7*75
$GAGSV,3,2,10,07,27,280,25,25,24,094,26,08,17,226,27,34,17,166,24,7*7F
$GAGSV,3,3,10,10,12,030,25,29,10,331,21,7*7C
$GBGSV,3,1,11,35,64,089,27,24,64,294,29,26,59,137,28,44,49,189,20,1*7C
$GBGSV,3,2,11,12,26,200,22,29,14,044,22,25,11,304,20,45,06,127,18,1*74
$GBGSV,3,3,11,41,05,314,19,32,01,003,,34,01,212,16,1*4B
$GNRMC,232703.000,A,4910.428228,N,12304.400670,W,0.02,132.56,070125,,,D,V*11
$GNVTG,132.56,T,,M,0.02,N,0.04,K,D*23
$PAIRLOG,Full*51
$GNGGA,232704.000,4910.428294,N,12304.400772,W,2,30,0.47,5.705,M,-16.817,M,,*4F
$GNGLL,4910.428294,N,12304.400772,W,232704.000,A,D*5F
$GNGSA,A,3,19,24,17,06,12,14,11,15,13,,,,0.77,0.47,0.61,1*0B
$GNGSA,A,3,75,85,76,66,,,,,,,,,0.77,0.47,0.61,2*08
$GNGSA,A,3,02,30,36,11,07,25,08,34,10,29,,,0.77,0.47,0.61,3*06
$GNGSA,A,3,35,24,26,44,29,45,41,,,,,,0.77,0.47,0.61,4*0B
$GPGSV,4,1,13,19,82,110,39,24,55,279,37,17,51,059,35,06,34,149,32,1*61
$GPGSV,4,2,13,46,33,188,28,12,26,283,32,14,26,098,29,11,09,176,29,1*6F
$GPGSV,4,3,13,15,07,235,24,13,05,203,20,03,04,062,18,02,04,029,20,1*61
$GPGSV,4,4,13,32,02,344,,1*56
$GLGSV,2,1,07,75,74,350,33,85,55,167,31,84,54,053,20,74,42,112,,1*7A
$GLGSV,2,2,07,76,18,308,28,66,17,308,16,67,09,358,,1*4A
$GAGSV,3,1,10,02,76,068,35,30,45,286,32,36,44,114,31,11,31,051,26,7*75
$GAGSV,3,2,10,07,27,280,25,25,24,094,26,08,17,226,27,34,17,166,24,7*7F
$GAGSV,3,3,10,10,12,030,25,29,10,331,21,7*7C
$GBGSV,3,1,11,35,64,089,26,24,64,294,27,26,59,137,26,44,49,189,20,1*7D
$GBGSV,3,2,11,12,26,200,21,29,14,044,20,25,11,304,19,45,06,127,18,1*7F
$GBGSV,3,3,11,41,05,314,18,32,01,003,,34,01,212,15,1*49
$GNRMC,232704.000,A,4910.428294,N,12304.400772,W,0.02,132.56,070125,,,D,V*12
$GNVTG,132.56,T,,M,0.02,N,0.04,K,D*23
$PAIRLOG,Full*51
$GNGGA,232705.000,4910.428300,N,12304.400820,W,2,30,0.47,5.755,M,-16.816,M,,*4E
$GNGLL,4910.428300,N,12304.400820,W,232705.000,A,D*5A
$GNGSA,A,3,19,24,17,06,12,14,11,15,13,,,,0.77,0.47,0.61,1*0B
$GNGSA,A,3,75,85,76,66,,,,,,,,,0.77,0.47,0.61,2*08
$GNGSA,A,3,02,30,36,11,07,25,08,34,10,29,,,0.77,0.47,0.61,3*06
$GNGSA,A,3,35,24,26,44,29,45,41,,,,,,0.77,0.47,0.61,4*0B
$GPGSV,4,1,13,19,82,110,39,24,55,279,37,17,51,059,35,06,34,149,32,1*61
$GPGSV,4,2,13,46,33,188,28,12,26,283,32,14,26,098,29,11,09,176,29,1*6F
$GPGSV,4,3,13,15,07,235,25,13,05,203,20,03,04,062,17,02,04,029,20,1*6F
$GPGSV,4,4,13,32,02,344,,1*56
$GLGSV,2,1,07,75,74,350,33,85,55,167,31,84,54,053,20,74,42,112,,1*7A
$GLGSV,2,2,07,76,18,308,28,66,17,308,16,67,09,358,,1*4A
$GAGSV,3,1,10,02,76,068,34,30,45,286,32,36,44,114,31,11,31,051,26,7*74
$GAGSV,3,2,10,07,27,280,25,25,24,094,26,08,17,226,27,34,17,166,24,7*7F
$GAGSV,3,3,10,10,12,030,25,29,10,331,21,7*7C
$GBGSV,3,1,11,35,64,089,24,24,64,294,26,26,59,137,25,44,49,189,20,1*7D
$GBGSV,3,2,11,12,26,200,20,29,14,044,19,25,11,304,18,45,06,127,17,1*7A
$GBGSV,3,3,11,41,05,314,17,32,01,003,,34,01,212,14,1*47
$GNRMC,232705.000,A,4910.428300,N,12304.400820,W,0.02,132.56,070125,,,D,V*17
$GNVTG,132.56,T,,M,0.02,N,0.04,K,D*23
$PAIRLOG,Full*51
$GNGGA,232706.000,4910.428330,N,12304.400868,W,2,30,0.47,5.830,M,-16.816,M,,*4E
$GNGLL,4910.428330,N,12304.400868,W,232706.000,A,D*56
$GNGSA,A,3,19,24,17,06,12,14,11,15,13,,,,0.77,0.47,0.61,1*0B
$GNGSA,A,3,75,85,76,66,,,,,,,,,0.77,0.47,0.61,2*08
$GNGSA,A,3,02,30,36,11,07,25,08,34,10,29,,,0.77,0.47,0.61,3*06
$GNGSA,A,3,35,24,26,44,29,45,41,,,,,,0.77,0.47,0.61,4*0B
$GPGSV,4,1,13,19,82,110,39,24,55,279,37,17,51,059,35,06,34,149,32,1*61
$GPGSV,4,2,13,46,33,188,28,12,26,283,32,14,26,098,29,11,09,176,29,1*6F
$GPGSV,4,3,13,15,07,235,24,13,05,203,20,03,04,062,17,02,04,029,20,1*6E
$GPGSV,4,4,13,32,02,344,,1*56
$GLGSV,2,1,07,75,74,350,33,85,55,167,31,84,54,053,20,74,42,112,,1*7A
$GLGSV,2,2,07,76,18,308,28,66,17,308,16,67,09,358,,1*4A
$GAGSV,3,1,10,02,76,068,34,30,45,286,32,36,44,114,31,11,31,051,26,7*74
$GAGSV,3,2,10,07,27,280,25,25,24,094,27,08,17,226,27,34,17,166,24,7*7E
$GAGSV,3,3,10,10,12,030,25,29,10,331,21,7*7C
$GBGSV,3,1,11,35,64,089,23,24,64,294,25,26,59,137,24,44,49,189,19,1*72
$GBGSV,3,2,11,12,26,200,19,29,14,044,19,25,11,304,18,45,06,127,16,1*71
$GBGSV,3,3,11,41,05,314,17,32,01,003,,34,01,212,13,1*40
$GNRMC,232706.000,A,4910.428330,N,12304.400868,W,0.02,132.56,070125,,,D,V*1B
$GNVTG,132.56,T,,M,0.02,N,0.04,K,D*23
$PAIRLOG,Full*51
$GNGGA,232707.000,4910.428342,N,12304.400880,W,2,30,0.47,5.934,M,-16.816,M,,*49
$GNGLL,4910.428342,N,12304.400880,W,232707.000,A,D*54
$GNGSA,A,3,19,24,17,06,12,14,11,15,13,,,,0.77,0.47,0.61,1*0B
$GNGSA,A,3,75,85,76,66,,,,,,,,,0.77,0.47,0.61,2*08
$GNGSA,A,3,02,30,36,11,07,25,08,34,10,29,,,0.77,0.47,0.61,3*06
$GNGSA,A,3,24,35,26,44,29,45,41,,,,,,0.77,0.47,0.61,4*0B
$GPGSV,4,1,13,19,82,110,39,24,55,279,37,17,51,059,35,06,34,149,32,1*61
$GPGSV,4,2,13,46,33,188,28,12,26,283,32,14,26,098,29,11,09,176,28,1*6E
$GPGSV,4,3,13,15,07,235,24,13,05,203,20,03,04,062,17,02,04,029,19,1*64
$GPGSV,4,4,13,32,02,344,,1*56
$GLGSV,2,1,07,75,74,350,32,85,55,167,31,84,54,053,20,74,42,112,,1*7B
$GLGSV,2,2,07,76,18,308,27,66,17,308,16,67,09,358,,1*45
$GAGSV,3,1,10,02,76,068,34,30,45,286,32,36,44,114,31,11,31,051,25,7*77
$GAGSV,3,2,10,07,27,280,25,25,24,094,27,08,17,226,27,34,17,166,24,7*7E
$GAGSV,3,3,10,10,12,030,25,29,10,331,21,7*7C
$GBGSV,3,1,11,24,65,293,26,35,64,089,23,26,59,137,25,44,49,189,20,1*7C
$GBGSV,3,2,11,12,26,200,19,29,14,044,19,25,11,304,18,45,06,127,16,1*71
$GBGSV,3,3,11,41,05,314,17,32,01,003,,34,01,212,13,1*40
$GNRMC,232707.000,A,4910.428342,N,12304.400880,W,0.02,132.56,070125,,,D,V*19
$GNVTG,132.56,T,,M,0.02,N,0.03,K,D*24
$PAIRLOG,Full*51
$GNGGA,232708.000,4910.428312,N,12304.400886,W,2,30,0.47,5.910,M,-16.816,M,,*43
$GNGLL,4910.428312,N,12304.400886,W,232708.000,A,D*58
$GNGSA,A,3,19,24,17,06,12,14,11,15,13,,,,0.77,0.47,0.61,1*0B
$GNGSA,A,3,75,85,76,66,,,,,,,,,0.77,0.47,0.61,2*08
$GNGSA,A,3,02,30,36,11,07,25,08,34,10,29,,,0.77,0.47,0.61,3*06
$GNGSA,A,3,24,35,26,44,29,45,41,,,,,,0.77,0.47,0.61,4*0B
$GPGSV,4,1,13,19,82,110,39,24,55,279,37,17,51,059,35,06,34,149,31,1*62
$GPGSV,4,2,13,46,33,188,28,12,26,283,32,14,26,098,29,11,09,176,28,1*6E
$GPGSV,4,3,13,15,07,235,24,13,05,203,20,03,04,062,17,02,04,029,19,1*64
$GPGSV,4,4,13,32,02,344,,1*56
$GLGSV,2,1,07,75,74,350,32,85,55,167,31,84,54,053,19,74,42,112,,1*71
$GLGSV,2,2,07,76,18,308,27,66,17,308,14,67,09,358,24,1*41
$GAGSV,3,1,10,02,76,068,34,30,45,286,32,36,44,114,31,11,31,051,25,7*77
$GAGSV,3,2,10,07,27,280,25,25,24,094,26,08,17,226,27,34,17,166,24,7*7F
$GAGSV,3,3,10,10,12,030,25,29,10,331,21,7*7C
$GBGSV,3,1,11,24,65,293,27,35,64,089,23,26,59,137,26,44,49,189,21,1*7F
$GBGSV,3,2,11,12,26,200,19,29,14,044,19,25,12,305,18,45,06,127,16,1*73
$GBGSV,3,3,11,41,05,314,17,32,01,003,,34,01,212,13,1*40
$GNRMC,232708.000,A,4910.428312,N,12304.400886,W,0.02,132.56,070125,,,D,V*15
$GNVTG,132.56,T,,M,0.02,N,0.03,K,D*24
$PAIRLOG,Full*51
$GNGGA,232709.000,4910.428288,N,12304.400862,W,2,30,0.47,5.892,M,-16.817,M,,*40
$GNGLL,4910.428288,N,12304.400862,W,232709.000,A,D*51
$GNGSA,A,3,19,24,17,06,12,14,11,15,13,,,,0.77,0.47,0.61,1*0B
$GNGSA,A,3,75,85,76,66,,,,,,,,,0.77,0.47,0.61,2*08
$GNGSA,A,3,02,30,36,11,07,25,08,34,10,29,,,0.77,0.47,0.61,3*06
$GNGSA,A,3,24,35,26,44,29,45,41,,,,,,0.77,0.47,0.61,4*0B
$GPGSV,4,1,13,19,82,110,39,24,55,279,36,17,51,059,34,06,34,149,31,1*62
$GPGSV,4,2,13,46,33,188,28,12,26,283,31,14,26,098,28,11,09,176,27,1*63
$GPGSV,4,3,13,15,07,235,24,13,05,203,20,03,04,062,17,02,04,029,18,1*65
$GPGSV,4,4,13,32,02,344,,1*56
$GLGSV,2,1,07,75,74,350,32,85,55,167,30,84,54,053,19,74,42,112,,1*70
$GLGSV,2,2,07,76,18,308,27,66,17,308,15,67,09,358,23,1*47
$GAGSV,3,1,10,02,76,068,34,30,45,286,31,36,44,114,30,11,31,051,25,7*75
$GAGSV,3,2,10,07,27,280,24,25,24,094,25,08,17,226,26,34,17,166,23,7*7B
$GAGSV,3,3,10,10,12,030,25,29,10,331,21,7*7C
$GBGSV,3,1,11,24,65,293,26,35,64,089,22,26,58,138,26,44,49,189,21,1*71
$GBGSV,3,2,11,12,26,200,19,29,14,044,19,25,12,305,18,45,06,127,16,1*73
$GBGSV,3,3,11,41,05,314,17,32,01,003,,34,01,212,13,1*40
$GNRMC,232709.000,A,4910.428288,N,12304.400862,W,0.01,132.56,070125,,,D,V*1F
$GNVTG,132.56,T,,M,0.01,N,0.02,K,D*26
$PAIRLOG,Full*51
$GNGGA,232710.000,4910.428222,N,12304.400832,W,2,30,0.47,5.893,M,-16.817,M,,*4C
$GNGLL,4910.428222,N,12304.400832,W,232710.000,A,D*5C
$GNGSA,A,3,19,24,17,06,12,14,11,15,13,,,,0.77,0.47,0.61,1*0B
$GNGSA,A,3,75,85,76,66,,,,,,,,,0.77,0.47,0.61,2*08
$GNGSA,A,3,02,30,36,11,07,25,08,34,10,29,,,0.77,0.47,0.61,3*06
$GNGSA,A,3,24,35,26,44,29,45,41,,,,,,0.77,0.47,0.61,4*0B
$GPGSV,4,1,13,19,82,110,39,24,55,279,36,17,51,059,34,06,34,149,31,1*62
$GPGSV,4,2,13,46,33,188,28,12,26,283,31,14,26,098,28,11,09,176,27,1*63
$GPGSV,4,3,13,15,07,235,24,13,05,203,20,03,04,062,17,02,04,029,20,1*6E
$GPGSV,4,4,13,32,02,344,,1*56
$GLGSV,2,1,07,75,74,350,32,85,55,167,30,84,54,053,18,74,42,112,,1*71
$GLGSV,2,2,07,76,18,308,27,66,17,308,16,67,09,358,23,1*44
$GAGSV,3,1,10,02,76,068,34,30,45,286,31,36,44,114,30,11,31,051,25,7*75
$GAGSV,3,2,10,07,27,280,24,25,24,094,25,08,17,226,26,34,17,166,23,7*7B
$GAGSV,3,3,10,10,12,030,25,29,10,331,21,7*7C
$GBGSV,3,1,11,24,65,293,27,35,64,089,23,26,58,138,27,44,49,189,22,1*73
$GBGSV,3,2,11,12,26,200,20,29,14,044,19,25,12,305,18,45,06,127,17,1*78
$GBGSV,3,3,11,41,05,314,17,32,01,003,,34,01,212,14,1*47
$GNRMC,232710.000,A,4910.428222,N,12304.400832,W,0.01,132.56,070125,,,D,V*12
$GNVTG,132.56,T,,M,0.01,N,0.02,K,D*26
$PAIRLOG,Full*51
$GNGGA,232711.000,4910.428228,N,12304.400814,W,2,30,0.47,5.995,M,-16.816,M,,*45
$GNGLL,4910.428228,N,12304.400814,W,232711.000,A,D*53
$GNGSA,A,3,19,24,17,06,12,14,11,15,13,,,,0.77,0.47,0.61,1*0B
$GNGSA,A,3,75,85,76,66,,,,,,,,,0.77,0.47,0.61,2*08
$GNGSA,A,3,02,30,36,11,07,25,08,34,10,29,,,0.77,0.47,0.61,3*06
$GNGSA,A,3,24,35,26,44,29,45,41,,,,,,0.77,0.47,0.61,4*0B
$GPGSV,4,1,13,19,82,110,39,24,55,279,36,17,51,059,34,06,34,149,31,1*62
$GPGSV,4,2,13,46,33,188,28,12,26,283,31,14,26,098,27,11,09,176,27,1*6C
$GPGSV,4,3,13,15,07,235,23,13,05,203,20,03,04,062,17,02,04,029,18,1*62
$GPGSV,4,4,13,32,02,344,,1*56
$GLGSV,2,1,07,75,74,350,33,85,55,167,30,84,54,053,18,74,42,112,,1*70
$GLGSV,2,2,07,76,18,308,28,66,17,308,18,67,09,358,25,1*43
$GAGSV,3,1,10,02,76,068,33,30,45,286,31,36,44,114,30,11,31,051,24,7*73
$GAGSV,3,2,10,07,27,280,24,25,24,094,25,08,17,226,26,34,17,166,23,7*7B
$GAGSV,3,3,10,10,12,030,24,29,10,331,21,7*7D
$GBGSV,3,1,11,24,65,293,27,35,64,089,22,26,58,138,27,44,49,189,22,1*72
$GBGSV,3,2,11,12,26,200,20,29,14,044,19,25,12,305,18,45,06,127,17,1*78
$GBGSV,3,3,11,41,05,314,17,32,01,003,,34,01,212,14,1*47
$GNRMC,232711.000,A,4910.428228,N,12304.400814,W,0.01,132.56,070125,,,D,V*1D
$GNVTG,132.56,T,,M,0.01,N,0.02,K,D*26
$PAIRLOG,Full*51
$GNGGA,232712.000,4910.428294,N,12304.400790,W,2,30,0.47,6.034,M,-16.816,M,,*43
$GNGLL,4910.428294,N,12304.400790,W,232712.000,A,D*54
$GNGSA,A,3,19,24,17,06,12,14,11,15,13,,,,0.77,0.47,0.61,1*0B
$GNGSA,A,3,75,85,76,66,,,,,,,,,0.77,0.47,0.61,2*08
$GNGSA,A,3,02,30,36,11,07,25,08,34,10,29,,,0.77,0.47,0.61,3*06
$GNGSA,A,3,24,35,26,44,29,45,41,,,,,,0.77,0.47,0.61,4*0B
$GPGSV,4,1,13,19,82,110,39,24,55,279,35,17,51,059,34,06,34,149,31,1*61
$GPGSV,4,2,13,46,33,188,28,12,26,283,31,14,26,098,27,11,09,176,27,1*6C
$GPGSV,4,3,13,15,07,235,24,13,05,203,20,03,04,062,17,02,04,029,18,1*65
$GPGSV,4,4,13,32,02,344,,1*56
$GLGSV,2,1,07,75,74,350,33,85,55,167,30,84,54,053,18,74,42,112,,1*70
$GLGSV,2,2,07,76,18,308,28,66,17,308,17,67,09,358,24,1*4D
$GAGSV,3,1,10,02,76,068,33,30,45,286,30,36,44,114,30,11,31,051,24,7*72
$GAGSV,3,2,10,07,27,280,23,25,24,094,25,08,17,226,25,34,17,166,22,7*7E
$GAGSV,3,3,10,10,12,030,24,29,10,331,21,7*7D
$GBGSV,3,1,11,24,65,293,27,35,64,089,23,26,58,138,27,44,49,189,22,1*73
$GBGSV,3,2,11,12,26,200,20,29,13,044,19,25,12,305,18,45,06,127,17,1*7F
$GBGSV,3,3,11,41,05,314,17,32,01,003,,34,01,212,14,1*47
$GNRMC,232712.000,A,4910.428294,N,12304.400790,W,0.01,132.56,070125,,,D,V*1A
$GNVTG,132.56,T,,M,0.01,N,0.02,K,D*26
$PAIRLOG,Full*51
$GNGGA,232713.000,4910.428312,N,12304.400784,W,2,30,0.47,6.036,M,-16.816,M,,*4A
$GNGLL,4910.428312,N,12304.400784,W,232713.000,A,D*5F
$GNGSA,A,3,19,24,17,06,12,14,11,15,13,,,,0.77,0.47,0.61,1*0B
$GNGSA,A,3,75,85,76,66,,,,,,,,,0.77,0.47,0.61,2*08
$GNGSA,A,3,02,30,36,11,07,25,08,34,10,29,,,0.77,0.47,0.61,3*06
$GNGSA,A,3,24,35,26,44,29,45,41,,,,,,0.77,0.47,0.61,4*0B
$GPGSV,4,1,13,19,82,110,38,24,55,279,35,17,51,059,34,06,34,149,31,1*60
$GPGSV,4,2,13,46,33,188,28,12,26,283,31,14,26,098,27,11,09,176,26,1*6D
$GPGSV,4,3,13,15,07,235,24,13,05,203,20,03,04,062,17,02,04,029,18,1*65
$GPGSV,4,4,13,32,02,344,,1*56
$GLGSV,2,1,07,75,74,350,33,85,55,167,30,84,54,053,18,74,42,112,,1*70
$GLGSV,2,2,07,76,18,308,28,66,17,308,18,67,09,358,25,1*43
$GAGSV,3,1,10,02,76,068,33,30,45,286,30,36,44,114,30,11,31,051,23,7*75
$GAGSV,3,2,10,07,27,280,23,25,24,094,25,08,17,226,25,34,17,166,22,7*7E
$GAGSV,3,3,10,10,12,030,24,29,10,331,21,7*7D
$GBGSV,3,1,11,24,65,293,27,35,64,089,23,26,58,138,27,44,49,189,22,1*73
$GBGSV,3,2,11,12,26,200,20,29,13,044,19,25,12,305,18,45,06,127,17,1*7F
$GBGSV,3,3,11,41,05,314,17,32,01,003,,34,01,212,14,1*47
$GNRMC,232713.000,A,4910.428312,N,12304.400784,W,0.01,132.56,070125,,,D,V*11
$GNVTG,132.56,T,,M,0.01,N,0.02,K,D*26
$PAIRLOG,Full*51
$GNGGA,232714.000,4910.428360,N,12304.400742,W,2,30,0.47,6.043,M,-16.817,M,,*41
$GNGLL,4910.428360,N,12304.400742,W,232714.000,A,D*57
$GNGSA,A,3,19,24,17,06,12,14,11,15,13,,,,0.77,0.47,0.61,1*0B
$GNGSA,A,3,75,85,76,66,,,,,,,,,0.77,0.47,0.61,2*08
$GNGSA,A,3,02,30,36,11,07,25,08,34,10,29,,,0.77,0.47,0.61,3*06
$GNGSA,A,3,24,35,26,44,29,45,41,,,,,,0.77,0.47,0.61,4*0B
$GPGSV,4,1,13,19,82,110,38,24,55,279,35,17,51,059,34,06,34,149,31,1*60
$GPGSV,4,2,13,46,33,188,28,12,26,283,31,14,26,098,27,11,09,176,26,1*6D
$GPGSV,4,3,13,15,07,235,23,13,05,203,20,03,04,062,17,02,04,029,18,1*62
$GPGSV,4,4,13,32,02,344,,1*56
$GLGSV,2,1,07,75,74,350,33,85,55,167,30,84,54,053,18,74,42,112,,1*70
$GLGSV,2,2,07,76,18,308,28,66,17,308,18,67,09,358,25,1*43
$GAGSV,3,1,10,02,76,068,32,30,45,286,30,36,44,114,30,11,31,051,22,7*75
$GAGSV,3,2,10,07,27,280,23,25,24,094,25,08,17,226,25,34,17,166,22,7*7E
$GAGSV,3,3,10,10,12,030,24,29,10,331,20,7*7C
$GBGSV,3,1,11,24,65,293,27,35,64,089,23,26,58,138,27,44,49,189,22,1*73
$GBGSV,3,2,11,12,26,200,20,29,13,044,19,25,12,305,18,45,06,127,17,1*7F
$GBGSV,3,3,11,41,05,314,17,32,01,003,,34,01,212,15,1*46
$GNRMC,232714.000,A,4910.428360,N,12304.400742,W,0.01,132.56,070125,,,D,V*19
$GNVTG,132.56,T,,M,0.01,N,0.03,K,D*27
$PAIRLOG,Full*51
$GNGGA,232715.000,4910.428372,N,12304.400610,W,2,30,0.47,5.979,M,-16.816,M,,*47
$GNGLL,4910.428372,N,12304.400610,W,232715.000,A,D*53
$GNGSA,A,3,19,24,17,06,12,14,11,15,13,,,,0.77,0.47,0.61,1*0B
$GNGSA,A,3,75,85,76,66,,,,,,,,,0.77,0.47,0.61,2*08
$GNGSA,A,3,02,30,36,11,07,25,08,34,10,29,,,0.77,0.47,0.61,3*06
$GNGSA,A,3,24,35,26,44,29,45,41,,,,,,0.77,0.47,0.61,4*0B
$GPGSV,4,1,13,19,82,110,38,24,55,279,35,17,51,059,34,06,34,149,31,1*60
$GPGSV,4,2,13,46,33,188,28,12,26,283,31,14,26,098,27,11,09,176,26,1*6D
$GPGSV,4,3,13,15,07,235,23,13,05,203,20,03,04,062,17,02,04,029,18,1*62
$GPGSV,4,4,13,32,02,344,,1*56
$GLGSV,2,1,07,75,74,350,33,85,55,167,30,84,54,053,18,74,42,112,,1*70
$GLGSV,2,2,07,76,18,308,28,66,17,308,18,67,09,358,25,1*43
$GAGSV,3,1,10,02,76,068,32,30,45,286,30,36,44,114,30,11,31,051,22,7*75
$GAGSV,3,2,10,07,27,280,24,25,24,094,25,08,17,226,25,34,17,166,22,7*79
$GAGSV,3,3,10,10,12,030,24,29,10,331,20,7*7C
$GBGSV,3,1,11,24,65,293,27,35,64,089,22,26,58,138,27,44,49,189,22,1*72
$GBGSV,3,2,11,12,26,200,20,29,13,044,19,25,12,305,18,45,06,127,17,1*7F
$GBGSV,3,3,11,41,05,314,17,32,01,002,,34,01,212,15,1*47
$GNRMC,232715.000,A,4910.428372,N,12304.400610,W,0.02,132.56,070125,,,D,V*1E
$GNVTG,132.56,T,,M,0.02,N,0.04,K,D*23
$PAIRLOG,Full*51
$GNGGA,232716.000,4910.428402,N,12304.400526,W,2,30,0.47,5.940,M,-16.816,M,,*48
$GNGLL,4910.428402,N,12304.400526,W,232716.000,A,D*56
$GNGSA,A,3,19,24,17,06,12,14,11,15,13,,,,0.77,0.47,0.61,1*0B
$GNGSA,A,3,75,85,76,66,,,,,,,,,0.77,0.47,0.61,2*08
$GNGSA,A,3,02,30,36,11,07,25,08,34,10,29,,,0.77,0.47,0.61,3*06
$GNGSA,A,3,24,35,26,44,29,45,41,,,,,,0.77,0.47,0.61,4*0B
$GPGSV,4,1,13,19,82,110,38,24,55,279,35,17,51,059,34,06,34,149,30,1*61
$GPGSV,4,2,13,46,33,188,28,12,26,283,31,14,26,098,27,11,09,176,26,1*6D
$GPGSV,4,3,13,15,07,235,22,13,05,203,20,03,04,062,17,02,04,029,18,1*63
$GPGSV,4,4,13,32,02,344,,1*56
$GLGSV,2,1,07,75,74,350,33,85,55,167,30,84,54,053,18,74,42,112,,1*70
$GLGSV,2,2,07,76,18,308,28,66,17,308,18,67,09,358,25,1*43
$GAGSV,3,1,10,02,76,068,32,30,45,286,30,36,44,114,30,11,31,051,22,7*75
$GAGSV,3,2,10,07,27,280,24,25,24,094,25,08,17,226,25,34,17,166,22,7*79
$GAGSV,3,3,10,10,12,030,24,29,10,331,20,7*7C
$GBGSV,3,1,11,24,65,293,27,35,64,089,22,26,58,138,27,44,49,189,22,1*72
$GBGSV,3,2,11,12,26,200,20,29,13,044,19,25,12,305,18,45,06,127,17,1*7F
$GBGSV,3,3,11,41,05,314,17,32,01,002,,34,01,212,15,1*47
$GNRMC,232716.000,A,4910.428402,N,12304.400526,W,0.02,132.56,070125,,,D,V*1B
$GNVTG,132.56,T,,M,0.02,N,0.04,K,D*23
$PAIRLOG,Full*51
$GNGGA,232717.000,4910.428444,N,12304.400346,W,2,30,0.47,5.926,M,-16.816,M,,*4B
$GNGLL,4910.428444,N,12304.400346,W,232717.000,A,D*55
$GNGSA,A,3,19,24,17,06,12,14,11,15,13,,,,0.77,0.47,0.61,1*0B
$GNGSA,A,3,75,85,76,66,,,,,,,,,0.77,0.47,0.61,2*08
$GNGSA,A,3,02,30,36,11,07,25,08,34,10,29,,,0.77,0.47,0.61,3*06
$GNGSA,A,3,24,35,26,44,29,45,41,,,,,,0.77,0.47,0.61,4*0B
$GPGSV,4,1,13,19,82,110,38,24,55,279,35,17,51,059,34,06,34,149,30,1*61
$GPGSV,4,2,13,46,33,188,28,12,26,283,31,14,26,098,27,11,09,176,25,1*6E
$GPGSV,4,3,13,15,07,235,23,13,05,203,20,03,04,062,17,02,04,029,18,1*62
$GPGSV,4,4,13,32,02,344,,1*56
$GLGSV,2,1,07,75,74,350,33,85,55,167,30,84,54,053,18,74,42,112,,1*70
$GLGSV,2,2,07,76,18,308,28,66,17,308,18,67,09,358,25,1*43
$GAGSV,3,1,10,02,76,068,31,30,45,286,29,36,44,114,30,11,31,051,22,7*7E
$GAGSV,3,2,10,07,27,280,24,25,24,094,25,08,17,226,25,34,17,166,22,7*79
$GAGSV,3,3,10,10,12,030,24,29,10,331,20,7*7C
$GBGSV,3,1,11,24,65,293,27,35,64,089,22,26,58,138,27,44,49,189,22,1*72
$GBGSV,3,2,11,12,26,200,20,29,13,044,19,25,12,305,18,45,06,127,17,1*7F
$GBGSV,3,3,11,41,05,314,17,34,02,212,15,32,01,002,,1*44
$GNRMC,232717.000,A,4910.428444,N,12304.400346,W,0.03,132.56,070125,,,D,V*19
$GNVTG,132.56,T,,M,0.03,N,0.05,K,D*23
$PAIRLOG,Full*51
$GNGGA,232718.000,4910.428504,N,12304.400172,W,2,30,0.47,5.878,M,-16.817,M,,*4F
$GNGLL,4910.428504,N,12304.400172,W,232718.000,A,D*5A
$GNGSA,A,3,19,24,17,06,12,14,11,15,13,,,,0.77,0.47,0.61,1*0B
$GNGSA,A,3,75,85,76,66,,,,,,,,,0.77,0.47,0.61,2*08
$GNGSA,A,3,02,30,36,11,07,25,08,34,10,29,,,0.77,0.47,0.61,3*06
$GNGSA,A,3,24,35,26,44,29,45,41,,,,,,0.77,0.47,0.61,4*0B
$GPGSV,4,1,13,19,82,110,38,24,55,279,35,17,51,059,34,06,34,149,30,1*61
$GPGSV,4,2,13,46,33,188,28,12,26,283,30,14,26,098,27,11,09,176,26,1*6C
$GPGSV,4,3,13,15,07,235,21,13,05,203,20,03,04,062,17,02,04,029,18,1*60
$GPGSV,4,4,13,32,02,344,,1*56
$GLGSV,2,1,07,75,74,350,33,85,55,167,30,84,54,053,18,74,42,112,,1*70
$GLGSV,2,2,07,76,18,308,28,66,17,308,19,67,09,358,25,1*42
$GAGSV,3,1,10,02,76,068,31,30,45,286,29,36,44,114,30,11,31,051,22,7*7E
$GAGSV,3,2,10,07,27,280,24,25,24,094,25,08,17,226,25,34,17,166,21,7*7A
$GAGSV,3,3,10,10,12,030,24,29,10,331,20,7*7C
$GBGSV,3,1,11,24,65,293,27,35,64,087,22,26,58,138,27,44,49,189,22,1*7C
$GBGSV,3,2,11,12,26,200,20,29,13,044,19,25,12,305,18,45,06,127,17,1*7F
$GBGSV,3,3,11,41,05,314,17,34,02,212,15,32,01,002,,1*44
$GNRMC,232718.000,A,4910.428504,N,12304.400172,W,0.03,132.56,070125,,,D,V*16
$GNVTG,132.56,T,,M,0.03,N,0.06,K,D*20
$PAIRLOG,Full*51
$GNGGA,232719.000,4910.428540,N,12304.400112,W,2,30,0.47,5.808,M,-16.816,M,,*4E
$GNGLL,4910.428540,N,12304.400112,W,232719.000,A,D*5D
$GNGSA,A,3,19,24,17,06,12,14,11,15,13,,,,0.77,0.47,0.61,1*0B
$GNGSA,A,3,75,85,76,66,,,,,,,,,0.77,0.47,0.61,2*08
$GNGSA,A,3,02,30,36,11,07,25,08,34,10,29,,,0.77,0.47,0.61,3*06
$GNGSA,A,3,24,35,26,44,29,45,41,,,,,,0.77,0.47,0.61,4*0B
$GPGSV,4,1,13,19,82,110,38,24,55,279,35,17,51,059,34,06,34,149,30,1*61
$GPGSV,4,2,13,46,33,188,28,12,26,283,30,14,26,098,28,11,09,176,26,1*63
$GPGSV,4,3,13,15,07,235,22,13,05,203,20,03,04,062,17,02,04,029,18,1*63
$GPGSV,4,4,13,32,02,344,,1*56
$GLGSV,2,1,07,75,74,350,33,85,55,167,30,84,54,053,18,74,42,112,,1*70
$GLGSV,2,2,07,76,18,308,28,66,17,308,19,67,09,358,25,1*42
$GAGSV,3,1,10,02,76,068,32,30,45,286,29,36,44,114,30,11,31,051,23,7*7C
$GAGSV,3,2,10,07,27,280,24,25,24,094,25,08,17,226,25,34,17,166,21,7*7A
$GAGSV,3,3,10,10,12,030,24,29,10,331,21,7*7D
$GBGSV,3,1,11,24,65,293,27,35,64,087,22,26,58,138,27,44,49,189,22,1*7C
$GBGSV,3,2,11,12,26,200,21,29,13,044,19,25,12,305,18,45,06,127,17,1*7E
$GBGSV,3,3,11,41,05,314,17,34,02,212,15,32,01,002,,1*44
$GNRMC,232719.000,A,4910.428540,N,12304.400112,W,0.03,132.56,070125,,,D,V*11
$GNVTG,132.56,T,,M,0.03,N,0.06,K,D*20
$PAIRLOG,Full*51
$GNGGA,232720.000,4910.428540,N,12304.400118,W,2,30,0.47,5.743,M,-16.816,M,,*4E
$GNGLL,4910.428540,N,12304.400118,W,232720.000,A,D*5D
$GNGSA,A,3,19,24,17,06,12,14,11,15,13,,,,0.77,0.47,0.61,1*0B
$GNGSA,A,3,75,85,76,66,,,,,,,,,0.77,0.47,0.61,2*08
$GNGSA,A,3,02,30,36,11,07,25,08,34,10,29,,,0.77,0.47,0.61,3*06
$GNGSA,A,3,24,35,26,44,29,45,41,,,,,,0.77,0.47,0.61,4*0B
$GPGSV,4,1,13,19,82,110,38,24,55,279,35,17,51,059,34,06,34,149,30,1*61
$GPGSV,4,2,13,46,33,188,28,12,26,283,30,14,26,098,28,11,09,176,26,1*63
$GPGSV,4,3,13,15,07,235,22,13,05,203,20,03,04,062,16,02,04,029,18,1*62
$GPGSV,4,4,13,32,02,344,,1*56
$GLGSV,2,1,07,75,74,350,33,85,55,167,31,84,54,053,18,74,42,112,,1*71
$GLGSV,2,2,07,76,18,308,29,66,17,308,19,67,09,358,25,1*43
$GAGSV,3,1,10,02,76,068,32,30,45,286,29,36,44,114,30,11,31,051,23,7*7C
$GAGSV,3,2,10,07,27,280,24,25,24,094,25,08,17,226,25,34,17,166,21,7*7A
$GAGSV,3,3,10,10,12,030,23,29,10,331,22,7*79
$GBGSV,3,1,11,24,65,293,27,35,64,087,21,26,58,138,26,44,49,189,21,1*7D
$GBGSV,3,2,11,12,26,200,20,29,13,044,19,25,12,305,18,45,06,127,17,1*7F
$GBGSV,3,3,11,41,05,314,17,34,02,212,15,32,01,002,,1*44
$GNRMC,232720.000,A,4910.428540,N,12304.400118,W,0.03,132.56,070125,,,D,V*11
$GNVTG,132.56,T,,M,0.03,N,0.05,K,D*23
$PAIRLOG,Full*51
$GNGGA,232721.000,4910.428522,N,12304.400112,W,2,30,0.47,5.687,M,-16.816,M,,*48
$GNGLL,4910.428522,N,12304.400112,W,232721.000,A,D*52
$GNGSA,A,3,19,24,17,06,12,14,11,15,13,,,,0.77,0.47,0.61,1*0B
$GNGSA,A,3,75,85,76,66,,,,,,,,,0.77,0.47,0.61,2*08
$GNGSA,A,3,02,30,36,11,07,25,08,34,10,29,,,0.77,0.47,0.61,3*06
$GNGSA,A,3,24,35,26,44,29,45,41,,,,,,0.77,0.47,0.61,4*0B
$GPGSV,4,1,13,19,82,110,38,24,55,279,35,17,51,059,34,06,34,149,30,1*61
$GPGSV,4,2,13,46,33,188,28,12,26,283,30,14,26,098,29,11,09,176,25,1*61
$GPGSV,4,3,13,15,07,235,22,13,05,203,20,03,04,062,17,02,04,029,18,1*63
$GPGSV,4,4,13,32,02,344,,1*56
$GLGSV,2,1,07,75,74,350,33,85,55,167,31,84,54,053,18,74,42,112,,1*71
$GLGSV,2,2,07,76,18,308,29,66,17,308,19,67,09,358,25,1*43
$GAGSV,3,1,10,02,76,068,32,30,45,286,29,36,44,114,30,11,31,051,23,7*7C
$GAGSV,3,2,10,07,27,280,24,25,24,094,25,08,17,226,25,34,17,166,21,7*7A
$GAGSV,3,3,10,10,12,030,23,29,10,331,22,7*79
$GBGSV,3,1,11,24,65,293,27,35,64,087,21,26,58,138,26,44,49,189,21,1*7D
$GBGSV,3,2,11,12,26,200,20,29,13,044,19,25,12,305,18,45,06,127,17,1*7F
$GBGSV,3,3,11,41,05,314,17,34,02,212,15,32,01,002,,1*44
$GNRMC,232721.000,A,4910.428522,N,12304.400112,W,0.02,132.56,070125,,,D,V*1F
$GNVTG,132.56,T,,M,0.02,N,0.04,K,D*23
$PAIRLOG,Full*51
$GNGGA,232722.000,4910.428534,N,12304.400094,W,2,30,0.47,5.696,M,-16.817,M,,*42
$GNGLL,4910.428534,N,12304.400094,W,232722.000,A,D*59
$GNGSA,A,3,19,24,17,06,12,14,11,15,13,,,,0.77,0.47,0.61,1*0B
$GNGSA,A,3,75,85,76,66,,,,,,,,,0.77,0.47,0.61,2*08
$GNGSA,A,3,02,30,36,11,07,25,08,34,10,29,,,0.77,0.47,0.61,3*06
$GNGSA,A,3,24,35,26,44,29,45,41,,,,,,0.77,0.47,0.61,4*0B
$GPGSV,4,1,13,19,82,110,38,24,55,279,36,17,51,059,34,06,34,149,30,1*62
$GPGSV,4,2,13,46,33,188,28,12,26,283,30,14,26,098,29,11,09,176,27,1*63
$GPGSV,4,3,13,15,07,235,22,13,05,203,21,03,04,062,17,02,04,029,18,1*62
$GPGSV,4,4,13,32,02,344,,1*56
$GLGSV,2,1,07,75,74,350,33,85,55,167,31,84,54,053,18,74,42,112,,1*71
$GLGSV,2,2,07,76,18,308,29,66,17,308,19,67,09,358,25,1*43
$GAGSV,3,1,10,02,76,068,33,30,45,286,29,36,44,114,30,11,31,051,23,7*7D
$GAGSV,3,2,10,07,27,280,24,25,24,094,25,08,17,226,25,34,17,166,21,7*7A
$GAGSV,3,3,10,10,12,030,23,29,10,331,22,7*79
$GBGSV,3,1,11,24,65,293,26,35,64,087,21,26,58,138,26,44,49,189,21,1*7C
$GBGSV,3,2,11,12,26,200,20,29,13,044,19,25,12,305,17,45,06,127,17,1*70
$GBGSV,3,3,11,41,05,314,16,34,02,212,15,32,01,002,,1*45
$GNRMC,232722.000,A,4910.428534,N,12304.400094,W,0.01,132.56,070125,,,D,V*17
$GNVTG,132.56,T,,M,0.01,N,0.03,K,D*27
$PAIRLOG,Full*51
$GNGGA,232723.000,4910.428522,N,12304.400112,W,2,30,0.47,5.700,M,-16.816,M,,*44
$GNGLL,4910.428522,N,12304.400112,W,232723.000,A,D*50
$GNGSA,A,3,19,24,17,06,12,14,11,15,13,,,,0.77,0.47,0.61,1*0B
$GNGSA,A,3,75,85,76,66,,,,,,,,,0.77,0.47,0.61,2*08
$GNGSA,A,3,02,30,36,11,07,25,08,34,10,29,,,0.77,0.47,0.61,3*06
$GNGSA,A,3,24,35,26,44,29,45,41,,,,,,0.77,0.47,0.61,4*0B
$GPGSV,4,1,13,19,82,110,38,24,55,279,36,17,51,059,34,06,34,149,30,1*62
$GPGSV,4,2,13,46,33,188,28,12,26,283,30,14,26,098,29,11,09,176,27,1*63
$GPGSV,4,3,13,15,07,235,23,13,05,203,21,02,04,029,18,03,04,062,16,1*62
$GPGSV,4,4,13,32,02,344,,1*56
$GLGSV,2,1,07,75,74,350,33,85,55,167,31,84,54,053,18,74,42,112,,1*71
$GLGSV,2,2,07,76,18,308,29,66,17,308,18,67,09,358,25,1*42
$GAGSV,3,1,10,02,76,068,33,30,45,286,29,36,44,114,30,11,31,051,23,7*7D
$GAGSV,3,2,10,07,27,280,25,25,24,094,25,08,17,226,25,34,17,166,22,7*78
$GAGSV,3,3,10,10,12,030,24,29,10,331,22,7*7E
$GBGSV,3,1,12,24,65,293,26,35,64,087,20,26,58,138,26,44,49,189,21,1*7E
$GBGSV,3,2,12,12,26,200,20,29,13,044,19,25,12,305,17,45,06,127,17,1*73
$GBGSV,3,3,12,41,05,314,16,34,02,212,15,32,01,002,,39,01,328,,1*74
$GNRMC,232723.000,A,4910.428522,N,12304.400112,W,0.01,132.56,070125,,,D,V*1E
$GNVTG,132.56,T,,M,0.01,N,0.02,K,D*26
$PAIRLOG,Full*51
$GNGGA,232724.000,4910.428558,N,12304.400112,W,2,30,0.47,5.656,M,-16.816,M,,*4C
$GNGLL,4910.428558,N,12304.400112,W,232724.000,A,D*5A
$GNGSA,A,3,19,24,17,06,12,14,11,15,13,,,,0.77,0.47,0.61,1*0B
$GNGSA,A,3,75,85,76,66,,,,,,,,,0.77,0.47,0.61,2*08
$GNGSA,A,3,02,30,36,11,07,25,08,34,10,29,,,0.77,0.47,0.61,3*06
$GNGSA,A,3,24,35,26,44,29,45,41,,,,,,0.77,0.47,0.61,4*0B
$GPGSV,4,1,13,19,82,110,38,24,55,279,36,17,51,059,34,06,34,149,30,1*62
$GPGSV,4,2,13,46,33,188,28,12,26,283,31,14,26,098,29,11,09,176,27,1*62
$GPGSV,4,3,13,15,07,235,23,13,05,203,21,02,04,029,18,03,04,062,16,1*62
$GPGSV,4,4,13,32,02,344,,1*56
$GLGSV,2,1,07,75,74,350,34,85,55,167,31,84,54,053,18,74,42,112,,1*76
$GLGSV,2,2,07,76,18,308,29,66,17,308,18,67,09,358,25,1*42
$GAGSV,3,1,10,02,76,068,33,30,45,286,29,36,44,114,30,11,31,051,23,7*7D
$GAGSV,3,2,10,07,27,280,26,25,24,094,26,08,17,226,25,34,17,166,22,7*78
$GAGSV,3,3,10,10,12,030,24,29,10,331,23,7*7F
$GBGSV,3,1,12,24,65,293,26,35,64,087,19,26,58,138,26,44,49,189,21,1*74
$GBGSV,3,2,12,12,26,200,20,29,13,044,19,25,12,305,17,45,06,127,17,1*73
$GBGSV,3,3,12,41,05,313,16,34,02,212,15,32,01,002,,39,01,328,,1*73
$GNRMC,232724.000,A,4910.428558,N,12304.400112,W,0.01,132.56,070125,,,D,V*14
$GNVTG,132.56,T,,M,0.01,N,0.01,K,D*25
$PAIRLOG,Full*51
$GNGGA,232725.000,4910.428582,N,12304.400076,W,2,30,0.47,5.565,M,-16.817,M,,*4B
$GNGLL,4910.428582,N,12304.400076,W,232725.000,A,D*5F
$GNGSA,A,3,19,24,17,06,12,14,11,15,13,,,,0.77,0.47,0.61,1*0B
$GNGSA,A,3,75,85,76,66,,,,,,,,,0.77,0.47,0.61,2*08
$GNGSA,A,3,02,30,36,11,07,25,08,34,10,29,,,0.77,0.47,0.61,3*06
$GNGSA,A,3,24,35,26,44,29,45,41,,,,,,0.77,0.47,0.61,4*0B
$GPGSV,4,1,13,19,82,110,38,24,55,279,36,17,51,059,34,06,34,149,30,1*62
$GPGSV,4,2,13,46,33,188,28,12,26,283,31,14,26,098,30,11,09,176,26,1*6B
$GPGSV,4,3,13,15,07,235,23,13,05,203,22,02,04,029,18,03,04,062,15,1*62
$GPGSV,4,4,13,32,02,344,,1*56
$GLGSV,2,1,07,75,74,350,33,85,55,167,31,84,54,053,18,74,42,112,,1*71
$GLGSV,2,2,07,76,18,308,29,66,17,308,18,67,09,358,25,1*42
$GAGSV,3,1,10,02,76,068,33,30,45,286,29,36,44,114,30,11,31,051,23,7*7D
$GAGSV,3,2,10,07,27,280,26,25,24,094,25,08,17,226,25,34,17,166,22,7*7B
$GAGSV,3,3,10,10,12,030,24,29,10,331,23,7*7F
$GBGSV,3,1,12,24,65,293,26,35,64,087,19,26,58,138,26,44,49,189,21,1*74
$GBGSV,3,2,12,12,26,200,19,29,13,044,19,25,12,305,17,45,06,127,17,1*79
$GBGSV,3,3,12,41,05,313,16,34,02,212,15,32,01,002,,39,01,328,,1*73
$GNRMC,232725.000,A,4910.428582,N,12304.400076,W,0.01,132.56,070125,,,D,V*11
$GNVTG,132.56,T,,M,0.01,N,0.01,K,D*25
$PAIRLOG,Full*51
$GNGGA,232726.000,4910.428600,N,12304.400100,W,2,30,0.47,5.501,M,-16.816,M,,*42
$GNGLL,4910.428600,N,12304.400100,W,232726.000,A,D*55
$GNGSA,A,3,19,24,17,06,12,14,11,15,13,,,,0.77,0.47,0.61,1*0B
$GNGSA,A,3,75,85,76,66,,,,,,,,,0.77,0.47,0.61,2*08
$GNGSA,A,3,02,30,36,11,07,25,34,08,10,29,,,0.77,0.47,0.61,3*06
$GNGSA,A,3,24,35,26,44,29,45,41,,,,,,0.77,0.47,0.61,4*0B
$GPGSV,4,1,13,19,82,110,38,24,55,279,36,17,51,059,34,06,34,149,29,1*6A
$GPGSV,4,2,13,46,33,188,28,12,26,283,31,14,26,098,30,11,09,176,26,1*6B
$GPGSV,4,3,13,15,07,235,23,13,05,203,22,02,04,029,18,03,04,062,14,1*63
$GPGSV,4,4,13,32,02,344,,1*56
$GLGSV,2,1,06,75,74,350,32,85,55,167,31,84,54,053,18,76,18,308,29,1*7E
$GLGSV,2,2,06,66,17,308,18,67,09,358,25,1*7B
$GAGSV,3,1,10,02,76,068,33,30,45,286,29,36,44,114,30,11,31,051,23,7*7D
$GAGSV,3,2,10,07,27,280,25,25,24,094,25,34,17,166,22,08,17,226,25,7*78
$GAGSV,3,3,10,10,12,030,24,29,10,331,23,7*7F
$GBGSV,3,1,12,24,65,293,24,35,64,087,18,26,58,138,24,44,49,189,20,1*74
$GBGSV,3,2,12,12,26,200,18,29,13,044,18,25,12,305,16,45,06,127,16,1*79
$GBGSV,3,3,12,41,05,313,15,34,02,212,15,32,01,002,,39,01,328,,1*70
$GNRMC,232726.000,A,4910.428600,N,12304.400100,W,0.01,132.56,070125,,,D,V*1B
$GNVTG,132.56,T,,M,0.01,N,0.01,K,D*25
$PAIRLOG,Full*51
$GNGGA,232727.000,4910.428594,N,12304.400088,W,2,30,0.47,5.397,M,-16.816,M,,*45
$GNGLL,4910.428594,N,12304.400088,W,232727.000,A,D*5B
$GNGSA,A,3,19,24,17,06,12,14,11,15,13,,,,0.77,0.47,0.61,1*0B
$GNGSA,A,3,75,85,76,66,,,,,,,,,0.77,0.47,0.61,2*08
$GNGSA,A,3,02,30,36,11,07,25,08,34,10,29,,,0.77,0.47,0.61,3*06
$GNGSA,A,3,24,35,26,44,29,45,41,,,,,,0.77,0.47,0.61,4*0B
$GPGSV,4,1,13,19,82,110,38,24,55,279,36,17,51,059,34,06,34,149,29,1*6A
$GPGSV,4,2,13,46,33,188,28,12,26,283,30,14,26,098,30,11,09,176,26,1*6A
$GPGSV,4,3,13,15,07,235,23,13,05,203,21,02,04,029,18,03,04,062,16,1*62
$GPGSV,4,4,13,32,02,344,17,1*50
$GLGSV,2,1,07,75,74,350,32,85,55,167,31,84,54,053,18,74,42,112,,1*70
$GLGSV,2,2,07,76,18,308,28,66,17,308,18,67,09,358,25,1*43
$GAGSV,3,1,10,02,76,068,33,30,45,286,29,36,44,114,30,11,31,051,23,7*7D
$GAGSV,3,2,10,07,27,280,24,25,24,094,25,08,17,226,25,34,17,166,21,7*7A
$GAGSV,3,3,10,10,12,030,23,29,10,331,23,7*78
$GBGSV,3,1,12,24,65,293,26,35,64,087,18,26,58,138,25,44,50,189,20,1*7F
$GBGSV,3,2,12,12,26,200,18,29,13,044,19,25,12,305,16,45,06,127,16,1*78
$GBGSV,3,3,12,41,05,313,15,34,02,212,14,32,01,002,,39,01,328,,1*71
$GNRMC,232727.000,A,4910.428594,N,12304.400088,W,0.01,132.56,070125,,,D,V*15
$GNVTG,132.56,T,,M,0.01,N,0.02,K,D*26
$PAIRLOG,Full*51
$GNGGA,232728.000,4910.428594,N,12304.400130,W,2,30,0.47,5.305,M,-16.816,M,,*43
$GNGLL,4910.428594,N,12304.400130,W,232728.000,A,D*56
$GNGSA,A,3,19,24,17,06,12,14,11,15,13,,,,0.77,0.47,0.61,1*0B
$GNGSA,A,3,75,85,76,66,,,,,,,,,0.77,0.47,0.61,2*08
$GNGSA,A,3,02,30,36,11,07,25,08,34,10,29,,,0.77,0.47,0.61,3*06
$GNGSA,A,3,24,35,26,44,29,41,45,,,,,,0.77,0.47,0.61,4*0B
$GPGSV,4,1,13,19,82,110,38,24,55,279,36,17,51,059,34,06,34,149,29,1*6A
$GPGSV,4,2,13,46,33,188,28,12,26,283,30,14,26,098,30,11,09,176,27,1*6B
$GPGSV,4,3,13,15,07,235,22,13,05,203,22,02,04,029,18,03,04,062,16,1*60
$GPGSV,4,4,13,32,02,344,15,1*52
$GLGSV,2,1,07,75,74,350,32,85,55,167,31,84,54,053,18,74,42,112,,1*70
$GLGSV,2,2,07,76,18,308,28,66,17,308,18,67,09,358,25,1*43
$GAGSV,3,1,10,02,76,068,33,30,45,286,29,36,44,114,30,11,31,051,23,7*7D
$GAGSV,3,2,10,07,27,280,24,25,24,094,25,08,17,226,25,34,17,166,21,7*7A
$GAGSV,3,3,10,10,12,030,24,29,10,331,24,7*78
$GBGSV,3,1,12,24,65,293,25,35,64,087,17,26,58,138,24,44,50,189,19,1*78
$GBGSV,3,2,12,12,26,200,18,29,13,044,19,25,12,305,16,41,05,313,14,1*78
$GBGSV,3,3,12,45,05,127,15,34,02,212,14,32,01,002,,39,01,328,,1*70
$GNRMC,232728.000,A,4910.428594,N,12304.400130,W,0.01,132.56,070125,,,D,V*18
$GNVTG,132.56,T,,M,0.01,N,0.01,K,D*25
$PAIRLOG,Full*51
$GNGGA,232729.000,4910.428522,N,12304.400292,W,2,30,0.47,5.246,M,-16.816,M,,*42
$GNGLL,4910.428522,N,12304.400292,W,232729.000,A,D*51
$GNGSA,A,3,19,24,17,06,12,14,11,15,13,,,,0.77,0.47,0.61,1*0B
$GNGSA,A,3,75,85,76,66,,,,,,,,,0.77,0.47,0.61,2*08
$GNGSA,A,3,02,30,36,11,07,25,08,34,10,29,,,0.77,0.47,0.61,3*06
$GNGSA,A,3,24,35,26,44,29,41,45,,,,,,0.77,0.47,0.61,4*0B
$GPGSV,4,1,13,19,82,110,39,24,55,279,37,17,51,059,35,06,34,149,30,1*63
$GPGSV,4,2,13,46,33,188,29,12,26,283,31,14,26,098,31,11,09,176,28,1*65
$GPGSV,4,3,13,15,07,235,23,13,05,203,25,02,04,029,19,03,04,062,17,1*66
$GPGSV,4,4,13,32,02,344,17,1*50
$GLGSV,2,1,07,75,74,350,33,85,55,167,31,84,54,053,18,74,42,112,,1*71
$GLGSV,2,2,07,76,18,308,28,66,17,308,18,67,09,358,25,1*43
$GAGSV,3,1,10,02,76,068,34,30,45,286,30,36,44,114,31,11,31,051,23,7*73
$GAGSV,3,2,10,07,27,280,25,25,24,094,26,08,17,226,26,34,17,166,22,7*78
$GAGSV,3,3,10,10,12,030,25,29,10,331,25,7*78
$GBGSV,3,1,12,24,65,293,25,35,64,087,18,26,58,138,24,44,50,189,22,1*7F
$GBGSV,3,2,12,12,26,200,18,29,13,044,19,25,12,305,16,41,05,313,13,1*7F
$GBGSV,3,3,12,45,05,127,15,34,02,212,14,32,01,002,,39,01,328,,1*70
$GNRMC,232729.000,A,4910.428522,N,12304.400292,W,0.01,132.56,070125,,,D,V*1F
$GNVTG,132.56,T,,M,0.01,N,0.02,K,D*26
$PAIRLOG,Full*51
$GNGGA,232730.000,4910.428438,N,12304.400382,W,2,30,0.47,5.163,M,-16.816,M,,*44
$GNGLL,4910.428438,N,12304.400382,W,232730.000,A,D*53
$GNGSA,A,3,19,24,17,06,12,14,11,15,13,,,,0.77,0.47,0.61,1*0B
$GNGSA,A,3,75,85,76,66,,,,,,,,,0.77,0.47,0.61,2*08
$GNGSA,A,3,02,30,36,11,07,25,08,34,10,29,,,0.77,0.47,0.61,3*06
$GNGSA,A,3,24,35,26,44,29,41,45,,,,,,0.77,0.47,0.61,4*0B
$GPGSV,4,1,13,19,82,110,39,24,55,279,37,17,51,059,35,06,34,149,31,1*62
$GPGSV,4,2,13,46,33,188,29,12,26,283,32,14,26,098,31,11,09,176,28,1*66
$GPGSV,4,3,13,15,07,235,24,13,05,203,25,02,04,029,19,03,04,062,17,1*61
$GPGSV,4,4,13,32,02,344,18,1*5F
$GLGSV,2,1,07,75,74,350,33,85,55,167,32,84,54,053,19,74,42,112,,1*73
$GLGSV,2,2,07,76,18,308,28,66,17,308,19,67,09,358,26,1*41
$GAGSV,3,1,10,02,76,068,35,30,45,286,31,36,44,114,31,11,31,051,24,7*74
$GAGSV,3,2,10,07,27,280,26,25,24,094,27,08,17,226,27,34,17,166,23,7*7A
$GAGSV,3,3,10,10,12,030,25,29,10,331,26,7*7B
$GBGSV,3,1,12,24,65,293,26,35,64,087,19,26,58,138,25,44,50,189,24,1*7A
$GBGSV,3,2,12,12,26,200,19,29,13,044,19,25,12,305,16,41,05,313,17,1*7A
$GBGSV,3,3,12,45,05,127,16,34,02,212,14,32,01,002,,39,01,328,,1*73
$GNRMC,232730.000,A,4910.428438,N,12304.400382,W,0.01,132.56,070125,,,D,V*1D
$GNVTG,132.56,T,,M,0.01,N,0.02,K,D*26
$PAIRLOG,Full*51
$GNGGA,232731.000,4910.428402,N,12304.400442,W,2,30,0.47,5.086,M,-16.817,M,,*4C
