$GNRMC,232701.000,A,4910.426938,N,12304.404018,W,0.01,0.00,070125,,,D,V*1B
$GNGGA,232701.000,4910.426938,N,12304.404018,W,2,40,0.52,21.407,M,-16.816,M,,*73
$GNVTG,0.00,T,,M,0.01,N,0.02,K,D*25
$GNGSA,A,3,19,24,17,06,12,14,11,15,13,,,,0.85,0.52,0.67,1*04
$GNGSA,A,3,75,85,,,,,,,,,,,0.85,0.52,0.67,2*06
$GNGSA,A,3,02,30,36,11,07,25,08,34,10,29,,,0.85,0.52,0.67,3*09
$GNGSA,A,3,24,35,26,44,29,,,,,,,,0.85,0.52,0.67,4*00
$GPGSV,4,1,13,19,82,113,40,24,54,280,39,17,50,059,35,06,35,148,35,1*63
$GPGSV,4,2,13,44,33,171,33,12,27,284,34,14,25,098,32,11,09,175,30,1*63
$GPGSV,4,3,13,15,06,235,27,13,05,203,21,03,04,061,18,02,04,029,20,1*61
$GPGSV,4,4,13,32,02,344,15,1*52
$GPGSV,1,1,04,24,54,280,27,06,35,148,22,14,25,098,21,11,09,175,19,8*6E
$GLGSV,1,1,03,75,74,348,32,84,55,053,,85,54,167,24,1*44
$GAGSV,3,1,10,02,76,067,37,30,45,286,35,36,44,114,33,11,31,051,28,7*73
$GAGSV,3,2,10,07,28,281,28,25,24,094,29,08,17,227,29,34,16,166,27,7*7E
$GAGSV,3,3,10,10,13,030,28,29,10,332,25,7*77
$GAGSV,2,1,06,02,76,067,24,30,45,286,25,36,44,114,25,11,31,051,16,1*7A
$GAGSV,2,2,06,07,28,281,21,08,17,227,16,1*78
$GBGSV,3,1,10,24,65,294,30,35,64,088,31,26,59,137,29,44,50,189,29,1*72
$GBGSV,3,2,10,12,26,200,24,29,13,044,24,25,11,305,19,45,05,127,16,1*74
$GBGSV,3,3,10,41,05,314,19,34,02,212,16,1*7A
$GBGSV,1,1,04,24,65,294,27,35,64,088,24,26,59,137,26,44,50,189,26,5*73
$GNGLL,4910.426938,N,12304.404018,W,232701.000,A,D*56
$GNRMC,232702.000,A,4910.427004,N,12304.404036,W,0.01,0.00,070125,,,D,V*13
$GNGGA,232702.000,4910.427004,N,12304.404036,W,2,40,0.52,21.439,M,-16.816,M,,*76
$GNVTG,0.00,T,,M,0.01,N,0.02,K,D*25
$GNGSA,A,3,19,24,17,06,12,14,11,15,13,,,,0.85,0.52,0.67,1*04
$GNGSA,A,3,75,85,,,,,,,,,,,0.85,0.52,0.67,2*06
$GNGSA,A,3,02,30,36,11,07,25,08,34,10,29,,,0.85,0.52,0.67,3*09
$GNGSA,A,3,24,35,26,44,29,,,,,,,,0.85,0.52,0.67,4*00
$GPGSV,4,1,13,19,82,104,40,24,54,280,39,17,50,059,35,06,35,148,35,1*65
$GPGSV,4,2,13,44,33,171,33,12,27,284,34,14,25,098,32,11,09,175,30,1*63
$GPGSV,4,3,13,15,06,235,27,13,05,203,21,03,04,061,18,02,04,029,21,1*60
$GPGSV,4,4,13,32,02,344,15,1*52
$GPGSV,1,1,04,24,54,280,27,06,35,148,22,14,25,098,21,11,09,175,19,8*6E
$GLGSV,1,1,03,75,74,348,32,84,55,053,,85,54,167,25,1*45
$GAGSV,3,1,10,02,76,067,37,30,45,286,35,36,44,114,33,11,31,051,28,7*73
$GAGSV,3,2,10,07,28,281,28,25,24,094,29,08,17,227,29,34,16,166,27,7*7E
$GAGSV,3,3,10,10,13,030,28,29,10,332,25,7*77
$GAGSV,2,1,06,02,76,067,25,30,45,286,25,36,44,114,25,11,31,051,16,1*7B
$GAGSV,2,2,06,07,28,281,21,08,17,227,16,1*78
$GBGSV,3,1,11,24,65,294,30,35,64,088,31,26,59,137,29,44,50,189,29,1*73
$GBGSV,3,2,11,12,26,200,24,29,13,044,24,25,11,305,19,45,05,127,16,1*75
$GBGSV,3,3,11,41,05,314,19,34,02,212,16,32,01,002,,1*49
$GBGSV,1,1,04,24,65,294,27,35,64,088,24,26,59,137,26,44,50,189,26,5*73
$GNGLL,4910.427004,N,12304.404036,W,232702.000,A,D*5E
$GNRMC,232703.000,A,4910.427028,N,12304.403976,W,0.01,0.00,070125,,,D,V*16
$GNGGA,232703.000,4910.427028,N,12304.403976,W,2,40,0.52,21.369,M,-16.817,M,,*70
$GNVTG,0.00,T,,M,0.01,N,0.01,K,D*26
$GNGSA,A,3,19,24,17,06,12,14,11,15,13,,,,0.85,0.52,0.67,1*04
$GNGSA,A,3,75,85,,,,,,,,,,,0.85,0.52,0.67,2*06
$GNGSA,A,3,02,30,36,11,07,25,08,34,10,29,,,0.85,0.52,0.67,3*09
$GNGSA,A,3,24,35,26,44,29,,,,,,,,0.85,0.52,0.67,4*00
$GPGSV,4,1,13,19,82,104,40,24,54,280,39,17,50,059,35,06,35,148,35,1*65
$GPGSV,4,2,13,44,33,171,32,12,27,284,34,14,25,098,32,11,09,175,30,1*62
$GPGSV,4,3,13,15,06,235,26,13,05,203,21,03,04,061,17,02,04,029,21,1*6E
$GPGSV,4,4,13,32,02,344,15,1*52
$GPGSV,1,1,04,24,54,280,27,06,35,148,22,14,25,098,21,11,09,175,19,8*6E
$GLGSV,1,1,03,75,74,348,31,84,55,053,,85,54,167,25,1*46
$GAGSV,3,1,10,02,76,067,37,30,45,286,35,36,44,114,33,11,31,051,28,7*73
$GAGSV,3,2,10,07,28,281,28,25,24,094,29,08,17,227,29,34,16,166,27,7*7E
$GAGSV,3,3,10,10,13,030,28,29,10,332,25,7*77
$GAGSV,2,1,06,02,76,067,25,30,45,286,25,36,44,114,25,11,31,051,16,1*7B
$GAGSV,2,2,06,07,28,281,21,08,17,227,16,1*78
$GBGSV,3,1,10,24,65,294,29,35,64,088,31,26,59,137,29,44,50,189,29,1*7A
$GBGSV,3,2,10,12,26,200,24,29,13,044,24,25,11,305,19,45,05,127,16,1*74
$GBGSV,3,3,10,41,05,314,18,34,02,212,16,1*7B
$GBGSV,1,1,04,24,65,294,27,35,64,088,24,26,59,137,27,44,50,189,26,5*72
$GNGLL,4910.427028,N,12304.403976,W,232703.000,A,D*5B
$GNRMC,232704.000,A,4910.426998,N,12304.403958,W,0.01,0.00,070125,,,D,V*1E
$GNGGA,232704.000,4910.426998,N,12304.403958,W,2,40,0.52,21.256,M,-16.816,M,,*74
$GNVTG,0.00,T,,M,0.01,N,0.02,K,D*25
$GNGSA,A,3,19,24,17,06,12,14,11,15,13,,,,0.85,0.52,0.67,1*04
$GNGSA,A,3,75,85,,,,,,,,,,,0.85,0.52,0.67,2*06
$GNGSA,A,3,02,30,36,11,07,25,08,34,10,29,,,0.85,0.52,0.67,3*09
$GNGSA,A,3,24,35,26,44,29,,,,,,,,0.85,0.52,0.67,4*00
$GPGSV,4,1,13,19,82,104,40,24,54,280,38,17,50,059,35,06,35,148,34,1*65
$GPGSV,4,2,13,44,33,171,31,12,27,284,33,14,25,098,32,11,09,175,30,1*66
$GPGSV,4,3,13,15,06,235,26,13,05,203,21,03,04,061,16,02,04,029,21,1*6F
$GPGSV,4,4,13,32,02,344,14,1*53
$GPGSV,1,1,04,24,54,280,27,06,35,148,22,14,25,098,21,11,09,175,19,8*6E
$GLGSV,1,1,02,75,74,348,30,85,54,167,24,1*7D
$GAGSV,3,1,10,02,76,067,37,30,45,286,34,36,44,114,32,11,31,051,27,7*7C
$GAGSV,3,2,10,07,28,281,28,25,24,094,29,08,17,227,28,34,16,166,27,7*7F
$GAGSV,3,3,10,10,13,030,28,29,10,332,25,7*77
$GAGSV,2,1,06,02,76,067,25,30,45,286,25,36,44,114,25,11,31,051,16,1*7B
$GAGSV,2,2,06,07,28,281,21,08,17,227,16,1*78
$GBGSV,3,1,10,24,65,294,28,35,64,088,30,26,59,137,28,44,50,189,28,1*7A
$GBGSV,3,2,10,12,26,200,23,29,13,044,23,25,11,305,19,45,05,127,16,1*74
$GBGSV,3,3,10,41,05,314,18,34,02,212,16,1*7B
$GBGSV,1,1,04,24,65,294,27,35,64,088,24,26,59,137,27,44,50,189,26,5*72
$GNGLL,4910.426998,N,12304.403958,W,232704.000,A,D*53
$GNRMC,232705.000,A,4910.426986,N,12304.403982,W,0.01,0.00,070125,,,D,V*17
$GNGGA,232705.000,4910.426986,N,12304.403982,W,2,40,0.52,21.182,M,-16.816,M,,*77
$GNVTG,0.00,T,,M,0.01,N,0.02,K,D*25
$GNGSA,A,3,19,24,17,06,12,14,11,15,13,,,,0.85,0.52,0.67,1*04
$GNGSA,A,3,75,85,,,,,,,,,,,0.85,0.52,0.67,2*06
$GNGSA,A,3,02,30,36,11,07,25,08,34,10,29,,,0.85,0.52,0.67,3*09
$GNGSA,A,3,24,35,26,44,29,,,,,,,,0.85,0.52,0.67,4*00
$GPGSV,4,1,13,19,82,104,40,24,54,280,38,17,50,059,35,06,35,148,33,1*62
$GPGSV,4,2,13,44,33,171,31,12,27,284,33,14,25,098,31,11,09,175,29,1*6D
$GPGSV,4,3,13,15,06,235,26,13,05,203,21,03,04,061,16,02,04,029,21,1*6F
$GPGSV,4,4,13,32,02,344,14,1*53
$GPGSV,1,1,04,24,54,280,28,06,35,148,22,14,25,098,21,11,09,175,19,8*61
$GLGSV,1,1,02,75,74,348,31,85,54,167,24,1*7C
$GAGSV,3,1,10,02,76,067,37,30,45,286,34,36,44,114,31,11,31,051,27,7*7F
$GAGSV,3,2,10,07,28,281,27,25,24,094,28,08,17,227,28,34,16,166,27,7*71
$GAGSV,3,3,10,10,13,030,28,29,10,332,25,7*77
$GAGSV,2,1,06,02,76,067,25,30,45,286,26,36,44,114,25,11,31,051,16,1*78
$GAGSV,2,2,06,07,28,281,21,08,17,227,16,1*78
$GBGSV,3,1,10,24,65,294,28,35,64,088,30,26,59,137,28,44,50,189,28,1*7A
$GBGSV,3,2,10,12,26,200,23,29,13,044,23,25,11,305,19,45,05,127,16,1*74
$GBGSV,3,3,10,41,05,314,18,34,02,212,16,1*7B
$GBGSV,1,1,04,24,65,294,27,35,64,088,24,26,59,137,27,44,50,189,26,5*72
$GNGLL,4910.426986,N,12304.403982,W,232705.000,A,D*5A
$GNRMC,232706.000,A,4910.427022,N,12304.404006,W,0.01,0.00,070125,,,D,V*10
$GNGGA,232706.000,4910.427022,N,12304.404006,W,2,40,0.52,21.176,M,-16.816,M,,*7B
$GNVTG,0.00,T,,M,0.01,N,0.02,K,D*25
$GNGSA,A,3,19,24,17,06,12,14,11,15,13,,,,0.85,0.52,0.67,1*04
$GNGSA,A,3,75,85,,,,,,,,,,,0.85,0.52,0.67,2*06
$GNGSA,A,3,02,30,36,11,07,25,08,34,10,29,,,0.85,0.52,0.67,3*09
$GNGSA,A,3,24,35,26,44,29,,,,,,,,0.85,0.52,0.67,4*00
$GPGSV,4,1,13,19,82,104,40,24,54,280,38,17,50,059,35,06,35,148,34,1*65
$GPGSV,4,2,13,44,33,171,32,12,27,284,33,14,25,098,31,11,09,175,29,1*6E
$GPGSV,4,3,13,15,06,235,26,13,05,203,22,03,04,061,16,02,04,029,21,1*6C
$GPGSV,4,4,13,32,02,344,14,1*53
$GPGSV,1,1,04,24,54,280,28,06,35,148,22,14,25,098,21,11,09,175,19,8*61
$GLGSV,1,1,02,75,74,348,30,85,54,167,23,1*7A
$GAGSV,3,1,10,02,76,067,37,30,45,286,34,36,44,114,31,11,31,051,28,7*70
$GAGSV,3,2,10,07,28,281,28,25,24,094,28,08,17,227,29,34,16,166,27,7*7F
$GAGSV,3,3,10,10,13,030,28,29,10,332,25,7*77
$GAGSV,2,1,06,02,76,067,25,30,45,286,26,36,44,114,25,11,31,051,15,1*7B
$GAGSV,2,2,06,07,28,281,21,08,17,227,17,1*79
$GBGSV,3,1,10,24,65,294,28,35,64,088,30,26,59,137,28,44,50,189,28,1*7A
$GBGSV,3,2,10,12,26,200,23,29,13,044,23,25,11,305,19,45,05,127,16,1*74
$GBGSV,3,3,10,41,05,314,18,34,02,212,16,1*7B
$GBGSV,1,1,04,24,65,294,27,35,64,088,24,26,59,137,26,44,50,189,26,5*73
$GNGLL,4910.427022,N,12304.404006,W,232706.000,A,D*5D
$GNRMC,232707.000,A,4910.427004,N,12304.404024,W,0.01,0.00,070125,,,D,V*15
$GNGGA,232707.000,4910.427004,N,12304.404024,W,2,40,0.52,21.125,M,-16.817,M,,*79
$GNVTG,0.00,T,,M,0.01,N,0.01,K,D*26
$GNGSA,A,3,19,24,17,06,12,14,11,15,13,,,,0.85,0.52,0.67,1*04
$GNGSA,A,3,75,85,,,,,,,,,,,0.85,0.52,0.67,2*06
$GNGSA,A,3,02,30,36,11,07,25,08,34,10,29,,,0.85,0.52,0.67,3*09
$GNGSA,A,3,24,35,26,44,29,,,,,,,,0.85,0.52,0.67,4*00
$GPGSV,4,1,13,19,82,104,40,24,55,278,38,17,50,059,35,06,35,148,34,1*63
$GPGSV,4,2,13,44,33,171,32,12,27,284,33,14,25,098,31,11,09,175,29,1*6E
$GPGSV,4,3,13,15,06,235,25,13,05,203,22,03,04,061,16,02,04,029,21,1*6F
$GPGSV,4,4,13,32,02,344,14,1*53
$GPGSV,1,1,04,24,55,278,28,06,35,148,22,14,25,098,21,11,09,175,19,8*67
$GLGSV,1,1,02,75,74,348,30,85,54,167,24,1*7D
$GAGSV,3,1,10,02,76,067,37,30,45,286,34,36,44,114,32,11,31,051,28,7*73
$GAGSV,3,2,10,07,28,281,28,25,24,094,28,08,17,227,29,34,16,166,26,7*7E
$GAGSV,3,3,10,10,13,030,28,29,10,332,25,7*77
$GAGSV,2,1,06,02,76,067,25,30,45,286,26,36,44,114,25,11,31,051,15,1*7B
$GAGSV,2,2,06,07,28,281,21,08,17,227,18,1*76
$GBGSV,3,1,10,24,65,294,27,35,64,088,29,26,59,137,26,44,50,189,27,1*7C
$GBGSV,3,2,10,12,26,200,22,29,13,044,22,25,11,305,18,45,05,127,15,1*76
$GBGSV,3,3,10,41,05,314,17,34,02,212,16,1*74
$GBGSV,1,1,04,24,65,294,27,35,64,088,24,26,59,137,26,44,50,189,26,5*73
$GNGLL,4910.427004,N,12304.404024,W,232707.000,A,D*58
$GNRMC,232708.000,A,4910.427034,N,12304.404060,W,0.01,0.00,070125,,,D,V*19
$GNGGA,232708.000,4910.427034,N,12304.404060,W,2,40,0.52,21.088,M,-16.816,M,,*72
$GNVTG,0.00,T,,M,0.01,N,0.02,K,D*25
$GNGSA,A,3,19,24,17,06,12,14,11,15,13,,,,0.85,0.52,0.67,1*04
$GNGSA,A,3,75,85,,,,,,,,,,,0.85,0.52,0.67,2*06
$GNGSA,A,3,02,30,36,11,07,25,08,34,10,29,,,0.85,0.52,0.67,3*09
$GNGSA,A,3,24,35,26,44,29,,,,,,,,0.85,0.52,0.67,4*00
$GPGSV,4,1,13,19,82,104,40,24,55,278,38,17,50,059,35,06,35,148,34,1*63
$GPGSV,4,2,13,44,33,171,32,12,27,284,33,14,25,098,31,11,09,175,29,1*6E
$GPGSV,4,3,13,15,06,235,26,13,05,203,22,03,04,061,16,02,04,029,21,1*6C
$GPGSV,4,4,13,32,02,344,14,1*53
$GPGSV,1,1,04,24,55,278,28,06,35,148,22,14,25,098,21,11,09,175,20,8*6D
$GLGSV,1,1,02,75,74,348,30,85,54,167,24,1*7D
$GAGSV,3,1,10,02,76,067,37,30,45,286,34,36,44,114,32,11,31,051,28,7*73
$GAGSV,3,2,10,07,28,281,28,25,24,094,28,08,17,227,29,34,16,166,26,7*7E
$GAGSV,3,3,10,10,13,030,28,29,10,332,25,7*77
$GAGSV,2,1,06,02,76,067,26,30,45,286,26,36,44,114,25,11,31,051,16,1*7B
$GAGSV,2,2,06,07,28,281,22,08,17,227,18,1*75
$GBGSV,3,1,10,24,65,294,27,35,64,088,29,26,59,137,27,44,50,189,27,1*7D
$GBGSV,3,2,10,12,26,200,22,29,13,044,22,25,11,305,18,45,05,127,15,1*76
$GBGSV,3,3,10,41,05,314,17,34,02,212,16,1*74
$GBGSV,1,1,04,24,65,294,28,35,64,088,24,26,59,137,27,44,50,189,27,5*7C
$GNGLL,4910.427034,N,12304.404060,W,232708.000,A,D*54
$GNRMC,232709.000,A,4910.427010,N,12304.404078,W,0.01,0.00,070125,,,D,V*17
$GNGGA,232709.000,4910.427010,N,12304.404078,W,2,40,0.52,21.091,M,-16.816,M,,*74
$GNVTG,0.00,T,,M,0.01,N,0.01,K,D*26
$GNGSA,A,3,19,24,17,06,12,14,11,15,13,,,,0.85,0.52,0.67,1*04
$GNGSA,A,3,75,85,,,,,,,,,,,0.85,0.52,0.67,2*06
$GNGSA,A,3,02,30,36,11,07,25,08,34,10,29,,,0.85,0.52,0.67,3*09
$GNGSA,A,3,24,35,26,44,29,,,,,,,,0.85,0.52,0.67,4*00
$GPGSV,4,1,13,19,82,104,40,24,55,278,38,17,50,059,35,06,35,148,34,1*63
$GPGSV,4,2,13,44,33,171,32,12,27,284,33,14,25,098,30,11,09,175,29,1*6F
$GPGSV,4,3,13,15,06,235,25,13,05,203,22,03,04,061,17,02,04,029,21,1*6E
$GPGSV,4,4,13,32,02,344,15,1*52
$GPGSV,1,1,04,24,55,278,28,06,35,148,22,14,25,098,20,11,09,175,21,8*6D
$GLGSV,1,1,02,75,74,348,31,85,54,167,24,1*7C
$GAGSV,3,1,10,02,76,067,37,30,45,286,34,36,44,114,32,11,31,051,28,7*73
$GAGSV,3,2,10,07,28,281,28,25,24,094,28,08,17,227,29,34,16,166,26,7*7E
$GAGSV,3,3,10,10,13,030,28,29,10,332,25,7*77
$GAGSV,2,1,06,02,76,067,26,30,45,286,26,36,44,114,25,11,31,051,16,1*7B
$GAGSV,2,2,06,07,28,281,22,08,17,227,18,1*75
$GBGSV,3,1,10,24,65,294,27,35,64,088,29,26,59,137,27,44,50,189,27,1*7D
$GBGSV,3,2,10,12,26,200,22,29,13,044,22,25,11,305,18,45,05,127,16,1*75
$GBGSV,3,3,10,41,05,314,17,34,02,212,16,1*74
$GBGSV,1,1,04,24,65,294,28,35,64,088,24,26,59,137,27,44,50,189,27,5*7C
$GNGLL,4910.427010,N,12304.404078,W,232709.000,A,D*5A
$GNRMC,232710.000,A,4910.427022,N,12304.404072,W,0.01,0.00,070125,,,D,V*14
$GNGGA,232710.000,4910.427022,N,12304.404072,W,2,40,0.52,21.044,M,-16.816,M,,*7F
$GNVTG,0.00,T,,M,0.01,N,0.02,K,D*25
$GNGSA,A,3,19,24,17,06,12,14,11,15,13,,,,0.85,0.52,0.67,1*04
$GNGSA,A,3,75,85,,,,,,,,,,,0.85,0.52,0.67,2*06
$GNGSA,A,3,02,30,36,11,07,25,08,34,10,29,,,0.85,0.52,0.67,3*09
$GNGSA,A,3,24,35,26,44,29,,,,,,,,0.85,0.52,0.67,4*00
$GPGSV,4,1,13,19,82,104,40,24,55,278,38,17,50,059,35,06,35,148,34,1*63
$GPGSV,4,2,13,44,33,171,32,12,27,284,33,14,25,098,29,11,09,175,29,1*67
$GPGSV,4,3,13,15,06,235,26,13,05,203,22,03,04,061,17,02,04,029,21,1*6D
$GPGSV,4,4,13,32,02,344,15,1*52
$GPGSV,1,1,04,24,55,278,28,06,35,148,22,14,25,098,20,11,09,175,21,8*6D
$GLGSV,1,1,02,75,74,348,30,85,54,167,24,1*7D
$GAGSV,3,1,10,02,76,067,36,30,45,286,34,36,44,114,32,11,31,051,27,7*7D
$GAGSV,3,2,10,07,28,281,28,25,24,094,28,08,17,227,29,34,16,166,25,7*7D
$GAGSV,3,3,10,10,13,030,28,29,10,332,25,7*77
$GAGSV,2,1,06,02,76,067,26,30,45,286,26,36,44,114,25,11,31,051,16,1*7B
$GAGSV,2,2,06,07,28,281,22,08,17,227,18,1*75
$GBGSV,3,1,10,24,65,294,28,35,64,088,29,26,59,137,28,44,50,189,28,1*72
$GBGSV,3,2,10,12,26,200,23,29,13,044,22,25,11,305,18,45,05,127,16,1*74
$GBGSV,3,3,10,41,05,314,17,34,02,212,16,1*74
$GBGSV,1,1,04,24,65,294,28,35,64,088,24,26,59,137,27,44,50,189,27,5*7C
$GNGLL,4910.427022,N,12304.404072,W,232710.000,A,D*59
$GNRMC,232711.000,A,4910.426998,N,12304.404090,W,0.01,0.00,070125,,,D,V*10
$GNGGA,232711.000,4910.426998,N,12304.404090,W,2,40,0.52,21.033,M,-16.816,M,,*7B
$GNVTG,0.00,T,,M,0.01,N,0.01,K,D*26
$GNGSA,A,3,19,24,17,06,12,14,11,15,13,,,,0.85,0.52,0.67,1*04
$GNGSA,A,3,75,85,,,,,,,,,,,0.85,0.52,0.67,2*06
$GNGSA,A,3,02,30,36,11,07,25,08,34,10,29,,,0.85,0.52,0.67,3*09
$GNGSA,A,3,24,35,26,44,29,,,,,,,,0.85,0.52,0.67,4*00
$GPGSV,4,1,13,19,82,104,40,24,55,278,38,17,50,059,35,06,35,148,34,1*63
$GPGSV,4,2,13,44,33,171,32,12,27,284,33,14,25,098,29,11,09,175,29,1*67
$GPGSV,4,3,13,15,06,235,27,13,05,203,22,03,04,061,17,02,04,029,21,1*6C
$GPGSV,4,4,13,32,02,344,15,1*52
$GPGSV,1,1,04,24,55,278,28,06,35,148,22,14,25,098,20,11,09,175,20,8*6C
$GLGSV,1,1,02,75,74,348,31,85,54,167,24,1*7C
$GAGSV,3,1,10,02,76,067,36,30,45,286,34,36,44,114,32,11,31,051,27,7*7D
$GAGSV,3,2,10,07,28,281,28,25,24,094,28,08,17,227,29,34,16,166,25,7*7D
$GAGSV,3,3,10,10,13,030,28,29,10,332,25,7*77
$GAGSV,2,1,06,02,76,067,26,30,45,286,26,36,44,114,25,11,31,051,16,1*7B
$GAGSV,2,2,06,07,28,281,22,08,17,227,18,1*75
$GBGSV,3,1,10,24,65,294,29,35,64,088,30,26,59,137,28,44,50,189,28,1*7B
$GBGSV,3,2,10,12,26,200,24,29,13,044,23,25,11,305,19,45,05,127,17,1*72
$GBGSV,3,3,10,41,05,314,18,34,02,212,16,1*7B
$GBGSV,1,1,04,24,65,294,28,35,64,088,24,26,59,137,27,44,50,189,27,5*7C
$GNGLL,4910.426998,N,12304.404090,W,232711.000,A,D*5D
$GNRMC,232712.000,A,4910.426980,N,12304.404138,W,0.01,0.00,070125,,,D,V*19
$GNGGA,232712.000,4910.426980,N,12304.404138,W,2,40,0.52,21.046,M,-16.816,M,,*70
$GNVTG,0.00,T,,M,0.01,N,0.02,K,D*25
$GNGSA,A,3,19,24,17,06,12,14,11,15,13,,,,0.85,0.52,0.67,1*04
$GNGSA,A,3,75,85,,,,,,,,,,,0.85,0.52,0.67,2*06
$GNGSA,A,3,02,30,36,11,07,25,08,34,10,29,,,0.85,0.52,0.67,3*09
$GNGSA,A,3,24,35,26,44,29,,,,,,,,0.85,0.52,0.67,4*00
$GPGSV,4,1,13,19,82,104,40,24,55,278,38,17,50,059,35,06,35,148,34,1*63
$GPGSV,4,2,13,44,33,171,32,12,27,284,33,14,25,098,29,11,09,175,29,1*67
$GPGSV,4,3,13,15,06,235,26,13,05,203,22,03,04,061,17,02,04,029,21,1*6D
$GPGSV,4,4,13,32,02,344,15,1*52
$GPGSV,1,1,04,24,55,278,28,06,35,148,22,14,25,098,20,11,09,175,20,8*6C
$GLGSV,1,1,02,75,74,348,31,85,54,167,24,1*7C
$GAGSV,3,1,10,02,76,067,36,30,45,286,34,36,44,114,32,11,31,051,27,7*7D
$GAGSV,3,2,10,07,28,281,28,25,24,094,28,08,17,227,29,34,16,166,25,7*7D
$GAGSV,3,3,10,10,13,030,28,29,10,332,25,7*77
$GAGSV,2,1,06,02,76,067,26,30,45,286,26,36,44,114,25,11,31,051,16,1*7B
$GAGSV,2,2,06,07,28,281,22,08,17,227,18,1*75
$GBGSV,3,1,10,24,65,294,29,35,64,088,30,26,59,137,28,44,50,189,28,1*7B
$GBGSV,3,2,10,12,26,200,24,29,13,044,24,25,11,305,20,45,05,127,17,1*7F
$GBGSV,3,3,10,41,05,314,18,34,02,212,17,1*7A
$GBGSV,1,1,04,24,65,294,28,35,64,088,24,26,59,137,27,44,50,189,27,5*7C
$GNGLL,4910.426980,N,12304.404138,W,232712.000,A,D*54
$GNRMC,232713.000,A,4910.427034,N,12304.404114,W,0.01,0.00,070125,,,D,V*11
$GNGGA,232713.000,4910.427034,N,12304.404114,W,2,40,0.52,21.045,M,-16.816,M,,*7B
$GNVTG,0.00,T,,M,0.01,N,0.02,K,D*25
$GNGSA,A,3,19,24,17,06,12,14,11,15,13,,,,0.85,0.52,0.67,1*04
$GNGSA,A,3,75,85,,,,,,,,,,,0.85,0.52,0.67,2*06
$GNGSA,A,3,02,30,36,11,07,25,08,34,10,29,,,0.85,0.52,0.67,3*09
$GNGSA,A,3,24,35,26,44,29,,,,,,,,0.85,0.52,0.67,4*00
$GPGSV,4,1,13,19,82,104,40,24,55,278,38,17,50,059,35,06,35,148,34,1*63
$GPGSV,4,2,13,44,33,171,32,12,27,284,33,14,25,098,29,11,09,175,29,1*67
$GPGSV,4,3,13,15,06,235,25,13,05,203,22,03,04,061,,02,04,029,21,1*68
$GPGSV,4,4,13,32,02,344,15,1*52
$GPGSV,1,1,04,24,55,278,28,06,35,148,22,14,25,098,19,11,09,175,20,8*66
$GLGSV,1,1,02,75,74,348,30,85,54,167,24,1*7D
$GAGSV,3,1,10,02,76,067,36,30,45,286,34,36,44,114,32,11,31,051,27,7*7D
$GAGSV,3,2,10,07,28,281,28,25,24,094,28,08,17,227,28,34,16,166,25,7*7C
$GAGSV,3,3,10,10,13,030,28,29,10,332,25,7*77
$GAGSV,2,1,06,02,76,067,26,30,45,286,26,36,44,114,25,11,31,051,16,1*7B
$GAGSV,2,2,06,07,28,281,22,08,17,227,18,1*75
$GBGSV,3,1,10,24,65,294,29,35,64,088,31,26,59,137,29,44,50,189,29,1*7A
$GBGSV,3,2,10,12,26,200,24,29,13,044,24,25,11,305,20,45,05,127,17,1*7F
$GBGSV,3,3,10,41,05,314,19,34,02,212,17,1*7B
$GBGSV,1,1,04,24,65,294,28,35,64,088,24,26,59,137,27,44,50,189,27,5*7C
$GNGLL,4910.427034,N,12304.404114,W,232713.000,A,D*5C
$GNRMC,232714.000,A,4910.427052,N,12304.404210,W,0.02,0.00,070125,,,D,V*12
$GNGGA,232714.000,4910.427052,N,12304.404210,W,2,40,0.52,21.058,M,-16.817,M,,*76
$GNVTG,0.00,T,,M,0.02,N,0.03,K,D*27
$GNGSA,A,3,19,24,17,06,12,14,11,15,13,,,,0.85,0.52,0.67,1*04
$GNGSA,A,3,75,85,,,,,,,,,,,0.85,0.52,0.67,2*06
$GNGSA,A,3,02,30,36,11,07,25,08,34,10,29,,,0.85,0.52,0.67,3*09
$GNGSA,A,3,24,35,26,44,29,,,,,,,,0.85,0.52,0.67,4*00
$GPGSV,4,1,13,19,82,104,40,24,55,278,38,17,50,059,36,06,35,148,34,1*60
$GPGSV,4,2,13,44,33,171,32,12,27,284,33,14,25,098,29,11,09,175,29,1*67
$GPGSV,4,3,13,15,06,235,27,13,05,203,22,03,04,061,,02,04,029,21,1*6A
$GPGSV,4,4,13,32,02,344,15,1*52
$GPGSV,1,1,04,24,55,278,28,06,35,148,22,14,25,098,19,11,09,175,20,8*66
$GLGSV,1,1,02,75,74,348,30,85,54,167,24,1*7D
$GAGSV,3,1,10,02,76,067,36,30,45,286,34,36,44,114,32,11,31,051,27,7*7D
$GAGSV,3,2,10,07,28,281,28,25,24,094,28,08,17,227,28,34,16,166,26,7*7F
$GAGSV,3,3,10,10,13,030,28,29,10,332,25,7*77
$GAGSV,2,1,06,02,76,067,26,30,45,286,26,36,44,114,25,11,31,051,16,1*7B
$GAGSV,2,2,06,07,28,281,22,08,17,227,18,1*75
$GBGSV,3,1,10,24,65,294,30,35,64,088,32,26,59,137,29,44,50,189,29,1*71
$GBGSV,3,2,10,12,26,200,24,29,13,044,24,25,11,305,21,45,05,127,17,1*7E
$GBGSV,3,3,10,41,05,314,19,34,02,212,17,1*7B
$GBGSV,1,1,04,24,65,294,28,35,64,088,25,26,59,137,27,44,50,189,27,5*7D
$GNGLL,4910.427052,N,12304.404210,W,232714.000,A,D*5C
$GNRMC,232715.000,A,4910.427082,N,12304.404174,W,0.02,0.00,070125,,,D,V*1F
$GNGGA,232715.000,4910.427082,N,12304.404174,W,2,40,0.52,21.126,M,-16.817,M,,*73
$GNVTG,0.00,T,,M,0.02,N,0.03,K,D*27
$GNGSA,A,3,19,24,17,06,12,14,11,15,13,,,,0.85,0.52,0.67,1*04
$GNGSA,A,3,75,85,,,,,,,,,,,0.85,0.52,0.67,2*06
$GNGSA,A,3,02,30,36,11,07,25,08,34,10,29,,,0.85,0.52,0.67,3*09
$GNGSA,A,3,24,35,26,44,29,,,,,,,,0.85,0.52,0.67,4*00
$GPGSV,4,1,13,19,82,104,40,24,55,278,38,17,50,059,36,06,35,148,34,1*60
$GPGSV,4,2,13,44,33,171,32,12,27,284,33,14,25,098,28,11,09,175,29,1*66
$GPGSV,4,3,13,15,06,235,25,13,05,203,22,03,04,061,17,02,04,029,21,1*6E
$GPGSV,4,4,13,32,02,343,16,1*56
$GPGSV,1,1,04,24,55,278,28,06,35,148,22,14,25,098,19,11,09,175,20,8*66
$GLGSV,1,1,02,75,74,348,31,85,54,167,24,1*7C
$GAGSV,3,1,10,02,76,067,36,30,45,286,34,36,44,114,32,11,31,051,27,7*7D
$GAGSV,3,2,10,07,28,281,28,25,24,094,28,08,17,227,28,34,16,166,26,7*7F
$GAGSV,3,3,10,10,13,030,28,29,10,332,25,7*77
$GAGSV,2,1,06,02,76,067,26,30,45,286,26,36,44,114,25,11,31,051,16,1*7B
$GAGSV,2,2,06,07,28,281,22,08,17,227,18,1*75
$GBGSV,3,1,10,24,65,294,30,35,64,088,32,26,59,137,30,44,50,189,29,1*79
$GBGSV,3,2,10,12,26,200,24,29,13,044,24,25,11,305,21,45,05,127,18,1*71
$GBGSV,3,3,10,41,05,314,19,34,02,212,17,1*7B
$GBGSV,1,1,04,24,65,294,28,35,64,088,25,26,59,137,27,44,50,189,27,5*7D
$GNGLL,4910.427082,N,12304.404174,W,232715.000,A,D*51
$GNRMC,232716.000,A,4910.427016,N,12304.404204,W,0.02,0.00,070125,,,D,V*15
$GNGGA,232716.000,4910.427016,N,12304.404204,W,2,40,0.52,21.232,M,-16.816,M,,*7E
$GNVTG,0.00,T,,M,0.02,N,0.04,K,D*20
$GNGSA,A,3,19,24,17,06,12,14,11,15,13,,,,0.85,0.52,0.67,1*04
$GNGSA,A,3,75,85,,,,,,,,,,,0.85,0.52,0.67,2*06
$GNGSA,A,3,02,30,36,11,07,25,08,34,10,29,,,0.85,0.52,0.67,3*09
$GNGSA,A,3,24,35,26,44,29,,,,,,,,0.85,0.52,0.67,4*00
$GPGSV,4,1,13,19,82,104,40,24,55,278,38,17,50,059,36,06,35,148,34,1*60
$GPGSV,4,2,13,44,33,171,32,12,27,284,33,14,25,098,28,11,09,175,29,1*66
$GPGSV,4,3,13,15,06,235,25,13,05,203,22,03,04,061,,02,04,029,20,1*69
$GPGSV,4,4,13,32,02,343,16,1*56
$GPGSV,1,1,04,24,55,278,28,06,35,148,21,14,25,098,19,11,09,175,20,8*65
$GLGSV,1,1,02,75,74,348,31,85,54,167,24,1*7C
$GAGSV,3,1,10,02,76,067,36,30,45,286,34,36,44,114,32,11,31,051,27,7*7D
$GAGSV,3,2,10,07,28,281,28,25,24,094,29,08,17,227,29,34,16,166,26,7*7F
$GAGSV,3,3,10,10,13,030,28,29,10,332,26,7*74
$GAGSV,2,1,06,02,76,067,26,30,45,286,26,36,44,114,25,11,31,051,15,1*78
$GAGSV,2,2,06,07,28,281,22,08,17,227,18,1*75
$GBGSV,3,1,10,24,65,294,30,35,64,088,31,26,59,137,30,44,50,189,29,1*7A
$GBGSV,3,2,10,12,26,200,24,29,13,044,24,25,11,305,21,45,05,127,18,1*71
$GBGSV,3,3,10,41,05,314,19,34,02,212,17,1*7B
$GBGSV,1,1,04,24,65,294,28,35,64,088,25,26,59,137,26,44,50,189,27,5*7C
$GNGLL,4910.427016,N,12304.404204,W,232716.000,A,D*5B
$GNRMC,232717.000,A,4910.426986,N,12304.404252,W,0.02,0.00,070125,,,D,V*16
$GNGGA,232717.000,4910.426986,N,12304.404252,W,2,40,0.52,21.325,M,-16.816,M,,*7A
$GNVTG,0.00,T,,M,0.02,N,0.03,K,D*27
$GNGSA,A,3,19,24,17,06,12,14,11,15,13,,,,0.85,0.52,0.67,1*04
$GNGSA,A,3,75,85,,,,,,,,,,,0.85,0.52,0.67,2*06
$GNGSA,A,3,02,30,36,11,07,25,08,34,10,29,,,0.85,0.52,0.67,3*09
$GNGSA,A,3,24,35,26,44,29,,,,,,,,0.85,0.52,0.67,4*00
$GPGSV,4,1,13,19,82,104,40,24,55,278,38,17,50,059,36,06,35,148,34,1*60
$GPGSV,4,2,13,44,33,171,32,12,27,284,33,14,25,098,28,11,09,175,29,1*66
$GPGSV,4,3,13,15,06,235,25,13,05,203,23,03,04,061,16,02,04,029,21,1*6E
$GPGSV,4,4,13,32,02,343,16,1*56
$GPGSV,1,1,04,24,55,278,27,06,35,148,21,14,25,098,19,11,09,175,19,8*60
$GLGSV,1,1,03,75,74,348,31,85,54,167,24,86,05,193,,1*4D
$GAGSV,3,1,10,02,76,067,36,30,45,286,34,36,44,114,32,11,31,051,27,7*7D
$GAGSV,3,2,10,07,28,281,28,25,24,094,29,08,17,227,29,34,16,166,26,7*7F
$GAGSV,3,3,10,10,13,030,28,29,10,332,26,7*74
$GAGSV,2,1,06,02,76,067,25,30,45,286,25,36,44,114,25,11,31,051,15,1*78
$GAGSV,2,2,06,07,28,281,21,08,17,227,18,1*76
$GBGSV,3,1,10,24,65,294,30,35,64,088,31,26,59,137,30,44,50,189,29,1*7A
$GBGSV,3,2,10,12,26,200,24,29,13,044,24,25,11,305,21,45,05,127,18,1*71
$GBGSV,3,3,10,41,05,314,19,34,02,212,17,1*7B
$GBGSV,1,1,04,24,65,294,27,35,64,088,25,26,59,137,26,44,50,189,26,5*72
$GNGLL,4910.426986,N,12304.404252,W,232717.000,A,D*58
$GNRMC,232718.000,A,4910.426908,N,12304.404306,W,0.02,0.00,070125,,,D,V*1F
$GNGGA,232718.000,4910.426908,N,12304.404306,W,2,40,0.52,21.398,M,-16.816,M,,*75
$GNVTG,0.00,T,,M,0.02,N,0.03,K,D*27
$GNGSA,A,3,19,24,17,06,12,14,11,15,13,,,,0.85,0.52,0.67,1*04
$GNGSA,A,3,75,85,,,,,,,,,,,0.85,0.52,0.67,2*06
$GNGSA,A,3,02,30,36,11,07,25,08,34,10,29,,,0.85,0.52,0.67,3*09
$GNGSA,A,3,24,35,26,44,29,,,,,,,,0.85,0.52,0.67,4*00
$GPGSV,4,1,13,19,82,104,40,24,55,278,38,17,50,059,36,06,35,148,34,1*60
$GPGSV,4,2,13,44,33,171,33,12,27,284,33,14,25,098,28,11,09,175,30,1*6F
$GPGSV,4,3,13,15,06,235,25,13,05,203,24,03,04,061,15,02,04,029,21,1*6A
$GPGSV,4,4,13,32,02,343,16,1*56
$GPGSV,1,1,04,24,55,278,27,06,35,148,21,14,25,098,19,11,09,175,19,8*60
$GLGSV,1,1,02,75,74,348,31,85,54,167,24,1*7C
$GAGSV,3,1,10,02,76,067,36,30,45,286,34,36,44,114,33,11,31,051,28,7*73
$GAGSV,3,2,10,07,28,281,28,25,24,094,29,08,17,227,29,34,16,166,26,7*7F
$GAGSV,3,3,10,10,13,030,28,29,10,332,26,7*74
$GAGSV,2,1,06,02,76,067,25,30,45,286,25,36,44,114,25,11,31,051,15,1*78
$GAGSV,2,2,06,07,28,281,21,08,17,227,18,1*76
$GBGSV,3,1,11,24,65,294,30,35,64,088,30,26,59,137,29,44,50,189,29,1*72
$GBGSV,3,2,11,12,26,200,24,29,13,044,24,25,11,305,21,45,05,127,18,1*70
$GBGSV,3,3,11,41,05,314,19,34,02,212,17,32,01,002,,1*48
$GBGSV,1,1,04,24,65,294,27,35,64,088,24,26,59,137,26,44,50,189,26,5*73
$GNGLL,4910.426908,N,12304.404306,W,232718.000,A,D*51
$GNRMC,232719.000,A,4910.426848,N,12304.404360,W,0.01,0.00,070125,,,D,V*18
$GNGGA,232719.000,4910.426848,N,12304.404360,W,2,40,0.52,21.518,M,-16.816,M,,*7F
$GNVTG,0.00,T,,M,0.01,N,0.03,K,D*24
$GNGSA,A,3,19,24,17,06,12,14,11,15,13,,,,0.85,0.52,0.67,1*04
$GNGSA,A,3,75,85,,,,,,,,,,,0.85,0.52,0.67,2*06
$GNGSA,A,3,02,30,36,11,07,25,08,34,10,29,,,0.85,0.52,0.67,3*09
$GNGSA,A,3,24,35,26,44,29,,,,,,,,0.85,0.52,0.67,4*00
$GPGSV,4,1,13,19,82,104,40,24,55,278,38,17,50,059,36,06,35,148,34,1*60
$GPGSV,4,2,13,44,33,171,33,12,27,284,33,14,25,098,28,11,09,175,30,1*6F
$GPGSV,4,3,13,15,06,235,25,13,05,203,25,03,04,061,16,02,04,029,21,1*68
$GPGSV,4,4,13,32,02,343,16,1*56
$GPGSV,1,1,04,24,55,278,27,06,35,148,21,14,25,098,19,11,09,175,19,8*60
$GLGSV,1,1,02,75,74,348,31,85,54,167,25,1*7D
$GAGSV,3,1,10,02,76,067,36,30,45,286,34,36,44,114,33,11,31,051,28,7*73
$GAGSV,3,2,10,07,28,281,28,25,24,094,29,08,17,227,29,34,16,166,26,7*7F
$GAGSV,3,3,10,10,13,030,28,29,10,332,27,7*75
$GAGSV,2,1,06,02,76,067,25,30,45,286,25,36,44,114,25,11,31,051,14,1*79
$GAGSV,2,2,06,07,28,281,21,08,17,227,18,1*76
$GBGSV,3,1,11,24,65,294,30,35,64,088,30,26,59,137,29,44,50,189,29,1*72
$GBGSV,3,2,11,12,26,200,25,29,13,044,24,25,11,305,21,45,05,127,18,1*71
$GBGSV,3,3,11,41,05,314,19,34,02,212,17,32,01,002,,1*48
$GBGSV,1,1,04,24,65,294,27,35,64,088,24,26,59,137,25,44,50,189,26,5*70
$GNGLL,4910.426848,N,12304.404360,W,232719.000,A,D*55
$GNRMC,232720.000,A,4910.426836,N,12304.404438,W,0.01,0.00,070125,,,D,V*11
$GNGGA,232720.000,4910.426836,N,12304.404438,W,2,40,0.52,21.626,M,-16.816,M,,*78
$GNVTG,0.00,T,,M,0.01,N,0.03,K,D*24
$GNGSA,A,3,19,24,17,06,12,14,11,15,13,,,,0.85,0.52,0.67,1*04
$GNGSA,A,3,75,85,,,,,,,,,,,0.85,0.52,0.67,2*06
$GNGSA,A,3,02,30,36,11,07,25,08,34,10,29,,,0.85,0.52,0.67,3*09
$GNGSA,A,3,24,35,26,44,29,,,,,,,,0.85,0.52,0.67,4*00
$GPGSV,4,1,13,19,82,104,40,24,55,278,38,17,50,059,36,06,35,148,34,1*60
$GPGSV,4,2,13,44,33,171,32,12,27,284,33,14,25,098,28,11,09,175,30,1*6E
$GPGSV,4,3,13,15,06,235,24,13,05,203,24,03,04,061,13,02,04,029,21,1*6D
$GPGSV,4,4,13,32,02,343,16,1*56
$GPGSV,1,1,04,24,55,278,27,06,35,148,21,14,25,098,19,11,09,175,19,8*60
$GLGSV,1,1,02,75,74,348,31,85,54,167,26,1*7E
$GAGSV,3,1,10,02,76,067,36,30,45,286,34,36,44,114,33,11,31,051,28,7*73
$GAGSV,3,2,10,07,28,281,28,25,24,094,29,08,17,227,29,34,16,166,26,7*7F
$GAGSV,3,3,10,10,13,030,28,29,10,332,27,7*75
$GAGSV,2,1,06,02,76,067,25,30,45,286,25,36,44,114,25,11,31,051,14,1*79
$GAGSV,2,2,06,07,28,281,21,08,17,227,18,1*76
$GBGSV,3,1,11,24,65,294,31,35,64,088,31,26,59,137,30,44,50,189,30,1*72
$GBGSV,3,2,11,12,26,200,26,29,13,044,24,25,11,305,22,45,05,127,19,1*70
$GBGSV,3,3,11,41,05,314,20,34,02,212,18,32,01,002,,1*4D
$GBGSV,1,1,04,24,65,294,27,35,64,088,24,26,59,137,25,44,50,189,26,5*70
$GNGLL,4910.426836,N,12304.404438,W,232720.000,A,D*5C
$GNRMC,232721.000,A,4910.426728,N,12304.404480,W,0.01,0.00,070125,,,D,V*13
$GNGGA,232721.000,4910.426728,N,12304.404480,W,2,40,0.52,21.687,M,-16.817,M,,*70
$GNVTG,0.00,T,,M,0.01,N,0.03,K,D*24
$GNGSA,A,3,19,24,17,06,12,14,11,15,13,,,,0.85,0.52,0.67,1*04
$GNGSA,A,3,75,85,,,,,,,,,,,0.85,0.52,0.67,2*06
$GNGSA,A,3,02,30,36,11,07,25,08,34,10,29,,,0.85,0.52,0.67,3*09
$GNGSA,A,3,24,35,26,44,29,,,,,,,,0.85,0.52,0.67,4*00
$GPGSV,4,1,13,19,82,104,40,24,55,278,38,17,50,059,36,06,35,148,34,1*60
$GPGSV,4,2,13,44,33,171,32,12,27,284,33,14,25,098,27,11,09,175,30,1*61
$GPGSV,4,3,13,15,06,235,23,13,05,203,25,03,04,061,12,02,04,029,20,1*6B
$GPGSV,4,4,13,32,02,343,16,1*56
$GPGSV,1,1,04,24,55,278,27,06,35,148,21,14,25,098,19,11,09,175,19,8*60
$GLGSV,1,1,02,75,74,348,31,85,54,167,26,1*7E
$GAGSV,3,1,10,02,76,067,36,30,45,286,33,36,44,114,33,11,31,051,28,7*74
$GAGSV,3,2,10,07,28,281,28,25,24,094,28,08,17,227,28,34,16,166,26,7*7F
$GAGSV,3,3,10,10,13,030,28,29,10,332,27,7*75
$GAGSV,2,1,06,02,76,067,25,30,45,286,25,36,44,114,24,11,31,051,14,1*78
$GAGSV,2,2,06,07,28,281,21,08,17,227,18,1*76
$GBGSV,3,1,11,24,65,294,31,35,64,088,31,26,59,137,30,44,50,189,30,1*72
$GBGSV,3,2,11,12,26,200,26,29,13,044,24,25,11,305,22,45,05,127,19,1*70
$GBGSV,3,3,11,41,05,314,20,34,02,212,18,32,01,002,,1*4D
$GBGSV,1,1,04,24,65,294,27,35,64,088,24,26,59,137,25,44,50,189,26,5*70
$GNGLL,4910.426728,N,12304.404480,W,232721.000,A,D*5E
$GNRMC,232722.000,A,4910.426632,N,12304.404576,W,0.02,0.00,070125,,,D,V*11
$GNGGA,232722.000,4910.426632,N,12304.404576,W,2,40,0.52,21.751,M,-16.817,M,,*7B
$GNVTG,0.00,T,,M,0.02,N,0.03,K,D*27
$GNGSA,A,3,19,24,17,06,12,14,11,15,13,,,,0.85,0.52,0.67,1*04
$GNGSA,A,3,75,85,,,,,,,,,,,0.85,0.52,0.67,2*06
$GNGSA,A,3,02,30,36,11,07,25,08,34,10,29,,,0.85,0.52,0.67,3*09
$GNGSA,A,3,24,35,26,44,29,,,,,,,,0.85,0.52,0.67,4*00
$GPGSV,4,1,13,19,82,104,40,24,55,278,39,17,50,059,36,06,35,148,34,1*61
$GPGSV,4,2,13,44,33,171,33,12,27,284,34,14,25,098,27,11,09,175,30,1*67
$GPGSV,4,3,13,15,06,235,25,13,05,203,25,03,04,061,16,02,04,029,20,1*69
$GPGSV,4,4,13,32,02,343,16,1*56
$GPGSV,1,1,04,24,55,278,27,06,35,148,21,14,25,098,19,11,09,175,19,8*60
$GLGSV,1,1,02,75,74,348,32,85,54,167,26,1*7D
$GAGSV,3,1,10,02,76,067,36,30,45,286,33,36,44,114,33,11,31,051,28,7*74
$GAGSV,3,2,10,07,28,281,28,25,24,094,29,08,17,227,28,34,16,166,27,7*7F
$GAGSV,3,3,10,10,13,030,28,29,10,332,27,7*75
$GAGSV,2,1,06,02,76,067,25,30,45,286,25,36,44,114,24,11,31,051,14,1*78
$GAGSV,2,2,06,07,28,281,21,08,17,227,18,1*76
$GBGSV,3,1,11,24,65,294,32,35,64,088,31,26,59,137,31,44,50,189,30,1*70
$GBGSV,3,2,11,12,26,200,26,29,13,044,24,25,11,305,22,45,05,127,18,1*71
$GBGSV,3,3,11,41,05,314,20,34,02,212,18,32,01,002,,1*4D
$GBGSV,1,1,04,24,65,294,27,35,64,088,23,26,59,137,25,44,50,189,26,5*77
$GNGLL,4910.426632,N,12304.404576,W,232722.000,A,D*5F
$GNRMC,232723.000,A,4910.426566,N,12304.404594,W,0.01,0.00,070125,,,D,V*1D
$GNGGA,232723.000,4910.426566,N,12304.404594,W,2,40,0.52,21.843,M,-16.816,M,,*79
$GNVTG,0.00,T,,M,0.01,N,0.03,K,D*24
$GNGSA,A,3,19,24,17,06,12,14,11,15,13,,,,0.85,0.52,0.67,1*04
$GNGSA,A,3,75,85,,,,,,,,,,,0.85,0.52,0.67,2*06
$GNGSA,A,3,02,30,36,11,07,25,08,34,10,29,,,0.85,0.52,0.67,3*09
$GNGSA,A,3,24,35,26,44,29,,,,,,,,0.85,0.52,0.67,4*00
$GPGSV,4,1,13,19,82,104,40,24,55,278,39,17,50,059,36,06,35,148,34,1*61
$GPGSV,4,2,13,44,33,171,33,12,27,284,34,14,25,098,27,11,09,175,30,1*67
$GPGSV,4,3,13,15,06,235,24,13,05,203,25,03,04,061,14,02,04,029,20,1*6A
$GPGSV,4,4,13,32,02,343,16,1*56
$GPGSV,1,1,04,24,55,278,27,06,35,148,21,14,25,098,19,11,09,175,19,8*60
$GLGSV,1,1,02,75,74,348,32,85,54,167,26,1*7D
$GAGSV,3,1,10,02,76,067,36,30,45,286,33,36,44,114,33,11,31,051,28,7*74
$GAGSV,3,2,10,07,28,281,28,25,24,094,29,08,17,227,28,34,16,166,27,7*7F
$GAGSV,3,3,10,10,13,030,28,29,10,332,27,7*75
$GAGSV,2,1,06,02,76,067,25,30,45,286,25,36,44,114,24,11,31,051,14,1*78
$GAGSV,2,2,06,07,28,281,21,08,17,227,18,1*76
$GBGSV,3,1,11,24,65,294,32,35,64,088,31,26,59,137,31,44,50,189,30,1*70
$GBGSV,3,2,11,12,26,200,26,29,13,044,24,25,11,305,22,45,05,127,18,1*71
$GBGSV,3,3,11,41,05,314,20,34,02,212,18,32,01,002,,1*4D
$GBGSV,1,1,04,24,65,294,27,35,64,088,23,26,59,137,25,44,50,189,26,5*77
$GNGLL,4910.426566,N,12304.404594,W,232723.000,A,D*50
$GNRMC,232724.000,A,4910.426530,N,12304.404576,W,0.01,0.00,070125,,,D,V*15
$GNGGA,232724.000,4910.426530,N,12304.404576,W,2,40,0.52,21.973,M,-16.817,M,,*72
$GNVTG,0.00,T,,M,0.01,N,0.02,K,D*25
$GNGSA,A,3,19,24,17,06,12,14,11,15,13,,,,0.85,0.52,0.67,1*04
$GNGSA,A,3,75,85,,,,,,,,,,,0.85,0.52,0.67,2*06
$GNGSA,A,3,02,30,36,11,07,25,08,34,10,29,,,0.85,0.52,0.67,3*09
$GNGSA,A,3,24,35,26,44,29,,,,,,,,0.85,0.52,0.67,4*00
$GPGSV,4,1,13,19,82,104,40,24,55,278,39,17,50,059,36,06,35,148,34,1*61
$GPGSV,4,2,13,44,33,171,33,12,27,284,34,14,25,098,27,11,09,175,30,1*67
$GPGSV,4,3,13,15,06,235,24,13,05,203,25,03,04,061,15,02,04,029,20,1*6B
$GPGSV,4,4,13,32,02,343,16,1*56
$GPGSV,1,1,04,24,55,278,27,06,35,148,21,14,25,098,19,11,09,175,19,8*60
$GLGSV,1,1,02,75,74,348,32,85,54,167,26,1*7D
$GAGSV,3,1,10,02,75,070,37,30,45,286,33,36,44,114,33,11,31,051,28,7*70
$GAGSV,3,2,10,07,28,281,28,25,24,094,29,08,17,227,28,34,16,166,27,7*7F
$GAGSV,3,3,10,10,13,030,28,29,10,332,27,7*75
$GAGSV,2,1,06,02,75,070,25,30,45,286,25,36,44,114,24,11,31,051,15,1*7C
$GAGSV,2,2,06,07,28,281,21,08,17,227,18,1*76
$GBGSV,3,1,10,24,65,294,32,35,64,088,31,26,59,137,31,44,50,189,30,1*71
$GBGSV,3,2,10,12,26,200,26,29,13,044,24,25,11,305,22,45,05,127,18,1*70
$GBGSV,3,3,10,41,05,314,20,34,02,212,18,1*7E
$GBGSV,1,1,04,24,65,294,27,35,64,088,23,26,59,137,25,44,50,189,26,5*77
$GNGLL,4910.426530,N,12304.404576,W,232724.000,A,D*58
$GNRMC,232725.000,A,4910.426452,N,12304.404648,W,0.01,0.00,070125,,,D,V*1F
$GNGGA,232725.000,4910.426452,N,12304.404648,W,2,40,0.52,22.048,M,-16.816,M,,*7B
$GNVTG,0.00,T,,M,0.01,N,0.02,K,D*25
$GNGSA,A,3,19,24,17,06,12,14,11,15,13,,,,0.85,0.52,0.67,1*04
$GNGSA,A,3,75,85,,,,,,,,,,,0.85,0.52,0.67,2*06
$GNGSA,A,3,02,30,36,11,07,25,08,34,10,29,,,0.85,0.52,0.67,3*09
$GNGSA,A,3,24,35,26,44,29,,,,,,,,0.85,0.52,0.67,4*00
$GPGSV,4,1,13,19,82,104,40,24,55,278,39,17,50,059,36,06,35,148,34,1*61
$GPGSV,4,2,13,44,33,171,33,12,27,284,34,14,25,098,27,11,09,175,30,1*67
$GPGSV,4,3,13,15,06,235,24,13,05,203,25,03,04,061,14,02,04,029,20,1*6A
$GPGSV,4,4,13,32,02,343,16,1*56
$GPGSV,1,1,04,24,55,278,28,06,35,148,21,14,25,098,19,11,09,175,19,8*6F
$GLGSV,1,1,02,75,74,348,32,85,54,167,25,1*7E
$GAGSV,3,1,10,02,75,070,37,30,45,286,33,36,44,114,33,11,31,051,28,7*70
$GAGSV,3,2,10,07,28,281,28,25,24,094,29,08,17,227,28,34,16,166,26,7*7E
$GAGSV,3,3,10,10,13,030,28,29,10,332,27,7*75
$GAGSV,2,1,06,02,75,070,25,30,45,286,25,36,44,114,24,11,31,051,15,1*7C
$GAGSV,2,2,06,07,28,281,22,08,17,227,18,1*75
$GBGSV,3,1,10,24,65,294,32,35,64,088,32,26,59,137,31,44,50,189,30,1*72
$GBGSV,3,2,10,12,26,200,26,29,13,044,24,25,11,305,22,45,05,127,18,1*70
$GBGSV,3,3,10,41,05,314,20,34,02,212,18,1*7E
$GBGSV,1,1,04,24,65,294,27,35,64,088,24,26,59,137,25,44,50,189,26,5*70
$GNGLL,4910.426452,N,12304.404648,W,232725.000,A,D*52
$GNRMC,232726.000,A,4910.426356,N,12304.404732,W,0.01,0.00,070125,,,D,V*13
$GNGGA,232726.000,4910.426356,N,12304.404732,W,2,40,0.52,22.053,M,-16.816,M,,*7D
$GNVTG,0.00,T,,M,0.01,N,0.02,K,D*25
$GNGSA,A,3,19,24,17,06,12,14,11,15,13,,,,0.85,0.52,0.67,1*04
$GNGSA,A,3,75,85,,,,,,,,,,,0.85,0.52,0.67,2*06
$GNGSA,A,3,02,30,36,11,07,25,08,34,10,29,,,0.85,0.52,0.67,3*09
$GNGSA,A,3,24,35,26,44,29,,,,,,,,0.85,0.52,0.67,4*00
$GPGSV,4,1,13,19,82,104,40,24,55,278,39,17,50,059,36,06,35,148,34,1*61
$GPGSV,4,2,13,44,33,171,33,12,27,284,34,14,25,098,27,11,09,175,30,1*67
$GPGSV,4,3,13,15,06,235,24,13,05,203,25,03,04,061,13,02,04,029,20,1*6D
$GPGSV,4,4,13,32,02,343,17,1*57
$GPGSV,1,1,04,24,55,278,28,06,35,148,21,14,25,098,19,11,09,175,19,8*6F
$GLGSV,1,1,02,75,74,348,32,85,54,167,25,1*7E
$GAGSV,3,1,10,02,75,070,37,30,45,286,33,36,44,114,33,11,31,051,28,7*70
$GAGSV,3,2,10,07,28,281,28,25,24,094,29,08,17,227,28,34,16,166,26,7*7E
$GAGSV,3,3,10,10,13,030,28,29,10,332,27,7*75
$GAGSV,2,1,06,02,75,070,25,30,45,286,25,36,44,114,25,11,31,051,15,1*7D
$GAGSV,2,2,06,07,28,281,22,08,17,227,18,1*75
$GBGSV,3,1,10,24,65,294,31,35,64,088,32,26,59,137,30,44,50,189,30,1*70
$GBGSV,3,2,10,12,26,200,25,29,13,044,23,25,11,305,21,45,05,127,17,1*78
$GBGSV,3,3,10,41,05,314,20,34,02,212,17,1*71
$GBGSV,1,1,04,24,65,294,28,35,64,088,25,26,59,137,26,44,50,189,26,5*7D
$GNGLL,4910.426356,N,12304.404732,W,232726.000,A,D*5E
$GNRMC,232727.000,A,4910.426266,N,12304.404798,W,0.01,0.00,070125,,,D,V*10
$GNGGA,232727.000,4910.426266,N,12304.404798,W,2,40,0.52,22.063,M,-16.817,M,,*7C
$GNVTG,0.00,T,,M,0.01,N,0.03,K,D*24
$GNGSA,A,3,19,24,17,06,12,14,11,15,13,,,,0.85,0.52,0.67,1*04
$GNGSA,A,3,75,85,,,,,,,,,,,0.85,0.52,0.67,2*06
$GNGSA,A,3,02,30,36,11,07,25,08,34,10,29,,,0.85,0.52,0.67,3*09
$GNGSA,A,3,24,35,26,44,29,,,,,,,,0.85,0.52,0.67,4*00
$GPGSV,4,1,13,19,82,104,40,24,55,278,39,17,50,059,36,06,35,148,34,1*61
$GPGSV,4,2,13,44,33,171,33,12,27,284,33,14,25,098,27,11,09,175,29,1*68
$GPGSV,4,3,13,15,06,235,24,13,05,203,25,03,04,061,14,02,04,029,20,1*6A
$GPGSV,4,4,13,32,02,343,17,1*57
$GPGSV,1,1,04,24,55,278,29,06,35,148,22,14,25,098,19,11,09,175,19,8*6D
$GLGSV,1,1,02,75,74,348,32,85,54,167,25,1*7E
$GAGSV,3,1,10,02,75,070,37,30,45,286,33,36,44,114,33,11,31,051,28,7*70
$GAGSV,3,2,10,07,28,281,28,25,24,094,29,08,17,227,28,34,16,166,26,7*7E
$GAGSV,3,3,10,10,13,030,28,29,10,332,27,7*75
$GAGSV,2,1,06,02,75,070,26,30,45,286,25,36,44,114,25,11,31,051,15,1*7E
$GAGSV,2,2,06,07,28,281,23,08,17,227,18,1*74
$GBGSV,3,1,10,24,65,294,31,35,64,088,32,26,59,137,30,44,50,189,30,1*70
$GBGSV,3,2,10,12,26,200,25,29,13,044,23,25,11,305,21,45,05,127,17,1*78
$GBGSV,3,3,10,41,05,314,19,34,02,212,17,1*7B
$GBGSV,1,1,04,24,65,294,28,35,64,088,25,26,59,137,26,44,50,189,26,5*7D
$GNGLL,4910.426266,N,12304.404798,W,232727.000,A,D*5D
$GNRMC,232728.000,A,4910.426200,N,12304.404828,W,0.01,0.00,070125,,,D,V*1B
$GNGGA,232728.000,4910.426200,N,12304.404828,W,2,40,0.52,22.102,M,-16.817,M,,*71
$GNVTG,0.00,T,,M,0.01,N,0.03,K,D*24
$GNGSA,A,3,19,24,17,06,12,14,11,15,13,,,,0.85,0.52,0.67,1*04
$GNGSA,A,3,75,85,,,,,,,,,,,0.85,0.52,0.67,2*06
$GNGSA,A,3,02,30,36,11,07,25,08,34,10,29,,,0.85,0.52,0.67,3*09
$GNGSA,A,3,24,35,26,44,29,,,,,,,,0.85,0.52,0.67,4*00
$GPGSV,4,1,13,19,82,104,40,24,55,278,39,17,50,059,36,06,35,148,34,1*61
$GPGSV,4,2,13,44,33,171,33,12,27,284,33,14,25,098,28,11,09,175,29,1*67
$GPGSV,4,3,13,15,06,235,24,13,05,203,25,03,04,061,16,02,04,029,20,1*68
$GPGSV,4,4,13,32,02,343,17,1*57
$GPGSV,1,1,04,24,55,278,29,06,35,148,22,14,25,098,19,11,09,175,19,8*6D
$GLGSV,1,1,02,75,74,348,32,85,54,167,25,1*7E
$GAGSV,3,1,10,02,75,070,37,30,45,286,33,36,44,114,33,11,31,051,28,7*70
$GAGSV,3,2,10,07,28,281,29,25,24,094,28,08,17,227,28,34,16,166,26,7*7E
$GAGSV,3,3,10,10,13,030,28,29,10,332,27,7*75
$GAGSV,2,1,06,02,75,070,26,30,45,286,25,36,44,114,25,11,31,051,15,1*7E
$GAGSV,2,2,06,07,28,281,23,08,17,227,18,1*74
$GBGSV,3,1,10,24,65,294,31,35,64,088,31,26,59,137,30,44,50,189,30,1*73
$GBGSV,3,2,10,12,26,200,25,29,13,044,23,25,11,305,21,45,05,127,17,1*78
$GBGSV,3,3,10,41,05,314,19,34,02,212,17,1*7B
$GBGSV,1,1,04,24,65,294,28,35,64,088,25,26,59,137,26,44,50,189,26,5*7D
$GNGLL,4910.426200,N,12304.404828,W,232728.000,A,D*56
$GNRMC,232729.000,A,4910.426170,N,12304.404876,W,0.01,0.00,070125,,,D,V*15
$GNGGA,232729.000,4910.426170,N,12304.404876,W,2,40,0.52,22.129,M,-16.816,M,,*77
$GNVTG,0.00,T,,M,0.01,N,0.03,K,D*24
$GNGSA,A,3,19,24,17,06,12,14,11,15,13,,,,0.85,0.52,0.67,1*04
$GNGSA,A,3,75,85,,,,,,,,,,,0.85,0.52,0.67,2*06
$GNGSA,A,3,02,30,36,11,07,25,08,34,10,29,,,0.85,0.52,0.67,3*09
$GNGSA,A,3,24,35,26,44,29,,,,,,,,0.85,0.52,0.67,4*00
$GPGSV,4,1,13,19,82,104,40,24,55,278,39,17,50,059,36,06,35,148,34,1*61
$GPGSV,4,2,13,44,33,171,32,12,27,284,33,14,25,098,28,11,09,175,29,1*66
$GPGSV,4,3,13,15,06,235,24,13,05,203,25,03,04,061,16,02,04,029,20,1*68
$GPGSV,4,4,13,32,02,343,17,1*57
$GPGSV,1,1,04,24,55,278,28,06,35,148,21,14,25,098,19,11,09,175,19,8*6F
$GLGSV,1,1,03,75,74,348,32,84,55,053,,85,54,167,25,1*45
$GAGSV,3,1,10,02,75,070,37,30,45,286,33,36,44,114,33,11,31,051,28,7*70
$GAGSV,3,2,10,07,27,280,29,25,24,094,28,08,17,227,28,34,16,166,26,7*70
$GAGSV,3,3,10,10,13,030,28,29,10,332,27,7*75
$GAGSV,2,1,06,02,75,070,26,30,45,286,25,36,44,114,25,11,31,051,15,1*7E
$GAGSV,2,2,06,07,27,280,23,08,17,227,18,1*7A
$GBGSV,3,1,10,24,65,294,30,35,64,088,30,26,59,137,29,44,50,189,29,1*73
$GBGSV,3,2,10,12,26,200,24,29,13,044,22,25,11,305,21,45,05,127,17,1*78
$GBGSV,3,3,10,41,05,314,18,34,02,212,16,1*7B
$GBGSV,1,1,04,24,65,294,28,35,64,088,25,26,59,137,26,44,50,189,26,5*7D
$GNGLL,4910.426170,N,12304.404876,W,232729.000,A,D*58
$GNRMC,232730.000,A,4910.426140,N,12304.404822,W,0.01,0.00,070125,,,D,V*1F
$GNGGA,232730.000,4910.426140,N,12304.404822,W,2,40,0.52,22.272,M,-16.817,M,,*71
$GNVTG,0.00,T,,M,0.01,N,0.02,K,D*25
$GNGSA,A,3,19,24,17,06,12,14,11,15,13,,,,0.85,0.52,0.67,1*04
$GNGSA,A,3,75,85,,,,,,,,,,,0.85,0.52,0.67,2*06
$GNGSA,A,3,02,30,36,11,07,25,34,08,10,29,,,0.85,0.52,0.67,3*09
$GNGSA,A,3,24,35,26,44,29,,,,,,,,0.85,0.52,0.67,4*00
$GPGSV,4,1,13,19,82,104,40,24,55,278,39,17,50,059,36,06,35,148,34,1*61
$GPGSV,4,2,13,44,33,171,32,12,27,284,33,14,25,098,28,11,09,175,29,1*66
$GPGSV,4,3,13,15,06,235,24,13,05,203,25,03,04,061,15,02,04,029,20,1*6B
$GPGSV,4,4,13,32,02,343,17,1*57
$GPGSV,1,1,04,24,55,278,28,06,35,148,21,14,25,098,19,11,09,175,19,8*6F
$GLGSV,1,1,04,75,74,348,32,84,55,053,,85,54,167,25,86,05,193,,1*72
$GAGSV,3,1,10,02,75,070,37,30,45,286,33,36,44,114,33,11,31,051,27,7*7F
$GAGSV,3,2,10,07,27,280,29,25,24,094,28,34,16,166,26,08,16,226,28,7*70
$GAGSV,3,3,10,10,13,030,28,29,10,332,27,7*75
$GAGSV,2,1,06,02,75,070,26,30,45,286,25,36,44,114,25,11,31,051,15,1*7E
$GAGSV,2,2,06,07,27,280,23,08,16,226,18,1*7A
$GBGSV,3,1,10,24,65,294,30,35,64,088,30,26,59,137,29,44,50,189,29,1*73
$GBGSV,3,2,10,12,26,200,24,29,13,044,22,25,11,305,21,45,05,127,17,1*78
$GBGSV,3,3,10,41,05,314,17,34,02,212,16,1*74
$GBGSV,1,1,04,24,65,294,28,35,64,088,25,26,59,137,26,44,50,189,26,5*7D
$GNGLL,4910.426140,N,12304.404822,W,232730.000,A,D*52
$GNRMC,232731.000,A,4910.426128,N,12304.404864,W,0.01,0.00,070125,,,D,V*12
