$GNGGA,191057.000,4910.426314,N,12304.399842,W,2,30,0.50,12.825,M,-16.816,M,,*74
$GNGLL,4910.426314,N,12304.399842,W,191057.000,A,D*58
$GNGSA,A,3,09,07,04,16,20,30,27,26,11,08,03,,0.78,0.50,0.59,1*01
$GNGSA,A,3,69,68,79,67,,,,,,,,,0.78,0.50,0.59,2*0A
$GNGSA,A,3,09,31,06,05,04,24,34,15,,,,,0.78,0.50,0.59,3*0C
$GNGSA,A,3,37,20,23,32,19,38,25,,,,,,0.78,0.50,0.59,4*00
$GPGSV,4,1,13,09,87,147,36,07,58,258,33,04,56,117,30,16,40,060,30,1*62
$GPGSV,4,2,13,46,33,188,28,20,22,315,28,30,21,254,28,27,15,101,23,1*6F
$GPGSV,4,3,13,26,13,044,24,11,10,292,25,08,07,132,19,03,07,173,21,1*6B
$GPGSV,4,4,13,06,03,257,,1*53
$GLGSV,2,1,07,78,67,047,16,69,63,321,24,68,61,139,30,79,54,212,27,1*70
$GLGSV,2,2,07,67,11,140,21,86,09,004,,80,03,216,17,1*43
$GAGSV,3,1,09,09,84,100,29,31,59,129,28,06,58,115,27,05,39,298,24,7*78
$GAGSV,3,2,09,04,32,116,22,24,25,187,20,34,13,286,16,15,09,335,16,7*74
$GAGSV,3,3,09,36,02,239,09,7*4C
$GBGSV,4,1,13,37,64,212,37,20,59,292,37,23,57,064,37,32,52,166,36,1*76
$GBGSV,4,2,13,19,14,316,28,38,12,333,28,46,11,227,,25,07,053,25,1*74
$GBGSV,4,3,13,08,06,342,22,12,03,020,23,34,02,046,,41,02,146,15,1*7C
$GBGSV,4,4,13,04,01,262,,1*47
$GNRMC,191057.000,A,4910.426314,N,12304.399842,W,0.01,0.00,051224,,,D,V*14
$GNVTG,0.00,T,,M,0.01,N,0.03,K,D*24
$GNGGA,191058.000,4910.426272,N,12304.399842,W,2,30,0.50,12.680,M,-16.816,M,,*7B
$GNGLL,4910.426272,N,12304.399842,W,191058.000,A,D*56
$GNGSA,A,3,09,07,04,16,20,30,27,26,11,08,03,,0.78,0.50,0.59,1*01
$GNGSA,A,3,69,68,79,67,,,,,,,,,0.78,0.50,0.59,2*0A
$GNGSA,A,3,09,31,06,05,04,24,34,15,,,,,0.78,0.50,0.59,3*0C
$GNGSA,A,3,37,20,23,32,19,38,25,,,,,,0.78,0.50,0.59,4*00
$GPGSV,4,1,13,09,87,147,36,07,58,258,33,04,56,117,30,16,40,060,30,1*62
$GPGSV,4,2,13,46,33,188,28,20,22,315,28,30,21,254,28,27,15,101,23,1*6F
$GPGSV,4,3,13,26,13,044,24,11,10,292,24,08,07,132,19,03,07,173,21,1*6A
$GPGSV,4,4,13,06,03,257,,1*53
$GLGSV,2,1,07,78,67,047,16,69,63,321,25,68,61,139,31,79,54,212,27,1*70
$GLGSV,2,2,07,67,11,140,21,86,09,004,,80,03,216,17,1*43
$GAGSV,3,1,09,09,84,100,29,31,59,129,28,06,58,115,27,05,39,298,24,7*78
$GAGSV,3,2,09,04,32,116,22,24,25,187,20,34,13,286,16,15,09,335,15,7*77
$GAGSV,3,3,09,36,02,239,09,7*4C
$GBGSV,4,1,13,37,64,212,37,20,59,292,37,23,57,064,37,32,52,166,35,1*75
$GBGSV,4,2,13,19,14,316,28,38,12,333,28,46,11,227,,25,07,053,25,1*74
$GBGSV,4,3,13,08,06,342,22,12,03,020,23,34,02,046,,41,02,146,16,1*7F
$GBGSV,4,4,13,04,01,262,,1*47
$GNRMC,191058.000,A,4910.426272,N,12304.399842,W,0.02,0.00,051224,,,D,V*19
$GNVTG,0.00,T,,M,0.02,N,0.03,K,D*27
$GNGGA,191059.000,4910.426188,N,12304.399896,W,2,30,0.50,12.451,M,-16.816,M,,*7B
$GNGLL,4910.426188,N,12304.399896,W,191059.000,A,D*58
$GNGSA,A,3,09,07,04,16,20,30,27,26,11,08,03,,0.78,0.50,0.59,1*01
$GNGSA,A,3,69,68,79,67,,,,,,,,,0.78,0.50,0.59,2*0A
$GNGSA,A,3,09,31,06,05,04,24,34,15,,,,,0.78,0.50,0.59,3*0C
$GNGSA,A,3,37,20,23,32,19,38,25,,,,,,0.78,0.50,0.59,4*00
$GPGSV,4,1,13,09,87,147,36,07,58,258,33,04,56,117,30,16,40,060,30,1*62
$GPGSV,4,2,13,46,33,188,28,20,22,315,28,30,21,254,28,27,15,101,24,1*68
$GPGSV,4,3,13,26,13,044,23,11,10,292,24,08,07,132,20,03,07,173,22,1*64
$GPGSV,4,4,13,06,03,257,,1*53
$GLGSV,2,1,07,78,67,047,16,69,63,321,24,68,61,139,31,79,54,212,27,1*71
$GLGSV,2,2,07,67,11,140,21,86,09,004,,80,03,216,16,1*42
$GAGSV,3,1,09,09,84,100,29,31,59,129,28,06,58,115,27,05,39,298,24,7*78
$GAGSV,3,2,09,04,32,116,22,24,25,187,20,34,13,286,16,15,09,335,16,7*74
$GAGSV,3,3,09,36,02,239,09,7*4C
$GBGSV,4,1,13,37,64,212,37,20,59,292,37,23,57,064,37,32,52,166,35,1*75
$GBGSV,4,2,13,19,14,316,28,38,12,333,28,46,11,227,,25,07,053,26,1*77
$GBGSV,4,3,13,08,06,342,22,12,03,020,23,34,02,046,,41,02,146,16,1*7F
$GBGSV,4,4,13,04,01,262,,1*47
$GNRMC,191059.000,A,4910.426188,N,12304.399896,W,0.02,0.00,051224,,,D,V*17
$GNVTG,0.00,T,,M,0.02,N,0.04,K,D*20
$GNGGA,191100.000,4910.426116,N,12304.399962,W,2,30,0.50,12.238,M,-16.816,M,,*72
$GNGLL,4910.426116,N,12304.399962,W,191100.000,A,D*58
$GNGSA,A,3,09,07,04,16,20,30,27,26,11,08,03,,0.78,0.50,0.59,1*01
$GNGSA,A,3,69,68,79,67,,,,,,,,,0.78,0.50,0.59,2*0A
$GNGSA,A,3,09,31,06,05,04,24,34,15,,,,,0.78,0.50,0.59,3*0C
$GNGSA,A,3,37,20,23,32,19,38,25,,,,,,0.78,0.50,0.59,4*00
$GPGSV,4,1,13,09,87,147,36,07,58,258,34,04,56,117,30,16,40,060,30,1*65
$GPGSV,4,2,13,46,33,188,28,20,22,315,28,30,21,254,28,27,15,101,25,1*69
$GPGSV,4,3,13,26,13,044,24,11,10,292,25,08,07,132,20,03,07,173,23,1*63
$GPGSV,4,4,13,06,03,257,,1*53
$GLGSV,2,1,07,78,67,047,16,69,63,321,25,68,61,139,31,79,54,212,27,1*70
$GLGSV,2,2,07,67,11,140,21,86,09,004,,80,03,216,17,1*43
$GAGSV,3,1,09,09,84,100,29,31,59,128,28,06,58,115,27,05,39,298,24,7*79
$GAGSV,3,2,09,04,32,116,22,24,25,187,20,34,13,286,16,15,09,335,16,7*74
$GAGSV,3,3,09,36,02,239,10,7*44
$GBGSV,4,1,13,37,64,212,37,20,59,292,37,23,57,064,37,32,52,166,35,1*75
$GBGSV,4,2,13,19,14,316,28,38,12,333,28,46,11,227,,25,07,053,26,1*77
$GBGSV,4,3,13,08,06,342,22,12,03,020,23,34,02,046,,41,02,146,16,1*7F
$GBGSV,4,4,13,04,01,262,,1*47
$GNRMC,191100.000,A,4910.426116,N,12304.399962,W,0.02,0.00,051224,,,D,V*17
$GNVTG,0.00,T,,M,0.02,N,0.04,K,D*20
$GNGGA,191101.000,4910.426068,N,12304.400076,W,2,30,0.50,12.060,M,-16.817,M,,*7E
$GNGLL,4910.426068,N,12304.400076,W,191101.000,A,D*5A
$GNGSA,A,3,09,07,04,16,20,30,27,26,11,08,03,,0.78,0.50,0.59,1*01
$GNGSA,A,3,69,68,79,67,,,,,,,,,0.78,0.50,0.59,2*0A
$GNGSA,A,3,09,31,06,05,04,24,34,15,,,,,0.78,0.50,0.59,3*0C
$GNGSA,A,3,37,20,23,32,19,38,25,,,,,,0.78,0.50,0.59,4*00
$GPGSV,4,1,13,09,87,147,36,07,58,258,34,04,56,117,30,16,40,060,30,1*65
$GPGSV,4,2,13,46,33,188,28,20,22,315,28,30,21,254,28,27,15,101,24,1*68
$GPGSV,4,3,13,26,13,044,24,11,10,292,25,08,07,132,20,03,07,173,23,1*63
$GPGSV,4,4,13,06,03,257,,1*53
$GLGSV,2,1,07,78,67,047,16,69,63,321,24,68,61,139,31,79,54,212,27,1*71
$GLGSV,2,2,07,67,11,140,21,86,09,004,,80,03,216,17,1*43
$GAGSV,3,1,09,09,84,100,29,31,59,128,28,06,58,115,27,05,39,298,24,7*79
$GAGSV,3,2,09,04,32,116,22,24,25,187,20,34,13,286,16,15,09,335,16,7*74
$GAGSV,3,3,09,36,02,239,11,7*45
$GBGSV,4,1,13,37,64,212,37,20,59,292,37,23,57,064,37,32,52,166,35,1*75
$GBGSV,4,2,13,19,14,316,28,38,12,333,28,46,11,227,,25,07,053,25,1*74
$GBGSV,4,3,13,08,06,342,22,12,03,020,23,34,02,046,,41,02,146,16,1*7F
$GBGSV,4,4,13,04,01,262,,1*47
$GNRMC,191101.000,A,4910.426068,N,12304.400076,W,0.02,0.00,051224,,,D,V*15
$GNVTG,0.00,T,,M,0.02,N,0.04,K,D*20
$GNGGA,191102.000,4910.426008,N,12304.400166,W,2,30,0.50,11.963,M,-16.816,M,,*73
$GNGLL,4910.426008,N,12304.400166,W,191102.000,A,D*5F
$GNGSA,A,3,09,07,04,16,20,30,27,26,11,08,03,,0.78,0.50,0.59,1*01
$GNGSA,A,3,69,68,79,67,,,,,,,,,0.78,0.50,0.59,2*0A
$GNGSA,A,3,09,31,06,05,04,24,34,15,,,,,0.78,0.50,0.59,3*0C
$GNGSA,A,3,37,20,23,32,19,38,25,,,,,,0.78,0.50,0.59,4*00
$GPGSV,4,1,13,09,87,147,36,07,58,258,34,04,56,117,30,16,40,060,30,1*65
$GPGSV,4,2,13,46,33,188,28,20,22,315,28,30,21,254,28,27,15,101,24,1*68
$GPGSV,4,3,13,26,13,044,24,11,10,292,24,08,07,132,20,03,07,173,21,1*60
$GPGSV,4,4,13,06,03,257,,1*53
$GLGSV,2,1,07,78,67,047,16,69,63,321,25,68,61,139,31,79,54,212,27,1*70
$GLGSV,2,2,07,67,11,140,21,86,09,004,,80,03,216,17,1*43
$GAGSV,3,1,09,09,84,100,29,31,59,128,28,06,58,115,27,05,39,298,24,7*79
$GAGSV,3,2,09,04,32,116,22,24,25,187,20,34,13,286,16,15,09,335,16,7*74
$GAGSV,3,3,09,36,02,239,11,7*45
$GBGSV,4,1,13,37,64,212,37,20,59,292,37,23,57,064,37,32,52,166,35,1*75
$GBGSV,4,2,13,19,14,316,28,38,12,333,28,46,11,227,,25,07,053,24,1*75
$GBGSV,4,3,13,08,06,342,22,12,03,020,23,34,02,046,,41,02,146,16,1*7F
$GBGSV,4,4,13,04,01,262,,1*47
$GNRMC,191102.000,A,4910.426008,N,12304.400166,W,0.02,0.00,051224,,,D,V*10
$GNVTG,0.00,T,,M,0.02,N,0.04,K,D*20
$GNGGA,191103.000,4910.425966,N,12304.400226,W,2,30,0.50,11.913,M,-16.816,M,,*70
$GNGLL,4910.425966,N,12304.400226,W,191103.000,A,D*5B
$GNGSA,A,3,09,07,04,16,20,30,27,26,11,08,03,,0.78,0.50,0.59,1*01
$GNGSA,A,3,69,68,79,67,,,,,,,,,0.78,0.50,0.59,2*0A
$GNGSA,A,3,09,31,06,05,04,24,34,15,,,,,0.78,0.50,0.59,3*0C
$GNGSA,A,3,37,20,23,32,19,38,25,,,,,,0.78,0.50,0.59,4*00
$GPGSV,4,1,13,09,87,147,36,07,58,258,34,04,56,117,30,16,40,060,30,1*65
$GPGSV,4,2,13,46,33,188,28,20,22,315,28,30,21,254,28,27,15,101,24,1*68
$GPGSV,4,3,13,26,13,044,24,11,10,292,24,08,07,132,20,03,07,173,21,1*60
$GPGSV,4,4,13,06,03,257,,1*53
$GLGSV,2,1,07,78,67,047,16,69,63,321,25,68,61,139,31,79,54,212,27,1*70
$GLGSV,2,2,07,67,11,140,20,86,09,004,,80,03,216,17,1*42
$GAGSV,3,1,09,09,84,100,29,31,59,128,28,06,58,115,27,05,39,298,24,7*79
$GAGSV,3,2,09,04,32,116,22,24,25,187,20,34,13,286,17,15,09,335,16,7*75
$GAGSV,3,3,09,36,02,239,11,7*45
$GBGSV,4,1,13,37,64,212,37,20,59,292,37,23,57,064,37,32,52,166,35,1*75
$GBGSV,4,2,13,19,14,316,28,38,12,333,28,46,11,227,,25,07,053,24,1*75
$GBGSV,4,3,13,08,06,342,22,12,03,020,23,34,02,046,,41,02,146,16,1*7F
$GBGSV,4,4,13,04,01,262,,1*47
$GNRMC,191103.000,A,4910.425966,N,12304.400226,W,0.02,0.00,051224,,,D,V*14
$GNVTG,0.00,T,,M,0.02,N,0.03,K,D*27
$GNGGA,191104.000,4910.425930,N,12304.400268,W,2,30,0.50,11.871,M,-16.816,M,,*7B
$GNGLL,4910.425930,N,12304.400268,W,191104.000,A,D*55
$GNGSA,A,3,09,07,04,16,20,30,27,26,11,08,03,,0.78,0.50,0.59,1*01
$GNGSA,A,3,69,68,79,67,,,,,,,,,0.78,0.50,0.59,2*0A
$GNGSA,A,3,09,31,06,05,04,24,34,15,,,,,0.78,0.50,0.59,3*0C
$GNGSA,A,3,37,20,23,32,19,38,25,,,,,,0.78,0.50,0.59,4*00
$GPGSV,4,1,13,09,87,147,36,07,58,258,34,04,56,117,30,16,40,060,30,1*65
$GPGSV,4,2,13,46,33,188,28,20,22,315,28,30,21,254,28,27,15,101,24,1*68
$GPGSV,4,3,13,26,13,044,24,11,10,292,24,08,07,132,20,03,07,173,21,1*60
$GPGSV,4,4,13,06,03,257,,1*53
$GLGSV,2,1,07,78,67,047,16,69,63,321,25,68,61,139,31,79,54,212,27,1*70
$GLGSV,2,2,07,67,11,140,20,86,09,004,,80,03,216,17,1*42
$GAGSV,3,1,09,09,84,100,29,31,59,128,28,06,58,115,27,05,39,298,25,7*78
$GAGSV,3,2,09,04,32,116,22,24,25,187,20,34,13,286,17,15,09,335,16,7*75
$GAGSV,3,3,09,36,02,239,11,7*45
$GBGSV,4,1,13,37,64,212,37,20,59,292,37,23,57,064,37,32,52,166,35,1*75
$GBGSV,4,2,13,19,14,316,28,38,12,333,27,46,11,227,,25,07,053,24,1*7A
$GBGSV,4,3,13,08,06,342,22,12,03,020,23,34,02,046,,41,02,146,16,1*7F
$GBGSV,4,4,13,04,01,262,,1*47
$GNRMC,191104.000,A,4910.425930,N,12304.400268,W,0.01,0.00,051224,,,D,V*19
$GNVTG,0.00,T,,M,0.01,N,0.03,K,D*24
$GNGGA,191105.000,4910.425918,N,12304.400340,W,2,30,0.50,11.859,M,-16.816,M,,*71
$GNGLL,4910.425918,N,12304.400340,W,191105.000,A,D*55
$GNGSA,A,3,09,07,04,16,20,30,27,26,11,03,08,,0.78,0.50,0.59,1*01
$GNGSA,A,3,69,68,79,67,,,,,,,,,0.78,0.50,0.59,2*0A
$GNGSA,A,3,09,31,06,05,04,24,34,15,,,,,0.78,0.50,0.59,3*0C
$GNGSA,A,3,37,20,23,32,19,38,25,,,,,,0.78,0.50,0.59,4*00
$GPGSV,4,1,13,09,87,147,36,07,58,258,34,04,56,117,30,16,40,060,30,1*65
$GPGSV,4,2,13,46,33,188,28,20,22,315,28,30,21,254,28,27,15,101,24,1*68
$GPGSV,4,3,13,26,13,044,24,11,10,292,24,03,07,173,21,08,07,132,20,1*60
$GPGSV,4,4,13,06,03,257,,1*53
$GLGSV,2,1,07,78,67,047,16,69,63,321,25,68,61,139,31,79,54,212,27,1*70
$GLGSV,2,2,07,67,11,140,19,86,09,004,,80,03,216,17,1*48
$GAGSV,3,1,09,09,84,100,29,31,59,128,28,06,58,115,27,05,39,298,25,7*78
$GAGSV,3,2,09,04,32,116,22,24,25,187,20,34,13,286,17,15,09,335,15,7*76
$GAGSV,3,3,09,36,01,239,12,7*45
$GBGSV,4,1,13,37,64,212,36,20,59,292,37,23,57,064,37,32,52,166,34,1*75
$GBGSV,4,2,13,19,14,316,28,38,12,333,27,46,11,227,,25,07,053,24,1*7A
$GBGSV,4,3,13,08,06,342,21,12,03,020,23,34,02,046,,41,02,146,16,1*7C
$GBGSV,4,4,13,04,01,262,,1*47
$GNRMC,191105.000,A,4910.425918,N,12304.400340,W,0.01,0.00,051224,,,D,V*19
$GNVTG,0.00,T,,M,0.01,N,0.03,K,D*24
$GNGGA,191106.000,4910.425930,N,12304.400382,W,2,30,0.50,11.847,M,-16.816,M,,*79
$GNGLL,4910.425930,N,12304.400382,W,191106.000,A,D*52
$GNGSA,A,3,09,07,04,16,20,30,27,26,11,03,08,,0.78,0.50,0.59,1*01
$GNGSA,A,3,69,68,79,67,,,,,,,,,0.78,0.50,0.59,2*0A
$GNGSA,A,3,09,31,06,05,04,24,34,15,,,,,0.78,0.50,0.59,3*0C
$GNGSA,A,3,37,20,23,32,19,38,25,,,,,,0.78,0.50,0.59,4*00
$GPGSV,4,1,13,09,87,147,36,07,58,258,34,04,56,117,30,16,40,060,30,1*65
$GPGSV,4,2,13,46,33,188,28,20,22,315,28,30,21,254,28,27,15,101,25,1*69
$GPGSV,4,3,13,26,13,044,24,11,10,292,24,03,07,173,21,08,07,132,22,1*62
$GPGSV,4,4,13,06,03,257,,1*53
$GLGSV,2,1,07,78,67,047,16,69,63,321,25,68,61,139,31,79,54,212,27,1*70
$GLGSV,2,2,07,67,11,140,19,86,09,004,,80,03,216,16,1*49
$GAGSV,3,1,09,09,84,100,29,31,59,128,28,06,58,115,27,05,39,298,25,7*78
$GAGSV,3,2,09,04,32,116,22,24,25,187,20,34,13,286,16,15,09,335,15,7*77
$GAGSV,3,3,09,36,01,239,12,7*45
$GBGSV,4,1,13,37,64,212,36,20,59,292,37,23,57,064,37,32,52,166,34,1*75
$GBGSV,4,2,13,19,14,316,28,38,12,333,27,46,11,227,,25,07,053,24,1*7A
$GBGSV,4,3,13,08,06,342,21,12,03,020,23,34,02,046,,41,02,146,16,1*7C
$GBGSV,4,4,13,04,01,262,,1*47
$GNRMC,191106.000,A,4910.425930,N,12304.400382,W,0.01,0.00,051224,,,D,V*1E
$GNVTG,0.00,T,,M,0.01,N,0.02,K,D*25
$GNGGA,191107.000,4910.425900,N,12304.400484,W,2,30,0.50,11.778,M,-16.816,M,,*79
