$GNGGA,194846.000,4910.426098,N,12304.402800,W,2,27,0.57,5.199,M,-16.816,M,,*44
$GNGLL,4910.426098,N,12304.402800,W,194846.000,A,D*51
$GNGSA,A,3,07,09,04,30,20,16,27,08,05,,,,0.96,0.57,0.78,1*07
$GNGSA,A,3,69,79,68,80,,,,,,,,,0.96,0.57,0.78,2*07
$GNGSA,A,3,09,31,05,06,24,04,,,,,,,0.96,0.57,0.78,3*0B
$GNGSA,A,3,37,20,23,32,19,38,08,34,,,,,0.96,0.57,0.78,4*0C
$GPGSV,3,1,12,07,73,280,29,09,68,143,31,04,38,129,23,30,36,264,22,1*66
$GPGSV,3,2,12,44,33,171,25,20,29,300,25,16,27,048,21,27,24,085,25,1*6F
$GPGSV,3,3,12,08,20,120,22,05,11,328,18,14,02,210,16,11,01,278,,1*64
$GLGSV,2,1,07,69,82,275,29,79,75,234,32,78,47,042,15,68,40,153,24,1*7F
$GLGSV,2,2,07,80,20,226,25,70,18,324,,87,10,031,19,1*4B
$GAGSV,3,1,09,09,71,130,27,31,65,098,25,05,52,300,23,06,45,127,23,7*75
$GAGSV,3,2,09,24,40,189,23,04,20,125,19,15,09,323,07,34,04,275,,7*7B
$GAGSV,3,3,09,03,02,303,,7*4B
$GBGSV,4,1,14,37,81,213,38,20,66,259,38,23,42,061,34,32,35,168,32,1*79
$GBGSV,4,2,14,19,28,313,29,46,25,235,,38,17,332,27,08,12,341,19,1*73
$GBGSV,4,3,14,11,06,056,24,34,06,033,21,43,05,076,17,13,04,346,18,1*7E
$GBGSV,4,4,14,12,03,007,21,04,01,262,,1*74
$GNRMC,194846.000,A,4910.426098,N,12304.402800,W,0.03,0.00,051224,,,D,V*1F
$GNVTG,0.00,T,,M,0.03,N,0.05,K,D*20
$GNGGA,194847.000,4910.426074,N,12304.402884,W,2,27,0.57,5.297,M,-16.817,M,,*47
$GNGLL,4910.426074,N,12304.402884,W,194847.000,A,D*5E
$GNGSA,A,3,07,09,04,30,20,16,27,08,05,,,,0.96,0.57,0.78,1*07
$GNGSA,A,3,69,79,68,80,,,,,,,,,0.96,0.57,0.78,2*07
$GNGSA,A,3,09,31,05,06,24,04,,,,,,,0.96,0.57,0.78,3*0B
$GNGSA,A,3,37,20,23,32,19,38,08,34,,,,,0.96,0.57,0.78,4*0C
$GPGSV,3,1,12,07,73,280,29,09,68,143,31,04,38,129,24,30,36,264,21,1*62
$GPGSV,3,2,12,44,33,171,25,20,29,300,25,16,27,048,21,27,24,085,24,1*6E
$GPGSV,3,3,12,08,20,120,23,05,11,328,18,14,02,210,16,11,01,278,,1*65
$GLGSV,2,1,07,69,82,275,29,79,75,234,32,78,47,042,14,68,40,153,24,1*7E
$GLGSV,2,2,07,80,20,226,25,70,18,324,,87,10,031,19,1*4B
$GAGSV,3,1,09,09,71,130,26,31,65,098,25,05,52,300,22,06,45,127,23,7*75
$GAGSV,3,2,09,24,40,189,22,04,20,125,19,15,09,323,07,34,04,275,,7*7A
$GAGSV,3,3,09,03,02,303,,7*4B
$GBGSV,4,1,14,37,81,213,38,20,66,259,38,23,42,061,34,32,35,168,32,1*79
$GBGSV,4,2,14,19,28,313,29,46,25,235,,38,17,332,27,08,12,341,19,1*73
$GBGSV,4,3,14,11,06,056,24,34,06,033,22,43,05,076,18,13,04,346,18,1*72
$GBGSV,4,4,14,12,03,007,21,04,01,262,,1*74
$GNRMC,194847.000,A,4910.426074,N,12304.402884,W,0.02,0.00,051224,,,D,V*11
$GNVTG,0.00,T,,M,0.02,N,0.04,K,D*20
$GNGGA,194848.000,4910.426044,N,12304.403046,W,2,27,0.57,5.459,M,-16.816,M,,*49
$GNGLL,4910.426044,N,12304.403046,W,194848.000,A,D*55
$GNGSA,A,3,07,09,04,30,20,16,27,08,05,,,,0.96,0.57,0.78,1*07
$GNGSA,A,3,69,79,68,80,,,,,,,,,0.96,0.57,0.78,2*07
$GNGSA,A,3,09,31,05,06,24,04,,,,,,,0.96,0.57,0.78,3*0B
$GNGSA,A,3,37,20,23,32,19,38,08,34,,,,,0.96,0.57,0.78,4*0C
$GPGSV,3,1,12,07,73,280,30,09,68,143,31,04,38,129,25,30,36,264,24,1*6E
$GPGSV,3,2,12,44,33,171,25,20,29,300,27,16,27,048,22,27,24,085,26,1*6D
$GPGSV,3,3,12,08,20,120,25,05,11,328,18,14,02,210,18,11,01,278,,1*6D
$GLGSV,2,1,07,69,82,275,29,79,75,234,31,78,47,042,15,68,40,153,24,1*7C
$GLGSV,2,2,07,80,20,226,24,70,18,324,,87,10,031,19,1*4A
$GAGSV,3,1,09,09,71,130,27,31,65,098,26,05,52,300,23,06,45,127,24,7*71
$GAGSV,3,2,09,24,40,189,23,04,20,125,19,15,09,323,07,34,04,275,,7*7B
$GAGSV,3,3,09,03,02,303,,7*4B
$GBGSV,4,1,14,37,81,213,38,20,66,259,38,23,42,061,34,32,35,168,32,1*79
$GBGSV,4,2,14,19,28,313,29,46,25,235,,38,17,332,27,08,12,341,19,1*73
$GBGSV,4,3,14,11,06,056,24,34,06,033,22,43,05,076,19,13,04,346,18,1*73
$GBGSV,4,4,14,12,03,007,21,04,01,262,,1*74
$GNRMC,194848.000,A,4910.426044,N,12304.403046,W,0.02,0.00,051224,,,D,V*1A
$GNVTG,0.00,T,,M,0.02,N,0.04,K,D*20
$GNGGA,194849.000,4910.426032,N,12304.403202,W,2,27,0.57,5.644,M,-16.816,M,,*45
$GNGLL,4910.426032,N,12304.403202,W,194849.000,A,D*57
$GNGSA,A,3,07,09,04,30,20,16,27,08,05,,,,0.96,0.57,0.78,1*07
$GNGSA,A,3,69,79,68,80,,,,,,,,,0.96,0.57,0.78,2*07
$GNGSA,A,3,09,31,05,06,24,04,,,,,,,0.96,0.57,0.78,3*0B
$GNGSA,A,3,37,20,23,32,19,38,08,34,,,,,0.96,0.57,0.78,4*0C
$GPGSV,3,1,12,07,73,280,30,09,68,143,31,04,38,129,25,30,36,264,24,1*6E
$GPGSV,3,2,12,44,33,171,25,20,29,300,27,16,27,048,22,27,24,085,25,1*6E
$GPGSV,3,3,12,08,20,120,25,05,11,328,18,14,02,210,17,11,01,278,,1*62
$GLGSV,2,1,07,69,82,275,29,79,75,234,31,78,47,042,15,68,40,153,24,1*7C
$GLGSV,2,2,07,80,20,226,24,70,18,324,,87,10,031,18,1*4B
$GAGSV,3,1,09,09,71,130,27,31,65,098,26,05,52,300,24,06,45,127,24,7*76
$GAGSV,3,2,09,24,40,189,23,04,20,125,19,15,09,323,07,34,04,275,,7*7B
$GAGSV,3,3,09,03,02,303,,7*4B
$GBGSV,4,1,14,37,81,213,38,20,66,259,38,23,42,061,34,32,35,168,31,1*7A
$GBGSV,4,2,14,19,28,313,29,46,25,235,,38,17,332,27,08,12,341,19,1*73
$GBGSV,4,3,14,11,06,056,24,34,06,033,22,43,05,076,19,13,04,346,18,1*73
$GBGSV,4,4,14,12,03,007,20,04,01,262,,1*75
$GNRMC,194849.000,A,4910.426032,N,12304.403202,W,0.04,0.00,051224,,,D,V*1E
$GNVTG,0.00,T,,M,0.04,N,0.08,K,D*2A
$GNGGA,194850.000,4910.426044,N,12304.403046,W,2,27,0.57,5.460,M,-16.816,M,,*4A
$GNGLL,4910.426044,N,12304.403046,W,194850.000,A,D*5C
$GNGSA,A,3,07,09,04,30,20,16,27,08,05,,,,0.96,0.57,0.78,1*07
$GNGSA,A,3,69,79,68,80,,,,,,,,,0.96,0.57,0.78,2*07
$GNGSA,A,3,09,31,05,06,24,04,,,,,,,0.96,0.57,0.78,3*0B
$GNGSA,A,3,37,20,23,32,19,38,08,34,,,,,0.96,0.57,0.78,4*0C
$GPGSV,3,1,12,07,73,280,30,09,68,143,32,04,38,129,25,30,36,264,24,1*6D
$GPGSV,3,2,12,44,33,171,25,20,29,300,27,16,27,048,22,27,24,085,25,1*6E
$GPGSV,3,3,12,08,20,120,25,05,11,328,18,14,02,210,17,11,01,278,,1*62
$GLGSV,2,1,07,69,82,275,29,79,75,234,31,78,47,042,15,68,40,153,24,1*7C
$GLGSV,2,2,07,80,20,226,24,70,18,324,,87,10,031,18,1*4B
$GAGSV,3,1,09,09,71,130,27,31,65,098,26,05,52,300,24,06,45,127,24,7*76
$GAGSV,3,2,09,24,40,189,23,04,20,125,19,15,09,323,07,34,04,275,,7*7B
$GAGSV,3,3,09,03,02,303,,7*4B
$GBGSV,4,1,14,37,81,213,38,20,66,259,38,23,42,061,34,32,35,168,31,1*7A
$GBGSV,4,2,14,19,28,313,29,46,25,235,,38,17,332,27,08,12,341,19,1*73
$GBGSV,4,3,14,11,06,056,24,34,06,033,22,43,05,076,20,13,04,346,18,1*79
$GBGSV,4,4,14,12,03,007,20,04,01,262,,1*75
$GNRMC,194850.000,A,4910.426044,N,12304.403046,W,0.04,0.00,051224,,,D,V*15
$GNVTG,0.00,T,,M,0.04,N,0.07,K,D*25
$GNGGA,194851.000,4910.426032,N,12304.403178,W,2,27,0.57,5.600,M,-16.816,M,,*42
$GNGLL,4910.426032,N,12304.403178,W,194851.000,A,D*50
$GNGSA,A,3,07,09,04,30,20,16,27,08,05,,,,0.96,0.57,0.78,1*07
$GNGSA,A,3,69,79,68,80,,,,,,,,,0.96,0.57,0.78,2*07
$GNGSA,A,3,09,31,05,06,24,04,,,,,,,0.96,0.57,0.78,3*0B
$GNGSA,A,3,37,20,23,32,19,38,08,34,,,,,0.96,0.57,0.78,4*0C
$GPGSV,3,1,12,07,73,280,30,09,68,143,32,04,38,129,26,30,36,264,24,1*6E
$GPGSV,3,2,12,44,33,171,25,20,29,299,26,16,27,048,22,27,24,085,25,1*6E
$GPGSV,3,3,12,08,20,120,26,05,11,328,18,14,02,210,16,11,01,278,,1*60
$GLGSV,2,1,07,69,82,275,29,79,75,234,31,78,47,042,15,68,40,153,24,1*7C
$GLGSV,2,2,07,80,20,226,24,70,18,324,,87,10,031,18,1*4B
$GAGSV,3,1,09,09,71,130,27,31,65,098,26,05,52,300,24,06,45,127,24,7*76
$GAGSV,3,2,09,24,40,189,23,04,20,125,19,15,09,323,07,34,04,275,,7*7B
$GAGSV,3,3,09,03,02,303,,7*4B
$GBGSV,4,1,14,37,81,213,38,20,66,259,38,23,42,061,34,32,35,168,31,1*7A
$GBGSV,4,2,14,19,28,313,29,46,25,235,,38,17,332,27,08,12,341,19,1*73
$GBGSV,4,3,14,11,06,056,24,34,06,033,22,43,05,076,20,13,04,346,18,1*79
$GBGSV,4,4,14,12,03,007,20,04,01,262,,1*75
$GNRMC,194851.000,A,4910.426032,N,12304.403178,W,0.11,0.00,051224,,,D,V*1D
$GNVTG,0.00,T,,M,0.11,N,0.21,K,D*25
$GNGGA,194852.000,4910.425990,N,12304.403208,W,2,27,0.57,5.597,M,-16.816,M,,*4A
$GNGLL,4910.425990,N,12304.403208,W,194852.000,A,D*55
$GNGSA,A,3,07,09,04,30,20,16,27,08,05,,,,0.96,0.57,0.78,1*07
$GNGSA,A,3,69,79,68,80,,,,,,,,,0.96,0.57,0.78,2*07
$GNGSA,A,3,09,31,05,06,24,04,,,,,,,0.96,0.57,0.78,3*0B
$GNGSA,A,3,37,20,23,32,19,38,08,34,,,,,0.96,0.57,0.78,4*0C
$GPGSV,3,1,12,07,73,280,30,09,68,143,32,04,38,129,25,30,36,264,24,1*6D
$GPGSV,3,2,12,44,33,171,25,20,29,299,26,16,27,048,21,27,24,085,24,1*6C
$GPGSV,3,3,12,08,20,120,24,05,11,328,18,14,02,210,15,11,01,278,,1*61
$GLGSV,2,1,07,69,82,275,29,79,75,234,31,78,47,042,14,68,40,153,23,1*7A
$GLGSV,2,2,07,80,20,226,25,70,18,324,,87,10,031,18,1*4A
$GAGSV,3,1,09,09,71,130,27,31,65,098,26,05,52,300,24,06,45,127,24,7*76
$GAGSV,3,2,09,24,40,189,23,04,20,125,19,15,09,323,07,34,04,275,,7*7B
$GAGSV,3,3,09,03,02,303,,7*4B
$GBGSV,4,1,14,37,81,213,38,20,66,259,38,23,42,061,35,32,35,168,32,1*78
$GBGSV,4,2,14,19,28,313,29,46,25,235,,38,17,332,28,08,12,341,20,1*76
$GBGSV,4,3,14,11,06,056,24,34,06,033,23,43,05,076,21,13,04,346,18,1*79
$GBGSV,4,4,14,12,03,007,20,04,01,262,,1*75
$GNRMC,194852.000,A,4910.425990,N,12304.403208,W,0.14,0.00,051224,,,D,V*1D
$GNVTG,0.00,T,,M,0.14,N,0.27,K,D*26
$GNGGA,194853.000,4910.426014,N,12304.403226,W,2,28,0.57,5.563,M,-16.816,M,,*45
$GNGLL,4910.426014,N,12304.403226,W,194853.000,A,D*5E
$GNGSA,A,3,07,09,04,30,20,16,27,08,05,,,,0.95,0.57,0.76,1*0A
$GNGSA,A,3,69,79,68,80,,,,,,,,,0.95,0.57,0.76,2*0A
$GNGSA,A,3,09,31,05,06,24,04,15,,,,,,0.95,0.57,0.76,3*02
$GNGSA,A,3,37,20,23,32,19,38,08,34,,,,,0.95,0.57,0.76,4*01
$GPGSV,3,1,12,07,73,280,29,09,68,143,31,04,38,129,24,30,36,264,23,1*60
$GPGSV,3,2,12,44,33,171,25,20,29,299,26,16,27,048,20,27,24,085,23,1*6A
$GPGSV,3,3,12,08,20,120,24,05,11,328,18,14,02,210,15,11,01,278,,1*61
$GLGSV,2,1,07,69,82,275,29,79,75,234,31,78,47,042,14,68,40,153,23,1*7A
$GLGSV,2,2,07,80,20,226,25,70,18,324,,87,10,031,18,1*4A
$GAGSV,3,1,09,09,71,130,27,31,65,098,25,05,52,300,23,06,45,127,24,7*72
$GAGSV,3,2,09,24,40,189,23,04,20,125,19,15,09,323,08,34,04,275,,7*74
$GAGSV,3,3,09,03,02,303,,7*4B
$GBGSV,4,1,14,37,81,213,38,20,66,259,38,23,42,061,35,32,35,168,32,1*78
$GBGSV,4,2,14,19,28,313,29,46,25,235,,38,17,332,28,08,12,341,20,1*76
$GBGSV,4,3,14,11,06,056,24,34,06,033,23,43,05,076,21,13,04,346,18,1*79
$GBGSV,4,4,14,12,03,007,20,04,01,262,,1*75
$GNRMC,194853.000,A,4910.426014,N,12304.403226,W,0.14,0.00,051224,,,D,V*16
$GNVTG,0.00,T,,M,0.14,N,0.26,K,D*27
$GNGGA,194854.000,4910.425972,N,12304.403190,W,2,28,0.57,5.593,M,-16.816,M,,*49
$GNGLL,4910.425972,N,12304.403190,W,194854.000,A,D*5D
$GNGSA,A,3,07,09,04,30,20,16,27,08,05,,,,0.95,0.57,0.76,1*0A
$GNGSA,A,3,69,79,68,80,,,,,,,,,0.95,0.57,0.76,2*0A
$GNGSA,A,3,09,31,05,06,24,04,15,,,,,,0.95,0.57,0.76,3*02
$GNGSA,A,3,37,20,23,32,19,38,08,34,,,,,0.95,0.57,0.76,4*01
$GPGSV,3,1,12,07,73,280,29,09,68,143,31,04,38,129,25,30,36,264,24,1*66
$GPGSV,3,2,12,44,33,171,25,20,29,299,26,16,27,048,20,27,24,085,23,1*6A
$GPGSV,3,3,12,08,20,120,24,05,11,328,18,14,02,210,16,11,01,278,,1*62
$GLGSV,2,1,07,69,82,275,29,79,75,234,31,78,47,042,15,68,40,153,23,1*7B
$GLGSV,2,2,07,80,20,226,25,70,18,324,,87,10,031,17,1*45
$GAGSV,3,1,09,09,71,130,27,31,65,098,25,05,52,300,23,06,45,127,24,7*72
$GAGSV,3,2,09,24,40,189,23,04,20,125,19,15,09,323,08,34,04,275,,7*74
$GAGSV,3,3,09,03,02,303,,7*4B
$GBGSV,4,1,14,37,81,213,38,20,66,259,38,23,42,061,35,32,35,168,32,1*78
$GBGSV,4,2,14,19,28,313,29,46,25,235,,38,17,332,28,08,12,341,20,1*76
$GBGSV,4,3,14,11,06,056,23,34,06,033,22,43,05,076,21,13,04,346,19,1*7E
$GBGSV,4,4,14,12,03,007,19,04,01,262,,1*7F
$GNRMC,194854.000,A,4910.425972,N,12304.403190,W,0.15,0.00,051224,,,D,V*14
$GNVTG,0.00,T,,M,0.15,N,0.28,K,D*28
$GNGGA,194855.000,4910.425978,N,12304.403214,W,2,28,0.57,5.611,M,-16.816,M,,*44
$GNGLL,4910.425978,N,12304.403214,W,194855.000,A,D*59
$GNGSA,A,3,07,09,04,30,20,16,27,08,05,,,,0.95,0.57,0.76,1*0A
$GNGSA,A,3,69,79,68,80,,,,,,,,,0.95,0.57,0.76,2*0A
$GNGSA,A,3,09,31,05,06,24,04,15,,,,,,0.95,0.57,0.76,3*02
$GNGSA,A,3,37,20,23,32,19,38,08,34,,,,,0.95,0.57,0.76,4*01
$GPGSV,3,1,12,07,73,280,30,09,68,143,32,04,38,129,26,30,36,264,24,1*6E
$GPGSV,3,2,12,44,33,171,25,20,29,299,26,16,27,048,20,27,24,085,26,1*6F
$GPGSV,3,3,12,08,20,120,25,05,11,328,18,14,02,210,16,11,01,278,,1*63
$GLGSV,2,1,07,69,82,275,29,79,75,234,31,78,47,042,15,68,40,153,23,1*7B
$GLGSV,2,2,07,80,20,226,25,70,18,324,,87,10,031,17,1*45
$GAGSV,3,1,09,09,71,130,28,31,65,098,26,05,52,300,24,06,45,127,24,7*79
$GAGSV,3,2,09,24,40,189,24,04,20,125,19,15,09,323,09,34,04,275,,7*72
$GAGSV,3,3,09,03,02,303,,7*4B
$GBGSV,4,1,14,37,81,213,38,20,66,259,38,23,42,061,34,32,35,168,31,1*7A
$GBGSV,4,2,14,19,28,313,29,46,25,235,,38,17,332,28,08,12,341,19,1*7C
$GBGSV,4,3,14,11,06,056,23,34,06,033,22,43,05,076,20,13,04,346,19,1*7F
$GBGSV,4,4,14,12,03,007,19,04,01,262,,1*7F
$GNRMC,194855.000,A,4910.425978,N,12304.403214,W,0.16,0.00,051224,,,D,V*13
$GNVTG,0.00,T,,M,0.16,N,0.29,K,D*2A
$GNGGA,194856.000,4910.425978,N,12304.403154,W,2,28,0.57,5.624,M,-16.816,M,,*46
$GNGLL,4910.425978,N,12304.403154,W,194856.000,A,D*5D
$GNGSA,A,3,07,09,04,30,20,16,27,08,05,,,,0.95,0.57,0.76,1*0A
$GNGSA,A,3,69,79,68,80,,,,,,,,,0.95,0.57,0.76,2*0A
$GNGSA,A,3,09,31,05,06,24,04,15,,,,,,0.95,0.57,0.76,3*02
$GNGSA,A,3,37,20,23,32,19,38,08,34,,,,,0.95,0.57,0.76,4*01
$GPGSV,3,1,12,07,73,280,30,09,68,143,33,04,38,129,26,30,36,264,25,1*6E
$GPGSV,3,2,12,44,33,171,26,20,29,299,26,16,27,048,21,27,24,085,25,1*6E
$GPGSV,3,3,12,08,20,120,25,05,11,328,18,14,02,210,15,11,01,278,,1*60
$GLGSV,2,1,07,69,82,275,29,79,75,234,31,78,47,042,15,68,40,153,23,1*7B
$GLGSV,2,2,07,80,20,226,26,70,18,324,,87,10,031,17,1*46
$GAGSV,3,1,09,09,71,130,29,31,65,098,27,05,52,300,25,06,45,127,25,7*79
$GAGSV,3,2,09,24,40,189,24,04,20,125,19,15,09,323,09,34,04,275,,7*72
$GAGSV,3,3,09,03,02,303,,7*4B
$GBGSV,4,1,14,37,81,213,38,20,66,259,38,23,42,061,34,32,35,168,31,1*7A
$GBGSV,4,2,14,19,28,313,29,46,25,235,,38,17,332,28,08,12,341,19,1*7C
$GBGSV,4,3,14,11,06,056,23,34,06,033,22,43,05,076,20,13,04,346,19,1*7F
$GBGSV,4,4,14,12,03,007,19,04,01,262,,1*7F
$GNRMC,194856.000,A,4910.425978,N,12304.403154,W,0.16,0.00,051224,,,D,V*17
$GNVTG,0.00,T,,M,0.16,N,0.30,K,D*22
$GNGGA,194857.000,4910.426038,N,12304.403214,W,2,28,0.57,5.653,M,-16.816,M,,*4E
$GNGLL,4910.426038,N,12304.403214,W,194857.000,A,D*55
$GNGSA,A,3,07,09,04,30,20,16,27,08,05,,,,0.95,0.57,0.76,1*0A
$GNGSA,A,3,69,79,68,80,,,,,,,,,0.95,0.57,0.76,2*0A
$GNGSA,A,3,09,31,05,06,24,04,15,,,,,,0.95,0.57,0.76,3*02
$GNGSA,A,3,37,20,23,32,19,38,08,34,,,,,0.95,0.57,0.76,4*01
$GPGSV,3,1,12,07,73,280,30,09,68,143,33,04,38,129,27,30,36,264,25,1*6F
$GPGSV,3,2,12,44,33,171,26,20,29,299,26,16,27,048,22,27,24,085,25,1*6D
$GPGSV,3,3,12,08,20,120,26,05,11,328,18,14,02,210,16,11,01,278,,1*60
$GLGSV,2,1,07,69,82,275,29,79,75,234,31,78,47,042,15,68,40,153,23,1*7B
$GLGSV,2,2,07,80,20,226,26,70,18,324,,87,10,031,16,1*47
$GAGSV,3,1,09,09,71,130,29,31,65,098,27,05,52,300,25,06,45,127,25,7*79
$GAGSV,3,2,09,24,40,189,24,04,20,125,19,15,09,323,10,34,04,275,,7*7A
$GAGSV,3,3,09,03,02,303,,7*4B
$GBGSV,4,1,14,37,81,213,38,20,66,259,38,23,42,061,34,32,35,168,31,1*7A
$GBGSV,4,2,14,19,28,313,29,46,25,235,,38,17,332,27,08,12,341,19,1*73
$GBGSV,4,3,14,11,06,056,23,34,06,033,22,43,05,076,20,13,04,346,19,1*7F
$GBGSV,4,4,14,12,03,007,19,04,01,262,,1*7F
$GNRMC,194857.000,A,4910.426038,N,12304.403214,W,0.15,0.00,051224,,,D,V*1C
$GNVTG,0.00,T,,M,0.15,N,0.27,K,D*27
$GNGGA,194858.000,4910.426062,N,12304.403214,W,2,28,0.57,5.731,M,-16.816,M,,*4B
$GNGLL,4910.426062,N,12304.403214,W,194858.000,A,D*55
$GNGSA,A,3,07,09,04,30,20,16,27,08,05,,,,0.95,0.57,0.76,1*0A
$GNGSA,A,3,69,79,68,80,,,,,,,,,0.95,0.57,0.76,2*0A
$GNGSA,A,3,09,31,05,06,24,04,15,,,,,,0.95,0.57,0.76,3*02
$GNGSA,A,3,37,20,23,32,19,38,08,34,,,,,0.95,0.57,0.76,4*01
$GPGSV,3,1,12,07,73,280,30,09,68,143,33,04,38,129,28,30,36,264,25,1*60
$GPGSV,3,2,12,44,33,171,26,20,29,299,26,16,27,048,23,27,25,085,25,1*6D
$GPGSV,3,3,12,08,20,120,26,05,11,328,18,14,02,210,15,11,01,278,,1*63
$GLGSV,2,1,07,69,82,275,29,79,75,234,31,78,47,042,16,68,40,153,24,1*7F
$GLGSV,2,2,07,80,20,226,26,70,18,324,,87,10,031,16,1*47
$GAGSV,3,1,09,09,71,130,29,31,65,098,27,05,52,300,25,06,45,127,25,7*79
$GAGSV,3,2,09,24,40,189,24,04,20,125,19,15,09,323,11,34,04,275,,7*7B
$GAGSV,3,3,09,03,02,303,,7*4B
$GBGSV,4,1,14,37,81,213,38,20,66,259,37,23,42,061,34,32,35,168,30,1*74
$GBGSV,4,2,14,19,28,313,28,46,25,235,,38,17,332,27,08,12,341,19,1*72
$GBGSV,4,3,14,11,06,056,23,34,06,033,22,43,05,076,20,13,04,346,18,1*7E
$GBGSV,4,4,14,12,03,007,19,04,01,262,,1*7F
$GNRMC,194858.000,A,4910.426062,N,12304.403214,W,0.13,0.00,051224,,,D,V*1A
$GNVTG,0.00,T,,M,0.13,N,0.24,K,D*22
$GNGGA,194859.000,4910.426080,N,12304.403250,W,2,28,0.57,5.718,M,-16.816,M,,*4D
$GNGLL,4910.426080,N,12304.403250,W,194859.000,A,D*58
$GNGSA,A,3,07,09,04,30,20,16,27,08,05,,,,0.95,0.57,0.76,1*0A
$GNGSA,A,3,69,79,68,80,,,,,,,,,0.95,0.57,0.76,2*0A
$GNGSA,A,3,09,31,05,06,24,04,15,,,,,,0.95,0.57,0.76,3*02
$GNGSA,A,3,37,20,23,32,19,38,08,34,,,,,0.95,0.57,0.76,4*01
$GPGSV,3,1,12,07,73,280,31,09,68,143,34,04,38,129,28,30,36,264,26,1*65
$GPGSV,3,2,12,44,33,171,26,20,29,299,26,16,27,048,23,27,25,085,25,1*6D
$GPGSV,3,3,12,08,20,120,26,05,11,328,17,14,02,210,15,11,01,278,,1*6C
$GLGSV,2,1,07,69,82,275,29,79,75,234,31,78,47,042,16,68,40,153,24,1*7F
$GLGSV,2,2,07,80,20,226,25,70,18,324,,87,10,031,16,1*44
$GAGSV,3,1,09,09,71,130,29,31,65,098,27,05,52,300,25,06,45,127,26,7*7A
$GAGSV,3,2,09,24,40,189,24,04,20,125,19,15,09,323,11,34,04,275,,7*7B
$GAGSV,3,3,09,03,02,303,,7*4B
$GBGSV,4,1,14,37,81,213,38,20,66,259,37,23,42,061,34,32,35,168,30,1*74
$GBGSV,4,2,14,19,28,313,28,46,25,235,,38,17,332,27,08,12,341,19,1*72
$GBGSV,4,3,14,11,06,056,22,34,06,033,22,43,05,076,20,13,04,346,18,1*7F
$GBGSV,4,4,14,12,03,007,19,04,01,262,,1*7F
$GNRMC,194859.000,A,4910.426080,N,12304.403250,W,0.11,0.00,051224,,,D,V*15
$GNVTG,0.00,T,,M,0.11,N,0.21,K,D*25
$GNGGA,194900.000,4910.426074,N,12304.403310,W,2,28,0.57,5.690,M,-16.816,M,,*4F
$GNGLL,4910.426074,N,12304.403310,W,194900.000,A,D*5B
$GNGSA,A,3,07,09,04,30,20,16,27,08,05,,,,0.95,0.57,0.76,1*0A
$GNGSA,A,3,69,79,68,80,,,,,,,,,0.95,0.57,0.76,2*0A
$GNGSA,A,3,09,31,05,06,24,04,15,,,,,,0.95,0.57,0.76,3*02
$GNGSA,A,3,37,20,23,32,19,38,08,34,,,,,0.95,0.57,0.76,4*01
$GPGSV,3,1,12,07,73,280,31,09,68,143,34,04,38,129,28,30,36,264,26,1*65
$GPGSV,3,2,12,44,33,171,26,20,29,299,26,16,27,048,23,27,25,085,26,1*6E
$GPGSV,3,3,12,08,20,120,27,05,11,328,18,14,02,210,16,11,01,278,,1*61
$GLGSV,2,1,07,69,82,275,29,79,75,234,30,78,47,042,16,68,40,153,24,1*7E
$GLGSV,2,2,07,80,20,226,25,70,18,324,,87,10,031,15,1*47
$GAGSV,3,1,09,09,71,130,29,31,65,098,28,05,52,300,25,06,45,127,26,7*75
$GAGSV,3,2,09,24,40,189,24,04,20,125,19,15,09,323,11,34,04,275,,7*7B
$GAGSV,3,3,09,03,02,303,,7*4B
$GBGSV,4,1,14,37,81,213,38,20,66,259,37,23,42,061,34,32,35,168,30,1*74
$GBGSV,4,2,14,19,28,313,28,46,25,235,,38,17,332,27,08,12,341,18,1*73
$GBGSV,4,3,14,11,06,056,22,34,06,033,22,43,05,076,20,13,04,346,18,1*7F
$GBGSV,4,4,14,12,03,007,19,04,01,262,,1*7F
$GNRMC,194900.000,A,4910.426074,N,12304.403310,W,0.10,0.00,051224,,,D,V*17
$GNVTG,0.00,T,,M,0.10,N,0.18,K,D*2E
$GNGGA,194901.000,4910.426074,N,12304.403412,W,2,28,0.57,5.600,M,-16.816,M,,*42
$GNGLL,4910.426074,N,12304.403412,W,194901.000,A,D*5F
$GNGSA,A,3,07,09,04,30,20,16,27,08,05,,,,0.95,0.57,0.76,1*0A
$GNGSA,A,3,69,79,68,80,,,,,,,,,0.95,0.57,0.76,2*0A
$GNGSA,A,3,09,31,05,06,24,04,15,,,,,,0.95,0.57,0.76,3*02
$GNGSA,A,3,37,20,23,32,19,38,08,34,,,,,0.95,0.57,0.76,4*01
$GPGSV,3,1,12,07,73,280,32,09,68,143,34,04,38,129,29,30,36,264,28,1*69
$GPGSV,3,2,12,44,33,171,26,20,29,299,27,16,27,048,25,27,25,085,27,1*68
$GPGSV,3,3,12,08,20,120,27,05,11,328,20,14,02,210,16,11,01,278,,1*6A
$GLGSV,2,1,07,69,82,275,28,79,75,234,30,78,47,042,16,68,40,153,25,1*7E
$GLGSV,2,2,07,80,20,226,25,70,18,324,,87,10,031,14,1*46
$GAGSV,3,1,09,09,71,130,30,31,65,098,29,05,52,300,26,06,45,127,27,7*7E
$GAGSV,3,2,09,24,40,189,25,04,20,125,20,15,09,323,12,34,04,275,,7*73
$GAGSV,3,3,09,03,02,303,,7*4B
$GBGSV,4,1,14,37,81,213,37,20,66,259,37,23,42,061,33,32,35,168,30,1*7C
$GBGSV,4,2,14,19,28,313,28,46,25,235,,38,17,332,26,08,12,341,17,1*7D
$GBGSV,4,3,14,11,06,056,22,34,06,033,22,43,05,076,20,13,04,346,18,1*7F
$GBGSV,4,4,14,12,03,007,19,04,01,262,,1*7F
$GNRMC,194901.000,A,4910.426074,N,12304.403412,W,0.10,0.00,051224,,,D,V*13
$GNVTG,0.00,T,,M,0.10,N,0.18,K,D*2E
$GNGGA,194902.000,4910.426062,N,12304.403472,W,2,28,0.57,5.498,M,-16.816,M,,*43
$GNGLL,4910.426062,N,12304.403472,W,194902.000,A,D*5D
$GNGSA,A,3,07,09,04,30,20,16,27,08,05,,,,0.95,0.57,0.76,1*0A
$GNGSA,A,3,69,79,68,80,,,,,,,,,0.95,0.57,0.76,2*0A
$GNGSA,A,3,09,31,05,06,24,04,15,,,,,,0.95,0.57,0.76,3*02
$GNGSA,A,3,37,20,23,32,19,38,08,34,,,,,0.95,0.57,0.76,4*01
$GPGSV,3,1,12,07,73,280,32,09,68,143,34,04,38,129,29,30,36,264,27,1*66
$GPGSV,3,2,12,44,33,171,27,20,29,299,27,16,27,048,25,27,25,085,27,1*69
$GPGSV,3,3,12,08,20,120,27,05,11,328,20,14,02,210,16,11,01,278,,1*6A
$GLGSV,2,1,07,69,82,275,28,79,75,234,29,78,47,042,17,68,40,153,25,1*77
$GLGSV,2,2,07,80,20,226,24,70,18,324,,87,10,031,14,1*47
$GAGSV,3,1,09,09,71,130,30,31,65,098,29,05,52,300,26,06,45,127,27,7*7E
$GAGSV,3,2,09,24,40,189,25,04,20,125,20,15,09,323,13,34,04,275,,7*72
$GAGSV,3,3,09,03,02,303,,7*4B
$GBGSV,4,1,14,37,81,213,37,20,66,259,37,23,42,061,33,32,35,168,30,1*7C
$GBGSV,4,2,14,19,28,313,28,46,25,235,,38,17,332,26,08,12,341,18,1*72
$GBGSV,4,3,14,11,06,056,22,34,06,033,21,43,05,076,19,13,04,346,18,1*76
$GBGSV,4,4,14,12,03,007,19,04,01,262,,1*7F
$GNRMC,194902.000,A,4910.426062,N,12304.403472,W,0.10,0.00,051224,,,D,V*11
$GNVTG,0.00,T,,M,0.10,N,0.18,K,D*2E
$GNGGA,194903.000,4910.426104,N,12304.403460,W,2,28,0.57,5.551,M,-16.817,M,,*45
$GNGLL,4910.426104,N,12304.403460,W,194903.000,A,D*5E
$GNGSA,A,3,07,09,04,30,20,16,27,08,05,,,,0.95,0.57,0.76,1*0A
$GNGSA,A,3,69,79,68,80,,,,,,,,,0.95,0.57,0.76,2*0A
$GNGSA,A,3,09,31,05,06,24,04,15,,,,,,0.95,0.57,0.76,3*02
$GNGSA,A,3,37,20,23,32,19,38,08,34,,,,,0.95,0.57,0.76,4*01
$GPGSV,3,1,12,07,74,280,33,09,68,143,34,04,38,129,29,30,36,264,28,1*6F
$GPGSV,3,2,12,44,33,171,28,20,29,299,27,16,27,048,24,27,25,085,27,1*67
$GPGSV,3,3,12,08,20,120,27,05,11,328,20,14,02,210,16,11,01,278,,1*6A
$GLGSV,2,1,07,69,82,273,28,79,76,235,29,78,47,042,18,68,39,153,25,1*72
$GLGSV,2,2,07,80,20,226,24,70,18,324,,87,10,031,13,1*40
$GAGSV,3,1,09,09,70,131,30,31,65,098,29,05,52,300,27,06,45,127,27,7*7F
$GAGSV,3,2,09,24,40,189,26,04,20,125,21,15,09,322,14,34,04,275,,7*76
$GAGSV,3,3,09,03,02,303,,7*4B
$GBGSV,4,1,14,37,82,212,37,20,66,258,37,23,42,061,33,32,34,168,30,1*7E
$GBGSV,4,2,14,19,28,313,28,46,25,235,,38,17,331,26,08,12,341,17,1*7E
$GBGSV,4,3,14,11,06,055,21,34,06,033,21,43,05,076,19,13,04,346,18,1*76
$GBGSV,4,4,14,12,03,007,19,04,01,262,,1*7F
$GNRMC,194903.000,A,4910.426104,N,12304.403460,W,0.10,0.00,051224,,,D,V*12
$GNVTG,0.00,T,,M,0.10,N,0.18,K,D*2E
$GNGGA,194904.000,4910.426164,N,12304.403490,W,2,28,0.57,5.289,M,-16.817,M,,*49
$GNGLL,4910.426164,N,12304.403490,W,194904.000,A,D*50
$GNGSA,A,3,07,09,04,30,20,16,27,08,05,,,,0.95,0.57,0.76,1*0A
$GNGSA,A,3,69,79,68,80,,,,,,,,,0.95,0.57,0.76,2*0A
$GNGSA,A,3,09,31,05,06,24,04,15,,,,,,0.95,0.57,0.76,3*02
$GNGSA,A,3,37,20,23,32,19,38,08,34,,,,,0.95,0.57,0.76,4*01
$GPGSV,3,1,12,07,74,280,33,09,68,143,35,04,38,129,29,30,36,264,29,1*6F
$GPGSV,3,2,12,44,33,171,28,20,29,299,27,16,27,048,25,27,25,085,28,1*69
$GPGSV,3,3,12,08,20,120,27,05,11,328,21,14,02,210,16,11,01,278,,1*6B
$GLGSV,2,1,07,69,82,273,28,79,76,235,29,78,47,042,18,68,39,153,26,1*71
$GLGSV,2,2,07,80,20,226,24,70,18,324,,87,10,031,13,1*40
$GAGSV,3,1,09,09,70,131,30,31,65,098,29,05,52,300,27,06,45,127,28,7*70
$GAGSV,3,2,09,24,40,189,26,04,20,125,21,15,09,322,15,34,04,275,,7*77
$GAGSV,3,3,09,03,02,303,,7*4B
$GBGSV,4,1,14,37,82,212,37,20,66,258,37,23,42,061,33,32,34,168,30,1*7E
$GBGSV,4,2,14,19,28,313,28,46,25,235,,38,17,331,26,08,12,341,19,1*70
$GBGSV,4,3,14,11,06,055,21,34,06,033,21,43,05,076,19,13,04,346,18,1*76
$GBGSV,4,4,14,12,03,007,20,04,01,262,,1*75
$GNRMC,194904.000,A,4910.426164,N,12304.403490,W,0.09,0.00,051224,,,D,V*14
$GNVTG,0.00,T,,M,0.09,N,0.17,K,D*29
$GNGGA,194905.000,4910.426236,N,12304.403448,W,2,28,0.57,5.238,M,-16.816,M,,*42
$GNGLL,4910.426236,N,12304.403448,W,194905.000,A,D*50
$GNGSA,A,3,07,09,04,30,20,16,27,08,05,,,,0.95,0.57,0.76,1*0A
$GNGSA,A,3,69,79,68,80,,,,,,,,,0.95,0.57,0.76,2*0A
$GNGSA,A,3,09,31,05,06,24,04,15,,,,,,0.95,0.57,0.76,3*02
$GNGSA,A,3,37,20,23,32,19,38,08,34,,,,,0.95,0.57,0.76,4*01
$GPGSV,3,1,12,07,74,280,33,09,68,143,35,04,38,129,29,30,36,264,28,1*6E
$GPGSV,3,2,12,44,33,171,28,20,29,299,27,16,27,048,25,27,25,085,28,1*69
$GPGSV,3,3,12,08,20,120,28,05,11,328,21,14,02,210,16,11,01,278,,1*64
$GLGSV,2,1,07,69,82,273,28,79,76,235,29,78,47,042,18,68,39,153,26,1*71
$GLGSV,2,2,07,80,20,226,24,70,18,324,,87,10,031,13,1*40
$GAGSV,3,1,09,09,70,131,30,31,65,098,29,05,52,300,27,06,45,127,28,7*70
$GAGSV,3,2,09,24,40,189,26,04,20,125,22,15,09,322,15,34,04,275,,7*74
$GAGSV,3,3,09,03,02,303,,7*4B
$GBGSV,4,1,14,37,82,212,37,20,66,258,37,23,42,061,33,32,34,168,30,1*7E
$GBGSV,4,2,14,19,28,313,28,46,25,235,,38,17,331,26,08,12,341,19,1*70
$GBGSV,4,3,14,11,06,055,20,34,06,033,21,43,05,076,19,13,04,346,18,1*77
$GBGSV,4,4,14,12,03,007,20,04,01,262,,1*75
$GNRMC,194905.000,A,4910.426236,N,12304.403448,W,0.08,0.00,051224,,,D,V*15
$GNVTG,0.00,T,,M,0.08,N,0.14,K,D*2B
$GNGGA,194906.000,4910.426248,N,12304.403454,W,2,28,0.57,5.177,M,-16.816,M,,*4D
$GNGLL,4910.426248,N,12304.403454,W,194906.000,A,D*57
$GNGSA,A,3,07,09,04,30,20,16,27,08,05,,,,0.95,0.57,0.76,1*0A
$GNGSA,A,3,69,79,68,80,,,,,,,,,0.95,0.57,0.76,2*0A
$GNGSA,A,3,09,31,05,06,24,04,15,,,,,,0.95,0.57,0.76,3*02
$GNGSA,A,3,37,20,23,32,19,38,08,34,,,,,0.95,0.57,0.76,4*01
$GPGSV,3,1,12,07,74,280,33,09,68,143,35,04,38,129,29,30,36,264,26,1*60
$GPGSV,3,2,12,44,33,171,28,20,29,299,27,16,27,048,25,27,25,085,28,1*69
$GPGSV,3,3,12,08,20,120,28,05,11,328,21,14,02,210,16,11,01,278,,1*64
$GLGSV,2,1,07,69,82,273,28,79,76,235,30,78,47,042,18,68,39,153,26,1*79
$GLGSV,2,2,07,80,20,226,24,70,18,324,,87,10,031,13,1*40
$GAGSV,3,1,09,09,70,131,30,31,65,098,29,05,52,300,27,06,45,127,28,7*70
$GAGSV,3,2,09,24,40,189,26,04,20,125,21,15,09,322,15,34,04,275,,7*77
$GAGSV,3,3,09,03,02,303,,7*4B
$GBGSV,4,1,14,37,82,212,37,20,66,258,37,23,42,061,33,32,34,168,30,1*7E
$GBGSV,4,2,14,19,28,313,28,46,25,235,,38,17,331,26,08,12,341,19,1*70
$GBGSV,4,3,14,11,06,055,20,34,06,033,21,43,05,076,19,13,04,346,18,1*77
$GBGSV,4,4,14,12,03,007,19,04,01,262,,1*7F
$GNRMC,194906.000,A,4910.426248,N,12304.403454,W,0.06,0.00,051224,,,D,V*1C
$GNVTG,0.00,T,,M,0.06,N,0.12,K,D*23
$GNGGA,194907.000,4910.426218,N,12304.403544,W,2,28,0.57,5.184,M,-16.816,M,,*45
$GNGLL,4910.426218,N,12304.403544,W,194907.000,A,D*53
$GNGSA,A,3,07,09,04,30,20,16,27,08,05,,,,0.95,0.57,0.76,1*0A
$GNGSA,A,3,69,79,68,80,,,,,,,,,0.95,0.57,0.76,2*0A
$GNGSA,A,3,09,31,05,06,24,04,15,,,,,,0.95,0.57,0.76,3*02
$GNGSA,A,3,37,20,23,32,19,38,08,34,,,,,0.95,0.57,0.76,4*01
$GPGSV,3,1,12,07,74,280,33,09,68,143,35,04,38,129,30,30,36,264,27,1*69
$GPGSV,3,2,12,44,33,171,28,20,29,299,27,16,27,048,27,27,25,085,28,1*6B
$GPGSV,3,3,12,08,20,120,28,05,11,328,21,14,02,210,16,11,01,278,,1*64
$GLGSV,2,1,07,69,82,273,28,79,76,235,30,78,47,042,18,68,39,153,26,1*79
$GLGSV,2,2,07,80,20,226,24,70,18,324,,87,10,031,13,1*40
$GAGSV,2,1,08,09,70,131,31,31,65,098,30,05,52,300,27,06,45,127,28,7*79
$GAGSV,2,2,08,24,40,189,27,04,20,125,21,15,09,322,16,03,02,303,,7*77
$GBGSV,4,1,14,37,82,212,36,20,66,258,37,23,42,061,33,32,34,168,30,1*7F
$GBGSV,4,2,14,19,28,313,29,46,25,235,,38,17,331,26,08,12,341,18,1*70
$GBGSV,4,3,14,34,06,033,20,11,06,055,20,43,05,076,19,13,04,346,18,1*76
$GBGSV,4,4,14,12,03,007,19,04,01,262,,1*7F
$GNRMC,194907.000,A,4910.426218,N,12304.403544,W,0.06,0.00,051224,,,D,V*18
$GNVTG,0.00,T,,M,0.06,N,0.10,K,D*21
$GNGGA,194908.000,4910.426236,N,12304.403562,W,2,28,0.57,5.342,M,-16.816,M,,*4A
$GNGLL,4910.426236,N,12304.403562,W,194908.000,A,D*54
$GNGSA,A,3,07,09,04,30,20,16,27,08,05,,,,0.95,0.57,0.76,1*0A
$GNGSA,A,3,69,79,68,80,,,,,,,,,0.95,0.57,0.76,2*0A
$GNGSA,A,3,09,31,05,06,24,04,15,,,,,,0.95,0.57,0.76,3*02
$GNGSA,A,3,37,20,23,32,19,38,08,34,,,,,0.95,0.57,0.76,4*01
$GPGSV,3,1,12,07,74,280,33,09,68,143,35,04,38,129,30,30,36,264,28,1*66
$GPGSV,3,2,12,44,33,171,28,20,29,299,27,16,27,048,26,27,25,085,28,1*6A
$GPGSV,3,3,12,08,20,120,28,05,11,328,22,14,02,210,16,11,01,278,,1*67
$GLGSV,2,1,07,69,82,273,28,79,76,235,30,78,47,042,18,68,39,153,26,1*79
$GLGSV,2,2,07,80,20,226,23,70,18,324,,87,10,031,13,1*47
$GAGSV,3,1,09,09,70,131,31,31,65,098,30,05,52,300,27,06,45,127,28,7*79
$GAGSV,3,2,09,24,40,189,27,04,20,125,21,15,09,322,17,34,04,275,,7*74
$GAGSV,3,3,09,03,02,303,,7*4B
$GBGSV,4,1,14,37,82,212,36,20,66,258,37,23,42,061,33,32,34,168,30,1*7F
$GBGSV,4,2,14,19,28,313,29,46,25,235,,38,17,331,26,08,12,341,18,1*70
$GBGSV,4,3,14,11,06,055,20,34,06,033,20,43,05,076,19,13,04,346,18,1*76
$GBGSV,4,4,14,12,03,007,19,04,01,262,,1*7F
$GNRMC,194908.000,A,4910.426236,N,12304.403562,W,0.04,0.00,051224,,,D,V*1D
$GNVTG,0.00,T,,M,0.04,N,0.08,K,D*2A
$GNGGA,194909.000,4910.426230,N,12304.403550,W,2,28,0.57,5.518,M,-16.816,M,,*45
$GNGLL,4910.426230,N,12304.403550,W,194909.000,A,D*52
$GNGSA,A,3,07,09,04,30,20,16,27,08,05,,,,0.95,0.57,0.76,1*0A
$GNGSA,A,3,69,79,68,80,,,,,,,,,0.95,0.57,0.76,2*0A
$GNGSA,A,3,09,31,05,06,24,04,15,,,,,,0.95,0.57,0.76,3*02
$GNGSA,A,3,37,20,23,32,19,38,08,34,,,,,0.95,0.57,0.76,4*01
$GPGSV,3,1,12,07,74,280,34,09,68,143,36,04,38,129,31,30,36,264,29,1*62
$GPGSV,3,2,12,44,33,171,29,20,29,299,28,16,27,048,27,27,25,085,29,1*64
$GPGSV,3,3,12,08,20,120,29,05,11,328,22,14,02,210,17,11,01,278,,1*67
$GLGSV,2,1,07,69,82,273,28,79,76,235,30,78,47,042,17,68,39,153,26,1*76
$GLGSV,2,2,07,80,20,226,23,70,18,324,,87,10,031,13,1*47
$GAGSV,3,1,09,09,70,131,32,31,65,098,31,05,52,300,28,06,45,127,29,7*75
$GAGSV,3,2,09,24,40,189,28,04,20,125,22,15,09,322,17,34,04,275,,7*78
$GAGSV,3,3,09,03,02,303,,7*4B
$GBGSV,4,1,14,37,82,212,36,20,66,258,37,23,42,061,33,32,34,168,30,1*7F
$GBGSV,4,2,14,19,28,313,29,46,25,235,,38,17,331,26,08,12,341,18,1*70
$GBGSV,4,3,14,11,06,055,20,34,06,033,20,43,05,076,19,13,04,346,18,1*76
$GBGSV,4,4,14,12,03,007,19,04,01,262,,1*7F
$GNRMC,194909.000,A,4910.426230,N,12304.403550,W,0.03,0.00,051224,,,D,V*1C
$GNVTG,0.00,T,,M,0.03,N,0.05,K,D*20
$GNGGA,194910.000,4910.426176,N,12304.403454,W,2,28,0.57,5.199,M,-16.816,M,,*44
$GNGLL,4910.426176,N,12304.403454,W,194910.000,A,D*5E
$GNGSA,A,3,07,09,04,30,20,16,27,08,05,,,,0.95,0.57,0.76,1*0A
$GNGSA,A,3,69,79,68,80,,,,,,,,,0.95,0.57,0.76,2*0A
$GNGSA,A,3,09,31,05,06,24,04,15,,,,,,0.95,0.57,0.76,3*02
$GNGSA,A,3,37,20,23,32,19,38,08,34,,,,,0.95,0.57,0.76,4*01
$GPGSV,3,1,12,07,74,280,34,09,68,143,36,04,38,129,31,30,36,264,29,1*62
$GPGSV,3,2,12,44,33,171,29,20,29,299,28,16,27,048,28,27,25,085,29,1*6B
$GPGSV,3,3,12,08,20,120,29,05,11,328,22,14,02,210,18,11,01,278,,1*68
$GLGSV,2,1,07,69,82,273,28,79,76,235,30,78,47,042,17,68,39,153,26,1*76
$GLGSV,2,2,07,80,20,226,23,70,18,324,,87,10,031,13,1*47
$GAGSV,3,1,09,09,70,131,32,31,65,098,31,05,52,300,29,06,45,127,29,7*74
$GAGSV,3,2,09,24,40,189,28,04,20,125,22,15,09,322,18,34,04,275,,7*77
$GAGSV,3,3,09,03,02,303,,7*4B
$GBGSV,4,1,14,37,82,212,36,20,66,258,37,23,42,061,33,32,34,168,30,1*7F
$GBGSV,4,2,14,19,28,313,29,46,25,235,,38,17,331,26,08,12,341,18,1*70
$GBGSV,4,3,14,11,06,055,20,34,06,033,20,43,05,076,19,13,04,346,18,1*76
$GBGSV,4,4,14,12,03,007,20,04,01,262,,1*75
$GNRMC,194910.000,A,4910.426176,N,12304.403454,W,0.02,0.00,051224,,,D,V*11
$GNVTG,0.00,T,,M,0.02,N,0.04,K,D*20
$GNGGA,194911.000,4910.426080,N,12304.403376,W,2,28,0.57,4.871,M,-16.816,M,,*44
$GNGLL,4910.426080,N,12304.403376,W,194911.000,A,D*50
$GNGSA,A,3,07,09,04,30,20,16,27,08,05,,,,0.95,0.57,0.76,1*0A
$GNGSA,A,3,69,79,68,80,,,,,,,,,0.95,0.57,0.76,2*0A
$GNGSA,A,3,09,31,05,06,24,04,15,,,,,,0.95,0.57,0.76,3*02
$GNGSA,A,3,37,20,23,32,19,38,08,34,,,,,0.95,0.57,0.76,4*01
$GPGSV,3,1,12,07,74,280,35,09,68,143,36,04,38,129,31,30,36,264,29,1*63
$GPGSV,3,2,12,44,33,171,30,20,29,299,29,16,27,048,28,27,25,085,29,1*62
$GPGSV,3,3,12,08,20,120,30,05,11,328,23,14,02,210,18,11,01,278,,1*61
$GLGSV,2,1,07,69,82,273,28,79,76,235,30,78,47,042,17,68,39,153,26,1*76
$GLGSV,2,2,07,80,20,226,23,70,18,324,,87,10,031,13,1*47
$GAGSV,3,1,09,09,70,131,33,31,65,098,32,05,52,300,29,06,45,127,29,7*76
$GAGSV,3,2,09,24,40,189,29,04,20,125,23,15,09,322,18,34,04,275,,7*77
$GAGSV,3,3,09,03,02,303,,7*4B
$GBGSV,4,1,14,37,82,212,37,20,66,258,38,23,42,061,34,32,34,168,31,1*77
$GBGSV,4,2,14,19,28,313,29,46,25,235,,38,17,331,26,08,12,341,18,1*70
$GBGSV,4,3,14,11,06,055,20,34,06,033,21,43,05,076,20,13,04,346,19,1*7C
$GBGSV,4,4,14,12,03,007,20,04,01,262,,1*75
$GNRMC,194911.000,A,4910.426080,N,12304.403376,W,0.02,0.00,051224,,,D,V*1F
$GNVTG,0.00,T,,M,0.02,N,0.04,K,D*20
$GNGGA,194912.000,4910.426128,N,12304.403382,W,2,28,0.57,4.491,M,-16.816,M,,*4D
$GNGLL,4910.426128,N,12304.403382,W,194912.000,A,D*5B
$GNGSA,A,3,07,09,04,30,20,16,27,08,05,,,,0.95,0.57,0.76,1*0A
$GNGSA,A,3,69,79,68,80,,,,,,,,,0.95,0.57,0.76,2*0A
$GNGSA,A,3,09,31,05,06,24,04,15,,,,,,0.95,0.57,0.76,3*02
$GNGSA,A,3,37,20,23,32,19,38,08,34,,,,,0.95,0.57,0.76,4*01
$GPGSV,3,1,12,07,74,280,35,09,68,143,36,04,38,129,32,30,36,264,29,1*60
$GPGSV,3,2,12,44,33,171,30,20,29,299,29,16,27,048,28,27,25,085,29,1*62
$GPGSV,3,3,12,08,20,120,30,05,11,328,23,14,02,210,18,11,01,278,,1*61
$GLGSV,2,1,07,69,82,273,28,79,76,235,30,78,47,042,17,68,39,153,26,1*76
$GLGSV,2,2,07,80,20,226,23,70,18,324,,87,10,031,12,1*46
$GAGSV,3,1,09,09,70,131,33,31,65,098,32,05,52,300,29,06,45,127,29,7*76
$GAGSV,3,2,09,24,40,189,29,04,20,125,23,15,09,322,19,34,04,275,,7*76
$GAGSV,3,3,09,03,02,303,,7*4B
$GBGSV,4,1,14,37,82,212,37,20,66,258,37,23,42,061,34,32,34,168,31,1*78
$GBGSV,4,2,14,19,28,313,29,46,25,235,,38,17,331,26,08,12,341,18,1*70
$GBGSV,4,3,14,11,06,055,20,34,06,033,21,43,05,076,20,13,04,346,19,1*7C
$GBGSV,4,4,14,12,03,007,20,04,01,262,,1*75
$GNRMC,194912.000,A,4910.426128,N,12304.403382,W,0.02,0.00,051224,,,D,V*14
$GNVTG,0.00,T,,M,0.02,N,0.03,K,D*27
$GNGGA,194913.000,4910.426182,N,12304.403244,W,2,28,0.57,4.162,M,-16.816,M,,*4E
$GNGLL,4910.426182,N,12304.403244,W,194913.000,A,D*51
$GNGSA,A,3,07,09,04,30,20,16,27,08,05,,,,0.95,0.57,0.76,1*0A
$GNGSA,A,3,69,79,68,80,,,,,,,,,0.95,0.57,0.76,2*0A
$GNGSA,A,3,09,31,05,06,24,04,15,,,,,,0.95,0.57,0.76,3*02
$GNGSA,A,3,37,20,23,32,19,38,08,34,,,,,0.95,0.57,0.76,4*01
$GPGSV,3,1,12,07,74,280,35,09,68,143,36,04,38,129,32,30,36,264,29,1*60
$GPGSV,3,2,12,44,33,171,30,20,29,299,29,16,27,048,27,27,25,085,29,1*6D
$GPGSV,3,3,12,08,20,120,30,05,11,328,23,14,02,210,18,11,01,278,,1*61
$GLGSV,2,1,07,69,82,273,28,79,76,235,30,78,47,042,17,68,39,153,26,1*76
$GLGSV,2,2,07,80,20,226,23,70,18,324,,87,10,031,,1*45
$GAGSV,3,1,09,09,70,131,32,31,65,098,32,05,52,300,29,06,45,127,29,7*77
$GAGSV,3,2,09,24,40,189,29,04,20,125,23,15,09,322,19,34,04,275,,7*76
$GAGSV,3,3,09,03,02,303,,7*4B
$GBGSV,4,1,14,37,82,212,37,20,66,258,37,23,42,061,34,32,34,168,31,1*78
$GBGSV,4,2,14,19,28,313,29,46,25,235,,38,17,331,26,08,12,341,18,1*70
$GBGSV,4,3,14,11,06,055,20,34,06,033,21,43,05,076,20,13,04,346,19,1*7C
$GBGSV,4,4,14,12,03,007,20,04,01,262,,1*75
$GNRMC,194913.000,A,4910.426182,N,12304.403244,W,0.02,0.00,051224,,,D,V*1E
$GNVTG,0.00,T,,M,0.02,N,0.04,K,D*20
$GNGGA,194914.000,4910.426254,N,12304.403232,W,2,28,0.57,3.986,M,-16.816,M,,*45
$GNGLL,4910.426254,N,12304.403232,W,194914.000,A,D*5F
$GNGSA,A,3,07,09,04,30,20,16,27,08,05,,,,0.95,0.57,0.76,1*0A
$GNGSA,A,3,69,79,68,80,,,,,,,,,0.95,0.57,0.76,2*0A
$GNGSA,A,3,09,31,05,06,24,04,15,,,,,,0.95,0.57,0.76,3*02
$GNGSA,A,3,37,20,23,32,19,38,08,34,,,,,0.95,0.57,0.76,4*01
$GPGSV,3,1,12,07,74,280,34,09,68,143,35,04,38,129,31,30,36,264,28,1*60
$GPGSV,3,2,12,44,33,171,29,20,29,299,28,16,27,048,26,27,25,085,28,1*64
$GPGSV,3,3,12,08,20,120,29,05,11,328,22,14,02,210,17,11,01,278,,1*67
$GLGSV,2,1,07,69,82,273,28,79,76,235,30,78,47,042,17,68,39,153,26,1*76
$GLGSV,2,2,07,80,20,226,24,70,18,324,,87,10,031,,1*42
$GAGSV,3,1,09,09,70,131,31,31,65,098,30,05,52,300,28,06,45,127,27,7*79
$GAGSV,3,2,09,24,40,189,28,04,20,125,22,15,09,322,19,34,04,275,,7*76
$GAGSV,3,3,09,03,02,303,,7*4B
$GBGSV,4,1,14,37,82,212,37,20,66,258,37,23,42,061,34,32,34,168,31,1*78
$GBGSV,4,2,14,19,28,313,29,46,25,235,,38,17,331,26,08,12,341,18,1*70
$GBGSV,4,3,14,11,06,055,20,34,06,033,21,43,05,076,20,13,04,346,19,1*7C
$GBGSV,4,4,14,12,03,007,20,04,01,262,,1*75
$GNRMC,194914.000,A,4910.426254,N,12304.403232,W,0.02,0.00,051224,,,D,V*10
$GNVTG,0.00,T,,M,0.02,N,0.04,K,D*20
$GNGGA,194915.000,4910.426284,N,12304.403262,W,2,28,0.57,3.685,M,-16.816,M,,*40
$GNGLL,4910.426284,N,12304.403262,W,194915.000,A,D*56
$GNGSA,A,3,07,09,04,30,20,16,27,08,05,,,,0.95,0.57,0.76,1*0A
$GNGSA,A,3,69,79,68,80,,,,,,,,,0.95,0.57,0.76,2*0A
$GNGSA,A,3,09,31,05,06,24,04,15,,,,,,0.95,0.57,0.76,3*02
$GNGSA,A,3,37,20,23,32,19,38,08,34,,,,,0.95,0.57,0.76,4*01
$GPGSV,3,1,12,07,74,280,34,09,68,143,35,04,38,129,31,30,36,264,28,1*60
$GPGSV,3,2,12,44,33,171,29,20,29,299,28,16,27,048,26,27,25,085,28,1*64
$GPGSV,3,3,12,08,20,120,29,05,11,328,23,14,02,210,17,11,01,278,,1*66
$GLGSV,2,1,07,69,82,273,28,79,76,235,30,78,47,042,17,68,39,153,26,1*76
$GLGSV,2,2,07,80,20,226,24,70,18,324,,87,10,031,,1*42
$GAGSV,3,1,09,09,70,131,31,31,65,098,30,05,52,300,28,06,45,127,27,7*79
$GAGSV,3,2,09,24,40,189,27,04,20,125,21,15,09,322,18,34,04,275,,7*7B
$GAGSV,3,3,09,03,02,303,,7*4B
$GBGSV,4,1,14,37,82,212,37,20,66,258,38,23,42,061,34,32,34,168,31,1*77
$GBGSV,4,2,14,19,28,313,30,46,25,235,,38,17,331,27,08,12,341,18,1*79
$GBGSV,4,3,14,11,06,055,20,34,06,033,22,43,05,076,20,13,04,346,19,1*7F
$GBGSV,4,4,14,12,03,007,20,04,01,262,,1*75
$GNRMC,194915.000,A,4910.426284,N,12304.403262,W,0.01,0.00,051224,,,D,V*1A
$GNVTG,0.00,T,,M,0.01,N,0.03,K,D*24
$GNGGA,194916.000,4910.426344,N,12304.403280,W,2,28,0.57,3.522,M,-16.816,M,,*4C
