$GNGGA,194846.000,4910.428360,N,12304.398942,W,2,28,0.54,-1.242,M,-16.817,M,,*6C
$GNGLL,4910.428360,N,12304.398942,W,194846.000,A,D*58
$GNGSA,A,3,07,09,04,30,20,16,27,08,05,,,,0.94,0.54,0.77,1*09
$GNGSA,A,3,69,79,78,68,80,87,,,,,,,0.94,0.54,0.77,2*09
$GNGSA,A,3,09,31,05,06,24,04,,,,,,,0.94,0.54,0.77,3*05
$GNGSA,A,3,37,20,23,32,19,38,34,,,,,,0.94,0.54,0.77,4*0A
$GPGSV,3,1,11,07,73,280,33,09,68,143,34,04,38,129,30,30,36,264,25,1*6E
$GPGSV,3,2,11,44,33,171,28,20,29,299,28,16,27,048,26,27,24,085,28,1*67
$GPGSV,3,3,11,08,20,121,27,05,11,328,20,14,02,210,18,1*5A
$GLGSV,2,1,07,69,82,275,40,79,75,234,39,78,47,042,26,68,40,153,29,1*76
$GLGSV,2,2,07,80,20,226,34,70,18,324,,87,10,031,23,1*42
$GAGSV,3,1,09,09,71,130,29,31,65,099,29,05,51,300,27,06,45,127,26,7*74
$GAGSV,3,2,09,24,40,189,26,04,20,125,18,15,09,323,17,34,04,275,,7*7E
$GAGSV,3,3,09,03,02,303,,7*4B
$GBGSV,4,1,15,37,81,213,35,20,66,259,35,58,64,251,,23,42,061,31,1*7D
$GBGSV,4,2,15,32,35,168,29,19,28,313,27,46,25,235,,38,17,332,25,1*78
$GBGSV,4,3,15,08,12,341,16,31,09,335,,11,06,056,19,34,06,033,19,1*75
$GBGSV,4,4,15,43,05,076,16,13,04,346,17,12,03,007,17,1*46
$GNRMC,194846.000,A,4910.428360,N,12304.398942,W,0.04,320.23,051224,,,D,V*11
$GNVTG,320.23,T,,M,0.04,N,0.08,K,D*2A
$PAIRLOG,Full*51
$GNGGA,194847.000,4910.428354,N,12304.398870,W,2,28,0.54,-1.235,M,-16.817,M,,*6A
$GNGLL,4910.428354,N,12304.398870,W,194847.000,A,D*5E
$GNGSA,A,3,07,09,04,30,20,16,27,08,05,,,,0.94,0.54,0.77,1*09
$GNGSA,A,3,69,79,78,68,80,87,,,,,,,0.94,0.54,0.77,2*09
$GNGSA,A,3,09,31,05,06,24,04,,,,,,,0.94,0.54,0.77,3*05
$GNGSA,A,3,37,20,23,32,19,38,34,,,,,,0.94,0.54,0.77,4*0A
$GPGSV,3,1,11,07,73,280,33,09,68,143,34,04,38,129,30,30,36,264,25,1*6E
$GPGSV,3,2,11,44,33,171,28,20,29,299,28,16,27,048,27,27,24,085,28,1*66
$GPGSV,3,3,11,08,20,121,27,05,11,328,20,14,02,210,17,1*55
$GLGSV,2,1,07,69,82,275,40,79,75,234,39,78,47,042,25,68,40,153,29,1*75
$GLGSV,2,2,07,80,20,226,33,70,18,324,,87,10,031,23,1*45
$GAGSV,3,1,09,09,71,130,29,31,65,099,29,05,51,300,28,06,45,127,27,7*7A
$GAGSV,3,2,09,24,40,189,26,04,20,125,18,15,09,323,17,34,04,275,,7*7E
$GAGSV,3,3,09,03,02,303,,7*4B
$GBGSV,4,1,15,37,81,213,35,20,66,259,35,58,64,251,,23,42,061,31,1*7D
$GBGSV,4,2,15,32,35,168,29,19,28,313,27,46,25,235,,38,17,332,25,1*78
$GBGSV,4,3,15,08,12,341,16,31,09,335,,11,06,056,19,34,06,033,19,1*75
$GBGSV,4,4,15,43,05,076,16,13,04,346,17,12,03,007,18,1*49
$GNRMC,194847.000,A,4910.428354,N,12304.398870,W,0.04,320.23,051224,,,D,V*17
$GNVTG,320.23,T,,M,0.04,N,0.07,K,D*25
$PAIRLOG,Full*51
$GNGGA,194848.000,4910.428348,N,12304.398774,W,2,28,0.54,-1.225,M,-16.816,M,,*63
$GNGLL,4910.428348,N,12304.398774,W,194848.000,A,D*57
$GNGSA,A,3,07,09,04,30,20,16,27,08,05,,,,0.94,0.54,0.77,1*09
$GNGSA,A,3,69,79,78,68,80,87,,,,,,,0.94,0.54,0.77,2*09
$GNGSA,A,3,09,31,05,06,24,04,,,,,,,0.94,0.54,0.77,3*05
$GNGSA,A,3,37,20,23,32,19,38,34,,,,,,0.94,0.54,0.77,4*0A
$GPGSV,3,1,11,07,73,280,33,09,68,143,34,04,38,129,30,30,36,264,27,1*6C
$GPGSV,3,2,11,44,33,171,28,20,29,299,28,16,27,048,27,27,24,085,28,1*66
$GPGSV,3,3,11,08,20,121,27,05,11,328,20,14,02,210,18,1*5A
$GLGSV,2,1,07,69,82,275,40,79,75,234,39,78,47,042,25,68,40,153,29,1*75
$GLGSV,2,2,07,80,20,226,33,70,18,324,,87,10,031,23,1*45
$GAGSV,3,1,09,09,71,130,30,31,65,099,30,05,51,300,28,06,45,127,27,7*7A
$GAGSV,3,2,09,24,40,189,27,04,20,125,18,15,09,323,17,34,04,275,,7*7F
$GAGSV,3,3,09,03,02,303,,7*4B
$GBGSV,4,1,15,37,81,213,35,20,66,259,35,58,64,251,,23,42,061,32,1*7E
$GBGSV,4,2,15,32,35,168,29,19,28,313,27,46,25,235,,38,17,332,25,1*78
$GBGSV,4,3,15,08,12,341,16,31,09,335,,11,06,056,19,34,06,033,19,1*75
$GBGSV,4,4,15,43,05,076,16,13,04,346,17,12,03,007,18,1*49
$GNRMC,194848.000,A,4910.428348,N,12304.398774,W,0.04,320.23,051224,,,D,V*1E
$GNVTG,320.23,T,,M,0.04,N,0.07,K,D*25
$PAIRLOG,Full*51
$GNGGA,194849.000,4910.428330,N,12304.398720,W,2,28,0.54,-1.211,M,-16.816,M,,*6B
$GNGLL,4910.428330,N,12304.398720,W,194849.000,A,D*58
$GNGSA,A,3,07,09,04,30,20,16,27,08,05,,,,0.94,0.54,0.77,1*09
$GNGSA,A,3,69,79,78,68,80,87,,,,,,,0.94,0.54,0.77,2*09
$GNGSA,A,3,09,31,05,06,24,04,,,,,,,0.94,0.54,0.77,3*05
$GNGSA,A,3,37,20,23,32,19,38,34,,,,,,0.94,0.54,0.77,4*0A
$GPGSV,3,1,11,07,73,280,33,09,68,143,34,04,38,129,30,30,36,264,26,1*6D
$GPGSV,3,2,11,44,33,171,28,20,29,299,27,16,27,048,27,27,24,085,28,1*69
$GPGSV,3,3,11,08,20,121,27,05,11,328,20,14,02,210,18,1*5A
$GLGSV,2,1,07,69,82,275,40,79,75,234,39,78,47,042,24,68,40,153,29,1*74
$GLGSV,2,2,07,80,20,226,33,70,18,324,,87,10,031,23,1*45
$GAGSV,3,1,09,09,71,130,30,31,65,099,29,05,51,300,28,06,45,127,27,7*72
$GAGSV,3,2,09,24,40,189,27,04,20,125,18,15,09,323,17,34,04,275,,7*7F
$GAGSV,3,3,09,03,02,303,,7*4B
$GBGSV,4,1,15,37,81,213,35,20,66,259,35,58,64,251,,23,42,061,31,1*7D
$GBGSV,4,2,15,32,35,168,29,19,28,313,27,46,25,235,,38,17,332,25,1*78
$GBGSV,4,3,15,08,12,341,16,31,09,335,,11,06,056,19,34,06,033,19,1*75
$GBGSV,4,4,15,43,05,076,16,13,04,346,17,12,03,007,18,1*49
$GNRMC,194849.000,A,4910.428330,N,12304.398720,W,0.02,320.23,051224,,,D,V*17
$GNVTG,320.23,T,,M,0.02,N,0.04,K,D*20
$PAIRLOG,Full*51
$GNGGA,194850.000,4910.428330,N,12304.398558,W,2,28,0.54,-1.202,M,-16.816,M,,*6C
$GNGLL,4910.428330,N,12304.398558,W,194850.000,A,D*5D
$GNGSA,A,3,07,09,04,30,20,16,27,08,05,,,,0.94,0.54,0.77,1*09
$GNGSA,A,3,69,79,78,68,80,87,,,,,,,0.94,0.54,0.77,2*09
$GNGSA,A,3,09,31,05,06,24,04,,,,,,,0.94,0.54,0.77,3*05
$GNGSA,A,3,37,20,23,32,19,38,34,,,,,,0.94,0.54,0.77,4*0A
$GPGSV,3,1,12,07,73,280,33,09,68,143,34,04,38,129,30,30,36,264,25,1*6D
$GPGSV,3,2,12,44,33,171,28,20,29,299,27,16,27,048,27,27,24,085,28,1*6A
$GPGSV,3,3,12,08,20,121,27,05,11,328,20,14,02,210,18,11,01,278,,1*65
$GLGSV,2,1,07,69,82,275,40,79,75,234,39,78,47,042,23,68,40,153,29,1*73
$GLGSV,2,2,07,80,20,226,34,70,18,324,,87,10,031,24,1*45
$GAGSV,3,1,09,09,71,130,29,31,65,099,29,05,51,300,28,06,45,127,27,7*7A
$GAGSV,3,2,09,24,40,189,27,04,20,125,17,15,09,323,17,34,04,275,,7*70
$GAGSV,3,3,09,03,02,303,,7*4B
$GBGSV,4,1,14,37,81,213,35,20,66,259,35,23,42,061,31,32,35,168,29,1*76
$GBGSV,4,2,14,19,28,313,27,46,25,235,,38,17,332,25,08,12,341,16,1*70
$GBGSV,4,3,14,31,09,335,,11,06,056,19,34,06,033,19,43,05,076,16,1*7A
$GBGSV,4,4,14,13,04,346,17,12,03,007,17,1*73
$GNRMC,194850.000,A,4910.428330,N,12304.398558,W,0.03,320.23,051224,,,D,V*13
$GNVTG,320.23,T,,M,0.03,N,0.06,K,D*23
$PAIRLOG,Full*51
$GNGGA,194851.000,4910.428288,N,12304.398516,W,2,28,0.54,-1.180,M,-16.816,M,,*6C
$GNGLL,4910.428288,N,12304.398516,W,194851.000,A,D*54
$GNGSA,A,3,07,09,04,30,20,16,27,08,05,,,,0.94,0.54,0.77,1*09
$GNGSA,A,3,69,79,78,68,80,87,,,,,,,0.94,0.54,0.77,2*09
$GNGSA,A,3,09,31,05,06,24,04,,,,,,,0.94,0.54,0.77,3*05
$GNGSA,A,3,37,20,23,32,19,38,34,,,,,,0.94,0.54,0.77,4*0A
$GPGSV,3,1,12,07,73,280,33,09,68,143,34,04,38,129,30,30,36,264,25,1*6D
$GPGSV,3,2,12,44,33,171,28,20,29,299,27,16,27,048,27,27,24,085,28,1*6A
$GPGSV,3,3,12,08,20,121,27,05,11,328,19,14,02,210,18,11,01,278,,1*6F
$GLGSV,2,1,07,69,82,275,40,79,75,234,39,78,47,042,23,68,40,153,29,1*73
$GLGSV,2,2,07,80,20,226,34,70,18,324,,87,10,031,24,1*45
$GAGSV,2,1,08,09,71,130,29,31,65,099,29,05,51,300,28,06,45,127,27,7*7A
$GAGSV,2,2,08,24,40,189,26,04,20,125,17,15,09,323,17,34,04,275,,7*71
$GBGSV,4,1,15,37,81,213,35,20,66,259,35,58,64,251,,23,42,061,31,1*7D
$GBGSV,4,2,15,32,35,168,29,19,28,313,27,46,25,235,,38,17,332,25,1*78
$GBGSV,4,3,15,08,12,341,16,31,09,335,,11,06,056,19,34,06,033,19,1*75
$GBGSV,4,4,15,43,05,076,16,13,04,346,17,12,03,007,17,1*46
$GNRMC,194851.000,A,4910.428288,N,12304.398516,W,0.03,320.23,051224,,,D,V*1A
$GNVTG,320.23,T,,M,0.03,N,0.06,K,D*23
$PAIRLOG,Full*51
$GNGGA,194852.000,4910.428246,N,12304.398450,W,2,28,0.54,-1.153,M,-16.817,M,,*61
$GNGLL,4910.428246,N,12304.398450,W,194852.000,A,D*56
$GNGSA,A,3,07,09,04,30,20,16,27,08,05,,,,0.94,0.54,0.77,1*09
$GNGSA,A,3,69,79,78,68,80,87,,,,,,,0.94,0.54,0.77,2*09
$GNGSA,A,3,09,31,05,06,24,04,,,,,,,0.94,0.54,0.77,3*05
$GNGSA,A,3,37,20,23,32,19,38,34,,,,,,0.94,0.54,0.77,4*0A
$GPGSV,3,1,12,07,73,280,32,09,68,143,34,04,38,129,30,30,36,264,25,1*6C
$GPGSV,3,2,12,44,33,171,28,20,29,299,27,16,27,048,26,27,24,085,27,1*64
$GPGSV,3,3,12,08,20,121,27,05,11,328,19,14,02,210,17,11,01,278,,1*60
$GLGSV,2,1,07,69,82,275,40,79,75,234,39,78,47,042,23,68,40,153,29,1*73
$GLGSV,2,2,07,80,20,226,34,70,18,324,,87,10,031,24,1*45
$GAGSV,2,1,08,09,71,130,29,31,65,099,29,05,51,300,28,06,45,127,27,7*7A
$GAGSV,2,2,08,24,40,189,26,04,20,125,16,15,09,323,16,34,04,275,,7*71
$GBGSV,4,1,15,37,81,213,35,20,66,259,35,58,64,251,,23,42,061,31,1*7D
$GBGSV,4,2,15,32,35,168,29,19,28,313,26,46,25,235,,38,17,332,25,1*79
$GBGSV,4,3,15,08,12,341,16,31,09,335,,11,06,056,19,34,06,033,19,1*75
$GBGSV,4,4,15,43,05,076,16,13,04,346,17,12,03,007,17,1*46
$GNRMC,194852.000,A,4910.428246,N,12304.398450,W,0.03,320.23,051224,,,D,V*18
$GNVTG,320.23,T,,M,0.03,N,0.05,K,D*20
$PAIRLOG,Full*51
$GNGGA,194853.000,4910.428270,N,12304.398372,W,2,28,0.54,-1.129,M,-16.817,M,,*6F
$GNGLL,4910.428270,N,12304.398372,W,194853.000,A,D*55
$GNGSA,A,3,07,09,04,30,20,16,27,08,05,,,,0.94,0.54,0.77,1*09
$GNGSA,A,3,69,79,78,68,80,87,,,,,,,0.94,0.54,0.77,2*09
$GNGSA,A,3,09,31,05,06,24,04,,,,,,,0.94,0.54,0.77,3*05
$GNGSA,A,3,37,20,23,32,19,38,34,,,,,,0.94,0.54,0.77,4*0A
$GPGSV,3,1,12,07,73,280,32,09,68,143,34,04,38,129,31,30,36,264,26,1*6E
$GPGSV,3,2,12,44,33,171,28,20,29,299,27,16,27,048,27,27,25,085,27,1*64
$GPGSV,3,3,12,08,20,121,28,05,11,328,19,14,02,210,17,11,01,278,,1*6F
$GLGSV,2,1,07,69,82,275,40,79,75,234,39,78,47,042,23,68,40,153,29,1*73
$GLGSV,2,2,07,80,20,226,34,70,18,324,,87,10,031,24,1*45
$GAGSV,3,1,09,09,71,130,30,31,65,099,29,05,51,300,28,06,45,127,27,7*72
$GAGSV,3,2,09,24,40,189,27,04,20,125,16,15,09,323,17,34,04,275,,7*71
$GAGSV,3,3,09,03,02,303,,7*4B
$GBGSV,4,1,14,37,81,213,35,20,66,259,35,58,64,251,,23,42,061,31,1*7C
$GBGSV,4,2,14,32,35,168,29,19,28,313,26,46,25,235,,38,17,332,25,1*78
$GBGSV,4,3,14,08,12,341,16,11,06,056,18,34,06,033,19,43,05,076,16,1*7F
$GBGSV,4,4,14,13,04,346,17,12,03,007,17,1*73
$GNRMC,194853.000,A,4910.428270,N,12304.398372,W,0.03,320.23,051224,,,D,V*1B
$GNVTG,320.23,T,,M,0.03,N,0.05,K,D*20
$PAIRLOG,Full*51
$GNGGA,194854.000,4910.428258,N,12304.398360,W,2,28,0.54,-1.112,M,-16.816,M,,*68
$GNGLL,4910.428258,N,12304.398360,W,194854.000,A,D*5B
$GNGSA,A,3,07,09,04,30,20,16,27,08,05,,,,0.94,0.54,0.77,1*09
$GNGSA,A,3,69,79,78,68,80,87,,,,,,,0.94,0.54,0.77,2*09
$GNGSA,A,3,09,31,05,06,24,04,,,,,,,0.94,0.54,0.77,3*05
$GNGSA,A,3,37,20,23,32,19,38,34,,,,,,0.94,0.54,0.77,4*0A
$GPGSV,3,1,11,07,73,280,32,09,68,143,34,04,38,129,31,30,36,264,26,1*6D
$GPGSV,3,2,11,44,33,171,28,20,29,299,27,16,27,048,27,27,25,085,27,1*67
$GPGSV,3,3,11,08,20,121,28,05,11,328,20,14,02,210,17,1*5A
$GLGSV,2,1,07,69,82,275,40,79,75,234,39,78,47,042,22,68,40,153,29,1*72
$GLGSV,2,2,07,80,20,226,34,70,18,324,,87,10,031,24,1*45
$GAGSV,3,1,09,09,71,130,30,31,65,099,29,05,51,300,28,06,45,127,27,7*72
$GAGSV,3,2,09,24,40,189,27,04,20,125,17,15,09,323,17,34,04,275,,7*70
$GAGSV,3,3,09,03,02,303,,7*4B
$GBGSV,4,1,15,37,81,213,35,20,66,259,34,58,64,251,,23,42,061,31,1*7C
$GBGSV,4,2,15,32,35,168,29,19,28,313,26,46,25,235,,38,17,332,25,1*79
$GBGSV,4,3,15,08,12,341,16,31,09,335,,11,06,056,18,34,06,033,19,1*74
$GBGSV,4,4,15,43,05,076,16,13,04,346,17,12,03,007,17,1*46
$GNRMC,194854.000,A,4910.428258,N,12304.398360,W,0.02,320.23,051224,,,D,V*14
$GNVTG,320.23,T,,M,0.02,N,0.04,K,D*20
$PAIRLOG,Full*51
$GNGGA,194855.000,4910.428270,N,12304.398264,W,2,28,0.54,-1.100,M,-16.816,M,,*65
$GNGLL,4910.428270,N,12304.398264,W,194855.000,A,D*55
$GNGSA,A,3,07,09,04,30,20,16,27,08,05,,,,0.94,0.54,0.77,1*09
$GNGSA,A,3,69,79,78,68,80,87,,,,,,,0.94,0.54,0.77,2*09
$GNGSA,A,3,09,31,05,06,24,04,,,,,,,0.94,0.54,0.77,3*05
$GNGSA,A,3,37,20,23,32,19,38,34,,,,,,0.94,0.54,0.77,4*0A
$GPGSV,3,1,11,07,73,280,32,09,68,143,34,04,38,129,31,30,36,264,26,1*6D
$GPGSV,3,2,11,44,33,171,28,20,29,299,27,16,27,048,27,27,25,085,27,1*67
$GPGSV,3,3,11,08,20,121,28,05,11,328,20,14,02,210,17,1*5A
$GLGSV,2,1,07,69,82,275,40,79,75,234,39,78,47,042,22,68,40,153,29,1*72
$GLGSV,2,2,07,80,20,226,34,70,18,324,,87,10,031,23,1*42
$GAGSV,3,1,09,09,71,130,30,31,65,099,29,05,51,300,28,06,45,127,27,7*72
$GAGSV,3,2,09,24,40,189,27,04,20,125,17,15,09,323,17,34,04,275,,7*70
$GAGSV,3,3,09,03,02,303,,7*4B
$GBGSV,4,1,15,37,81,213,34,20,66,259,34,58,64,251,,23,42,061,31,1*7D
$GBGSV,4,2,15,32,35,168,29,19,28,313,25,46,25,235,,38,17,332,24,1*7B
$GBGSV,4,3,15,08,12,341,16,31,09,335,,11,06,056,18,34,06,033,18,1*75
$GBGSV,4,4,15,43,05,076,16,13,04,346,17,12,03,007,17,1*46
$GNRMC,194855.000,A,4910.428270,N,12304.398264,W,0.02,320.23,051224,,,D,V*1A
$GNVTG,320.23,T,,M,0.02,N,0.04,K,D*20
$PAIRLOG,Full*51
$GNGGA,194856.000,4910.428252,N,12304.398204,W,2,28,0.54,-1.064,M,-16.816,M,,*63
$GNGLL,4910.428252,N,12304.398204,W,194856.000,A,D*50
$GNGSA,A,3,07,09,04,30,20,16,27,08,05,,,,0.94,0.54,0.77,1*09
$GNGSA,A,3,69,79,78,68,80,87,,,,,,,0.94,0.54,0.77,2*09
$GNGSA,A,3,09,31,05,06,24,04,,,,,,,0.94,0.54,0.77,3*05
$GNGSA,A,3,37,20,23,32,19,38,34,,,,,,0.94,0.54,0.77,4*0A
$GPGSV,3,1,11,07,73,280,32,09,68,143,34,04,38,129,31,30,36,264,26,1*6D
$GPGSV,3,2,11,44,33,171,28,20,29,299,26,16,27,048,27,27,25,085,27,1*66
$GPGSV,3,3,11,08,20,121,28,05,11,328,19,14,02,210,17,1*50
$GLGSV,2,1,07,69,82,275,40,79,75,234,39,78,47,042,22,68,40,153,29,1*72
$GLGSV,2,2,07,80,20,226,34,70,18,324,,87,10,031,22,1*43
$GAGSV,3,1,09,09,71,130,30,31,65,099,29,05,51,300,28,06,45,127,27,7*72
$GAGSV,3,2,09,24,40,189,26,04,20,125,16,15,09,323,17,34,04,275,,7*70
$GAGSV,3,3,09,03,02,303,,7*4B
$GBGSV,4,1,15,37,81,213,34,20,66,259,34,58,64,251,,23,42,061,31,1*7D
$GBGSV,4,2,15,32,35,168,29,19,28,313,25,46,25,235,,38,17,332,24,1*7B
$GBGSV,4,3,15,08,12,341,16,31,09,335,,11,06,056,18,34,06,033,18,1*75
$GBGSV,4,4,15,43,05,076,16,13,04,346,17,12,03,007,17,1*46
$GNRMC,194856.000,A,4910.428252,N,12304.398204,W,0.02,320.23,051224,,,D,V*1F
$GNVTG,320.23,T,,M,0.02,N,0.03,K,D*27
$PAIRLOG,Full*51
$GNGGA,194857.000,4910.428270,N,12304.398168,W,2,28,0.54,-1.050,M,-16.816,M,,*6C
$GNGLL,4910.428270,N,12304.398168,W,194857.000,A,D*58
$GNGSA,A,3,07,09,04,30,20,16,27,08,05,,,,0.94,0.54,0.77,1*09
$GNGSA,A,3,69,79,78,68,80,87,,,,,,,0.94,0.54,0.77,2*09
$GNGSA,A,3,09,31,05,06,24,04,,,,,,,0.94,0.54,0.77,3*05
$GNGSA,A,3,37,20,23,32,19,38,34,,,,,,0.94,0.54,0.77,4*0A
$GPGSV,3,1,11,07,73,280,31,09,68,143,33,04,38,129,30,30,36,264,26,1*68
$GPGSV,3,2,11,44,33,171,28,20,29,299,26,16,27,048,27,27,25,085,26,1*67
$GPGSV,3,3,11,08,20,121,27,05,11,328,19,14,02,210,17,1*5F
$GLGSV,2,1,07,69,82,275,40,79,75,234,39,78,47,042,22,68,40,153,30,1*7A
$GLGSV,2,2,07,80,20,226,34,70,18,324,,87,10,031,22,1*43
$GAGSV,3,1,09,09,71,130,29,31,65,099,28,05,51,300,27,06,45,127,26,7*75
$GAGSV,3,2,09,24,40,189,25,04,20,125,16,15,09,323,17,34,04,275,,7*73
$GAGSV,3,3,09,03,02,303,,7*4B
$GBGSV,4,1,15,37,81,213,34,20,66,259,34,58,64,251,,23,42,061,31,1*7D
$GBGSV,4,2,15,32,35,168,29,19,28,313,25,46,25,235,,38,17,332,23,1*7C
$GBGSV,4,3,15,08,12,341,16,31,09,335,,11,06,056,18,34,06,033,18,1*75
$GBGSV,4,4,15,43,05,076,16,13,04,346,17,12,03,007,17,1*46
$GNRMC,194857.000,A,4910.428270,N,12304.398168,W,0.02,320.23,051224,,,D,V*17
$GNVTG,320.23,T,,M,0.02,N,0.03,K,D*27
$PAIRLOG,Full*51
$GNGGA,194858.000,4910.428234,N,12304.398120,W,2,28,0.54,-1.027,M,-16.816,M,,*6F
$GNGLL,4910.428234,N,12304.398120,W,194858.000,A,D*5B
$GNGSA,A,3,07,09,04,30,20,16,27,08,05,,,,0.94,0.54,0.77,1*09
$GNGSA,A,3,69,79,78,68,80,87,,,,,,,0.94,0.54,0.77,2*09
$GNGSA,A,3,09,31,05,06,24,04,,,,,,,0.94,0.54,0.77,3*05
$GNGSA,A,3,37,20,23,32,19,38,34,,,,,,0.94,0.54,0.77,4*0A
$GPGSV,3,1,11,07,74,280,31,09,68,143,33,04,38,129,29,30,36,264,25,1*64
$GPGSV,3,2,11,44,33,171,27,20,29,299,25,16,27,048,27,27,25,085,25,1*68
$GPGSV,3,3,11,08,20,120,26,05,11,328,18,14,02,210,17,1*5E
$GLGSV,2,1,07,69,82,273,40,79,75,235,39,78,47,042,22,68,39,153,30,1*73
$GLGSV,2,2,07,80,20,226,34,70,18,324,,87,10,031,22,1*43
$GAGSV,3,1,09,09,70,131,28,31,65,098,27,05,52,300,27,06,45,127,26,7*79
$GAGSV,3,2,09,24,40,189,24,04,20,125,16,15,09,322,16,34,04,275,,7*72
$GAGSV,3,3,09,03,02,303,,7*4B
$GBGSV,4,1,15,37,81,213,34,20,66,259,34,58,65,251,,23,42,061,31,1*7C
$GBGSV,4,2,15,32,35,168,29,19,28,313,25,46,25,235,,38,17,331,24,1*78
$GBGSV,4,3,15,08,12,341,16,31,09,335,,11,06,055,18,34,06,033,18,1*76
$GBGSV,4,4,15,43,05,076,16,13,04,346,17,12,03,007,17,1*46
$GNRMC,194858.000,A,4910.428234,N,12304.398120,W,0.02,320.23,051224,,,D,V*14
$GNVTG,320.23,T,,M,0.02,N,0.03,K,D*27
$PAIRLOG,Full*51
$GNGGA,194859.000,4910.428132,N,12304.398120,W,2,28,0.54,-0.998,M,-16.816,M,,*67
$GNGLL,4910.428132,N,12304.398120,W,194859.000,A,D*5F
$GNGSA,A,3,07,09,04,30,20,16,27,08,05,,,,0.94,0.54,0.77,1*09
$GNGSA,A,3,69,79,78,68,80,87,,,,,,,0.94,0.54,0.77,2*09
$GNGSA,A,3,09,31,05,06,24,04,,,,,,,0.94,0.54,0.77,3*05
$GNGSA,A,3,37,20,23,32,19,38,34,,,,,,0.94,0.54,0.77,4*0A
$GPGSV,3,1,11,07,74,280,31,09,68,143,33,04,38,129,29,30,36,264,25,1*64
$GPGSV,3,2,11,44,33,171,27,20,29,299,24,16,27,048,27,27,25,085,24,1*68
$GPGSV,3,3,11,08,20,120,26,05,11,328,18,14,02,210,16,1*5F
$GLGSV,2,1,07,69,82,273,40,79,75,235,39,78,47,042,22,68,39,153,30,1*73
$GLGSV,2,2,07,80,20,226,34,70,18,324,,87,10,031,23,1*42
$GAGSV,3,1,09,09,70,131,28,31,65,098,26,05,52,300,27,06,45,127,25,7*7B
$GAGSV,3,2,09,24,40,189,24,04,20,125,15,15,09,322,15,34,04,275,,7*72
$GAGSV,3,3,09,03,02,303,,7*4B
$GBGSV,4,1,15,37,81,213,35,20,66,259,35,58,65,251,,23,42,061,32,1*7F
$GBGSV,4,2,15,32,35,168,29,19,28,313,25,46,25,235,,38,17,331,24,1*78
$GBGSV,4,3,15,08,12,341,16,31,09,335,,11,06,055,18,34,06,033,19,1*77
$GBGSV,4,4,15,43,05,076,16,13,04,346,17,12,03,007,17,1*46
$GNRMC,194859.000,A,4910.428132,N,12304.398120,W,0.02,320.23,051224,,,D,V*10
$GNVTG,320.23,T,,M,0.02,N,0.04,K,D*20
$PAIRLOG,Full*51
$GNGGA,194900.000,4910.428054,N,12304.398090,W,2,28,0.54,-0.961,M,-16.817,M,,*66
$GNGLL,4910.428054,N,12304.398090,W,194900.000,A,D*59
$GNGSA,A,3,07,09,04,30,20,16,27,08,05,,,,0.94,0.54,0.77,1*09
$GNGSA,A,3,69,79,78,68,80,87,,,,,,,0.94,0.54,0.77,2*09
$GNGSA,A,3,09,31,05,06,24,04,,,,,,,0.94,0.54,0.77,3*05
$GNGSA,A,3,37,20,23,32,19,38,34,,,,,,0.94,0.54,0.77,4*0A
$GPGSV,3,1,11,07,74,280,31,09,68,143,32,04,38,129,28,30,36,264,25,1*64
$GPGSV,3,2,11,44,33,171,27,20,29,299,23,16,27,048,26,27,25,085,23,1*69
$GPGSV,3,3,11,08,20,120,26,05,11,328,17,14,02,210,16,1*50
$GLGSV,2,1,07,69,82,273,40,79,75,235,39,78,47,042,22,68,39,153,31,1*72
$GLGSV,2,2,07,80,20,226,34,70,18,324,,87,10,031,23,1*42
$GAGSV,3,1,09,09,70,131,27,31,65,098,26,05,52,300,26,06,45,127,25,7*75
$GAGSV,3,2,09,24,40,189,24,04,20,125,15,15,09,322,15,34,04,275,,7*72
$GAGSV,3,3,09,03,02,303,,7*4B
$GBGSV,4,1,15,37,81,213,35,20,66,259,35,58,65,251,,23,42,061,32,1*7F
$GBGSV,4,2,15,32,35,168,29,19,28,313,25,46,25,235,,38,17,331,24,1*78
$GBGSV,4,3,15,08,12,341,16,31,09,335,,11,06,055,18,34,06,033,19,1*77
$GBGSV,4,4,15,43,05,076,17,13,04,346,17,12,03,007,17,1*47
$GNRMC,194900.000,A,4910.428054,N,12304.398090,W,0.02,320.23,051224,,,D,V*16
$GNVTG,320.23,T,,M,0.02,N,0.04,K,D*20
$PAIRLOG,Full*51
$GNGGA,194901.000,4910.427970,N,12304.398036,W,2,28,0.54,-0.942,M,-16.817,M,,*6A
$GNGLL,4910.427970,N,12304.398036,W,194901.000,A,D*54
$GNGSA,A,3,07,09,04,30,20,16,27,08,05,,,,0.94,0.54,0.77,1*09
$GNGSA,A,3,69,79,78,68,80,87,,,,,,,0.94,0.54,0.77,2*09
$GNGSA,A,3,09,31,05,06,24,04,,,,,,,0.94,0.54,0.77,3*05
$GNGSA,A,3,37,20,23,32,19,38,34,,,,,,0.94,0.54,0.77,4*0A
$GPGSV,3,1,12,07,74,280,31,09,68,143,32,04,38,129,28,30,36,264,26,1*64
$GPGSV,3,2,12,44,33,171,27,20,29,299,24,16,27,048,26,27,25,085,23,1*6D
$GPGSV,3,3,12,08,20,120,27,05,11,328,18,14,02,210,16,11,01,278,,1*61
$GLGSV,2,1,07,69,82,273,41,79,75,235,39,78,47,042,23,68,39,153,31,1*72
$GLGSV,2,2,07,80,20,226,34,70,18,324,,87,10,031,23,1*42
$GAGSV,2,1,08,09,70,131,28,31,65,098,26,05,52,300,27,06,45,127,25,7*7B
$GAGSV,2,2,08,24,40,189,24,04,20,125,15,15,09,322,15,34,04,275,,7*72
$GBGSV,4,1,15,37,81,213,35,20,66,259,35,58,65,251,,23,42,061,31,1*7C
$GBGSV,4,2,15,32,35,168,29,19,28,313,25,46,25,235,,38,17,331,23,1*7F
$GBGSV,4,3,15,08,12,341,16,31,09,335,,11,06,055,18,34,06,033,19,1*77
$GBGSV,4,4,15,43,05,076,17,13,04,346,17,12,03,007,17,1*47
$GNRMC,194901.000,A,4910.427970,N,12304.398036,W,0.02,320.23,051224,,,D,V*1B
$GNVTG,320.23,T,,M,0.02,N,0.04,K,D*20
$PAIRLOG,Full*51
$GNGGA,194902.000,4910.427862,N,12304.398078,W,2,28,0.54,-0.924,M,-16.816,M,,*60
$GNGLL,4910.427862,N,12304.398078,W,194902.000,A,D*5F
$GNGSA,A,3,07,09,04,30,20,16,27,08,05,,,,0.94,0.54,0.77,1*09
$GNGSA,A,3,69,79,78,68,80,87,,,,,,,0.94,0.54,0.77,2*09
$GNGSA,A,3,09,31,05,06,24,04,,,,,,,0.94,0.54,0.77,3*05
$GNGSA,A,3,37,20,23,32,19,38,34,,,,,,0.94,0.54,0.77,4*0A
$GPGSV,3,1,12,07,74,280,31,09,68,143,32,04,38,129,27,30,36,264,24,1*69
$GPGSV,3,2,12,44,33,171,27,20,29,299,24,16,27,048,26,27,25,085,22,1*6C
$GPGSV,3,3,12,08,20,120,26,05,11,328,18,14,02,210,16,11,01,278,,1*60
$GLGSV,2,1,07,69,82,273,41,79,75,235,39,78,47,042,24,68,39,153,31,1*75
$GLGSV,2,2,07,80,20,226,33,70,18,324,,87,10,031,22,1*44
$GAGSV,2,1,08,09,70,131,28,31,65,098,26,05,52,300,26,06,45,127,25,7*7A
$GAGSV,2,2,08,24,40,189,24,04,20,125,16,15,09,322,15,34,04,275,,7*71
$GBGSV,4,1,15,37,81,213,35,20,66,259,35,58,65,251,,23,42,061,32,1*7F
$GBGSV,4,2,15,32,35,168,29,19,28,313,26,46,25,235,,38,17,331,24,1*7B
$GBGSV,4,3,15,08,12,341,16,31,09,335,,11,06,055,18,34,06,033,19,1*77
$GBGSV,4,4,15,43,05,076,17,13,04,346,17,12,03,007,17,1*47
$GNRMC,194902.000,A,4910.427862,N,12304.398078,W,0.02,320.23,051224,,,D,V*10
$GNVTG,320.23,T,,M,0.02,N,0.04,K,D*20
$PAIRLOG,Full*51
$GNGGA,194903.000,4910.427790,N,12304.398066,W,2,28,0.54,-0.872,M,-16.816,M,,*6E
$GNGLL,4910.427790,N,12304.398066,W,194903.000,A,D*53
$GNGSA,A,3,07,09,04,30,20,16,27,08,05,,,,0.94,0.54,0.77,1*09
$GNGSA,A,3,69,79,78,68,80,87,,,,,,,0.94,0.54,0.77,2*09
$GNGSA,A,3,09,31,05,06,24,04,,,,,,,0.94,0.54,0.77,3*05
$GNGSA,A,3,37,20,23,32,19,38,34,,,,,,0.94,0.54,0.77,4*0A
$GPGSV,3,1,12,07,74,280,31,09,68,143,32,04,38,129,28,30,36,264,26,1*64
$GPGSV,3,2,12,44,33,171,27,20,29,299,24,16,27,048,27,27,25,085,22,1*6D
$GPGSV,3,3,12,08,20,120,26,05,11,328,18,14,02,210,16,11,01,278,,1*60
$GLGSV,2,1,07,69,82,273,40,79,75,235,39,78,47,042,24,68,39,153,31,1*74
$GLGSV,2,2,07,80,20,226,33,70,18,324,,87,10,031,22,1*44
$GAGSV,2,1,08,09,70,131,28,31,65,098,26,05,52,300,27,06,45,127,26,7*78
$GAGSV,2,2,08,24,40,189,25,04,20,125,17,15,09,322,16,34,04,275,,7*72
$GBGSV,4,1,15,37,81,213,35,20,66,259,35,58,65,251,,23,42,061,32,1*7F
$GBGSV,4,2,15,32,35,168,29,19,28,313,27,46,25,235,,38,17,331,24,1*7A
$GBGSV,4,3,15,08,12,341,16,31,09,335,,11,06,055,19,34,06,033,19,1*76
$GBGSV,4,4,15,43,05,076,17,13,04,346,17,12,03,007,17,1*47
$GNRMC,194903.000,A,4910.427790,N,12304.398066,W,0.02,320.23,051224,,,D,V*1C
$GNVTG,320.23,T,,M,0.02,N,0.04,K,D*20
$PAIRLOG,Full*51
$GNGGA,194904.000,4910.427718,N,12304.398012,W,2,28,0.54,-0.836,M,-16.816,M,,*6A
$GNGLL,4910.427718,N,12304.398012,W,194904.000,A,D*57
$GNGSA,A,3,07,09,04,30,20,16,27,08,05,,,,0.94,0.54,0.77,1*09
$GNGSA,A,3,69,79,78,68,80,87,,,,,,,0.94,0.54,0.77,2*09
$GNGSA,A,3,09,31,05,06,24,04,,,,,,,0.94,0.54,0.77,3*05
$GNGSA,A,3,37,20,23,32,19,38,34,,,,,,0.94,0.54,0.77,4*0A
$GPGSV,3,1,12,07,74,280,31,09,68,143,32,04,38,129,27,30,36,264,25,1*68
$GPGSV,3,2,12,44,33,171,27,20,29,299,24,16,27,048,27,27,25,085,22,1*6D
$GPGSV,3,3,12,08,20,120,26,05,11,328,18,14,02,210,16,11,01,278,,1*60
$GLGSV,2,1,07,69,82,273,40,79,75,235,39,78,47,042,24,68,39,153,32,1*77
$GLGSV,2,2,07,80,20,226,34,70,18,324,,87,10,031,22,1*43
$GAGSV,2,1,08,09,70,131,28,31,65,098,26,05,52,300,26,06,45,127,26,7*79
$GAGSV,2,2,08,24,40,189,25,04,20,125,17,15,09,322,16,34,04,275,,7*72
$GBGSV,4,1,15,37,81,213,35,20,66,259,35,58,65,251,,23,42,061,32,1*7F
$GBGSV,4,2,15,32,35,168,29,19,28,313,27,46,25,235,,38,17,331,24,1*7A
$GBGSV,4,3,15,08,12,341,16,31,09,335,,11,06,055,19,34,06,033,19,1*76
$GBGSV,4,4,15,43,05,076,17,13,04,346,17,12,03,007,17,1*47
$GNRMC,194904.000,A,4910.427718,N,12304.398012,W,0.02,320.23,051224,,,D,V*18
$GNVTG,320.23,T,,M,0.02,N,0.04,K,D*20
$PAIRLOG,Full*51
$GNGGA,194905.000,4910.427658,N,12304.397874,W,2,28,0.54,-0.794,M,-16.816,M,,*6E
$GNGLL,4910.427658,N,12304.397874,W,194905.000,A,D*54
$GNGSA,A,3,07,09,04,30,20,16,27,08,05,,,,0.94,0.54,0.77,1*09
$GNGSA,A,3,69,79,78,68,80,87,,,,,,,0.94,0.54,0.77,2*09
$GNGSA,A,3,09,31,05,06,24,04,,,,,,,0.94,0.54,0.77,3*05
$GNGSA,A,3,37,20,23,32,19,38,34,,,,,,0.94,0.54,0.77,4*0A
$GPGSV,3,1,11,07,74,280,31,09,68,143,32,04,38,129,27,30,36,264,24,1*6A
$GPGSV,3,2,11,44,33,171,27,20,29,299,25,16,27,048,27,27,25,085,19,1*67
$GPGSV,3,3,11,08,20,120,26,05,11,328,18,14,02,210,16,1*5F
$GLGSV,2,1,07,69,82,273,40,79,75,235,39,78,47,042,24,68,39,153,32,1*77
$GLGSV,2,2,07,80,20,226,34,70,18,324,,87,10,031,22,1*43
$GAGSV,3,1,09,09,70,131,28,31,65,098,26,05,52,300,26,06,45,127,26,7*79
$GAGSV,3,2,09,24,40,189,25,04,20,125,17,15,09,322,16,34,04,275,,7*72
$GAGSV,3,3,09,03,02,303,,7*4B
$GBGSV,4,1,15,37,81,213,35,20,66,259,36,58,65,251,,23,42,061,32,1*7C
$GBGSV,4,2,15,32,35,168,30,19,28,313,27,46,25,235,,38,17,331,24,1*72
$GBGSV,4,3,15,08,12,341,16,31,09,335,,11,06,055,19,34,06,033,19,1*76
$GBGSV,4,4,15,43,05,076,17,13,04,346,17,12,03,007,17,1*47
$GNRMC,194905.000,A,4910.427658,N,12304.397874,W,0.02,320.23,051224,,,D,V*1B
$GNVTG,320.23,T,,M,0.02,N,0.04,K,D*20
$PAIRLOG,Full*51
$GNGGA,194906.000,4910.427586,N,12304.397790,W,2,28,0.54,-0.766,M,-16.817,M,,*64
$GNGLL,4910.427586,N,12304.397790,W,194906.000,A,D*52
$GNGSA,A,3,07,09,04,30,20,16,27,08,05,,,,0.94,0.54,0.77,1*09
$GNGSA,A,3,69,79,78,68,80,87,,,,,,,0.94,0.54,0.77,2*09
$GNGSA,A,3,09,31,05,06,24,04,,,,,,,0.94,0.54,0.77,3*05
$GNGSA,A,3,37,20,23,32,19,38,34,,,,,,0.94,0.54,0.77,4*0A
$GPGSV,3,1,11,07,74,280,30,09,68,143,31,04,38,129,27,30,36,264,24,1*68
$GPGSV,3,2,11,44,33,171,27,20,29,299,23,16,27,048,26,27,25,085,19,1*60
$GPGSV,3,3,11,08,20,120,25,05,11,328,18,14,02,210,16,1*5C
$GLGSV,2,1,07,69,82,273,40,79,75,235,39,78,47,042,24,68,39,153,33,1*76
$GLGSV,2,2,07,80,20,226,34,70,18,324,,87,10,031,21,1*40
$GAGSV,3,1,09,09,70,131,27,31,65,098,26,05,52,300,26,06,45,127,26,7*76
$GAGSV,3,2,09,24,40,189,24,04,20,125,17,15,09,322,16,34,04,275,,7*73
$GAGSV,3,3,09,03,02,303,,7*4B
$GBGSV,4,1,15,37,81,213,35,20,66,259,36,58,65,251,,23,42,061,32,1*7C
$GBGSV,4,2,15,32,35,168,30,19,28,313,27,46,25,235,,38,17,331,25,1*73
$GBGSV,4,3,15,08,12,341,16,31,09,335,,11,06,055,19,34,06,033,19,1*76
$GBGSV,4,4,15,43,05,076,18,13,04,346,17,12,03,007,17,1*48
$GNRMC,194906.000,A,4910.427586,N,12304.397790,W,0.02,320.23,051224,,,D,V*1D
$GNVTG,320.23,T,,M,0.02,N,0.04,K,D*20
$PAIRLOG,Full*51
$GNGGA,194907.000,4910.427568,N,12304.397730,W,2,28,0.54,-0.718,M,-16.816,M,,*67
$GNGLL,4910.427568,N,12304.397730,W,194907.000,A,D*59
$GNGSA,A,3,07,09,04,30,20,16,27,08,05,,,,0.94,0.54,0.77,1*09
$GNGSA,A,3,69,79,78,68,80,87,,,,,,,0.94,0.54,0.77,2*09
$GNGSA,A,3,09,31,05,06,24,04,,,,,,,0.94,0.54,0.77,3*05
$GNGSA,A,3,37,20,23,32,19,38,34,,,,,,0.94,0.54,0.77,4*0A
$GPGSV,3,1,11,07,74,280,30,09,68,143,31,04,38,129,27,30,36,264,24,1*68
$GPGSV,3,2,11,44,33,171,27,20,29,299,24,16,27,048,26,27,25,085,19,1*67
$GPGSV,3,3,11,08,20,120,25,05,11,328,18,14,02,210,16,1*5C
$GLGSV,2,1,07,69,82,273,40,79,75,235,39,78,47,042,25,68,39,153,34,1*70
$GLGSV,2,2,07,80,20,226,34,70,18,324,,87,10,031,21,1*40
$GAGSV,3,1,09,09,70,131,28,31,65,098,26,05,52,300,26,06,45,127,26,7*79
$GAGSV,3,2,09,24,40,189,24,04,20,125,17,15,09,322,16,34,04,275,,7*73
$GAGSV,3,3,09,03,02,303,,7*4B
$GBGSV,4,1,15,37,81,213,35,20,66,259,36,58,65,251,,23,42,061,32,1*7C
$GBGSV,4,2,15,32,35,168,30,19,28,313,27,46,25,235,,38,17,331,25,1*73
$GBGSV,4,3,15,08,12,341,16,31,09,335,,11,06,055,19,34,06,033,19,1*76
$GBGSV,4,4,15,43,05,076,18,13,04,346,17,12,03,007,17,1*48
$GNRMC,194907.000,A,4910.427568,N,12304.397730,W,0.02,320.23,051224,,,D,V*16
$GNVTG,320.23,T,,M,0.02,N,0.04,K,D*20
$PAIRLOG,Full*51
$GNGGA,194908.000,4910.427454,N,12304.397706,W,2,28,0.54,-0.659,M,-16.816,M,,*67
$GNGLL,4910.427454,N,12304.397706,W,194908.000,A,D*5D
$GNGSA,A,3,07,09,04,30,20,16,27,08,05,,,,0.94,0.54,0.77,1*09
$GNGSA,A,3,69,79,78,68,80,87,,,,,,,0.94,0.54,0.77,2*09
$GNGSA,A,3,09,31,05,06,24,04,,,,,,,0.94,0.54,0.77,3*05
$GNGSA,A,3,37,20,23,32,19,38,34,,,,,,0.94,0.54,0.77,4*0A
$GPGSV,3,1,11,07,74,280,30,09,68,143,30,04,38,129,27,30,36,264,24,1*69
$GPGSV,3,2,11,44,33,171,27,20,29,299,22,16,27,048,26,27,25,085,19,1*61
$GPGSV,3,3,11,08,20,120,25,05,11,328,18,14,02,210,15,1*5F
$GLGSV,2,1,07,69,82,273,40,79,75,235,39,78,47,042,25,68,39,153,34,1*70
$GLGSV,2,2,07,80,20,226,34,70,18,324,,87,10,031,21,1*40
$GAGSV,3,1,09,09,70,131,27,31,65,098,25,05,52,300,25,06,45,127,26,7*76
$GAGSV,3,2,09,24,40,189,23,04,20,125,16,15,09,322,16,34,04,275,,7*75
$GAGSV,3,3,09,03,02,303,,7*4B
$GBGSV,4,1,15,37,81,213,35,20,66,259,36,58,65,251,,23,42,061,32,1*7C
$GBGSV,4,2,15,32,35,168,30,19,28,313,27,46,25,235,,38,17,331,25,1*73
$GBGSV,4,3,15,08,12,341,16,31,09,335,,11,06,055,19,34,06,033,19,1*76
$GBGSV,4,4,15,43,05,076,18,13,04,346,17,12,03,007,17,1*48
$GNRMC,194908.000,A,4910.427454,N,12304.397706,W,0.02,320.23,051224,,,D,V*12
$GNVTG,320.23,T,,M,0.02,N,0.04,K,D*20
$PAIRLOG,Full*51
$GNGGA,194909.000,4910.427406,N,12304.397616,W,2,28,0.54,-0.628,M,-16.816,M,,*67
$GNGLL,4910.427406,N,12304.397616,W,194909.000,A,D*5B
$GNGSA,A,3,07,09,04,30,20,16,27,08,05,,,,0.94,0.54,0.77,1*09
$GNGSA,A,3,69,79,78,68,80,87,,,,,,,0.94,0.54,0.77,2*09
$GNGSA,A,3,09,31,05,06,24,04,,,,,,,0.94,0.54,0.77,3*05
$GNGSA,A,3,37,20,23,32,19,38,34,,,,,,0.94,0.54,0.77,4*0A
$GPGSV,3,1,11,07,74,280,32,09,68,143,32,04,38,129,29,30,36,264,29,1*6A
$GPGSV,3,2,11,44,33,171,28,20,29,299,28,16,27,048,27,27,25,085,20,1*6F
$GPGSV,3,3,11,08,20,120,26,05,11,328,18,14,02,210,16,1*5F
$GLGSV,2,1,07,69,82,273,40,79,75,235,40,78,47,042,25,68,39,153,33,1*79
$GLGSV,2,2,07,80,20,226,34,70,18,324,,87,10,031,21,1*40
$GAGSV,3,1,09,09,70,131,29,31,65,098,27,05,52,300,27,06,45,127,27,7*79
$GAGSV,3,2,09,24,40,189,25,04,20,125,17,15,09,322,17,34,04,275,,7*73
$GAGSV,3,3,09,03,02,303,,7*4B
$GBGSV,4,1,15,37,81,213,35,20,66,259,36,58,65,251,,23,42,061,32,1*7C
$GBGSV,4,2,15,32,35,168,30,19,28,313,27,46,25,235,,38,17,331,25,1*73
$GBGSV,4,3,15,08,12,341,16,31,09,335,,11,06,055,19,34,06,033,19,1*76
$GBGSV,4,4,15,43,05,076,18,13,04,346,18,12,03,007,17,1*47
$GNRMC,194909.000,A,4910.427406,N,12304.397616,W,0.02,320.23,051224,,,D,V*14
$GNVTG,320.23,T,,M,0.02,N,0.03,K,D*27
$PAIRLOG,Full*51
$GNGGA,194910.000,4910.427322,N,12304.397526,W,2,28,0.54,-0.605,M,-16.816,M,,*61
$GNGLL,4910.427322,N,12304.397526,W,194910.000,A,D*52
$GNGSA,A,3,07,09,04,30,20,16,27,08,05,,,,0.94,0.54,0.77,1*09
$GNGSA,A,3,69,79,78,68,80,87,,,,,,,0.94,0.54,0.77,2*09
$GNGSA,A,3,09,31,05,06,24,04,,,,,,,0.94,0.54,0.77,3*05
$GNGSA,A,3,37,20,23,32,19,38,34,,,,,,0.94,0.54,0.77,4*0A
$GPGSV,3,1,12,07,74,280,33,09,68,143,33,04,38,129,29,30,36,264,27,1*67
$GPGSV,3,2,12,44,33,171,28,20,29,299,26,16,27,048,28,27,25,085,22,1*6F
$GPGSV,3,3,12,08,20,120,27,05,11,328,19,14,02,210,16,11,01,278,,1*60
$GLGSV,2,1,07,69,82,273,40,79,75,235,39,78,47,042,26,68,39,153,33,1*74
$GLGSV,2,2,07,80,20,226,34,70,18,324,,87,10,031,21,1*40
$GAGSV,3,1,09,09,70,131,29,31,65,098,28,05,52,300,28,06,45,127,28,7*76
$GAGSV,3,2,09,24,40,189,25,04,20,125,17,15,09,322,17,34,04,275,,7*73
$GAGSV,3,3,09,03,02,303,,7*4B
$GBGSV,4,1,14,37,81,213,35,20,66,259,36,58,65,251,,23,42,061,32,1*7D
$GBGSV,4,2,14,32,35,168,30,19,28,313,27,38,17,331,24,08,12,341,16,1*78
$GBGSV,4,3,14,31,09,335,,34,06,033,19,11,06,055,19,43,05,076,18,1*77
$GBGSV,4,4,14,13,04,346,18,12,03,007,17,1*7C
$GNRMC,194910.000,A,4910.427322,N,12304.397526,W,0.02,320.23,051224,,,D,V*1D
$GNVTG,320.23,T,,M,0.02,N,0.04,K,D*20
$PAIRLOG,Full*51
$GNGGA,194911.000,4910.427286,N,12304.397466,W,2,28,0.54,-0.558,M,-16.816,M,,*61
$GNGLL,4910.427286,N,12304.397466,W,194911.000,A,D*59
$GNGSA,A,3,07,09,04,30,20,16,27,08,05,,,,0.94,0.54,0.77,1*09
$GNGSA,A,3,69,79,78,68,80,87,,,,,,,0.94,0.54,0.77,2*09
$GNGSA,A,3,09,31,05,06,24,04,,,,,,,0.94,0.54,0.77,3*05
$GNGSA,A,3,37,20,23,32,19,38,34,,,,,,0.94,0.54,0.77,4*0A
$GPGSV,3,1,12,07,74,280,33,09,68,143,33,04,38,129,29,30,36,264,29,1*69
$GPGSV,3,2,12,44,33,171,28,20,29,299,27,16,27,048,28,27,25,085,23,1*6F
$GPGSV,3,3,12,08,20,120,27,05,11,328,19,14,02,210,17,11,01,278,,1*61
$GLGSV,2,1,07,69,82,273,40,79,75,235,39,78,47,042,25,68,39,153,33,1*77
$GLGSV,2,2,07,80,20,226,34,70,18,324,,87,10,031,21,1*40
$GAGSV,3,1,09,09,70,131,29,31,65,098,28,05,52,300,28,06,45,127,28,7*76
$GAGSV,3,2,09,24,40,189,26,04,20,125,18,15,09,322,17,34,04,275,,7*7F
$GAGSV,3,3,09,03,02,303,,7*4B
$GBGSV,4,1,14,37,81,213,35,20,66,259,36,58,65,251,,23,42,061,32,1*7D
$GBGSV,4,2,14,32,35,168,31,19,28,313,28,38,17,331,24,08,12,341,16,1*76
$GBGSV,4,3,14,31,09,335,,34,06,033,19,11,06,055,19,43,05,076,18,1*77
$GBGSV,4,4,14,13,04,346,18,12,03,007,17,1*7C
$GNRMC,194911.000,A,4910.427286,N,12304.397466,W,0.02,320.23,051224,,,D,V*16
$GNVTG,320.23,T,,M,0.02,N,0.04,K,D*20
$PAIRLOG,Full*51
$GNGGA,194912.000,4910.427238,N,12304.397460,W,2,28,0.54,-0.516,M,-16.816,M,,*6B
$GNGLL,4910.427238,N,12304.397460,W,194912.000,A,D*59
$GNGSA,A,3,07,09,04,30,20,16,27,08,05,,,,0.94,0.54,0.77,1*09
$GNGSA,A,3,69,79,78,68,80,87,,,,,,,0.94,0.54,0.77,2*09
$GNGSA,A,3,09,31,05,06,24,04,,,,,,,0.94,0.54,0.77,3*05
$GNGSA,A,3,37,20,23,32,19,38,34,,,,,,0.94,0.54,0.77,4*0A
$GPGSV,3,1,12,07,74,280,33,09,68,143,33,04,38,129,29,30,36,264,28,1*68
$GPGSV,3,2,12,44,33,171,28,20,29,299,27,16,27,048,28,27,25,085,22,1*6E
$GPGSV,3,3,12,08,20,120,27,05,11,328,20,14,02,210,17,11,01,278,,1*6B
$GLGSV,2,1,07,69,82,273,40,79,75,235,39,78,47,042,24,68,39,153,33,1*76
$GLGSV,2,2,07,80,20,226,34,70,18,324,,87,10,031,21,1*40
$GAGSV,2,1,08,09,70,131,29,31,65,098,28,05,52,300,28,06,45,127,28,7*76
$GAGSV,2,2,08,24,40,189,26,04,20,125,18,15,09,322,17,03,02,303,,7*7D
$GBGSV,4,1,15,37,81,213,35,20,66,259,36,58,65,251,,23,42,061,32,1*7C
$GBGSV,4,2,15,32,35,168,31,19,28,313,28,46,25,235,,38,17,331,24,1*7C
$GBGSV,4,3,15,08,12,341,16,31,09,335,,11,06,055,19,34,06,033,19,1*76
$GBGSV,4,4,15,43,05,076,18,13,04,346,18,12,03,007,17,1*47
$GNRMC,194912.000,A,4910.427238,N,12304.397460,W,0.02,320.23,051224,,,D,V*16
$GNVTG,320.23,T,,M,0.02,N,0.03,K,D*27
$PAIRLOG,Full*51
$GNGGA,194913.000,4910.427208,N,12304.397490,W,2,28,0.54,-0.461,M,-16.817,M,,*66
$GNGLL,4910.427208,N,12304.397490,W,194913.000,A,D*54
$GNGSA,A,3,07,09,04,30,20,16,27,08,05,,,,0.94,0.54,0.77,1*09
$GNGSA,A,3,69,79,78,68,80,87,,,,,,,0.94,0.54,0.77,2*09
$GNGSA,A,3,09,31,05,06,24,04,,,,,,,0.94,0.54,0.77,3*05
$GNGSA,A,3,37,20,23,32,19,38,34,,,,,,0.94,0.54,0.77,4*0A
$GPGSV,3,1,12,07,74,280,33,09,68,143,34,04,38,129,29,30,36,264,28,1*6F
$GPGSV,3,2,12,44,33,171,28,20,29,299,27,16,27,048,28,27,25,085,24,1*68
$GPGSV,3,3,12,08,20,120,27,05,11,328,23,14,02,210,16,11,01,278,,1*69
$GLGSV,2,1,07,69,82,273,40,79,75,235,39,78,47,042,23,68,39,153,33,1*71
$GLGSV,2,2,07,80,20,226,34,70,18,324,,87,10,031,21,1*40
$GAGSV,3,1,09,09,70,131,30,31,65,098,29,05,52,300,28,06,45,127,28,7*7F
$GAGSV,3,2,09,24,40,189,27,04,20,125,19,15,09,322,18,34,04,275,,7*70
$GAGSV,3,3,09,03,02,303,,7*4B
$GBGSV,4,1,14,37,81,213,35,20,66,259,36,58,65,251,,23,42,061,32,1*7D
$GBGSV,4,2,14,32,35,168,31,19,28,313,28,46,25,235,,38,17,331,24,1*7D
$GBGSV,4,3,14,08,12,341,16,11,06,055,18,34,06,033,19,43,05,076,18,1*72
$GBGSV,4,4,14,13,04,346,18,12,03,007,17,1*7C
$GNRMC,194913.000,A,4910.427208,N,12304.397490,W,0.01,320.23,051224,,,D,V*18
$GNVTG,320.23,T,,M,0.01,N,0.02,K,D*25
$PAIRLOG,Full*51
$GNGGA,194914.000,4910.427214,N,12304.397436,W,2,28,0.54,-0.372,M,-16.817,M,,*65
$GNGLL,4910.427214,N,12304.397436,W,194914.000,A,D*52
$GNGSA,A,3,07,09,04,30,20,16,27,08,05,,,,0.94,0.54,0.77,1*09
$GNGSA,A,3,69,79,78,68,80,87,,,,,,,0.94,0.54,0.77,2*09
$GNGSA,A,3,09,31,05,06,24,04,,,,,,,0.94,0.54,0.77,3*05
$GNGSA,A,3,37,20,23,32,19,38,34,,,,,,0.94,0.54,0.77,4*0A
$GPGSV,3,1,12,07,74,280,33,09,68,143,34,04,38,129,29,30,36,264,28,1*6F
$GPGSV,3,2,12,44,33,171,28,20,29,299,27,16,27,048,28,27,25,085,23,1*6F
$GPGSV,3,3,12,08,20,120,27,05,11,328,21,14,02,210,17,11,01,278,,1*6A
$GLGSV,2,1,07,69,82,273,40,79,75,235,39,78,47,042,23,68,39,153,33,1*71
$GLGSV,2,2,07,80,20,226,34,70,18,324,,87,10,031,21,1*40
$GAGSV,2,1,08,09,70,131,30,31,65,098,29,05,52,300,28,06,45,127,28,7*7F
$GAGSV,2,2,08,24,40,189,27,04,20,125,19,15,09,322,18,34,04,275,,7*70
$GBGSV,4,1,15,37,81,213,35,20,66,259,36,58,65,251,,23,42,061,32,1*7C
$GBGSV,4,2,15,32,35,168,31,19,28,313,28,46,25,235,,38,17,331,24,1*7C
$GBGSV,4,3,15,08,12,341,15,31,09,335,,11,06,055,18,34,06,033,19,1*74
$GBGSV,4,4,15,43,05,076,18,13,04,346,19,12,03,007,17,1*46
$GNRMC,194914.000,A,4910.427214,N,12304.397436,W,0.02,320.23,051224,,,D,V*1D
$GNVTG,320.23,T,,M,0.02,N,0.03,K,D*27
$PAIRLOG,Full*51
$GNGGA,194915.000,4910.427172,N,12304.397508,W,2,28,0.54,-0.279,M,-16.816,M,,*60
$GNGLL,4910.427172,N,12304.397508,W,194915.000,A,D*5C
$GNGSA,A,3,07,09,04,30,20,16,27,08,05,,,,0.94,0.54,0.77,1*09
$GNGSA,A,3,69,79,78,68,80,87,,,,,,,0.94,0.54,0.77,2*09
$GNGSA,A,3,09,31,05,06,24,04,,,,,,,0.94,0.54,0.77,3*05
$GNGSA,A,3,37,20,23,32,19,38,34,,,,,,0.94,0.54,0.77,4*0A
$GPGSV,3,1,12,07,74,280,33,09,68,143,33,04,38,129,29,30,36,264,28,1*68
$GPGSV,3,2,12,44,33,171,28,20,29,299,27,16,27,048,28,27,25,085,23,1*6F
$GPGSV,3,3,12,08,20,120,27,05,11,328,21,14,02,210,16,11,01,278,,1*6B
$GLGSV,2,1,07,69,82,273,40,79,75,235,39,78,47,042,23,68,39,153,34,1*76
$GLGSV,2,2,07,80,20,226,34,70,18,324,,87,10,031,21,1*40
$GAGSV,2,1,08,09,70,131,31,31,65,098,29,05,52,300,28,06,45,127,28,7*7E
$GAGSV,2,2,08,24,40,189,27,04,20,125,20,15,09,322,18,34,04,275,,7*7A
$GBGSV,4,1,15,37,81,213,35,20,66,259,36,58,65,251,,23,42,061,33,1*7D
$GBGSV,4,2,15,32,35,168,31,19,28,313,28,46,25,235,,38,17,331,24,1*7C
$GBGSV,4,3,15,08,12,341,15,31,09,335,,11,06,055,18,34,06,033,19,1*74
$GBGSV,4,4,15,43,05,076,18,13,04,346,19,12,03,007,17,1*46
$GNRMC,194915.000,A,4910.427172,N,12304.397508,W,0.02,320.23,051224,,,D,V*13
$GNVTG,320.23,T,,M,0.02,N,0.03,K,D*27
$PAIRLOG,Full*51
$GNGGA,194916.000,4910.427256,N,12304.397538,W,2,28,0.54,-0.143,M,-16.816,M,,*6F
