$GNGGA,005046.000,4910.426038,N,12304.402554,W,2,30,0.52,-4.933,M,-16.816,M,,*64
$GNGLL,4910.426038,N,12304.402554,W,005046.000,A,D*56
$GNGSA,A,3,06,12,19,11,24,17,03,32,,,,,0.85,0.52,0.68,1*0A
$GNGSA,A,3,75,74,85,73,66,,,,,,,,0.85,0.52,0.68,2*0E
$GNGSA,A,3,21,13,15,27,26,04,06,09,,,,,0.85,0.52,0.68,3*08
$GNGSA,A,3,34,11,25,12,23,43,44,24,39,,,,0.85,0.52,0.68,4*09
$GPGSV,3,1,11,06,61,104,36,12,60,299,37,19,49,062,36,25,44,301,,1*65
$GPGSV,3,2,11,11,44,167,35,24,43,222,33,46,33,188,32,17,20,065,30,1*66
$GPGSV,3,3,11,03,10,030,23,32,09,315,28,20,01,153,,1*55
$GLGSV,2,1,07,84,71,050,21,75,63,319,29,74,58,139,20,85,49,208,29,1*71
$GLGSV,2,2,07,73,13,140,24,67,09,010,22,66,08,321,17,1*4D
$GAGSV,3,1,09,21,85,081,34,13,59,128,33,15,35,049,29,27,31,113,29,7*76
$GAGSV,3,2,09,26,23,185,27,04,14,287,18,06,12,312,22,09,08,334,25,7*75
$GAGSV,3,3,09,19,02,235,17,7*42
$GBGSV,3,1,12,34,79,099,34,11,67,204,33,25,65,185,34,12,52,058,31,1*7A
$GBGSV,3,2,12,23,48,299,33,43,45,221,31,44,26,055,27,24,17,147,28,1*77
$GBGSV,3,3,12,39,11,330,25,19,03,015,19,16,02,334,18,37,01,316,,1*76
$GNRMC,005046.000,A,4910.426038,N,12304.402554,W,0.02,40.82,070125,,,D,V*26
$GNVTG,40.82,T,,M,0.02,N,0.04,K,D*1E
$PAIRLOG,Full*51
$GNGGA,005047.000,4910.426062,N,12304.402482,W,2,30,0.52,-4.891,M,-16.816,M,,*69
$GNGLL,4910.426062,N,12304.402482,W,005047.000,A,D*52
$GNGSA,A,3,06,12,19,11,24,17,03,32,,,,,0.85,0.52,0.68,1*0A
$GNGSA,A,3,75,74,85,73,66,,,,,,,,0.85,0.52,0.68,2*0E
$GNGSA,A,3,21,13,15,27,26,04,06,09,,,,,0.85,0.52,0.68,3*08
$GNGSA,A,3,34,11,25,12,23,43,44,24,39,,,,0.85,0.52,0.68,4*09
$GPGSV,3,1,11,06,61,104,36,12,60,299,37,19,49,062,36,25,44,301,,1*65
$GPGSV,3,2,11,11,44,167,35,24,43,222,33,46,33,188,32,17,20,065,30,1*66
$GPGSV,3,3,11,03,10,030,23,32,09,315,28,20,01,153,,1*55
$GLGSV,2,1,07,84,71,050,21,75,63,319,29,74,58,139,19,85,49,208,29,1*7B
$GLGSV,2,2,07,73,13,140,24,67,09,010,21,66,08,321,17,1*4E
$GAGSV,3,1,09,21,85,081,34,13,59,128,33,15,35,049,29,27,31,113,29,7*76
$GAGSV,3,2,09,26,23,185,27,04,14,287,18,06,12,312,23,09,08,334,25,7*74
$GAGSV,3,3,09,19,02,235,17,7*42
$GBGSV,3,1,12,34,79,099,34,11,67,204,33,25,65,185,34,12,52,058,31,1*7A
$GBGSV,3,2,12,23,48,299,33,43,45,221,31,44,26,055,27,24,17,147,28,1*77
$GBGSV,3,3,12,39,11,330,25,19,03,015,19,16,02,334,18,37,01,316,,1*76
$GNRMC,005047.000,A,4910.426062,N,12304.402482,W,0.02,40.82,070125,,,D,V*22
$GNVTG,40.82,T,,M,0.02,N,0.04,K,D*1E
$PAIRLOG,Full*51
$GNGGA,005048.000,4910.426068,N,12304.402422,W,2,30,0.52,-4.930,M,-16.816,M,,*6C
$GNGLL,4910.426068,N,12304.402422,W,005048.000,A,D*5D
$GNGSA,A,3,06,12,19,11,24,17,03,32,,,,,0.85,0.52,0.68,1*0A
$GNGSA,A,3,75,74,85,73,66,,,,,,,,0.85,0.52,0.68,2*0E
$GNGSA,A,3,21,13,15,27,26,04,06,09,,,,,0.85,0.52,0.68,3*08
$GNGSA,A,3,34,11,25,12,23,43,44,24,39,,,,0.85,0.52,0.68,4*09
$GPGSV,3,1,11,06,61,104,36,12,60,299,37,19,49,062,36,25,44,301,,1*65
$GPGSV,3,2,11,11,44,167,35,24,43,222,33,46,33,188,32,17,20,065,30,1*66
$GPGSV,3,3,11,03,10,030,23,32,09,315,28,20,01,153,,1*55
$GLGSV,2,1,07,84,71,050,21,75,63,319,29,74,58,139,18,85,49,208,29,1*7A
$GLGSV,2,2,07,73,13,140,24,67,09,010,21,66,08,321,16,1*4F
$GAGSV,3,1,09,21,85,081,34,13,59,128,33,15,35,049,29,27,31,113,29,7*76
$GAGSV,3,2,09,26,23,185,27,04,14,287,18,06,12,312,23,09,08,334,24,7*75
$GAGSV,3,3,09,19,02,235,16,7*43
$GBGSV,3,1,12,34,79,099,35,11,67,204,33,25,65,185,35,12,52,058,31,1*7A
$GBGSV,3,2,12,23,48,299,33,43,45,221,31,44,26,055,27,24,17,147,28,1*77
$GBGSV,3,3,12,39,11,330,25,19,03,015,19,16,02,334,18,37,01,316,,1*76
$GNRMC,005048.000,A,4910.426068,N,12304.402422,W,0.02,40.82,070125,,,D,V*2D
$GNVTG,40.82,T,,M,0.02,N,0.04,K,D*1E
$PAIRLOG,Full*51
$GNGGA,005049.000,4910.426110,N,12304.402392,W,2,30,0.52,-5.018,M,-16.816,M,,*6D
$GNGLL,4910.426110,N,12304.402392,W,005049.000,A,D*5E
$GNGSA,A,3,06,12,19,11,24,17,03,32,,,,,0.85,0.52,0.68,1*0A
$GNGSA,A,3,75,74,85,73,66,,,,,,,,0.85,0.52,0.68,2*0E
$GNGSA,A,3,21,13,15,27,26,04,06,09,,,,,0.85,0.52,0.68,3*08
$GNGSA,A,3,34,11,25,12,23,43,44,24,39,,,,0.85,0.52,0.68,4*09
$GPGSV,3,1,11,06,61,104,36,12,60,299,37,19,49,062,36,25,44,301,,1*65
$GPGSV,3,2,11,11,44,167,35,24,43,222,33,46,33,188,32,17,20,065,30,1*66
$GPGSV,3,3,11,03,10,030,24,32,09,315,28,20,01,153,,1*52
$GLGSV,2,1,07,84,71,050,21,75,63,319,29,74,58,139,18,85,49,208,29,1*7A
$GLGSV,2,2,07,73,13,140,24,67,09,010,21,66,08,321,16,1*4F
$GAGSV,3,1,09,21,85,081,34,13,59,128,33,15,35,049,29,27,31,113,29,7*76
$GAGSV,3,2,09,26,23,185,27,04,14,287,18,06,12,312,24,09,08,334,24,7*72
$GAGSV,3,3,09,19,02,235,17,7*42
$GBGSV,3,1,12,34,79,099,35,11,67,204,33,25,65,185,35,12,52,058,31,1*7A
$GBGSV,3,2,12,23,48,299,33,43,45,221,31,44,26,055,27,24,17,147,28,1*77
$GBGSV,3,3,12,39,11,330,25,19,03,015,19,16,02,334,18,37,01,316,,1*76
$GNRMC,005049.000,A,4910.426110,N,12304.402392,W,0.02,40.82,070125,,,D,V*2E
$GNVTG,40.82,T,,M,0.02,N,0.04,K,D*1E
$PAIRLOG,Full*51
$GNGGA,005050.000,4910.426146,N,12304.402386,W,2,30,0.52,-5.058,M,-16.817,M,,*66
$GNGLL,4910.426146,N,12304.402386,W,005050.000,A,D*50
$GNGSA,A,3,06,12,19,11,24,17,03,32,,,,,0.85,0.52,0.68,1*0A
$GNGSA,A,3,75,74,85,73,66,,,,,,,,0.85,0.52,0.68,2*0E
$GNGSA,A,3,21,13,15,27,26,04,06,09,,,,,0.85,0.52,0.68,3*08
$GNGSA,A,3,34,11,25,12,23,43,44,24,39,,,,0.85,0.52,0.68,4*09
$GPGSV,3,1,11,06,61,104,36,12,60,299,37,19,49,062,36,25,44,301,,1*65
$GPGSV,3,2,11,11,44,167,35,24,43,222,33,46,33,188,32,17,20,065,30,1*66
$GPGSV,3,3,11,03,10,030,23,32,09,315,28,20,01,153,,1*55
$GLGSV,2,1,07,84,71,050,21,75,63,319,29,74,58,139,18,85,49,208,29,1*7A
$GLGSV,2,2,07,73,13,140,25,67,09,010,20,66,08,321,16,1*4F
$GAGSV,3,1,09,21,85,081,34,13,59,128,33,15,35,049,29,27,31,113,29,7*76
$GAGSV,3,2,09,26,23,185,27,04,14,287,18,06,12,312,24,09,08,334,24,7*72
$GAGSV,3,3,09,19,02,235,17,7*42
$GBGSV,3,1,12,34,79,099,35,11,67,204,33,25,65,185,35,12,52,058,31,1*7A
$GBGSV,3,2,12,23,48,299,33,43,45,221,31,44,26,055,27,24,17,147,28,1*77
$GBGSV,3,3,12,39,11,330,25,19,03,015,19,16,02,334,18,37,01,316,,1*76
$GNRMC,005050.000,A,4910.426146,N,12304.402386,W,0.02,40.82,070125,,,D,V*20
$GNVTG,40.82,T,,M,0.02,N,0.04,K,D*1E
$PAIRLOG,Full*51
$GNGGA,005051.000,4910.426152,N,12304.402392,W,2,30,0.52,-5.071,M,-16.816,M,,*6D
$GNGLL,4910.426152,N,12304.402392,W,005051.000,A,D*51
$GNGSA,A,3,06,12,19,11,24,17,03,32,,,,,0.85,0.52,0.67,1*05
$GNGSA,A,3,75,74,85,73,66,,,,,,,,0.85,0.52,0.67,2*01
$GNGSA,A,3,21,13,15,27,26,04,06,09,,,,,0.85,0.52,0.67,3*07
$GNGSA,A,3,34,11,25,12,23,43,44,24,39,,,,0.85,0.52,0.67,4*06
$GPGSV,3,1,11,06,61,104,36,12,60,299,37,19,49,062,36,25,44,301,,1*65
$GPGSV,3,2,11,11,44,167,35,24,43,222,33,46,33,188,32,17,20,065,30,1*66
$GPGSV,3,3,11,03,10,030,23,32,09,315,28,20,01,153,,1*55
$GLGSV,2,1,07,84,71,050,20,75,63,319,29,74,58,139,18,85,49,208,29,1*7B
$GLGSV,2,2,07,73,13,140,26,67,09,010,19,66,08,321,16,1*46
$GAGSV,3,1,09,21,85,081,34,13,59,128,33,15,35,049,29,27,31,113,29,7*76
$GAGSV,3,2,09,26,23,185,27,04,14,287,18,06,12,312,24,09,08,334,24,7*72
$GAGSV,3,3,09,19,02,235,16,7*43
$GBGSV,3,1,12,34,79,099,35,11,67,204,33,25,65,185,34,12,52,058,31,1*7B
$GBGSV,3,2,12,23,48,299,33,43,45,221,31,44,26,055,27,24,17,147,28,1*77
$GBGSV,3,3,12,39,11,330,24,19,03,015,19,16,02,334,18,37,01,316,,1*77
$GNRMC,005051.000,A,4910.426152,N,12304.402392,W,0.02,40.82,070125,,,D,V*21
$GNVTG,40.82,T,,M,0.02,N,0.03,K,D*19
$PAIRLOG,Full*51
$GNGGA,005052.000,4910.426206,N,12304.402404,W,2,30,0.52,-4.993,M,-16.816,M,,*60
$GNGLL,4910.426206,N,12304.402404,W,005052.000,A,D*58
$GNGSA,A,3,06,12,19,11,24,17,03,32,,,,,0.85,0.52,0.67,1*05
$GNGSA,A,3,75,74,85,73,66,,,,,,,,0.85,0.52,0.67,2*01
$GNGSA,A,3,21,13,15,27,26,04,06,09,,,,,0.85,0.52,0.67,3*07
$GNGSA,A,3,34,11,25,12,23,43,44,24,39,,,,0.85,0.52,0.67,4*06
$GPGSV,3,1,11,06,61,104,36,12,60,299,37,19,49,062,36,25,44,301,,1*65
$GPGSV,3,2,11,11,44,167,35,24,43,222,33,46,33,188,32,17,20,065,29,1*6E
$GPGSV,3,3,11,03,10,030,23,32,09,315,28,20,01,153,,1*55
$GLGSV,2,1,07,84,71,050,20,75,63,319,29,74,58,139,18,85,49,208,29,1*7B
$GLGSV,2,2,07,73,13,140,26,67,09,010,19,66,08,321,16,1*46
$GAGSV,3,1,09,21,85,081,34,13,59,128,33,15,35,049,29,27,31,113,29,7*76
$GAGSV,3,2,09,26,23,185,27,04,14,287,18,06,12,312,24,09,08,334,24,7*72
