$GNGGA,190129.000,4910.427268,N,12304.400784,W,2,25,0.54,7.002,M,-16.816,M,,*4D
$GNGLL,4910.427268,N,12304.400784,W,190129.000,A,D*58
$GNGSA,A,3,07,09,30,04,20,27,16,08,05,14,,,0.89,0.54,0.71,1*06
$GNGSA,A,3,77,67,76,85,,,,,,,,,0.89,0.54,0.71,2*09
$GNGSA,A,3,04,21,06,19,09,31,36,,,,,,0.89,0.54,0.71,3*02
$GNGSA,A,3,37,20,32,19,,,,,,,,,0.89,0.54,0.71,4*0D
$GPGSV,3,1,11,07,76,287,37,09,63,144,33,30,39,266,31,04,35,131,33,1*6C
$GPGSV,3,2,11,46,33,188,33,20,29,295,32,27,26,081,30,16,24,047,26,1*6D
$GPGSV,3,3,11,08,23,118,29,05,14,326,25,14,05,211,21,1*5F
$GLGSV,2,1,07,77,85,282,18,67,79,273,29,76,42,042,25,68,31,323,,1*7A
$GLGSV,2,2,07,78,24,229,,85,11,029,23,84,07,340,,1*44
$GAGSV,3,1,09,04,76,291,34,21,49,062,31,06,48,300,30,19,41,128,25,7*73
$GAGSV,3,2,09,09,24,304,29,31,16,204,21,36,07,301,19,34,05,348,21,7*7E
$GAGSV,3,3,09,27,03,038,12,7*44
$GBGSV,4,1,15,37,84,209,31,20,65,252,33,58,45,233,,32,32,168,25,1*74
$GBGSV,4,2,15,19,30,312,23,46,28,237,,38,18,330,23,08,12,341,16,1*79
$GBGSV,4,3,15,31,08,341,,43,07,074,14,11,07,053,21,34,06,031,16,1*79
$GBGSV,4,4,15,13,05,346,17,12,02,005,,04,01,262,,1*45
$GNRMC,190129.000,A,4910.427268,N,12304.400784,W,0.01,33.05,191224,,,D,V*2C
$GNVTG,33.05,T,,M,0.01,N,0.01,K,D*13
$PAIRLOG,Full*51
$GNGGA,190130.000,4910.427172,N,12304.400748,W,2,25,0.54,7.013,M,-16.816,M,,*4D
$GNGLL,4910.427172,N,12304.400748,W,190130.000,A,D*58
$GNGSA,A,3,07,09,30,04,20,27,16,08,05,14,,,0.89,0.54,0.71,1*06
$GNGSA,A,3,77,67,76,85,,,,,,,,,0.89,0.54,0.71,2*09
$GNGSA,A,3,04,21,06,19,09,31,36,,,,,,0.89,0.54,0.71,3*02
$GNGSA,A,3,37,20,32,19,,,,,,,,,0.89,0.54,0.71,4*0D
$GPGSV,3,1,11,07,76,287,36,09,63,144,33,30,39,266,31,04,35,131,33,1*6D
$GPGSV,3,2,11,46,33,188,32,20,29,295,32,27,26,081,30,16,24,047,25,1*6F
$GPGSV,3,3,11,08,23,118,28,05,14,326,23,14,05,211,21,1*58
$GLGSV,2,1,07,77,85,282,17,67,79,273,30,76,42,042,25,68,31,323,,1*7D
$GLGSV,2,2,07,78,24,229,,85,11,029,23,84,07,340,,1*44
$GAGSV,3,1,09,04,76,291,34,21,49,062,30,06,48,300,30,19,41,128,25,7*72
$GAGSV,3,2,09,09,24,304,28,31,16,204,21,36,07,301,19,34,05,348,21,7*7F
$GAGSV,3,3,09,27,03,038,12,7*44
$GBGSV,4,1,15,37,84,209,31,20,65,252,33,58,45,233,,32,32,168,25,1*74
$GBGSV,4,2,15,19,30,312,23,46,28,237,,38,18,330,23,08,12,341,16,1*79
$GBGSV,4,3,15,31,08,341,,43,07,074,14,11,07,053,21,34,06,031,16,1*79
$GBGSV,4,4,15,13,05,346,17,12,02,005,,04,01,262,,1*45
$GNRMC,190130.000,A,4910.427172,N,12304.400748,W,0.01,33.05,191224,,,D,V*2C
$GNVTG,33.05,T,,M,0.01,N,0.03,K,D*11
$PAIRLOG,Full*51
$GNGGA,190131.000,4910.427088,N,12304.400688,W,2,25,0.54,7.021,M,-16.817,M,,*45
$GNGLL,4910.427088,N,12304.400688,W,190131.000,A,D*50
$GNGSA,A,3,07,09,30,04,20,27,16,08,05,14,,,0.89,0.54,0.71,1*06
$GNGSA,A,3,77,67,76,85,,,,,,,,,0.89,0.54,0.71,2*09
$GNGSA,A,3,04,21,06,19,09,31,36,,,,,,0.89,0.54,0.71,3*02
$GNGSA,A,3,37,20,32,19,,,,,,,,,0.89,0.54,0.71,4*0D
$GPGSV,3,1,11,07,76,287,36,09,63,144,33,30,39,266,32,04,35,131,33,1*6E
$GPGSV,3,2,11,46,33,188,32,20,29,295,32,27,26,081,30,16,24,047,26,1*6C
$GPGSV,3,3,11,08,23,118,29,05,14,326,25,14,05,211,21,1*5F
$GLGSV,2,1,07,77,85,282,17,67,79,273,30,76,42,042,24,68,31,323,,1*7C
$GLGSV,2,2,07,78,24,229,,85,11,029,24,84,07,340,,1*43
$GAGSV,3,1,09,04,76,291,34,21,49,062,31,06,48,300,30,19,41,128,25,7*73
$GAGSV,3,2,09,09,24,304,29,31,16,204,22,36,07,301,19,34,05,348,21,7*7D
$GAGSV,3,3,09,27,03,038,12,7*44
$GBGSV,4,1,15,37,84,209,30,20,65,252,32,58,45,233,,32,32,168,24,1*75
$GBGSV,4,2,15,19,30,312,22,46,28,237,,38,18,330,22,08,12,341,16,1*79
$GBGSV,4,3,15,31,08,341,,43,07,074,14,11,07,053,20,34,06,031,16,1*78
$GBGSV,4,4,15,13,05,346,17,12,02,005,,04,01,262,,1*45
$GNRMC,190131.000,A,4910.427088,N,12304.400688,W,0.02,33.05,191224,,,D,V*27
$GNVTG,33.05,T,,M,0.02,N,0.03,K,D*12
$PAIRLOG,Full*51
$GNGGA,190132.000,4910.427034,N,12304.400694,W,2,25,0.54,7.019,M,-16.816,M,,*46
$GNGLL,4910.427034,N,12304.400694,W,190132.000,A,D*59
$GNGSA,A,3,07,09,30,04,20,27,16,08,05,14,,,0.89,0.54,0.71,1*06
$GNGSA,A,3,77,67,76,85,,,,,,,,,0.89,0.54,0.71,2*09
$GNGSA,A,3,04,21,06,19,09,31,36,,,,,,0.89,0.54,0.71,3*02
$GNGSA,A,3,37,20,32,19,,,,,,,,,0.89,0.54,0.71,4*0D
$GPGSV,3,1,11,07,76,287,36,09,63,144,33,30,39,266,32,04,35,131,33,1*6E
$GPGSV,3,2,11,46,33,188,32,20,29,295,32,27,26,081,30,16,24,047,26,1*6C
$GPGSV,3,3,11,08,23,118,29,05,14,326,25,14,05,211,21,1*5F
$GLGSV,2,1,07,77,85,282,17,67,79,273,30,76,42,042,23,68,31,323,,1*7B
$GLGSV,2,2,07,78,24,229,,85,11,029,24,84,07,340,,1*43
$GAGSV,3,1,09,04,76,291,34,21,49,062,31,06,48,300,30,19,41,128,25,7*73
$GAGSV,3,2,09,09,24,304,28,31,16,204,22,36,07,301,19,34,05,348,21,7*7C
$GAGSV,3,3,09,27,03,038,12,7*44
$GBGSV,4,1,15,37,84,209,30,20,65,252,32,58,45,233,,32,32,168,23,1*72
$GBGSV,4,2,15,19,30,312,22,46,28,237,,38,18,330,21,08,12,341,15,1*79
$GBGSV,4,3,15,31,08,341,,43,07,074,14,11,07,053,19,34,06,031,16,1*72
$GBGSV,4,4,15,13,05,346,17,12,02,005,,04,01,262,,1*45
$GNRMC,190132.000,A,4910.427034,N,12304.400694,W,0.02,33.05,191224,,,D,V*2E
$GNVTG,33.05,T,,M,0.02,N,0.03,K,D*12
$PAIRLOG,Full*51
$GNGGA,190133.000,4910.426986,N,12304.400694,W,2,25,0.54,7.009,M,-16.816,M,,*47
$GNGLL,4910.426986,N,12304.400694,W,190133.000,A,D*59
$GNGSA,A,3,07,09,30,04,20,27,16,08,05,14,,,0.89,0.54,0.71,1*06
$GNGSA,A,3,77,67,76,85,,,,,,,,,0.89,0.54,0.71,2*09
$GNGSA,A,3,04,21,06,19,09,31,36,,,,,,0.89,0.54,0.71,3*02
$GNGSA,A,3,37,20,32,19,,,,,,,,,0.89,0.54,0.71,4*0D
$GPGSV,3,1,11,07,76,287,35,09,63,144,33,30,39,266,31,04,35,131,32,1*6F
$GPGSV,3,2,11,46,33,188,31,20,29,295,31,27,26,081,29,16,24,047,25,1*67
$GPGSV,3,3,11,08,23,118,28,05,14,326,25,14,05,211,21,1*5E
$GLGSV,2,1,07,77,85,282,18,67,79,273,29,76,42,042,24,68,31,323,,1*7B
$GLGSV,2,2,07,78,24,229,,85,11,029,24,84,07,340,,1*43
$GAGSV,3,1,09,04,76,291,33,21,49,062,30,06,48,300,29,19,41,128,25,7*7D
$GAGSV,3,2,09,09,24,304,28,31,16,204,22,36,07,301,19,34,05,348,21,7*7C
$GAGSV,3,3,09,27,03,038,11,7*47
$GBGSV,4,1,15,37,84,209,31,20,65,252,32,58,45,233,,32,32,168,24,1*74
$GBGSV,4,2,15,19,30,312,22,46,28,237,,38,18,330,22,08,12,341,16,1*79
$GBGSV,4,3,15,31,08,341,,43,07,074,14,11,07,053,19,34,06,031,16,1*72
$GBGSV,4,4,15,13,05,346,17,12,02,005,,04,01,262,,1*45
$GNRMC,190133.000,A,4910.426986,N,12304.400694,W,0.01,33.05,191224,,,D,V*2D
$GNVTG,33.05,T,,M,0.01,N,0.03,K,D*11
$PAIRLOG,Full*51
$GNGGA,190134.000,4910.426926,N,12304.400658,W,2,25,0.54,6.996,M,-16.817,M,,*45
$GNGLL,4910.426926,N,12304.400658,W,190134.000,A,D*54
$GNGSA,A,3,07,09,30,04,20,27,16,08,05,14,,,0.89,0.54,0.71,1*06
$GNGSA,A,3,77,67,76,85,,,,,,,,,0.89,0.54,0.71,2*09
$GNGSA,A,3,04,21,06,19,09,31,36,,,,,,0.89,0.54,0.71,3*02
$GNGSA,A,3,37,20,32,19,,,,,,,,,0.89,0.54,0.71,4*0D
$GPGSV,3,1,11,07,76,287,35,09,63,144,33,30,39,266,31,04,35,131,32,1*6F
$GPGSV,3,2,11,46,33,188,31,20,29,295,31,27,26,081,28,16,24,047,25,1*66
$GPGSV,3,3,11,08,23,118,28,05,14,326,24,14,05,211,21,1*5F
$GLGSV,2,1,07,77,85,282,18,67,79,273,28,76,42,042,24,68,31,323,,1*7A
$GLGSV,2,2,07,78,24,229,,85,11,029,23,84,07,340,,1*44
$GAGSV,3,1,09,04,76,291,33,21,49,062,30,06,48,300,29,19,41,128,25,7*7D
$GAGSV,3,2,09,09,24,304,28,31,16,204,21,36,07,301,19,34,05,348,20,7*7E
$GAGSV,3,3,09,27,03,038,11,7*47
$GBGSV,4,1,15,37,84,209,31,20,65,252,32,58,45,233,,32,32,168,24,1*74
$GBGSV,4,2,15,19,30,312,22,46,28,237,,38,18,330,22,08,12,341,16,1*79
$GBGSV,4,3,15,31,08,341,,43,07,074,14,11,07,053,19,34,06,031,16,1*72
$GBGSV,4,4,15,13,05,346,16,12,02,005,,04,01,262,,1*44
$GNRMC,190134.000,A,4910.426926,N,12304.400658,W,0.01,33.05,191224,,,D,V*20
$GNVTG,33.05,T,,M,0.01,N,0.03,K,D*11
$PAIRLOG,Full*51
$GNGGA,190135.000,4910.426902,N,12304.400604,W,2,25,0.54,6.985,M,-16.817,M,,*49
$GNGLL,4910.426902,N,12304.400604,W,190135.000,A,D*5A
$GNGSA,A,3,07,09,30,04,20,27,16,08,05,14,,,0.89,0.54,0.71,1*06
$GNGSA,A,3,77,67,76,85,,,,,,,,,0.89,0.54,0.71,2*09
$GNGSA,A,3,04,21,06,19,09,31,36,,,,,,0.89,0.54,0.71,3*02
$GNGSA,A,3,37,20,32,19,,,,,,,,,0.89,0.54,0.71,4*0D
$GPGSV,3,1,11,07,76,287,35,09,63,144,33,30,39,266,30,04,35,131,32,1*6E
$GPGSV,3,2,11,46,33,188,31,20,29,295,31,27,26,081,28,16,24,047,25,1*66
$GPGSV,3,3,11,08,23,118,28,05,14,326,24,14,05,211,21,1*5F
$GLGSV,2,1,07,77,85,282,18,67,79,273,27,76,42,042,24,68,31,323,,1*75
$GLGSV,2,2,07,78,24,229,,85,11,029,22,84,07,340,,1*45
$GAGSV,3,1,09,04,76,291,33,21,49,062,29,06,48,300,29,19,41,128,25,7*75
$GAGSV,3,2,09,09,24,304,28,31,16,204,21,36,07,301,18,34,05,348,20,7*7F
$GAGSV,3,3,09,27,03,038,11,7*47
$GBGSV,4,1,15,37,84,209,31,20,65,252,32,58,45,233,,32,32,168,24,1*74
$GBGSV,4,2,15,19,30,312,22,46,28,237,,38,18,330,22,08,12,341,16,1*79
$GBGSV,4,3,15,31,08,341,,43,07,074,14,11,07,053,19,34,06,031,16,1*72
$GBGSV,4,4,15,13,05,346,16,12,02,005,,04,01,262,,1*44
$GNRMC,190135.000,A,4910.426902,N,12304.400604,W,0.01,33.05,191224,,,D,V*2E
$GNVTG,33.05,T,,M,0.01,N,0.02,K,D*10
$PAIRLOG,Full*51
$GNGGA,190136.000,4910.426920,N,12304.400658,W,2,25,0.54,6.996,M,-16.817,M,,*41
$GNGLL,4910.426920,N,12304.400658,W,190136.000,A,D*50
$GNGSA,A,3,07,09,30,04,20,27,16,08,05,14,,,0.89,0.54,0.71,1*06
$GNGSA,A,3,77,67,76,85,,,,,,,,,0.89,0.54,0.71,2*09
$GNGSA,A,3,04,21,06,19,09,31,36,,,,,,0.89,0.54,0.71,3*02
$GNGSA,A,3,37,20,32,19,,,,,,,,,0.89,0.54,0.71,4*0D
$GPGSV,3,1,11,07,76,287,35,09,63,144,33,30,39,266,30,04,35,131,32,1*6E
$GPGSV,3,2,11,46,33,188,31,20,29,295,31,27,26,081,28,16,24,047,26,1*65
$GPGSV,3,3,11,08,23,118,28,05,14,326,24,14,05,211,21,1*5F
$GLGSV,2,1,07,77,85,282,18,67,79,273,28,76,42,042,23,68,31,323,,1*7D
$GLGSV,2,2,07,78,24,229,,85,11,029,22,84,07,340,,1*45
$GAGSV,3,1,09,04,76,291,33,21,49,062,29,06,48,300,29,19,41,128,25,7*75
$GAGSV,3,2,09,09,24,304,28,31,16,204,21,36,07,301,18,34,05,348,20,7*7F
$GAGSV,3,3,09,27,03,038,11,7*47
$GBGSV,4,1,15,37,84,209,30,20,65,252,31,58,45,233,,32,32,168,23,1*71
$GBGSV,4,2,15,19,30,312,22,46,28,237,,38,18,330,21,08,12,341,16,1*7A
$GBGSV,4,3,15,31,08,341,,43,07,074,14,11,07,053,18,34,06,031,16,1*73
$GBGSV,4,4,15,13,05,346,16,12,02,005,,04,01,262,,1*44
$GNRMC,190136.000,A,4910.426920,N,12304.400658,W,0.18,33.05,191224,,,D,V*2C
$GNVTG,33.05,T,,M,0.18,N,0.33,K,D*1A
$PAIRLOG,Full*51
$GNGGA,190137.000,4910.426902,N,12304.400610,W,2,25,0.54,6.984,M,-16.816,M,,*4E
$GNGLL,4910.426902,N,12304.400610,W,190137.000,A,D*5D
$GNGSA,A,3,07,09,30,04,20,27,16,08,05,14,,,0.89,0.54,0.71,1*06
$GNGSA,A,3,77,67,76,85,,,,,,,,,0.89,0.54,0.71,2*09
$GNGSA,A,3,04,21,06,19,09,31,36,,,,,,0.89,0.54,0.71,3*02
$GNGSA,A,3,37,20,32,19,,,,,,,,,0.89,0.54,0.71,4*0D
$GPGSV,3,1,11,07,76,287,35,09,63,144,34,30,39,266,30,04,35,131,32,1*69
$GPGSV,3,2,11,46,33,188,31,20,29,295,31,27,26,081,28,16,24,047,26,1*65
$GPGSV,3,3,11,08,23,118,28,05,14,326,24,14,05,211,21,1*5F
$GLGSV,2,1,07,77,85,282,18,67,79,273,28,76,42,042,23,68,31,323,,1*7D
$GLGSV,2,2,07,78,24,229,,85,11,029,23,84,07,340,,1*44
$GAGSV,3,1,09,04,76,291,33,21,49,062,29,06,48,300,29,19,41,128,25,7*75
$GAGSV,3,2,09,09,24,304,28,31,16,204,21,36,07,301,18,34,05,348,21,7*7E
$GAGSV,3,3,09,27,03,038,10,7*46
$GBGSV,4,1,15,37,84,209,30,20,65,252,31,58,45,233,,32,32,168,23,1*71
$GBGSV,4,2,15,19,30,312,22,46,28,237,,38,18,330,21,08,13,341,16,1*7B
$GBGSV,4,3,15,31,08,341,,43,07,074,14,11,07,053,18,34,06,031,16,1*73
$GBGSV,4,4,15,13,05,346,16,12,02,005,,04,01,262,,1*44
$GNRMC,190137.000,A,4910.426902,N,12304.400610,W,0.16,33.05,191224,,,D,V*2F
$GNVTG,33.05,T,,M,0.16,N,0.29,K,D*1F
$PAIRLOG,Full*51
$GNGGA,190138.000,4910.426902,N,12304.400604,W,2,25,0.54,6.981,M,-16.816,M,,*41
$GNGLL,4910.426902,N,12304.400604,W,190138.000,A,D*57
$GNGSA,A,3,07,09,30,04,20,27,16,08,05,14,,,0.89,0.54,0.71,1*06
$GNGSA,A,3,77,67,76,85,,,,,,,,,0.89,0.54,0.71,2*09
$GNGSA,A,3,04,21,06,19,09,31,36,,,,,,0.89,0.54,0.71,3*02
$GNGSA,A,3,37,20,32,19,,,,,,,,,0.89,0.54,0.71,4*0D
$GPGSV,3,1,11,07,76,287,35,09,63,144,34,30,39,266,30,04,35,131,32,1*69
$GPGSV,3,2,11,46,33,188,31,20,29,295,31,27,26,081,28,16,24,047,25,1*66
$GPGSV,3,3,11,08,23,118,28,05,14,326,24,14,05,211,21,1*5F
$GLGSV,2,1,06,77,85,282,18,67,79,273,28,76,42,042,22,68,31,323,,1*7D
$GLGSV,2,2,06,78,24,229,,85,11,029,23,1*79
$GAGSV,3,1,09,04,76,291,33,21,49,062,29,06,48,300,29,19,41,128,25,7*75
$GAGSV,3,2,09,09,24,304,28,31,16,204,21,36,07,301,18,34,05,348,21,7*7E
$GAGSV,3,3,09,27,03,038,10,7*46
$GBGSV,4,1,15,37,84,209,31,20,65,252,31,58,45,233,,32,32,168,24,1*77
$GBGSV,4,2,15,19,30,312,23,46,28,237,,38,18,330,21,08,13,341,16,1*7A
$GBGSV,4,3,15,31,08,341,,43,07,074,15,11,07,053,18,34,06,031,16,1*72
$GBGSV,4,4,15,13,05,346,16,12,02,005,,04,01,262,,1*44
$GNRMC,190138.000,A,4910.426902,N,12304.400604,W,0.14,33.05,191224,,,D,V*27
$GNVTG,33.05,T,,M,0.14,N,0.26,K,D*12
$PAIRLOG,Full*51
$GNGGA,190139.000,4910.426902,N,12304.400610,W,2,25,0.54,6.977,M,-16.816,M,,*4C
$GNGLL,4910.426902,N,12304.400610,W,190139.000,A,D*53
$GNGSA,A,3,07,09,30,04,20,27,16,08,05,14,,,0.89,0.54,0.71,1*06
$GNGSA,A,3,77,67,76,85,,,,,,,,,0.89,0.54,0.71,2*09
$GNGSA,A,3,04,21,06,19,09,31,36,,,,,,0.89,0.54,0.71,3*02
$GNGSA,A,3,37,20,32,19,,,,,,,,,0.89,0.54,0.71,4*0D
$GPGSV,3,1,11,07,76,287,35,09,63,144,34,30,39,266,30,04,35,131,32,1*69
$GPGSV,3,2,11,46,33,188,32,20,29,295,31,27,26,081,28,16,24,047,26,1*66
$GPGSV,3,3,11,08,23,118,28,05,14,326,24,14,05,211,21,1*5F
$GLGSV,2,1,07,77,85,282,18,67,79,273,29,76,42,042,23,68,31,323,,1*7C
$GLGSV,2,2,07,78,24,229,,85,11,029,23,84,07,340,,1*44
$GAGSV,3,1,09,04,76,291,33,21,49,062,29,06,48,300,29,19,41,128,25,7*75
$GAGSV,3,2,09,09,24,304,28,31,16,204,21,36,07,301,18,34,05,348,21,7*7E
$GAGSV,3,3,09,27,03,038,09,7*4E
$GBGSV,4,1,15,37,84,209,31,20,65,252,31,58,45,233,,32,32,168,24,1*77
$GBGSV,4,2,15,19,30,312,23,46,28,237,,38,18,330,21,08,13,341,17,1*7B
$GBGSV,4,3,15,31,08,341,,43,07,074,15,11,07,053,18,34,06,031,16,1*72
$GBGSV,4,4,15,13,05,346,16,12,02,005,,04,01,262,,1*44
$GNRMC,190139.000,A,4910.426902,N,12304.400610,W,0.12,33.05,191224,,,D,V*25
$GNVTG,33.05,T,,M,0.12,N,0.23,K,D*11
$PAIRLOG,Full*51
$GNGGA,190140.000,4910.426908,N,12304.400598,W,2,25,0.54,6.976,M,-16.816,M,,*4A
$GNGLL,4910.426908,N,12304.400598,W,190140.000,A,D*54
$GNGSA,A,3,07,09,30,04,20,27,16,08,05,14,,,0.89,0.54,0.71,1*06
$GNGSA,A,3,77,67,76,85,,,,,,,,,0.89,0.54,0.71,2*09
$GNGSA,A,3,04,21,06,19,09,31,36,,,,,,0.89,0.54,0.71,3*02
$GNGSA,A,3,37,20,32,19,,,,,,,,,0.89,0.54,0.71,4*0D
$GPGSV,3,1,11,07,76,287,35,09,63,144,34,30,39,266,30,04,35,131,32,1*69
$GPGSV,3,2,11,46,33,188,32,20,29,295,31,27,26,081,29,16,24,047,26,1*67
$GPGSV,3,3,11,08,23,118,28,05,14,326,23,14,05,211,21,1*58
$GLGSV,2,1,07,77,85,282,18,67,79,273,29,76,42,042,23,68,31,323,,1*7C
$GLGSV,2,2,07,78,24,229,,85,11,029,23,84,07,340,,1*44
$GAGSV,3,1,09,04,76,291,33,21,49,062,29,06,48,300,29,19,41,128,25,7*75
$GAGSV,3,2,09,09,24,304,28,31,16,204,21,36,07,301,18,34,05,348,21,7*7E
$GAGSV,3,3,09,27,03,038,09,7*4E
$GBGSV,4,1,15,37,84,209,31,20,65,252,32,58,45,233,,32,32,168,25,1*75
$GBGSV,4,2,15,19,30,312,24,46,28,237,,38,18,330,22,08,13,341,17,1*7F
$GBGSV,4,3,15,31,08,341,,43,07,074,16,11,07,052,19,34,06,031,17,1*70
$GBGSV,4,4,15,13,05,346,17,12,02,005,,04,01,262,,1*45
$GNRMC,190140.000,A,4910.426908,N,12304.400598,W,0.12,33.05,191224,,,D,V*22
$GNVTG,33.05,T,,M,0.12,N,0.22,K,D*10
$PAIRLOG,Full*51
$GNGGA,190141.000,4910.426926,N,12304.400568,W,2,25,0.54,6.970,M,-16.816,M,,*4E
$GNGLL,4910.426926,N,12304.400568,W,190141.000,A,D*56
$GNGSA,A,3,07,09,30,04,20,27,16,08,05,14,,,0.89,0.54,0.71,1*06
$GNGSA,A,3,77,67,76,85,,,,,,,,,0.89,0.54,0.71,2*09
$GNGSA,A,3,04,21,06,19,09,31,36,,,,,,0.89,0.54,0.71,3*02
$GNGSA,A,3,37,20,32,19,,,,,,,,,0.89,0.54,0.71,4*0D
$GPGSV,3,1,11,07,76,287,35,09,63,144,34,30,39,266,30,04,35,131,32,1*69
$GPGSV,3,2,11,46,33,188,32,20,29,295,31,27,26,081,29,16,24,047,26,1*67
$GPGSV,3,3,11,08,23,118,28,05,14,326,23,14,05,211,21,1*58
$GLGSV,2,1,07,77,85,282,17,67,79,273,29,76,42,042,23,68,31,323,,1*73
$GLGSV,2,2,07,78,24,229,,85,11,029,23,84,07,340,,1*44
$GAGSV,3,1,09,04,76,291,33,21,49,062,29,06,48,300,29,19,41,128,25,7*75
$GAGSV,3,2,09,09,24,304,28,31,16,204,21,36,07,301,17,34,05,348,22,7*72
$GAGSV,3,3,09,27,03,038,09,7*4E
$GBGSV,4,1,15,37,84,209,32,20,65,252,33,58,45,233,,32,32,168,26,1*74
$GBGSV,4,2,15,19,30,312,25,46,28,237,,38,18,330,23,08,13,341,17,1*7F
$GBGSV,4,3,15,31,08,341,,43,07,074,16,11,07,052,19,34,06,031,18,1*7F
$GBGSV,4,4,15,13,05,346,17,12,02,004,,04,01,262,,1*44
$GNRMC,190141.000,A,4910.426926,N,12304.400568,W,0.12,33.05,191224,,,D,V*20
$GNVTG,33.05,T,,M,0.12,N,0.22,K,D*10
$PAIRLOG,Full*51
$GNGGA,190142.000,4910.426944,N,12304.400556,W,2,25,0.54,6.953,M,-16.816,M,,*45
$GNGLL,4910.426944,N,12304.400556,W,190142.000,A,D*5C
$GNGSA,A,3,07,09,30,04,20,27,16,08,05,14,,,0.89,0.54,0.71,1*06
$GNGSA,A,3,77,67,76,85,,,,,,,,,0.89,0.54,0.71,2*09
$GNGSA,A,3,04,21,06,19,09,31,36,,,,,,0.89,0.54,0.71,3*02
$GNGSA,A,3,37,20,32,19,,,,,,,,,0.89,0.54,0.71,4*0D
$GPGSV,3,1,11,07,76,287,35,09,63,144,34,30,39,266,30,04,35,131,32,1*69
$GPGSV,3,2,11,46,33,188,32,20,29,295,31,27,26,081,29,16,24,047,26,1*67
$GPGSV,3,3,11,08,23,118,28,05,14,326,23,14,05,211,21,1*58
$GLGSV,2,1,07,77,85,282,16,67,79,273,28,76,42,042,23,68,31,323,,1*73
$GLGSV,2,2,07,78,24,229,,85,11,029,23,84,07,340,,1*44
$GAGSV,3,1,09,04,76,291,33,21,49,062,29,06,48,300,29,19,41,128,25,7*75
$GAGSV,3,2,09,09,24,304,28,31,16,204,21,36,07,301,17,34,05,348,22,7*72
$GAGSV,3,3,09,27,03,038,09,7*4E
$GBGSV,4,1,15,37,84,209,32,20,65,252,33,58,45,233,,32,32,168,26,1*74
$GBGSV,4,2,15,19,30,312,26,46,28,237,,38,18,330,24,08,13,341,17,1*7B
$GBGSV,4,3,15,31,08,341,,43,07,074,15,11,07,052,19,34,06,031,18,1*7C
$GBGSV,4,4,15,13,05,346,17,12,02,004,,04,01,262,,1*44
$GNRMC,190142.000,A,4910.426944,N,12304.400556,W,0.11,33.05,191224,,,D,V*29
$GNVTG,33.05,T,,M,0.11,N,0.20,K,D*11
$PAIRLOG,Full*51
$GNGGA,190143.000,4910.426944,N,12304.400514,W,2,25,0.54,6.920,M,-16.816,M,,*46
$GNGLL,4910.426944,N,12304.400514,W,190143.000,A,D*5B
$GNGSA,A,3,07,09,30,04,20,27,16,08,05,14,,,0.89,0.54,0.71,1*06
$GNGSA,A,3,77,67,76,85,,,,,,,,,0.89,0.54,0.71,2*09
$GNGSA,A,3,04,21,06,19,09,31,36,,,,,,0.89,0.54,0.71,3*02
$GNGSA,A,3,37,20,32,19,,,,,,,,,0.89,0.54,0.71,4*0D
$GPGSV,3,1,11,07,76,287,35,09,63,144,34,30,39,266,30,04,35,131,32,1*69
$GPGSV,3,2,11,46,33,188,32,20,29,295,31,27,26,081,29,16,24,047,26,1*67
$GPGSV,3,3,11,08,23,118,28,05,14,326,23,14,05,211,21,1*58
$GLGSV,2,1,07,77,85,282,16,67,79,273,28,76,42,042,22,68,31,323,,1*72
$GLGSV,2,2,07,78,24,229,,85,11,029,23,84,07,340,,1*44
$GAGSV,3,1,09,04,76,291,33,21,49,062,29,06,48,300,29,19,41,128,25,7*75
$GAGSV,3,2,09,09,24,304,28,31,16,204,21,36,07,301,17,34,05,348,22,7*72
$GAGSV,3,3,09,27,03,038,08,7*4F
$GBGSV,4,1,15,37,84,209,32,20,65,252,33,58,45,233,,32,32,168,26,1*74
$GBGSV,4,2,15,19,30,312,26,46,28,237,,38,18,330,24,08,13,341,17,1*7B
$GBGSV,4,3,15,31,08,341,,43,07,074,14,11,07,052,20,34,06,031,18,1*77
$GBGSV,4,4,15,13,05,346,17,12,02,004,,04,01,262,,1*44
$GNRMC,190143.000,A,4910.426944,N,12304.400514,W,0.11,33.05,191224,,,D,V*2E
$GNVTG,33.05,T,,M,0.11,N,0.21,K,D*10
$PAIRLOG,Full*51
$GNGGA,190144.000,4910.426920,N,12304.400502,W,2,25,0.54,6.885,M,-16.816,M,,*4A
$GNGLL,4910.426920,N,12304.400502,W,190144.000,A,D*59
$GNGSA,A,3,07,09,30,04,20,27,16,08,05,14,,,0.89,0.54,0.71,1*06
$GNGSA,A,3,77,67,76,85,,,,,,,,,0.89,0.54,0.71,2*09
$GNGSA,A,3,04,21,06,19,09,31,36,,,,,,0.89,0.54,0.71,3*02
$GNGSA,A,3,37,20,32,19,,,,,,,,,0.89,0.54,0.71,4*0D
$GPGSV,3,1,11,07,76,287,35,09,63,144,34,30,39,266,30,04,35,131,32,1*69
$GPGSV,3,2,11,46,33,188,32,20,29,295,31,27,26,081,29,16,24,047,26,1*67
$GPGSV,3,3,11,08,23,118,28,05,14,326,23,14,05,211,21,1*58
$GLGSV,2,1,07,77,85,282,16,67,79,273,28,76,42,042,22,68,31,323,,1*72
$GLGSV,2,2,07,78,24,229,,85,11,029,23,84,07,340,,1*44
$GAGSV,3,1,09,04,76,291,33,21,49,062,29,06,48,300,29,19,41,128,25,7*75
$GAGSV,3,2,09,09,24,304,28,31,16,204,21,36,07,301,17,34,05,348,22,7*72
$GAGSV,3,3,09,27,03,038,08,7*4F
$GBGSV,4,1,15,37,84,209,32,20,65,252,33,58,45,233,,32,32,168,26,1*74
$GBGSV,4,2,15,19,30,312,26,46,28,237,,38,18,330,24,08,13,341,17,1*7B
$GBGSV,4,3,15,31,08,341,,43,07,074,14,11,07,052,21,34,06,031,18,1*76
$GBGSV,4,4,15,13,05,346,17,12,02,004,,04,01,262,,1*44
$GNRMC,190144.000,A,4910.426920,N,12304.400502,W,0.11,33.05,191224,,,D,V*2C
$GNVTG,33.05,T,,M,0.11,N,0.21,K,D*10
$PAIRLOG,Full*51
$GNGGA,190145.000,4910.426902,N,12304.400454,W,2,25,0.54,6.866,M,-16.816,M,,*44
$GNGLL,4910.426902,N,12304.400454,W,190145.000,A,D*5A
$GNGSA,A,3,07,09,30,04,20,27,16,08,05,14,,,0.89,0.54,0.71,1*06
$GNGSA,A,3,77,67,76,85,,,,,,,,,0.89,0.54,0.71,2*09
$GNGSA,A,3,04,21,06,19,09,31,36,,,,,,0.89,0.54,0.71,3*02
$GNGSA,A,3,37,20,32,19,,,,,,,,,0.89,0.54,0.71,4*0D
$GPGSV,3,1,11,07,76,287,35,09,63,144,34,30,39,266,30,04,35,131,32,1*69
$GPGSV,3,2,11,46,33,188,32,20,29,295,31,27,26,081,29,16,24,047,26,1*67
$GPGSV,3,3,11,08,23,118,28,05,14,326,23,14,05,211,20,1*59
$GLGSV,2,1,07,77,85,282,15,67,79,273,29,76,42,042,22,68,31,323,,1*70
$GLGSV,2,2,07,78,24,229,,85,11,029,23,84,07,340,,1*44
$GAGSV,3,1,09,04,76,291,33,21,49,062,29,06,48,300,29,19,41,128,25,7*75
$GAGSV,3,2,09,09,24,304,28,31,16,204,22,36,07,301,17,34,05,348,22,7*71
$GAGSV,3,3,09,27,03,038,08,7*4F
$GBGSV,4,1,15,37,84,209,32,20,65,252,33,58,45,233,,32,32,168,27,1*75
$GBGSV,4,2,15,19,30,312,26,46,28,237,,38,18,330,24,08,13,341,17,1*7B
$GBGSV,4,3,15,31,08,341,,43,07,074,14,11,07,052,22,34,06,031,19,1*74
$GBGSV,4,4,15,13,05,346,17,12,02,004,,04,01,262,,1*44
$GNRMC,190145.000,A,4910.426902,N,12304.400454,W,0.12,33.05,191224,,,D,V*2C
$GNVTG,33.05,T,,M,0.12,N,0.22,K,D*10
$PAIRLOG,Full*51
$GNGGA,190146.000,4910.426902,N,12304.400460,W,2,25,0.54,6.849,M,-16.816,M,,*4D
$GNGLL,4910.426902,N,12304.400460,W,190146.000,A,D*5E
$GNGSA,A,3,07,09,30,04,20,27,16,08,05,14,,,0.89,0.54,0.71,1*06
$GNGSA,A,3,77,67,76,85,,,,,,,,,0.89,0.54,0.71,2*09
$GNGSA,A,3,04,21,06,19,09,31,36,,,,,,0.89,0.54,0.71,3*02
$GNGSA,A,3,37,20,32,19,,,,,,,,,0.89,0.54,0.71,4*0D
$GPGSV,3,1,11,07,76,287,35,09,63,144,34,30,39,266,30,04,35,131,32,1*69
$GPGSV,3,2,11,46,33,188,32,20,29,295,31,27,26,081,29,16,24,047,26,1*67
$GPGSV,3,3,11,08,23,118,28,05,14,326,23,14,05,211,20,1*59
$GLGSV,2,1,07,77,85,282,15,67,79,273,29,76,42,042,22,68,31,323,,1*70
$GLGSV,2,2,07,78,24,229,,85,11,029,24,84,07,340,,1*43
$GAGSV,3,1,09,04,76,291,33,21,49,062,29,06,48,300,29,19,41,128,25,7*75
$GAGSV,3,2,09,09,24,304,28,31,16,204,22,36,07,301,17,34,05,348,22,7*71
$GAGSV,3,3,09,27,03,038,08,7*4F
$GBGSV,4,1,15,37,84,209,32,20,65,252,32,58,45,233,,32,32,168,27,1*74
$GBGSV,4,2,15,19,30,312,26,46,28,237,,38,18,330,24,08,13,341,17,1*7B
$GBGSV,4,3,15,31,08,341,,43,07,074,15,11,07,052,22,34,06,031,19,1*75
$GBGSV,4,4,15,13,05,346,17,12,02,004,,04,01,262,,1*44
$GNRMC,190146.000,A,4910.426902,N,12304.400460,W,0.12,33.05,191224,,,D,V*28
$GNVTG,33.05,T,,M,0.12,N,0.22,K,D*10
$PAIRLOG,Full*51
$GNGGA,190147.000,4910.426890,N,12304.400424,W,2,25,0.54,6.814,M,-16.816,M,,*4E
$GNGLL,4910.426890,N,12304.400424,W,190147.000,A,D*55
$GNGSA,A,3,07,09,30,04,20,27,16,08,05,14,,,0.89,0.54,0.71,1*06
$GNGSA,A,3,77,67,76,85,,,,,,,,,0.89,0.54,0.71,2*09
$GNGSA,A,3,04,21,06,19,09,31,36,,,,,,0.89,0.54,0.71,3*02
$GNGSA,A,3,37,20,32,19,,,,,,,,,0.89,0.54,0.71,4*0D
$GPGSV,3,1,11,07,76,287,35,09,63,144,34,30,39,266,30,04,35,131,31,1*6A
$GPGSV,3,2,11,46,33,188,31,20,29,295,31,27,26,081,28,16,24,047,26,1*65
$GPGSV,3,3,11,08,23,118,28,05,14,326,22,14,05,211,20,1*58
$GLGSV,2,1,07,77,85,282,15,67,79,273,29,76,42,042,22,68,31,323,,1*70
$GLGSV,2,2,07,78,24,229,,85,11,029,24,84,07,340,,1*43
$GAGSV,3,1,09,04,76,291,33,21,49,062,29,06,48,300,29,19,41,128,25,7*75
$GAGSV,3,2,09,09,24,304,28,31,16,204,22,36,07,301,17,34,05,348,22,7*71
$GAGSV,3,3,09,27,03,038,08,7*4F
$GBGSV,4,1,15,37,84,209,33,20,65,252,32,58,45,233,,32,32,168,27,1*75
$GBGSV,4,2,15,19,30,312,27,46,28,237,,38,18,330,24,08,13,341,17,1*7A
$GBGSV,4,3,15,31,08,341,,43,07,074,15,11,07,052,22,34,06,031,20,1*7F
$GBGSV,4,4,15,13,05,346,17,12,02,004,,04,01,262,,1*44
$GNRMC,190147.000,A,4910.426890,N,12304.400424,W,0.12,33.05,191224,,,D,V*23
$GNVTG,33.05,T,,M,0.12,N,0.22,K,D*10
$PAIRLOG,Full*51
$GNGGA,190148.000,4910.426920,N,12304.400358,W,2,25,0.54,6.729,M,-16.817,M,,*47
$GNGLL,4910.426920,N,12304.400358,W,190148.000,A,D*5C
$GNGSA,A,3,07,09,30,04,20,27,16,08,05,14,,,0.89,0.54,0.71,1*06
$GNGSA,A,3,77,67,76,85,,,,,,,,,0.89,0.54,0.71,2*09
$GNGSA,A,3,04,21,06,19,09,31,36,,,,,,0.89,0.54,0.71,3*02
$GNGSA,A,3,37,20,32,19,,,,,,,,,0.89,0.54,0.71,4*0D
$GPGSV,3,1,11,07,76,287,35,09,63,144,34,30,39,266,30,04,35,131,31,1*6A
$GPGSV,3,2,11,46,33,188,31,20,29,295,31,27,26,081,28,16,24,047,26,1*65
$GPGSV,3,3,11,08,23,118,28,05,14,326,22,14,05,211,21,1*59
$GLGSV,2,1,07,77,85,282,15,67,79,273,30,76,42,042,23,68,31,323,,1*79
$GLGSV,2,2,07,78,24,229,,85,11,029,24,84,07,340,,1*43
$GAGSV,3,1,09,04,76,291,33,21,49,062,29,06,48,300,29,19,41,128,25,7*75
$GAGSV,3,2,09,09,24,304,28,31,16,204,22,36,07,301,17,34,05,348,22,7*71
$GAGSV,3,3,09,27,03,038,08,7*4F
$GBGSV,4,1,15,37,84,209,33,20,65,252,32,58,45,233,,32,32,168,27,1*75
$GBGSV,4,2,15,19,31,312,27,46,28,237,,38,18,330,24,08,13,341,17,1*7B
$GBGSV,4,3,15,31,08,341,,43,07,074,15,11,07,052,22,34,06,031,20,1*7F
$GBGSV,4,4,15,13,05,346,17,12,02,004,,04,01,262,,1*44
$GNRMC,190148.000,A,4910.426920,N,12304.400358,W,0.13,33.05,191224,,,D,V*2B
$GNVTG,33.05,T,,M,0.13,N,0.23,K,D*10
$PAIRLOG,Full*51
$GNGGA,190149.000,4910.426890,N,12304.400358,W,2,25,0.54,6.662,M,-16.817,M,,*42
$GNGLL,4910.426890,N,12304.400358,W,190149.000,A,D*57
$GNGSA,A,3,07,09,30,04,20,27,16,08,05,14,,,0.89,0.54,0.71,1*06
$GNGSA,A,3,77,67,76,85,,,,,,,,,0.89,0.54,0.71,2*09
$GNGSA,A,3,04,21,06,19,09,31,36,,,,,,0.89,0.54,0.71,3*02
$GNGSA,A,3,37,20,32,19,,,,,,,,,0.89,0.54,0.71,4*0D
$GPGSV,3,1,11,07,76,287,34,09,63,144,34,30,39,266,30,04,35,131,31,1*6B
$GPGSV,3,2,11,46,33,188,31,20,29,295,31,27,26,081,27,16,24,047,25,1*69
$GPGSV,3,3,11,08,23,118,27,05,14,326,21,14,05,211,20,1*54
$GLGSV,2,1,07,77,85,282,16,67,79,273,30,76,42,042,23,68,31,323,,1*7A
$GLGSV,2,2,07,78,24,229,,85,11,029,24,84,07,340,,1*43
$GAGSV,3,1,09,04,76,291,33,21,49,062,29,06,48,300,29,19,41,128,25,7*75
$GAGSV,3,2,09,09,24,304,28,31,16,204,22,36,07,301,16,34,05,348,22,7*70
$GAGSV,3,3,09,27,03,038,08,7*4F
$GBGSV,4,1,15,37,84,209,32,20,65,249,30,58,45,233,,32,32,168,26,1*7D
$GBGSV,4,2,15,19,31,312,25,46,28,237,,38,18,330,23,08,13,341,17,1*7E
$GBGSV,4,3,15,31,08,341,,43,07,074,15,11,07,052,21,34,06,031,20,1*7C
$GBGSV,4,4,15,13,05,346,17,12,02,004,,04,01,262,,1*44
$GNRMC,190149.000,A,4910.426890,N,12304.400358,W,0.13,33.05,191224,,,D,V*20
$GNVTG,33.05,T,,M,0.13,N,0.24,K,D*17
$PAIRLOG,Full*51
$GNGGA,190150.000,4910.426728,N,12304.400316,W,2,25,0.54,6.472,M,-16.816,M,,*4E
$GNGLL,4910.426728,N,12304.400316,W,190150.000,A,D*59
$GNGSA,A,3,07,09,30,04,20,27,16,08,05,14,,,0.89,0.54,0.71,1*06
$GNGSA,A,3,77,67,76,85,,,,,,,,,0.89,0.54,0.71,2*09
$GNGSA,A,3,04,21,06,19,09,31,36,,,,,,0.89,0.54,0.71,3*02
$GNGSA,A,3,37,20,32,19,,,,,,,,,0.89,0.54,0.71,4*0D
$GPGSV,3,1,11,07,76,287,34,09,63,144,34,30,39,266,30,04,35,131,31,1*6B
$GPGSV,3,2,11,46,33,188,31,20,29,295,31,27,26,081,27,16,24,047,25,1*69
$GPGSV,3,3,11,08,23,118,27,05,14,326,21,14,05,211,20,1*54
$GLGSV,2,1,07,77,85,282,16,67,79,273,31,76,42,042,23,68,31,323,,1*7B
$GLGSV,2,2,07,78,24,229,,85,11,029,24,84,07,340,,1*43
$GAGSV,3,1,09,04,76,291,33,21,49,062,28,06,48,300,29,19,41,128,25,7*74
$GAGSV,3,2,09,09,24,304,28,31,16,204,21,36,07,301,16,34,05,348,22,7*73
$GAGSV,3,3,09,27,03,038,08,7*4F
$GBGSV,4,1,15,37,84,209,32,20,65,249,31,58,45,233,,32,32,168,26,1*7C
$GBGSV,4,2,15,19,31,312,25,46,28,237,,38,18,330,23,08,13,341,17,1*7E
$GBGSV,4,3,15,31,08,341,,43,07,074,15,11,07,052,21,34,06,031,20,1*7C
$GBGSV,4,4,15,13,05,346,17,12,02,004,,04,01,262,,1*44
$GNRMC,190150.000,A,4910.426728,N,12304.400316,W,0.13,33.05,191224,,,D,V*2E
$GNVTG,33.05,T,,M,0.13,N,0.24,K,D*17
$PAIRLOG,Full*51
$GNGGA,190151.000,4910.426494,N,12304.400424,W,2,25,0.54,6.305,M,-16.817,M,,*4B
$GNGLL,4910.426494,N,12304.400424,W,190151.000,A,D*5A
$GNGSA,A,3,07,09,30,04,20,27,16,08,05,14,,,0.89,0.54,0.71,1*06
$GNGSA,A,3,77,67,76,85,,,,,,,,,0.89,0.54,0.71,2*09
$GNGSA,A,3,04,21,06,19,09,31,36,,,,,,0.89,0.54,0.71,3*02
$GNGSA,A,3,37,20,32,19,,,,,,,,,0.89,0.54,0.71,4*0D
$GPGSV,3,1,11,07,76,287,34,09,63,144,34,30,39,266,30,04,35,131,31,1*6B
$GPGSV,3,2,11,46,33,188,31,20,29,295,31,27,26,081,27,16,24,047,25,1*69
$GPGSV,3,3,11,08,23,118,27,05,14,326,21,14,05,211,21,1*55
$GLGSV,2,1,07,77,85,282,16,67,79,273,31,76,42,042,23,68,31,323,,1*7B
$GLGSV,2,2,07,78,24,229,,85,11,029,24,84,07,340,,1*43
$GAGSV,3,1,09,04,76,291,33,21,49,062,28,06,48,300,29,19,41,128,25,7*74
$GAGSV,3,2,09,09,24,304,28,31,16,204,21,36,07,301,16,34,05,348,22,7*73
$GAGSV,3,3,09,27,03,038,08,7*4F
$GBGSV,4,1,15,37,84,209,32,20,65,249,32,58,45,233,,32,32,168,26,1*7F
$GBGSV,4,2,15,19,31,312,25,46,28,237,,38,18,330,23,08,13,341,17,1*7E
$GBGSV,4,3,15,31,08,341,,43,07,074,15,11,07,052,21,34,06,031,20,1*7C
$GBGSV,4,4,15,13,05,346,17,12,02,004,,04,01,262,,1*44
$GNRMC,190151.000,A,4910.426494,N,12304.400424,W,0.12,33.05,191224,,,D,V*2C
$GNVTG,33.05,T,,M,0.12,N,0.22,K,D*10
$PAIRLOG,Full*51
$GNGGA,190152.000,4910.426380,N,12304.400484,W,2,25,0.54,6.028,M,-16.816,M,,*4D
$GNGLL,4910.426380,N,12304.400484,W,190152.000,A,D*51
$GNGSA,A,3,07,09,30,04,20,27,16,08,05,14,,,0.89,0.54,0.71,1*06
$GNGSA,A,3,77,67,76,85,,,,,,,,,0.89,0.54,0.71,2*09
$GNGSA,A,3,04,21,06,19,09,31,36,,,,,,0.89,0.54,0.71,3*02
$GNGSA,A,3,37,20,32,19,,,,,,,,,0.89,0.54,0.71,4*0D
$GPGSV,3,1,11,07,76,287,34,09,63,144,34,30,39,266,30,04,35,131,31,1*6B
$GPGSV,3,2,11,46,33,188,31,20,29,295,31,27,26,081,27,16,24,047,25,1*69
$GPGSV,3,3,11,08,23,118,27,05,14,326,22,14,05,211,21,1*56
$GLGSV,2,1,07,77,85,282,15,67,79,273,30,76,42,042,23,68,31,323,,1*79
$GLGSV,2,2,07,78,24,229,,85,11,029,24,84,07,340,,1*43
$GAGSV,3,1,09,04,76,291,33,21,49,062,28,06,48,300,29,19,41,128,25,7*74
$GAGSV,3,2,09,09,24,304,28,31,16,204,22,36,07,301,16,34,05,348,22,7*70
$GAGSV,3,3,09,27,03,038,08,7*4F
$GBGSV,4,1,15,37,84,209,32,20,65,249,32,58,45,233,,32,32,168,26,1*7F
$GBGSV,4,2,15,19,31,312,25,46,28,237,,38,18,330,23,08,13,341,17,1*7E
$GBGSV,4,3,15,31,08,341,,43,07,074,15,11,07,052,21,34,06,031,20,1*7C
$GBGSV,4,4,15,13,05,346,17,12,02,004,,04,01,262,,1*44
$GNRMC,190152.000,A,4910.426380,N,12304.400484,W,0.09,33.05,191224,,,D,V*2D
$GNVTG,33.05,T,,M,0.09,N,0.17,K,D*1C
$PAIRLOG,Full*51
$GNGGA,190153.000,4910.426290,N,12304.400592,W,2,25,0.54,5.480,M,-16.816,M,,*4F
$GNGLL,4910.426290,N,12304.400592,W,190153.000,A,D*56
$GNGSA,A,3,07,09,30,04,20,27,16,08,05,14,,,0.89,0.54,0.71,1*06
$GNGSA,A,3,77,67,76,85,,,,,,,,,0.89,0.54,0.71,2*09
$GNGSA,A,3,04,21,06,19,09,31,36,,,,,,0.89,0.54,0.71,3*02
$GNGSA,A,3,37,20,32,19,,,,,,,,,0.89,0.54,0.71,4*0D
$GPGSV,3,1,11,07,76,287,34,09,63,144,35,30,39,266,30,04,35,131,31,1*6A
$GPGSV,3,2,11,46,33,188,31,20,29,295,31,27,26,081,27,16,24,047,25,1*69
$GPGSV,3,3,11,08,23,118,27,05,14,326,22,14,05,211,21,1*56
$GLGSV,2,1,07,77,85,282,15,67,79,273,30,76,42,042,23,68,31,323,,1*79
$GLGSV,2,2,07,78,24,229,,85,11,029,24,84,07,340,,1*43
$GAGSV,3,1,09,04,76,291,33,21,49,062,28,06,48,300,29,19,41,128,25,7*74
$GAGSV,3,2,09,09,24,304,28,31,16,204,22,36,07,301,17,34,05,348,22,7*71
$GAGSV,3,3,09,27,03,038,07,7*40
$GBGSV,4,1,15,37,84,209,31,20,65,249,31,58,45,233,,32,32,168,26,1*7F
$GBGSV,4,2,15,19,31,312,25,46,28,237,,38,18,330,23,08,13,341,17,1*7E
$GBGSV,4,3,15,31,08,341,,43,07,074,15,11,07,052,21,34,06,031,20,1*7C
$GBGSV,4,4,15,13,05,346,17,12,02,004,,04,01,262,,1*44
$GNRMC,190153.000,A,4910.426290,N,12304.400592,W,0.06,33.05,191224,,,D,V*25
$GNVTG,33.05,T,,M,0.06,N,0.12,K,D*16
$PAIRLOG,Full*51
$GNGGA,190154.000,4910.426176,N,12304.400838,W,2,25,0.54,5.027,M,-16.816,M,,*47
$GNGLL,4910.426176,N,12304.400838,W,190154.000,A,D*57
$GNGSA,A,3,07,09,30,04,20,27,16,08,05,14,,,0.89,0.54,0.71,1*06
$GNGSA,A,3,77,67,76,85,,,,,,,,,0.89,0.54,0.71,2*09
$GNGSA,A,3,04,21,06,19,09,31,36,,,,,,0.89,0.54,0.71,3*02
$GNGSA,A,3,37,20,32,19,,,,,,,,,0.89,0.54,0.71,4*0D
$GPGSV,3,1,11,07,76,287,34,09,63,144,35,30,39,266,30,04,35,131,31,1*6A
$GPGSV,3,2,11,46,33,188,31,20,29,295,31,27,26,081,27,16,24,047,25,1*69
$GPGSV,3,3,11,08,23,118,27,05,14,326,22,14,05,211,21,1*56
$GLGSV,2,1,07,77,85,282,15,67,79,273,31,76,42,042,23,68,31,323,,1*78
$GLGSV,2,2,07,78,24,229,,85,11,029,24,84,07,340,,1*43
$GAGSV,3,1,09,04,76,291,33,21,49,062,28,06,48,300,29,19,41,128,25,7*74
$GAGSV,3,2,09,09,24,304,28,31,16,204,23,36,07,301,17,34,05,348,22,7*70
$GAGSV,3,3,09,27,03,038,07,7*40
$GBGSV,4,1,15,37,84,209,31,20,65,249,31,58,45,233,,32,32,168,26,1*7F
$GBGSV,4,2,15,19,31,312,25,46,28,237,,38,18,330,23,08,13,341,17,1*7E
$GBGSV,4,3,15,31,08,341,,43,07,074,16,11,07,052,20,34,06,031,20,1*7E
$GBGSV,4,4,15,13,05,346,17,12,02,004,,04,01,262,,1*44
$GNRMC,190154.000,A,4910.426176,N,12304.400838,W,0.04,33.05,191224,,,D,V*26
$GNVTG,33.05,T,,M,0.04,N,0.08,K,D*1F
$PAIRLOG,Full*51
$GNGGA,190155.000,4910.425930,N,12304.401054,W,2,25,0.54,4.557,M,-16.816,M,,*4F
$GNGLL,4910.425930,N,12304.401054,W,190155.000,A,D*5C
$GNGSA,A,3,07,09,30,04,20,27,16,08,05,14,,,0.89,0.54,0.71,1*06
$GNGSA,A,3,77,67,76,85,,,,,,,,,0.89,0.54,0.71,2*09
$GNGSA,A,3,04,21,06,19,09,31,36,,,,,,0.89,0.54,0.71,3*02
$GNGSA,A,3,37,20,32,19,,,,,,,,,0.89,0.54,0.71,4*0D
$GPGSV,3,1,11,07,76,287,35,09,63,144,36,30,39,266,31,04,35,131,31,1*69
$GPGSV,3,2,11,46,33,188,32,20,29,295,31,27,26,081,27,16,24,047,27,1*68
$GPGSV,3,3,11,08,23,118,27,05,14,326,23,14,05,211,21,1*57
$GLGSV,2,1,07,77,85,282,14,67,79,273,31,76,42,042,23,68,31,323,,1*79
$GLGSV,2,2,07,78,24,229,,85,11,029,24,84,07,340,,1*43
$GAGSV,3,1,09,04,76,291,33,21,49,062,29,06,48,300,30,19,41,128,25,7*7D
$GAGSV,3,2,09,09,24,304,29,31,16,204,24,36,07,301,17,34,05,348,22,7*76
$GAGSV,3,3,09,27,03,038,07,7*40
$GBGSV,4,1,15,37,84,209,31,20,65,249,30,58,45,233,,32,32,168,25,1*7D
$GBGSV,4,2,15,19,31,312,24,46,28,237,,38,18,330,22,08,13,341,17,1*7E
$GBGSV,4,3,15,31,08,341,,43,07,074,16,11,07,052,20,34,06,031,20,1*7E
$GBGSV,4,4,15,13,05,346,17,12,02,004,,04,01,262,,1*44
$GNRMC,190155.000,A,4910.425930,N,12304.401054,W,0.04,33.05,191224,,,D,V*2D
$GNVTG,33.05,T,,M,0.04,N,0.07,K,D*10
$PAIRLOG,Full*51
$GNGGA,190156.000,4910.425798,N,12304.401180,W,2,25,0.54,4.033,M,-16.816,M,,*4F
$GNGLL,4910.425798,N,12304.401180,W,190156.000,A,D*5B
$GNGSA,A,3,07,09,30,04,20,27,16,08,05,14,,,0.89,0.54,0.71,1*06
$GNGSA,A,3,77,67,76,85,,,,,,,,,0.89,0.54,0.71,2*09
$GNGSA,A,3,04,21,06,19,09,31,36,,,,,,0.89,0.54,0.71,3*02
$GNGSA,A,3,37,20,32,19,,,,,,,,,0.89,0.54,0.71,4*0D
$GPGSV,3,1,11,07,76,287,35,09,63,144,36,30,39,266,31,04,35,131,31,1*69
$GPGSV,3,2,11,46,33,188,32,20,29,295,31,27,26,081,27,16,24,047,26,1*69
$GPGSV,3,3,11,08,23,118,27,05,14,326,23,14,05,211,21,1*57
$GLGSV,2,1,07,77,85,282,14,67,79,273,31,76,42,042,23,68,31,323,,1*79
$GLGSV,2,2,07,78,24,229,,85,11,029,24,84,07,340,,1*43
$GAGSV,3,1,09,04,76,291,34,21,49,062,29,06,48,300,30,19,41,128,25,7*7A
$GAGSV,3,2,09,09,24,304,29,31,16,204,24,36,07,301,17,34,05,348,21,7*75
$GAGSV,3,3,09,27,03,038,07,7*40
$GBGSV,4,1,15,37,84,209,30,20,65,249,28,58,45,233,,32,32,168,24,1*74
$GBGSV,4,2,15,19,31,312,23,46,28,237,,38,18,330,21,08,13,341,16,1*7B
$GBGSV,4,3,15,31,08,341,,43,07,074,16,11,07,052,19,34,06,031,19,1*7E
$GBGSV,4,4,15,13,05,346,17,12,02,004,,04,01,262,,1*44
$GNRMC,190156.000,A,4910.425798,N,12304.401180,W,0.03,33.05,191224,,,D,V*2D
$GNVTG,33.05,T,,M,0.03,N,0.06,K,D*16
$PAIRLOG,Full*51
$GNGGA,190157.000,4910.425684,N,12304.401318,W,2,25,0.54,3.800,M,-16.816,M,,*4E
$GNGLL,4910.425684,N,12304.401318,W,190157.000,A,D*55
$GNGSA,A,3,07,09,30,04,20,27,16,08,05,14,,,0.89,0.54,0.71,1*06
$GNGSA,A,3,77,67,76,85,,,,,,,,,0.89,0.54,0.71,2*09
$GNGSA,A,3,04,21,06,19,09,31,36,,,,,,0.89,0.54,0.71,3*02
$GNGSA,A,3,37,20,32,19,,,,,,,,,0.89,0.54,0.71,4*0D
$GPGSV,3,1,11,07,76,287,35,09,63,144,36,30,39,266,31,04,35,131,31,1*69
$GPGSV,3,2,11,46,33,188,32,20,29,295,31,27,26,081,27,16,24,047,27,1*68
$GPGSV,3,3,11,08,23,118,27,05,14,326,23,14,05,211,21,1*57
$GLGSV,2,1,07,77,85,282,15,67,79,273,30,76,42,042,22,68,31,323,,1*78
$GLGSV,2,2,07,78,24,229,,85,11,029,24,84,07,340,,1*43
$GAGSV,3,1,09,04,76,291,34,21,49,062,29,06,48,300,30,19,41,128,25,7*7A
$GAGSV,3,2,09,09,24,304,29,31,16,204,23,36,07,301,18,34,05,348,21,7*7D
$GAGSV,3,3,09,27,03,038,08,7*4F
$GBGSV,4,1,15,37,84,209,30,20,65,249,28,58,45,233,,32,32,168,24,1*74
$GBGSV,4,2,15,19,31,312,22,46,28,237,,38,18,330,21,08,13,341,16,1*7A
$GBGSV,4,3,15,31,08,341,,43,07,074,16,11,07,052,19,34,06,031,19,1*7E
$GBGSV,4,4,15,13,05,346,17,12,02,004,,04,01,262,,1*44
$GNRMC,190157.000,A,4910.425684,N,12304.401318,W,0.03,33.05,191224,,,D,V*23
$GNVTG,33.05,T,,M,0.03,N,0.05,K,D*15
$PAIRLOG,Full*51
$GNGGA,190158.000,4910.425582,N,12304.401420,W,2,25,0.54,3.489,M,-16.817,M,,*44
$GNGLL,4910.425582,N,12304.401420,W,190158.000,A,D*53
$GNGSA,A,3,07,09,30,04,20,27,16,08,05,14,,,0.89,0.54,0.71,1*06
$GNGSA,A,3,77,67,76,85,,,,,,,,,0.89,0.54,0.71,2*09
$GNGSA,A,3,04,21,06,19,09,31,36,,,,,,0.89,0.54,0.71,3*02
$GNGSA,A,3,37,20,32,19,,,,,,,,,0.89,0.54,0.71,4*0D
$GPGSV,3,1,11,07,76,287,35,09,63,144,37,30,39,266,32,04,35,131,31,1*6B
$GPGSV,3,2,11,46,33,188,32,20,29,295,31,27,26,081,27,16,24,047,28,1*67
$GPGSV,3,3,11,08,23,118,27,05,14,326,24,14,05,211,22,1*53
$GLGSV,2,1,07,77,85,282,15,67,79,273,30,76,42,042,22,68,31,323,,1*78
$GLGSV,2,2,07,78,24,229,,85,11,029,24,84,07,340,,1*43
$GAGSV,3,1,09,04,76,291,34,21,49,062,30,06,48,300,30,19,41,128,25,7*72
$GAGSV,3,2,09,09,24,304,29,31,16,204,23,36,07,301,18,34,05,348,21,7*7D
$GAGSV,3,3,09,27,03,038,08,7*4F
$GBGSV,4,1,15,37,84,209,30,20,65,249,28,58,45,233,,32,32,168,24,1*74
$GBGSV,4,2,15,19,31,312,22,46,28,237,,38,18,330,21,08,13,341,16,1*7A
$GBGSV,4,3,15,31,08,341,,43,07,074,16,11,07,052,18,34,06,031,19,1*7F
$GBGSV,4,4,15,13,05,346,17,12,02,004,,04,01,262,,1*44
$GNRMC,190158.000,A,4910.425582,N,12304.401420,W,0.02,33.05,191224,,,D,V*24
$GNVTG,33.05,T,,M,0.02,N,0.04,K,D*15
$PAIRLOG,Full*51
$GNGGA,190159.000,4910.425504,N,12304.401570,W,2,25,0.54,3.248,M,-16.817,M,,*44
