$GNGGA,203346.000,4910.427076,N,12304.402013,W,1,22,0.76,8.918,M,-16.816,M,,*40
$GNRMC,203346.000,A,4910.427076,N,12304.402013,W,0.012,126.46,151024,,,A,V*23
$GNGLL,4910.427076,N,12304.402013,W,203346.000,A,A*59
$GNVTG,126.46,T,,M,0.012,N,0.023,K,A*26
$GNGSA,A,3,03,04,06,09,16,26,28,31,,,,,1.36,0.76,1.12,1*05
$GNGSA,A,3,72,,,,,,,,,,,,1.36,0.76,1.12,2*00
$GNGSA,A,3,03,05,13,24,25,15,,,,,,,1.36,0.76,1.12,3*05
$GNGSA,A,3,12,19,20,22,36,37,44,,,,,,1.36,0.76,1.12,4*0B
$GNGSA,A,3,,,,,,,,,,,,,1.36,0.76,1.12,5*02
$GPGSV,3,1,10,03,67,180,30,04,67,293,25,06,24,305,23,07,,,18,1*5C
$GPGSV,3,2,10,09,34,281,22,16,27,132,25,26,40,091,27,28,14,052,20,1*63
$GPGSV,3,3,10,31,47,059,28,44,33,172,25,1*61
$GPGSV,2,1,06,03,67,180,28,04,67,293,26,06,24,305,20,09,34,281,22,8*61
$GPGSV,2,2,06,26,40,091,23,28,14,052,17,8*6C
$GLGSV,1,1,02,65,,,19,72,63,079,20,1*4D
$GAGSV,2,1,05,03,73,299,28,05,47,082,25,13,26,309,20,24,35,078,22,7*70
$GAGSV,2,2,05,25,27,139,20,7*4D
$GAGSV,2,1,06,03,73,299,25,05,47,082,25,13,26,309,19,15,33,248,20,1*75
$GAGSV,2,2,06,24,35,078,20,25,27,139,17,1*71
$GBGSV,2,1,08,12,10,314,23,19,88,328,40,20,39,119,38,22,31,300,35,1*70
$GBGSV,2,2,08,34,03,340,22,36,24,192,36,37,34,053,36,44,07,291,17,1*7A
$GBGSV,1,1,04,19,88,328,23,20,39,119,23,22,31,300,20,37,34,053,22,5*70
$GQGSV,1,1,00,1*65
$GQGSV,1,1,00,8*6C
$GNGGA,203347.000,4910.427077,N,12304.402015,W,1,22,0.76,8.918,M,-16.816,M,,*46
$GNRMC,203347.000,A,4910.427077,N,12304.402015,W,0.007,126.46,151024,,,A,V*21
$GNGLL,4910.427077,N,12304.402015,W,203347.000,A,A*5F
$GNVTG,126.46,T,,M,0.007,N,0.012,K,A*20
$GNGSA,A,3,03,04,06,09,16,26,28,31,,,,,1.36,0.76,1.12,1*05
$GNGSA,A,3,72,,,,,,,,,,,,1.36,0.76,1.12,2*00
$GNGSA,A,3,03,05,13,24,25,15,,,,,,,1.36,0.76,1.12,3*05
$GNGSA,A,3,12,19,20,22,36,37,44,,,,,,1.36,0.76,1.12,4*0B
$GNGSA,A,3,,,,,,,,,,,,,1.36,0.76,1.12,5*02
$GPGSV,3,1,10,03,67,180,30,04,67,293,26,06,24,305,23,07,,,18,1*5F
$GPGSV,3,2,10,09,34,281,23,16,27,132,23,26,40,091,27,28,14,052,20,1*64
$GPGSV,3,3,10,31,47,059,27,44,33,172,25,1*6E
$GPGSV,2,1,06,03,67,180,27,04,67,293,27,06,24,305,23,09,34,281,22,8*6C
$GPGSV,2,2,06,26,40,091,24,28,14,052,17,8*6B
$GLGSV,1,1,02,65,,,18,72,63,079,21,1*4D
$GAGSV,2,1,05,03,73,299,26,05,47,082,25,13,26,309,18,24,35,078,22,7*75
$GAGSV,2,2,05,25,27,139,21,7*4C
$GAGSV,2,1,06,03,73,299,25,05,47,082,24,13,26,309,19,15,33,248,22,1*76
$GAGSV,2,2,06,24,35,078,22,25,27,139,18,1*7C
$GBGSV,2,1,08,12,10,314,25,19,88,328,40,20,39,119,38,22,31,300,35,1*76
$GBGSV,2,2,08,34,03,340,24,36,24,192,36,37,34,053,36,44,07,291,17,1*7C
$GBGSV,1,1,04,19,88,328,23,20,39,119,24,22,31,300,21,37,34,053,21,5*75
$GQGSV,1,1,00,1*65
$GQGSV,1,1,00,8*6C
$GNGGA,203348.000,4910.427079,N,12304.402012,W,1,22,0.76,8.918,M,-16.816,M,,*40
$GNRMC,203348.000,A,4910.427079,N,12304.402012,W,0.014,126.46,151024,,,A,V*25
$GNGLL,4910.427079,N,12304.402012,W,203348.000,A,A*59
$GNVTG,126.46,T,,M,0.014,N,0.026,K,A*25
$GNGSA,A,3,03,04,06,09,16,26,28,31,,,,,1.36,0.76,1.12,1*05
$GNGSA,A,3,72,,,,,,,,,,,,1.36,0.76,1.12,2*00
$GNGSA,A,3,03,05,13,24,25,15,,,,,,,1.36,0.76,1.12,3*05
$GNGSA,A,3,12,19,20,22,36,37,44,,,,,,1.36,0.76,1.12,4*0B
$GNGSA,A,3,,,,,,,,,,,,,1.36,0.76,1.12,5*02
$GPGSV,3,1,10,03,67,180,29,04,67,293,26,06,24,305,22,07,,,20,1*5D
$GPGSV,3,2,10,09,34,281,23,16,27,132,25,26,40,091,27,28,14,052,19,1*68
$GPGSV,3,3,10,31,47,059,28,44,33,172,24,1*60
$GPGSV,2,1,06,03,67,180,28,04,67,293,27,06,24,305,22,09,34,281,23,8*63
$GPGSV,2,2,06,26,40,091,23,28,14,052,17,8*6C
$GLGSV,1,1,02,65,,,17,72,62,079,20,1*42
$GAGSV,2,1,05,03,73,299,25,05,47,082,23,13,26,309,19,24,35,078,21,7*72
$GAGSV,2,2,05,25,27,138,20,7*4C
$GAGSV,2,1,06,03,73,299,25,05,47,082,25,13,26,309,20,15,33,248,22,1*7D
$GAGSV,2,2,06,24,35,078,20,25,27,138,18,1*7F
$GBGSV,2,1,08,12,10,314,25,19,88,328,40,20,39,119,39,22,32,300,35,1*74
$GBGSV,2,2,08,34,03,340,22,36,24,192,36,37,34,053,36,44,06,291,17,1*7B
$GBGSV,1,1,04,19,88,328,24,20,39,119,24,22,32,300,20,37,34,053,21,5*70
$GQGSV,1,1,00,1*65
$GQGSV,1,1,00,8*6C
$GNGGA,203349.000,4910.427082,N,12304.402008,W,1,22,0.76,8.920,M,-16.816,M,,*45
$GNRMC,203349.000,A,4910.427082,N,12304.402008,W,0.009,126.46,151024,,,A,V*27
$GNGLL,4910.427082,N,12304.402008,W,203349.000,A,A*57
$GNVTG,126.46,T,,M,0.009,N,0.017,K,A*2B
$GNGSA,A,3,03,04,06,09,16,26,28,31,,,,,1.36,0.76,1.12,1*05
$GNGSA,A,3,72,,,,,,,,,,,,1.36,0.76,1.12,2*00
$GNGSA,A,3,03,05,13,24,25,15,,,,,,,1.36,0.76,1.12,3*05
$GNGSA,A,3,12,19,20,22,36,37,44,,,,,,1.36,0.76,1.12,4*0B
$GNGSA,A,3,,,,,,,,,,,,,1.36,0.76,1.12,5*02
$GPGSV,3,1,10,03,67,180,29,04,67,293,26,06,24,305,23,07,,,18,1*57
$GPGSV,3,2,10,09,34,281,23,16,27,132,24,26,40,091,26,28,14,052,17,1*66
$GPGSV,3,3,10,31,47,059,27,44,33,172,24,1*6F
$GPGSV,2,1,06,03,67,180,28,04,67,293,27,06,24,305,23,09,34,281,21,8*60
$GPGSV,2,2,06,26,40,091,24,28,14,052,17,8*6B
$GLGSV,1,1,02,65,,,18,72,62,079,19,1*47
$GAGSV,2,1,05,03,73,299,26,05,47,082,24,13,26,309,19,24,35,078,22,7*75
$GAGSV,2,2,05,25,27,138,20,7*4C
$GAGSV,2,1,06,03,73,299,25,05,47,082,24,13,26,309,19,15,33,248,22,1*76
$GAGSV,2,2,06,24,35,078,20,25,27,138,18,1*7F
$GBGSV,2,1,08,12,10,314,24,19,88,328,40,20,39,119,38,22,32,300,35,1*74
$GBGSV,2,2,08,34,03,340,23,36,24,192,36,37,34,053,36,44,06,291,17,1*7A
$GBGSV,1,1,04,19,88,328,24,20,39,119,23,22,32,300,20,37,34,053,21,5*77
$GQGSV,1,1,00,1*65
$GQGSV,1,1,00,8*6C
$GNGGA,203350.000,4910.427085,N,12304.402005,W,1,22,0.76,8.922,M,-16.816,M,,*45
$GNRMC,203350.000,A,4910.427085,N,12304.402005,W,0.012,126.46,151024,,,A,V*2F
$GNGLL,4910.427085,N,12304.402005,W,203350.000,A,A*55
$GNVTG,126.46,T,,M,0.012,N,0.022,K,A*27
$GNGSA,A,3,03,04,06,09,16,26,28,31,,,,,1.36,0.76,1.12,1*05
$GNGSA,A,3,72,,,,,,,,,,,,1.36,0.76,1.12,2*00
$GNGSA,A,3,03,05,13,24,25,15,,,,,,,1.36,0.76,1.12,3*05
$GNGSA,A,3,12,19,20,22,36,37,44,,,,,,1.36,0.76,1.12,4*0B
$GNGSA,A,3,,,,,,,,,,,,,1.36,0.76,1.12,5*02
$GPGSV,3,1,10,03,67,180,29,04,67,293,28,06,24,305,21,07,,,19,1*5A
$GPGSV,3,2,10,09,34,281,23,16,27,132,24,26,40,091,27,28,14,052,18,1*68
$GPGSV,3,3,10,31,47,059,29,44,33,172,24,1*61
$GPGSV,2,1,06,03,67,180,28,04,67,293,27,06,24,305,21,09,34,281,23,8*60
$GPGSV,2,2,06,26,40,091,24,28,14,052,17,8*6B
$GLGSV,1,1,02,65,,,19,72,62,079,19,1*46
$GAGSV,2,1,05,03,73,299,25,05,47,082,23,13,26,309,18,24,35,077,23,7*7E
$GAGSV,2,2,05,25,27,138,20,7*4C
$GAGSV,2,1,06,03,73,299,25,05,47,082,24,13,26,309,20,15,33,248,22,1*7C
$GAGSV,2,2,06,24,35,077,20,25,27,138,18,1*70
$GBGSV,2,1,08,12,10,314,24,19,88,328,40,20,39,119,38,22,32,300,34,1*75
$GBGSV,2,2,08,34,03,340,23,36,24,192,36,37,33,053,36,44,06,291,17,1*7D
$GBGSV,1,1,04,19,88,328,23,20,39,119,23,22,32,300,20,37,33,053,21,5*77
$GQGSV,1,1,00,1*65
$GQGSV,1,1,00,8*6C
$GNGGA,203351.000,4910.427086,N,12304.402001,W,1,22,0.68,8.925,M,-16.816,M,,*4B
$GNRMC,203351.000,A,4910.427086,N,12304.402001,W,0.004,126.46,151024,,,A,V*2E
$GNGLL,4910.427086,N,12304.402001,W,203351.000,A,A*53
$GNVTG,126.46,T,,M,0.004,N,0.008,K,A*28
$GNGSA,A,3,03,04,06,09,16,26,28,31,,,,,1.20,0.68,0.99,1*0F
$GNGSA,A,3,72,,,,,,,,,,,,1.20,0.68,0.99,2*0A
$GNGSA,A,3,03,05,13,24,25,15,,,,,,,1.20,0.68,0.99,3*0F
$GNGSA,A,3,12,19,20,22,36,37,44,,,,,,1.20,0.68,0.99,4*01
$GNGSA,A,3,,,,,,,,,,,,,1.20,0.68,0.99,5*08
$GPGSV,3,1,09,03,67,180,28,04,67,293,25,06,24,305,22,07,,,19,1*5D
$GPGSV,3,2,09,09,34,281,23,16,27,132,23,26,40,091,25,28,14,052,19,1*64
$GPGSV,3,3,09,31,47,059,28,1*5A
$GPGSV,2,1,06,03,67,180,26,04,67,293,24,06,24,305,19,09,34,281,20,8*65
$GPGSV,2,2,06,26,40,091,22,28,14,052,17,8*6D
$GLGSV,1,1,02,65,,,18,72,62,079,21,1*4C
$GAGSV,2,1,05,03,73,299,25,05,47,082,23,13,26,309,18,24,35,077,23,7*7E
$GAGSV,2,2,05,25,27,138,20,7*4C
$GAGSV,2,1,06,03,73,299,23,05,47,082,23,13,26,309,17,15,33,248,20,1*7B
$GAGSV,2,2,06,24,35,077,19,25,27,138,17,1*75
$GBGSV,2,1,08,12,10,314,24,19,88,328,40,20,39,119,38,22,32,300,34,1*75
$GBGSV,2,2,08,34,03,340,23,36,24,192,35,37,33,053,36,44,06,291,17,1*7E
$GBGSV,1,1,04,19,88,328,21,20,39,119,23,22,32,300,19,37,33,053,19,5*74
$GQGSV,1,1,00,1*65
$GQGSV,1,1,00,8*6C
$GNGGA,203352.000,4910.427089,N,12304.401997,W,1,22,0.76,8.925,M,-16.816,M,,*4D
$GNRMC,203352.000,A,4910.427089,N,12304.401997,W,0.011,126.46,151024,,,A,V*23
$GNGLL,4910.427089,N,12304.401997,W,203352.000,A,A*5A
$GNVTG,126.46,T,,M,0.011,N,0.021,K,A*27
$GNGSA,A,3,03,04,06,09,16,26,28,31,,,,,1.31,0.76,1.06,1*07
$GNGSA,A,3,72,,,,,,,,,,,,1.31,0.76,1.06,2*02
$GNGSA,A,3,03,05,13,24,25,15,,,,,,,1.31,0.76,1.06,3*07
$GNGSA,A,3,12,19,20,22,36,37,44,,,,,,1.31,0.76,1.06,4*09
$GNGSA,A,3,,,,,,,,,,,,,1.31,0.76,1.06,5*00
$GPGSV,3,1,09,03,67,180,27,04,67,293,25,06,24,305,20,07,,,18,1*51
$GPGSV,3,2,09,09,34,281,22,16,27,132,23,26,40,091,25,28,14,052,19,1*65
$GPGSV,3,3,09,31,46,059,27,1*54
$GPGSV,2,1,06,03,67,180,28,04,67,293,27,06,24,305,21,09,34,281,21,8*62
$GPGSV,2,2,06,26,40,091,22,28,14,052,17,8*6D
$GLGSV,1,1,02,65,,,17,72,62,079,22,1*40
$GAGSV,2,1,05,03,73,299,24,05,47,082,24,13,26,309,17,24,35,077,22,7*76
$GAGSV,2,2,05,25,27,138,21,7*4D
$GAGSV,2,1,06,03,73,299,25,05,47,082,24,13,26,309,19,15,33,248,22,1*76
$GAGSV,2,2,06,24,35,077,19,25,27,138,17,1*75
$GBGSV,2,1,08,12,10,314,23,19,88,328,39,20,39,119,38,22,32,300,34,1*7C
$GBGSV,2,2,08,34,03,340,21,36,24,192,35,37,33,053,36,44,06,291,17,1*7C
$GBGSV,1,1,04,19,88,328,23,20,39,119,23,22,32,300,19,37,33,053,21,5*7D
$GQGSV,1,1,00,1*65
$GQGSV,1,1,00,8*6C
$GNGGA,203353.000,4910.427089,N,12304.401994,W,1,22,0.66,8.924,M,-16.816,M,,*4F
$GNRMC,203353.000,A,4910.427089,N,12304.401994,W,0.008,126.46,151024,,,A,V*29
$GNGLL,4910.427089,N,12304.401994,W,203353.000,A,A*58
$GNVTG,126.46,T,,M,0.008,N,0.014,K,A*29
$GNGSA,A,3,03,04,06,09,16,26,28,31,,,,,1.13,0.66,0.92,1*0A
$GNGSA,A,3,72,,,,,,,,,,,,1.13,0.66,0.92,2*0F
$GNGSA,A,3,03,05,13,24,25,15,,,,,,,1.13,0.66,0.92,3*0A
$GNGSA,A,3,12,19,20,22,36,37,44,,,,,,1.13,0.66,0.92,4*04
$GNGSA,A,3,,,,,,,,,,,,,1.13,0.66,0.92,5*0D
$GPGSV,3,1,09,03,67,180,28,04,67,293,25,06,24,305,21,07,,,18,1*5F
$GPGSV,3,2,09,09,34,281,22,16,27,132,23,26,40,091,25,28,14,052,20,1*6F
$GPGSV,3,3,09,31,46,059,28,1*5B
$GPGSV,2,1,06,03,67,180,27,04,67,293,27,06,24,305,21,09,34,281,21,8*6D
$GPGSV,2,2,06,26,40,091,22,28,14,052,17,8*6D
$GLGSV,1,1,02,65,,,18,72,62,079,21,1*4C
$GAGSV,2,1,05,03,73,299,24,05,47,082,23,13,26,309,17,24,35,077,21,7*72
$GAGSV,2,2,05,25,27,138,20,7*4C
$GAGSV,2,1,06,03,73,299,25,05,47,082,24,13,26,309,19,15,33,248,20,1*74
$GAGSV,2,2,06,24,35,077,21,25,27,138,17,1*7E
$GBGSV,2,1,08,12,10,314,24,19,88,328,40,20,39,119,39,22,32,300,33,1*73
$GBGSV,2,2,08,34,03,340,23,36,24,192,36,37,33,053,35,44,06,291,16,1*7F
$GBGSV,1,1,04,19,88,328,22,20,39,119,22,22,32,300,18,37,33,053,21,5*7C
$GQGSV,1,1,00,1*65
$GQGSV,1,1,00,8*6C
$GNGGA,203354.000,4910.427090,N,12304.401989,W,1,22,0.66,8.923,M,-16.816,M,,*4B
$GNRMC,203354.000,A,4910.427090,N,12304.401989,W,0.011,126.46,151024,,,A,V*22
$GNGLL,4910.427090,N,12304.401989,W,203354.000,A,A*5B
$GNVTG,126.46,T,,M,0.011,N,0.021,K,A*27
$GNGSA,A,3,03,04,06,09,16,26,28,31,,,,,1.13,0.66,0.92,1*0A
$GNGSA,A,3,72,,,,,,,,,,,,1.13,0.66,0.92,2*0F
$GNGSA,A,3,03,05,13,24,25,15,,,,,,,1.13,0.66,0.92,3*0A
$GNGSA,A,3,12,19,20,22,36,37,44,,,,,,1.13,0.66,0.92,4*04
$GNGSA,A,3,,,,,,,,,,,,,1.13,0.66,0.92,5*0D
$GPGSV,3,1,09,03,67,180,30,04,67,293,27,06,24,305,22,07,,,18,1*57
$GPGSV,3,2,09,09,34,281,22,16,27,131,24,26,40,091,26,28,14,052,20,1*68
$GPGSV,3,3,09,31,46,059,29,1*5A
$GPGSV,2,1,06,03,67,180,27,04,67,293,25,06,24,305,20,09,34,281,21,8*6E
$GPGSV,2,2,06,26,40,091,22,28,14,052,17,8*6D
$GLGSV,1,1,02,65,,,17,72,62,079,22,1*40
$GAGSV,2,1,05,03,73,299,25,05,47,082,24,13,26,309,18,24,35,077,22,7*78
$GAGSV,2,2,05,25,27,138,20,7*4C
$GAGSV,2,1,06,03,73,299,24,05,47,082,25,13,26,309,18,15,33,248,21,1*74
$GAGSV,2,2,06,24,35,077,20,25,27,138,17,1*7F
$GBGSV,2,1,08,12,10,314,24,19,88,329,40,20,39,119,39,22,32,300,34,1*75
$GBGSV,2,2,08,34,03,340,23,36,24,192,35,37,33,053,37,44,06,291,16,1*7E
$GBGSV,1,1,04,19,88,329,24,20,39,119,22,22,32,300,19,37,33,053,20,5*7B
$GQGSV,1,1,00,1*65
$GQGSV,1,1,00,8*6C
$GNGGA,203355.000,4910.427091,N,12304.401982,W,1,22,0.65,8.924,M,-16.816,M,,*44
$GNRMC,203355.000,A,4910.427091,N,12304.401982,W,0.010,126.46,151024,,,A,V*28
$GNGLL,4910.427091,N,12304.401982,W,203355.000,A,A*50
$GNVTG,126.46,T,,M,0.010,N,0.019,K,A*2D
$GNGSA,A,3,03,04,06,09,16,26,28,31,,,,,1.14,0.65,0.93,1*0F
$GNGSA,A,3,72,,,,,,,,,,,,1.14,0.65,0.93,2*0A
$GNGSA,A,3,03,05,13,24,25,15,,,,,,,1.14,0.65,0.93,3*0F
$GNGSA,A,3,12,19,20,22,36,37,44,,,,,,1.14,0.65,0.93,4*01
$GNGSA,A,3,,,,,,,,,,,,,1.14,0.65,0.93,5*08
$GPGSV,3,1,09,03,67,180,30,04,67,293,27,06,24,305,24,07,,,19,1*50
$GPGSV,3,2,09,09,34,281,23,16,27,131,24,26,40,091,26,28,14,052,20,1*69
$GPGSV,3,3,09,31,46,059,29,1*5A
$GPGSV,2,1,06,03,67,180,27,04,67,293,25,06,24,305,20,09,34,281,21,8*6E
$GPGSV,2,2,06,26,40,091,22,28,14,052,16,8*6C
$GLGSV,1,1,02,65,,,18,72,62,079,22,1*4F
$GAGSV,2,1,05,03,73,299,25,05,47,082,24,13,26,309,19,24,35,077,23,7*78
$GAGSV,2,2,05,25,27,138,22,7*4E
$GAGSV,2,1,06,03,73,299,23,05,47,082,23,13,26,309,18,15,33,248,21,1*75
$GAGSV,2,2,06,24,35,077,19,25,27,138,16,1*74
$GBGSV,2,1,08,12,10,314,25,19,88,329,40,20,39,119,39,22,32,300,34,1*74
$GBGSV,2,2,08,34,03,340,24,36,24,192,35,37,33,053,36,44,06,291,16,1*78
$GBGSV,1,1,04,19,88,329,23,20,39,119,22,22,32,300,19,37,33,053,20,5*7C
$GQGSV,1,1,00,1*65
$GQGSV,1,1,00,8*6C
$GNGGA,203356.000,4910.427092,N,12304.401979,W,1,22,0.65,8.925,M,-16.817,M,,*40
$GNRMC,203356.000,A,4910.427092,N,12304.401979,W,0.009,126.46,151024,,,A,V*24
$GNGLL,4910.427092,N,12304.401979,W,203356.000,A,A*54
$GNVTG,126.46,T,,M,0.009,N,0.016,K,A*2A
$GNGSA,A,3,03,04,06,09,16,26,28,31,,,,,1.14,0.65,0.93,1*0F
$GNGSA,A,3,72,,,,,,,,,,,,1.14,0.65,0.93,2*0A
$GNGSA,A,3,03,05,13,24,25,15,,,,,,,1.14,0.65,0.93,3*0F
$GNGSA,A,3,12,19,20,22,36,37,44,,,,,,1.14,0.65,0.93,4*01
$GNGSA,A,3,,,,,,,,,,,,,1.14,0.65,0.93,5*08
$GPGSV,3,1,09,03,67,180,30,04,67,293,27,06,24,305,24,07,,,18,1*51
$GPGSV,3,2,09,09,34,281,23,16,27,131,23,26,40,091,27,28,14,052,21,1*6E
$GPGSV,3,3,09,31,46,059,29,1*5A
$GPGSV,2,1,06,03,67,180,27,04,67,293,26,06,24,305,20,09,34,281,22,8*6E
$GPGSV,2,2,06,26,40,091,23,28,14,052,17,8*6C
$GLGSV,1,1,02,65,,,20,72,62,079,22,1*44
$GAGSV,2,1,05,03,73,299,25,05,47,082,23,13,26,309,19,24,35,077,23,7*7F
$GAGSV,2,2,05,25,27,138,20,7*4C
$GAGSV,2,1,06,03,73,299,24,05,47,082,24,13,26,309,20,15,33,248,20,1*7F
$GAGSV,2,2,06,24,35,077,21,25,27,138,18,1*71
$GBGSV,2,1,08,12,10,314,25,19,88,329,40,20,39,119,39,22,32,300,33,1*73
$GBGSV,2,2,08,34,03,340,23,36,24,192,35,37,33,053,36,44,06,291,16,1*7F
$GBGSV,1,1,04,19,88,329,22,20,39,119,22,22,32,300,20,37,33,053,20,5*77
$GQGSV,1,1,00,1*65
$GQGSV,1,1,00,8*6C
$GNGGA,203357.000,4910.427093,N,12304.401976,W,1,22,0.62,8.923,M,-16.817,M,,*4E
$GNRMC,203357.000,A,4910.427093,N,12304.401976,W,0.004,126.46,151024,,,A,V*26
$GNGLL,4910.427093,N,12304.401976,W,203357.000,A,A*5B
$GNVTG,126.46,T,,M,0.004,N,0.008,K,A*28
$GNGSA,A,3,03,04,06,09,16,26,28,31,,,,,1.12,0.62,0.93,1*0E
$GNGSA,A,3,72,,,,,,,,,,,,1.12,0.62,0.93,2*0B
$GNGSA,A,3,03,05,13,24,25,15,,,,,,,1.12,0.62,0.93,3*0E
$GNGSA,A,3,12,19,20,22,36,37,44,,,,,,1.12,0.62,0.93,4*00
$GNGSA,A,3,,,,,,,,,,,,,1.12,0.62,0.93,5*09
$GPGSV,3,1,09,03,67,180,32,04,67,293,28,06,24,305,24,07,,,20,1*57
$GPGSV,3,2,09,09,34,281,25,16,27,131,25,26,40,091,27,28,14,052,22,1*6D
$GPGSV,3,3,09,31,46,059,30,1*52
$GPGSV,2,1,06,03,67,180,27,04,67,293,27,06,24,305,22,09,34,281,22,8*6D
$GPGSV,2,2,06,26,40,091,23,28,14,052,17,8*6C
$GLGSV,1,1,02,65,,,18,72,62,079,21,1*4C
$GAGSV,2,1,05,03,73,299,27,05,47,082,26,13,26,309,20,24,35,077,25,7*74
$GAGSV,2,2,05,25,27,138,20,7*4C
$GAGSV,2,1,06,03,73,299,24,05,47,082,24,13,26,309,20,15,33,248,21,1*7E
$GAGSV,2,2,06,24,35,077,20,25,27,138,18,1*70
$GBGSV,2,1,08,12,10,314,25,19,88,329,40,20,39,119,39,22,32,300,34,1*74
$GBGSV,2,2,08,34,03,340,23,36,24,192,35,37,33,053,36,44,06,291,16,1*7F
$GBGSV,1,1,04,19,88,329,25,20,39,119,22,22,32,300,21,37,33,053,22,5*73
$GQGSV,1,1,00,1*65
$GQGSV,1,1,00,8*6C
$GNGGA,203358.000,4910.427094,N,12304.401975,W,1,22,0.65,8.923,M,-16.816,M,,*43
$GNRMC,203358.000,A,4910.427094,N,12304.401975,W,0.010,126.46,151024,,,A,V*28
$GNGLL,4910.427094,N,12304.401975,W,203358.000,A,A*50
$GNVTG,126.46,T,,M,0.010,N,0.018,K,A*2C
$GNGSA,A,3,03,04,06,09,16,26,28,31,,,,,1.15,0.65,0.94,1*09
$GNGSA,A,3,72,,,,,,,,,,,,1.15,0.65,0.94,2*0C
$GNGSA,A,3,03,05,13,24,25,15,,,,,,,1.15,0.65,0.94,3*09
$GNGSA,A,3,12,19,20,22,36,37,44,,,,,,1.15,0.65,0.94,4*07
$GNGSA,A,3,,,,,,,,,,,,,1.15,0.65,0.94,5*0E
$GPGSV,3,1,09,03,67,180,32,04,67,293,29,06,24,305,25,07,,,20,1*57
$GPGSV,3,2,09,09,34,281,25,16,27,131,26,26,40,091,29,28,14,052,23,1*61
$GPGSV,3,3,09,31,46,059,30,1*52
$GPGSV,2,1,06,03,67,180,26,04,67,293,26,06,24,305,21,09,34,281,20,8*6C
$GPGSV,2,2,06,26,40,091,21,28,14,052,16,8*6F
$GLGSV,1,1,02,65,,,17,72,62,079,21,1*43
$GAGSV,2,1,05,03,73,299,28,05,47,082,26,13,26,309,21,24,35,077,24,7*7B
$GAGSV,2,2,05,25,27,138,21,7*4D
$GAGSV,2,1,06,03,73,299,24,05,47,082,24,13,26,309,19,15,33,248,21,1*74
$GAGSV,2,2,06,24,35,077,19,25,27,138,17,1*75
$GBGSV,2,1,08,12,10,314,25,19,88,329,41,20,39,119,39,22,32,300,34,1*75
$GBGSV,2,2,08,34,03,340,23,36,24,192,36,37,33,053,37,44,06,291,16,1*7D
$GBGSV,1,1,04,19,88,329,23,20,39,119,22,22,32,300,20,37,33,053,21,5*77
$GQGSV,1,1,00,1*65
$GQGSV,1,1,00,8*6C
$GNGGA,203359.000,4910.427095,N,12304.401974,W,1,23,0.57,8.923,M,-16.817,M,,*43
$GNRMC,203359.000,A,4910.427095,N,12304.401974,W,0.005,126.46,151024,,,A,V*2D
$GNGLL,4910.427095,N,12304.401974,W,203359.000,A,A*51
$GNVTG,126.46,T,,M,0.005,N,0.010,K,A*20
$GNGSA,A,3,03,04,06,09,16,26,28,31,,,,,1.01,0.57,0.83,1*0B
$GNGSA,A,3,72,,,,,,,,,,,,1.01,0.57,0.83,2*0E
$GNGSA,A,3,03,05,13,15,24,25,34,,,,,,1.01,0.57,0.83,3*0C
$GNGSA,A,3,12,19,20,22,36,37,44,,,,,,1.01,0.57,0.83,4*05
$GNGSA,A,3,,,,,,,,,,,,,1.01,0.57,0.83,5*0C
$GPGSV,3,1,09,03,67,180,32,04,67,293,29,06,24,305,25,07,,,19,1*5D
$GPGSV,3,2,09,09,34,281,26,16,27,131,26,26,40,091,28,28,14,052,22,1*62
$GPGSV,3,3,09,31,46,059,30,1*52
$GPGSV,2,1,06,03,67,180,27,04,67,293,26,06,24,305,20,09,34,281,22,8*6E
$GPGSV,2,2,06,26,40,091,22,28,14,052,17,8*6D
$GLGSV,1,1,02,65,,,15,72,62,079,20,1*40
$GAGSV,2,1,07,03,73,299,27,05,47,082,25,13,26,309,20,15,33,248,19,7*70
$GAGSV,2,2,07,24,35,077,25,25,27,138,21,34,08,201,20,7*46
$GAGSV,2,1,06,03,73,299,24,05,47,082,24,13,26,309,19,15,33,248,20,1*75
$GAGSV,2,2,06,24,35,077,21,25,27,138,17,1*7E
$GBGSV,2,1,08,12,10,314,25,19,88,329,40,20,39,119,39,22,32,300,34,1*74
$GBGSV,2,2,08,34,03,340,23,36,24,192,35,37,33,053,36,44,06,291,17,1*7E
$GBGSV,1,1,04,19,88,329,23,20,39,119,23,22,32,300,20,37,33,053,21,5*76
$GQGSV,1,1,00,1*65
$GQGSV,1,1,00,8*6C
$GNGGA,203400.000,4910.427096,N,12304.401973,W,1,23,0.56,8.923,M,-16.816,M,,*4C
$GNRMC,203400.000,A,4910.427096,N,12304.401973,W,0.007,126.46,151024,,,A,V*20
$GNGLL,4910.427096,N,12304.401973,W,203400.000,A,A*5E
$GNVTG,126.46,T,,M,0.007,N,0.013,K,A*21
$GNGSA,A,3,03,04,06,09,16,26,28,31,,,,,0.99,0.56,0.81,1*08
$GNGSA,A,3,72,,,,,,,,,,,,0.99,0.56,0.81,2*0D
$GNGSA,A,3,03,05,13,24,25,34,15,,,,,,0.99,0.56,0.81,3*0F
$GNGSA,A,3,12,19,20,22,36,37,44,,,,,,0.99,0.56,0.81,4*06
$GNGSA,A,3,,,,,,,,,,,,,0.99,0.56,0.81,5*0F
$GPGSV,3,1,09,03,67,180,31,04,67,293,29,06,24,305,25,07,,,20,1*54
$GPGSV,3,2,09,09,34,281,25,16,27,131,25,26,40,091,27,28,14,052,22,1*6D
$GPGSV,3,3,09,31,46,059,30,1*52
$GPGSV,2,1,06,03,67,180,27,04,67,293,27,06,24,305,21,09,34,281,22,8*6E
$GPGSV,2,2,06,26,40,091,23,28,14,052,17,8*6C
$GLGSV,1,1,02,65,,,17,72,62,079,20,1*42
$GAGSV,2,1,06,03,73,299,28,05,47,082,25,13,26,309,20,24,35,077,24,7*7A
$GAGSV,2,2,06,25,27,138,20,34,08,201,18,7*7A
$GAGSV,2,1,06,03,73,299,25,05,47,082,25,13,26,309,20,15,33,248,21,1*7E
$GAGSV,2,2,06,24,35,077,21,25,27,138,17,1*7E
$GBGSV,2,1,08,12,10,314,24,19,88,329,40,20,39,119,39,22,32,300,34,1*75
$GBGSV,2,2,08,34,03,340,24,36,24,192,35,37,33,053,36,44,06,291,16,1*78
$GBGSV,1,1,04,19,88,329,24,20,39,119,21,22,32,300,19,37,33,053,22,5*7A
$GQGSV,1,1,00,1*65
$GQGSV,1,1,00,8*6C
$GNGGA,203401.000,4910.427096,N,12304.401970,W,1,23,0.55,8.923,M,-16.816,M,,*4D
$GNRMC,203401.000,A,4910.427096,N,12304.401970,W,0.004,126.46,151024,,,A,V*21
$GNGLL,4910.427096,N,12304.401970,W,203401.000,A,A*5C
$GNVTG,126.46,T,,M,0.004,N,0.008,K,A*28
$GNGSA,A,3,03,04,06,09,16,26,28,31,,,,,0.98,0.55,0.81,1*0A
$GNGSA,A,3,72,,,,,,,,,,,,0.98,0.55,0.81,2*0F
$GNGSA,A,3,03,05,13,24,25,34,15,,,,,,0.98,0.55,0.81,3*0D
$GNGSA,A,3,12,19,20,22,36,37,44,,,,,,0.98,0.55,0.81,4*04
$GNGSA,A,3,,,,,,,,,,,,,0.98,0.55,0.81,5*0D
$GPGSV,3,1,09,03,67,180,31,04,67,293,29,06,24,305,24,07,,,20,1*55
$GPGSV,3,2,09,09,34,281,25,16,27,131,25,26,40,091,26,28,14,052,22,1*6C
$GPGSV,3,3,09,31,46,059,30,1*52
$GPGSV,2,1,06,03,67,180,26,04,67,293,24,06,24,305,20,09,34,281,21,8*6E
$GPGSV,2,2,06,26,40,091,21,28,14,052,17,8*6E
$GLGSV,1,1,02,65,,,17,72,62,079,19,1*48
$GAGSV,2,1,06,03,73,299,28,05,47,082,25,13,26,309,21,24,35,077,24,7*7B
$GAGSV,2,2,06,25,27,138,20,34,08,201,17,7*75
$GAGSV,2,1,06,03,73,299,24,05,47,082,22,13,26,309,18,15,33,248,20,1*72
$GAGSV,2,2,06,24,35,077,19,25,27,138,17,1*75
$GBGSV,2,1,08,12,10,314,25,19,88,329,40,20,39,119,39,22,32,300,35,1*75
$GBGSV,2,2,08,34,03,340,23,36,24,192,35,37,33,053,37,44,06,291,16,1*7E
$GBGSV,1,1,04,19,88,329,22,20,39,119,22,22,32,300,18,37,33,053,20,5*7C
$GQGSV,1,1,00,1*65
$GQGSV,1,1,00,8*6C
$GNGGA,203402.000,4910.427096,N,12304.401966,W,1,23,0.55,8.922,M,-16.816,M,,*48
$GNRMC,203402.000,A,4910.427096,N,12304.401966,W,0.003,126.46,151024,,,A,V*22
$GNGLL,4910.427096,N,12304.401966,W,203402.000,A,A*58
$GNVTG,126.46,T,,M,0.003,N,0.005,K,A*22
$GNGSA,A,3,03,04,06,09,16,26,28,31,,,,,0.98,0.55,0.81,1*0A
$GNGSA,A,3,72,,,,,,,,,,,,0.98,0.55,0.81,2*0F
$GNGSA,A,3,03,05,13,15,24,25,34,,,,,,0.98,0.55,0.81,3*0D
$GNGSA,A,3,12,19,20,22,36,37,44,,,,,,0.98,0.55,0.81,4*04
$GNGSA,A,3,,,,,,,,,,,,,0.98,0.55,0.81,5*0D
$GPGSV,3,1,09,03,67,180,32,04,67,293,28,06,24,305,24,07,,,20,1*57
$GPGSV,3,2,09,09,34,281,26,16,27,131,25,26,40,091,26,28,14,052,21,1*6C
$GPGSV,3,3,09,31,46,059,29,1*5A
$GPGSV,2,1,06,03,67,180,26,04,67,293,26,06,24,305,20,09,34,281,19,8*67
$GPGSV,2,2,06,26,40,091,21,28,14,052,17,8*6E
$GLGSV,1,1,02,65,,,17,72,62,079,19,1*48
$GAGSV,2,1,07,03,73,299,27,05,47,082,25,13,26,309,19,15,33,248,19,7*7A
$GAGSV,2,2,07,24,35,077,24,25,27,138,21,34,08,201,18,7*4C
$GAGSV,2,1,06,03,73,299,24,05,47,082,23,13,26,309,19,15,33,248,20,1*72
$GAGSV,2,2,06,24,35,077,19,25,27,138,16,1*74
$GBGSV,2,1,08,12,10,314,25,19,88,329,40,20,39,119,38,22,32,300,34,1*75
$GBGSV,2,2,08,34,03,340,23,36,24,192,35,37,33,053,36,44,06,291,16,1*7F
$GBGSV,1,1,04,19,88,329,22,20,39,119,22,22,32,300,18,37,33,053,19,5*76
$GQGSV,1,1,00,1*65
$GQGSV,1,1,00,8*6C
$GNGGA,203403.000,4910.427096,N,12304.401961,W,1,23,0.57,8.921,M,-16.816,M,,*4F
$GNRMC,203403.000,A,4910.427096,N,12304.401961,W,0.006,126.46,151024,,,A,V*21
$GNGLL,4910.427096,N,12304.401961,W,203403.000,A,A*5E
$GNVTG,126.46,T,,M,0.006,N,0.012,K,A*21
$GNGSA,A,3,03,04,06,09,16,26,28,31,,,,,0.99,0.57,0.82,1*0A
$GNGSA,A,3,72,,,,,,,,,,,,0.99,0.57,0.82,2*0F
$GNGSA,A,3,03,05,13,15,24,25,34,,,,,,0.99,0.57,0.82,3*0D
$GNGSA,A,3,12,19,20,22,36,37,44,,,,,,0.99,0.57,0.82,4*04
$GNGSA,A,3,,,,,,,,,,,,,0.99,0.57,0.82,5*0D
$GPGSV,3,1,09,03,67,180,31,04,67,293,30,06,24,305,25,07,,,21,1*5D
$GPGSV,3,2,09,09,34,281,26,16,27,131,25,26,40,091,28,28,14,052,22,1*61
$GPGSV,3,3,09,31,46,059,31,1*53
$GPGSV,2,1,06,03,67,180,27,04,67,293,25,06,24,305,20,09,34,281,22,8*6D
$GPGSV,2,2,06,26,40,091,22,28,14,052,18,8*62
$GLGSV,1,1,02,65,,,17,72,62,079,21,1*43
$GAGSV,2,1,07,03,73,299,27,05,47,082,26,13,26,309,21,15,33,248,20,7*78
$GAGSV,2,2,07,24,35,077,25,25,27,138,22,34,08,201,17,7*41
$GAGSV,2,1,06,03,73,299,25,05,47,082,24,13,26,309,20,15,33,248,20,1*7E
$GAGSV,2,2,06,24,35,077,19,25,27,138,17,1*75
$GBGSV,2,1,08,12,10,314,25,19,88,329,40,20,39,119,38,22,32,300,34,1*75
$GBGSV,2,2,08,34,03,340,23,36,24,192,35,37,33,053,35,44,06,291,15,1*7F
$GBGSV,1,1,04,19,88,329,22,20,39,119,22,22,32,300,20,37,33,053,21,5*76
$GQGSV,1,1,00,1*65
$GQGSV,1,1,00,8*6C
$GNGGA,203404.000,4910.427094,N,12304.401958,W,1,22,0.61,8.920,M,-16.816,M,,*45
$GNRMC,203404.000,A,4910.427094,N,12304.401958,W,0.001,126.46,151024,,,A,V*29
$GNGLL,4910.427094,N,12304.401958,W,203404.000,A,A*51
$GNVTG,126.46,T,,M,0.001,N,0.002,K,A*27
$GNGSA,A,3,03,04,06,09,16,26,28,31,,,,,1.09,0.61,0.91,1*05
$GNGSA,A,3,72,,,,,,,,,,,,1.09,0.61,0.91,2*00
$GNGSA,A,3,03,05,13,15,24,25,,,,,,,1.09,0.61,0.91,3*05
$GNGSA,A,3,12,19,20,22,36,37,44,,,,,,1.09,0.61,0.91,4*0B
$GNGSA,A,3,,,,,,,,,,,,,1.09,0.61,0.91,5*02
$GPGSV,3,1,09,03,67,180,31,04,67,293,28,06,24,305,24,07,,,21,1*55
$GPGSV,3,2,09,09,34,281,25,16,27,131,25,26,40,091,26,28,14,052,21,1*6F
$GPGSV,3,3,09,31,46,059,30,1*52
$GPGSV,2,1,06,03,67,180,28,04,67,293,26,06,24,305,22,09,34,281,21,8*60
$GPGSV,2,2,06,26,40,091,24,28,14,052,17,8*6B
$GLGSV,1,1,02,65,,,17,72,62,079,20,1*42
$GAGSV,2,1,06,03,73,299,27,05,47,082,24,13,26,309,19,15,33,248,19,7*7A
$GAGSV,2,2,06,24,35,077,24,25,27,138,20,7*79
$GAGSV,2,1,06,03,73,299,25,05,47,082,24,13,26,309,19,15,33,248,22,1*76
$GAGSV,2,2,06,24,35,077,21,25,27,138,18,1*71
$GBGSV,2,1,08,12,10,314,25,19,88,329,40,20,39,119,38,22,32,300,34,1*75
$GBGSV,2,2,08,34,03,340,24,36,24,192,36,37,33,053,36,44,06,291,15,1*78
$GBGSV,1,1,04,19,88,329,24,20,39,119,23,22,32,300,22,37,33,053,21,5*73
$GQGSV,1,1,00,1*65
$GQGSV,1,1,00,8*6C
$GNGGA,203405.000,4910.427092,N,12304.401956,W,1,22,0.57,8.919,M,-16.816,M,,*43
$GNRMC,203405.000,A,4910.427092,N,12304.401956,W,0.006,126.46,151024,,,A,V*27
$GNGLL,4910.427092,N,12304.401956,W,203405.000,A,A*58
$GNVTG,126.46,T,,M,0.006,N,0.010,K,A*23
$GNGSA,A,3,03,04,06,09,16,26,28,31,,,,,1.04,0.57,0.87,1*0A
$GNGSA,A,3,72,,,,,,,,,,,,1.04,0.57,0.87,2*0F
$GNGSA,A,3,03,05,13,15,24,25,,,,,,,1.04,0.57,0.87,3*0A
$GNGSA,A,3,12,19,20,22,36,37,44,,,,,,1.04,0.57,0.87,4*04
$GNGSA,A,3,,,,,,,,,,,,,1.04,0.57,0.87,5*0D
$GPGSV,3,1,09,03,67,180,30,04,67,293,28,06,24,305,25,07,,,20,1*54
$GPGSV,3,2,09,09,34,281,24,16,27,131,24,26,40,091,26,28,14,052,21,1*6F
$GPGSV,3,3,09,31,46,059,30,1*52
$GPGSV,2,1,06,03,67,180,25,04,67,293,26,06,24,305,21,09,34,281,20,8*6F
$GPGSV,2,2,06,26,40,091,22,28,14,052,17,8*6D
$GLGSV,1,1,02,65,,,18,72,62,079,19,1*47
$GAGSV,2,1,06,03,73,299,28,05,47,082,24,13,26,309,21,15,33,248,20,7*74
$GAGSV,2,2,06,24,35,077,25,25,27,138,21,7*79
$GAGSV,2,1,06,03,73,299,25,05,47,082,24,13,26,309,19,15,33,248,20,1*74
$GAGSV,2,2,06,24,35,077,20,25,27,138,18,1*70
$GBGSV,2,1,08,12,10,314,26,19,88,329,41,20,39,119,38,22,32,300,34,1*77
$GBGSV,2,2,08,34,03,340,24,36,24,192,36,37,33,053,36,44,06,291,16,1*7B
$GBGSV,1,1,04,19,88,329,24,20,39,119,23,22,32,300,20,37,33,053,20,5*70
$GQGSV,1,1,00,1*65
$GQGSV,1,1,00,8*6C
$GNGGA,203406.000,4910.427091,N,12304.401954,W,1,22,0.57,8.922,M,-16.817,M,,*48
