$GNGGA,203346.000,4910.430046,N,12304.400166,W,2,25,0.52,5.311,M,-16.817,M,,*49
$GNGLL,4910.430046,N,12304.400166,W,203346.000,A,D*58
$GNGSA,A,3,03,04,31,26,09,16,06,28,07,,,,0.94,0.52,0.79,1*01
$GNGSA,A,3,72,73,,,,,,,,,,,0.94,0.52,0.79,2*07
$GNGSA,A,3,03,05,24,15,25,13,31,34,,,,,0.94,0.52,0.79,3*03
$GNGSA,A,3,19,20,37,22,36,44,,,,,,,0.94,0.52,0.79,4*0B
$GPGSV,3,1,12,03,68,181,37,04,67,293,35,31,47,059,35,26,40,092,33,1*6F
$GPGSV,3,2,12,09,33,281,30,46,33,188,31,16,27,132,29,06,25,306,31,1*69
$GPGSV,3,3,12,28,15,052,30,07,06,226,26,11,02,341,,02,01,202,,1*69
$GLGSV,2,1,07,72,63,079,24,74,60,077,,65,46,313,,75,39,169,,1*77
$GLGSV,2,2,07,73,25,034,16,81,20,325,,88,19,271,,1*4F
$GAGSV,3,1,09,03,73,298,33,05,48,083,30,24,35,078,29,15,34,248,26,7*70
$GAGSV,3,2,09,25,27,139,26,13,27,310,26,08,22,276,22,31,11,030,23,7*7C
$GAGSV,3,3,09,34,09,201,21,7*44
$GBGSV,3,1,11,19,87,323,35,46,60,137,,20,40,118,33,37,35,054,30,1*78
$GBGSV,3,2,11,22,31,300,29,36,23,193,28,12,10,316,18,44,07,292,16,1*7E
$GBGSV,3,3,11,31,05,328,,34,04,341,18,04,01,261,,1*44
$GNRMC,203346.000,A,4910.430046,N,12304.400166,W,0.08,348.30,151024,,,D,V*12
$GNVTG,348.30,T,,M,0.08,N,0.14,K,D*27
$GNGGA,203347.000,4910.430142,N,12304.400142,W,2,25,0.52,5.574,M,-16.816,M,,*4F
$GNGLL,4910.430142,N,12304.400142,W,203347.000,A,D*5A
$GNGSA,A,3,03,04,31,26,09,16,06,28,07,,,,0.94,0.52,0.79,1*01
$GNGSA,A,3,72,73,,,,,,,,,,,0.94,0.52,0.79,2*07
$GNGSA,A,3,03,05,24,15,25,13,31,34,,,,,0.94,0.52,0.79,3*03
$GNGSA,A,3,19,20,37,22,36,44,,,,,,,0.94,0.52,0.79,4*0B
$GPGSV,3,1,12,03,68,181,37,04,67,293,35,31,47,059,35,26,40,092,33,1*6F
$GPGSV,3,2,12,46,33,188,31,09,33,281,30,16,27,132,29,06,25,306,31,1*69
$GPGSV,3,3,12,28,15,052,30,07,06,226,26,11,02,341,,02,01,202,,1*69
$GLGSV,2,1,05,72,63,079,24,74,60,077,,65,46,313,,75,39,169,,1*75
$GLGSV,2,2,05,73,25,034,16,1*4E
$GAGSV,3,1,09,03,73,298,33,05,48,083,30,24,35,078,29,15,34,248,26,7*70
$GAGSV,3,2,09,25,27,139,26,13,27,310,26,08,22,276,22,31,11,030,22,7*7D
$GAGSV,3,3,09,34,09,201,21,7*44
$GBGSV,3,1,11,19,87,323,34,46,60,137,,20,40,118,33,37,35,054,30,1*79
$GBGSV,3,2,11,22,31,300,29,36,23,193,28,12,10,316,18,44,07,292,15,1*7D
$GBGSV,3,3,11,31,05,328,,34,04,341,18,04,01,261,,1*44
$GNRMC,203347.000,A,4910.430142,N,12304.400142,W,0.06,348.30,151024,,,D,V*1E
$GNVTG,348.30,T,,M,0.06,N,0.12,K,D*2F
$GNGGA,203348.000,4910.430232,N,12304.400232,W,2,25,0.52,5.689,M,-16.817,M,,*40
$GNGLL,4910.430232,N,12304.400232,W,203348.000,A,D*55
$GNGSA,A,3,03,04,31,26,09,16,06,28,07,,,,0.94,0.52,0.79,1*01
$GNGSA,A,3,72,73,,,,,,,,,,,0.94,0.52,0.79,2*07
$GNGSA,A,3,03,05,24,15,25,13,31,34,,,,,0.94,0.52,0.79,3*03
$GNGSA,A,3,19,20,37,22,36,44,,,,,,,0.94,0.52,0.79,4*0B
$GPGSV,3,1,12,03,68,181,37,04,67,293,35,31,47,059,35,26,40,092,33,1*6F
$GPGSV,3,2,12,09,33,281,30,46,33,188,31,16,27,132,29,06,25,306,31,1*69
$GPGSV,3,3,12,28,15,052,30,07,06,226,26,11,02,341,,02,01,202,,1*69
$GLGSV,2,1,07,72,63,079,25,74,60,077,,65,46,313,,75,39,169,,1*76
$GLGSV,2,2,07,73,25,034,16,81,20,325,,88,19,271,,1*4F
$GAGSV,3,1,09,03,73,298,33,05,48,083,30,24,35,078,29,15,34,248,26,7*70
$GAGSV,3,2,09,25,27,139,26,13,27,310,26,08,22,276,22,31,11,030,22,7*7D
$GAGSV,3,3,09,34,09,201,21,7*44
$GBGSV,3,1,11,19,87,323,34,46,60,137,,20,40,118,33,37,35,054,30,1*79
$GBGSV,3,2,11,22,31,300,29,36,23,193,28,12,10,316,18,44,07,292,14,1*7C
$GBGSV,3,3,11,31,05,328,,34,04,341,18,04,01,261,,1*44
$GNRMC,203348.000,A,4910.430232,N,12304.400232,W,0.06,348.30,151024,,,D,V*11
$GNVTG,348.30,T,,M,0.06,N,0.10,K,D*2D
$GNGGA,203349.000,4910.430226,N,12304.400214,W,2,25,0.52,5.693,M,-16.817,M,,*4B
$GNGLL,4910.430226,N,12304.400214,W,203349.000,A,D*55
$GNGSA,A,3,03,04,31,26,09,16,06,28,07,,,,0.94,0.52,0.79,1*01
$GNGSA,A,3,72,73,,,,,,,,,,,0.94,0.52,0.79,2*07
$GNGSA,A,3,03,05,24,15,13,25,31,34,,,,,0.94,0.52,0.79,3*03
$GNGSA,A,3,19,20,37,22,36,44,,,,,,,0.94,0.52,0.79,4*0B
$GPGSV,3,1,12,03,68,181,36,04,67,293,34,31,47,059,34,26,40,092,32,1*6F
$GPGSV,3,2,12,46,33,188,30,09,33,281,30,16,27,132,29,06,25,306,31,1*68
$GPGSV,3,3,12,28,15,052,29,07,06,226,25,11,02,341,,02,01,202,,1*62
$GLGSV,2,1,06,72,63,079,26,74,60,077,,65,46,313,,75,39,169,,1*74
$GLGSV,2,2,06,73,25,034,16,81,20,325,,1*72
$GAGSV,3,1,09,03,73,298,33,05,48,083,30,24,35,078,28,15,34,248,26,7*71
$GAGSV,3,2,09,13,27,310,26,25,27,139,25,08,22,276,22,31,11,030,22,7*7E
$GAGSV,3,3,09,34,09,201,21,7*44
$GBGSV,3,1,11,19,87,323,34,46,60,137,,20,40,118,33,37,35,054,30,1*79
$GBGSV,3,2,11,22,31,300,29,36,23,193,28,12,10,316,18,44,07,292,16,1*7E
$GBGSV,3,3,11,31,05,328,,34,04,341,18,04,01,261,,1*44
$GNRMC,203349.000,A,4910.430226,N,12304.400214,W,0.04,348.30,151024,,,D,V*13
$GNVTG,348.30,T,,M,0.04,N,0.08,K,D*26
$GNGGA,203350.000,4910.430286,N,12304.400214,W,2,25,0.52,5.758,M,-16.816,M,,*4E
$GNGLL,4910.430286,N,12304.400214,W,203350.000,A,D*57
$GNGSA,A,3,03,04,31,26,09,16,06,28,07,,,,0.94,0.52,0.79,1*01
$GNGSA,A,3,72,73,,,,,,,,,,,0.94,0.52,0.79,2*07
$GNGSA,A,3,03,05,24,15,25,13,31,34,,,,,0.94,0.52,0.79,3*03
$GNGSA,A,3,19,20,37,22,36,44,,,,,,,0.94,0.52,0.79,4*0B
$GPGSV,3,1,12,03,68,181,36,04,67,293,34,31,47,059,34,26,40,092,31,1*6C
$GPGSV,3,2,12,09,33,281,30,46,33,188,30,16,27,132,29,06,25,306,30,1*69
$GPGSV,3,3,12,28,15,052,29,07,06,226,25,11,02,341,,02,01,202,,1*62
$GLGSV,2,1,07,72,63,079,26,74,60,077,,65,46,313,,75,39,169,,1*75
$GLGSV,2,2,07,73,25,034,16,81,20,325,,88,19,271,,1*4F
$GAGSV,3,1,09,03,73,298,32,05,48,083,29,24,35,078,27,15,34,248,25,7*74
$GAGSV,3,2,09,25,27,139,25,13,27,310,26,08,22,276,22,31,11,030,22,7*7E
$GAGSV,3,3,09,34,09,201,21,7*44
$GBGSV,3,1,11,19,87,323,34,46,60,137,,20,40,118,33,37,35,054,30,1*79
$GBGSV,3,2,11,22,31,300,29,36,23,193,28,12,10,316,18,44,07,292,15,1*7D
$GBGSV,3,3,11,31,05,328,,34,04,341,18,04,01,261,,1*44
$GNRMC,203350.000,A,4910.430286,N,12304.400214,W,0.02,348.30,151024,,,D,V*17
$GNVTG,348.30,T,,M,0.02,N,0.04,K,D*2C
$GNGGA,203351.000,4910.430310,N,12304.400178,W,2,25,0.52,5.901,M,-16.816,M,,*4A
$GNGLL,4910.430310,N,12304.400178,W,203351.000,A,D*51
$GNGSA,A,3,03,04,31,26,09,16,06,28,07,,,,0.94,0.52,0.79,1*01
$GNGSA,A,3,72,73,,,,,,,,,,,0.94,0.52,0.79,2*07
$GNGSA,A,3,03,05,24,15,13,25,31,34,,,,,0.94,0.52,0.79,3*03
$GNGSA,A,3,19,20,37,22,36,44,,,,,,,0.94,0.52,0.79,4*0B
$GPGSV,3,1,12,03,68,181,36,04,67,293,34,31,47,059,34,26,40,092,31,1*6C
$GPGSV,3,2,12,46,33,188,29,09,33,281,30,16,27,132,29,06,25,306,30,1*61
$GPGSV,3,3,12,28,15,052,29,07,06,226,24,11,02,341,,02,01,202,,1*63
$GLGSV,2,1,06,72,63,079,26,65,46,313,,75,39,169,,73,25,034,16,1*72
$GLGSV,2,2,06,81,20,325,,88,19,271,,1*7D
$GAGSV,3,1,09,03,73,298,32,05,48,083,29,24,35,078,27,15,34,248,24,7*75
$GAGSV,3,2,09,13,27,310,26,25,27,139,25,08,22,276,22,31,11,030,22,7*7E
$GAGSV,3,3,09,34,09,201,21,7*44
$GBGSV,3,1,11,19,87,323,34,46,60,137,,20,40,118,33,37,35,054,30,1*79
$GBGSV,3,2,11,22,31,300,29,36,23,193,28,12,10,316,18,44,07,292,16,1*7E
$GBGSV,3,3,11,31,05,328,,34,04,341,18,04,01,261,,1*44
$GNRMC,203351.000,A,4910.430310,N,12304.400178,W,0.02,348.30,151024,,,D,V*11
$GNVTG,348.30,T,,M,0.02,N,0.04,K,D*2C
$GNGGA,203352.000,4910.430310,N,12304.400190,W,2,25,0.52,6.167,M,-16.816,M,,*44
$GNGLL,4910.430310,N,12304.400190,W,203352.000,A,D*54
$GNGSA,A,3,03,04,31,26,09,16,06,28,07,,,,0.94,0.52,0.79,1*01
$GNGSA,A,3,72,73,,,,,,,,,,,0.94,0.52,0.79,2*07
$GNGSA,A,3,03,05,24,15,25,13,31,34,,,,,0.94,0.52,0.79,3*03
$GNGSA,A,3,19,20,37,22,36,44,,,,,,,0.94,0.52,0.79,4*0B
$GPGSV,3,1,12,03,68,181,36,04,67,293,34,31,47,059,34,26,40,092,31,1*6C
$GPGSV,3,2,12,09,33,281,30,46,33,188,29,16,27,132,29,06,25,306,30,1*61
$GPGSV,3,3,12,28,15,052,29,07,06,226,25,11,02,341,,02,01,202,,1*62
$GLGSV,2,1,07,72,63,079,26,74,60,077,,65,46,313,,75,39,169,,1*75
$GLGSV,2,2,07,73,25,034,16,81,20,325,,88,19,271,,1*4F
$GAGSV,3,1,09,03,73,298,32,05,48,083,29,24,35,078,27,15,34,248,24,7*75
$GAGSV,3,2,09,25,27,139,25,13,27,310,26,08,22,276,22,31,11,030,22,7*7E
$GAGSV,3,3,09,34,09,201,21,7*44
$GBGSV,3,1,11,19,87,323,34,46,60,137,,20,40,118,33,37,35,054,30,1*79
$GBGSV,3,2,11,22,31,300,29,36,23,193,28,12,10,316,18,44,07,292,14,1*7C
$GBGSV,3,3,11,31,05,328,,34,04,341,18,04,01,261,,1*44
$GNRMC,203352.000,A,4910.430310,N,12304.400190,W,0.01,348.30,151024,,,D,V*17
$GNVTG,348.30,T,,M,0.01,N,0.03,K,D*28
$GNGGA,203353.000,4910.430238,N,12304.400130,W,2,25,0.52,6.474,M,-16.817,M,,*42
$GNGLL,4910.430238,N,12304.400130,W,203353.000,A,D*54
$GNGSA,A,3,03,04,31,26,09,16,06,28,07,,,,0.94,0.52,0.79,1*01
$GNGSA,A,3,72,73,,,,,,,,,,,0.94,0.52,0.79,2*07
$GNGSA,A,3,03,05,24,15,25,13,31,34,,,,,0.94,0.52,0.79,3*03
$GNGSA,A,3,19,20,37,22,36,44,,,,,,,0.94,0.52,0.79,4*0B
$GPGSV,3,1,12,03,68,181,36,04,67,293,34,31,47,059,34,26,40,092,31,1*6C
$GPGSV,3,2,12,46,33,188,29,09,33,281,30,16,27,132,29,06,25,306,30,1*61
$GPGSV,3,3,12,28,15,052,29,07,06,226,25,11,02,341,,02,01,202,,1*62
$GLGSV,1,1,04,72,63,079,26,74,60,077,,75,39,169,,73,25,034,16,1*76
$GAGSV,3,1,09,03,73,298,32,05,48,083,29,24,35,078,27,15,34,248,24,7*75
$GAGSV,3,2,09,25,27,139,25,13,27,310,26,08,22,276,22,31,11,030,21,7*7D
$GAGSV,3,3,09,34,09,201,20,7*45
$GBGSV,3,1,11,19,87,323,35,46,60,137,,20,40,118,33,37,35,054,31,1*79
$GBGSV,3,2,11,22,31,300,29,36,23,193,29,12,10,316,18,44,07,292,17,1*7E
$GBGSV,3,3,11,31,05,328,,34,04,341,19,04,01,261,,1*45
$GNRMC,203353.000,A,4910.430238,N,12304.400130,W,0.01,348.30,151024,,,D,V*17
$GNVTG,348.30,T,,M,0.01,N,0.02,K,D*29
$GNGGA,203354.000,4910.430232,N,12304.400070,W,2,25,0.52,6.694,M,-16.816,M,,*47
$GNGLL,4910.430232,N,12304.400070,W,203354.000,A,D*5C
$GNGSA,A,3,03,04,31,26,09,16,06,28,07,,,,0.94,0.52,0.79,1*01
$GNGSA,A,3,72,73,,,,,,,,,,,0.94,0.52,0.79,2*07
$GNGSA,A,3,03,05,24,15,13,25,31,34,,,,,0.94,0.52,0.79,3*03
$GNGSA,A,3,19,20,37,22,36,44,,,,,,,0.94,0.52,0.79,4*0B
$GPGSV,3,1,12,03,68,181,36,04,67,293,34,31,47,059,34,26,40,092,31,1*6C
$GPGSV,3,2,12,09,33,281,30,46,33,188,29,16,27,132,29,06,25,306,30,1*61
$GPGSV,3,3,12,28,15,052,29,07,06,226,24,11,02,341,,02,01,202,,1*63
$GLGSV,1,1,04,72,63,079,26,73,25,034,16,81,20,325,,88,18,270,,1*76
$GAGSV,3,1,09,03,73,298,32,05,48,083,29,24,35,078,27,15,34,248,24,7*75
$GAGSV,3,2,09,13,27,310,25,25,27,139,25,08,22,276,22,31,11,030,21,7*7E
$GAGSV,3,3,09,34,09,201,20,7*45
$GBGSV,3,1,10,19,87,323,35,46,60,137,,20,40,118,34,37,35,054,31,1*7F
$GBGSV,3,2,10,22,31,300,29,36,23,193,29,12,10,316,18,44,07,292,16,1*7E
$GBGSV,3,3,10,34,04,341,19,04,01,261,,1*7A
$GNRMC,203354.000,A,4910.430232,N,12304.400070,W,0.01,348.30,151024,,,D,V*1F
$GNVTG,348.30,T,,M,0.01,N,0.01,K,D*2A
$GNGGA,203355.000,4910.430208,N,12304.400070,W,2,25,0.52,6.881,M,-16.817,M,,*44
$GNGLL,4910.430208,N,12304.400070,W,203355.000,A,D*54
$GNGSA,A,3,03,04,31,26,09,16,06,28,07,,,,0.94,0.52,0.79,1*01
$GNGSA,A,3,72,73,,,,,,,,,,,0.94,0.52,0.79,2*07
$GNGSA,A,3,03,05,24,15,13,25,31,34,,,,,0.94,0.52,0.79,3*03
$GNGSA,A,3,19,20,37,22,36,44,,,,,,,0.94,0.52,0.79,4*0B
$GPGSV,3,1,12,03,68,181,36,04,67,293,34,31,47,059,34,26,40,092,31,1*6C
$GPGSV,3,2,12,46,33,188,29,09,33,281,29,16,27,132,29,06,25,306,30,1*69
$GPGSV,3,3,12,28,15,052,29,07,06,226,24,11,02,341,,02,01,202,,1*63
$GLGSV,2,1,06,72,63,079,26,65,46,313,,75,39,169,,73,25,034,16,1*72
$GLGSV,2,2,06,81,20,325,,88,18,270,,1*7D
$GAGSV,3,1,09,03,73,298,32,05,48,083,29,24,35,078,27,15,34,248,24,7*75
$GAGSV,3,2,09,13,27,310,25,25,27,139,25,08,22,276,21,31,11,030,21,7*7D
$GAGSV,3,3,09,34,09,201,20,7*45
$GBGSV,3,1,11,19,87,323,36,46,60,137,,20,40,118,34,37,35,054,32,1*7E
$GBGSV,3,2,11,22,31,300,30,36,23,193,29,12,10,316,19,44,07,292,16,1*76
$GBGSV,3,3,11,31,05,328,,34,04,341,20,04,01,261,,1*4F
$GNRMC,203355.000,A,4910.430208,N,12304.400070,W,0.01,348.30,151024,,,D,V*17
$GNVTG,348.30,T,,M,0.01,N,0.02,K,D*29
$GNGGA,203356.000,4910.430196,N,12304.399956,W,2,25,0.52,7.085,M,-16.816,M,,*45
