$GNGGA,175324.000,4910.425690,N,12304.400586,W,2,27,0.52,6.656,M,-16.817,M,,*4B
$GNGLL,4910.425690,N,12304.400586,W,175324.000,A,D*5D
$GNGSA,A,3,04,09,03,16,26,07,31,06,11,,,,0.90,0.52,0.74,1*02
$GNGSA,A,3,68,67,85,79,,,,,,,,,0.90,0.52,0.74,2*03
$GNGSA,A,3,06,09,04,31,36,34,21,11,,,,,0.90,0.52,0.74,3*06
$GNGSA,A,3,32,23,25,41,20,37,,,,,,,0.90,0.52,0.74,4*0D
$GPGSV,3,1,11,04,83,008,39,09,56,294,38,03,43,173,36,16,43,110,37,1*65
$GPGSV,3,2,11,26,38,065,35,48,33,182,33,07,27,235,34,31,25,058,36,1*64
$GPGSV,3,3,11,06,23,285,31,11,13,323,29,29,03,021,27,1*5B
$GLGSV,2,1,07,68,72,345,33,78,60,168,19,67,47,111,29,84,17,298,,1*7A
$GLGSV,2,2,07,85,12,350,26,79,12,196,21,76,04,028,15,1*48
$GAGSV,3,1,09,06,82,052,35,09,68,299,36,04,56,091,32,31,31,152,30,7*7E
$GAGSV,3,2,09,36,26,258,26,34,21,313,27,21,15,035,27,05,15,284,22,7*7A
$GAGSV,3,3,09,11,06,213,16,7*4B
$GBGSV,3,1,09,32,85,222,40,23,69,135,40,25,34,054,36,41,32,132,34,1*7D
$GBGSV,3,2,09,20,30,305,34,37,30,202,34,35,02,343,,38,01,332,20,1*74
$GBGSV,3,3,09,04,01,262,,1*4C
$GNRMC,175324.000,A,4910.425690,N,12304.400586,W,0.01,0.00,051224,,,D,V*11
$GNVTG,0.00,T,,M,0.01,N,0.03,K,D*24
$GNGGA,175325.000,4910.425786,N,12304.400694,W,2,27,0.52,6.569,M,-16.816,M,,*42
$GNGLL,4910.425786,N,12304.400694,W,175325.000,A,D*5A
$GNGSA,A,3,04,09,03,16,26,07,31,06,11,,,,0.90,0.52,0.74,1*02
$GNGSA,A,3,68,67,85,79,,,,,,,,,0.90,0.52,0.74,2*03
$GNGSA,A,3,06,09,04,31,36,34,21,11,,,,,0.90,0.52,0.74,3*06
$GNGSA,A,3,32,23,25,41,20,37,,,,,,,0.90,0.52,0.74,4*0D
$GPGSV,3,1,11,04,83,008,39,09,56,294,38,03,43,173,36,16,43,110,37,1*65
$GPGSV,3,2,11,26,38,065,35,48,33,182,33,07,27,235,34,31,25,058,36,1*64
$GPGSV,3,3,11,06,23,285,31,11,13,323,29,29,03,021,27,1*5B
$GLGSV,2,1,07,68,72,345,33,78,60,168,19,67,47,111,30,84,17,298,,1*72
$GLGSV,2,2,07,85,12,350,25,79,12,196,22,76,04,028,15,1*48
$GAGSV,3,1,09,06,82,052,35,09,68,299,36,04,56,091,32,31,31,152,30,7*7E
$GAGSV,3,2,09,36,26,258,26,34,21,313,27,21,15,035,27,05,15,284,23,7*7B
$GAGSV,3,3,09,11,06,213,17,7*4A
$GBGSV,3,1,09,32,85,222,40,23,69,135,40,25,34,054,35,41,32,132,34,1*7E
$GBGSV,3,2,09,20,30,305,34,37,30,202,34,35,02,343,,38,01,332,21,1*75
$GBGSV,3,3,09,04,01,262,,1*4C
$GNRMC,175325.000,A,4910.425786,N,12304.400694,W,0.02,0.00,051224,,,D,V*15
$GNVTG,0.00,T,,M,0.02,N,0.03,K,D*27
$GNGGA,175326.000,4910.425816,N,12304.400766,W,2,27,0.52,6.497,M,-16.816,M,,*4B
$GNGLL,4910.425816,N,12304.400766,W,175326.000,A,D*53
$GNGSA,A,3,04,09,03,16,26,07,31,06,11,,,,0.90,0.52,0.74,1*02
$GNGSA,A,3,68,67,85,79,,,,,,,,,0.90,0.52,0.74,2*03
$GNGSA,A,3,06,09,04,31,36,34,21,11,,,,,0.90,0.52,0.74,3*06
$GNGSA,A,3,32,23,25,41,20,37,,,,,,,0.90,0.52,0.74,4*0D
$GPGSV,3,1,11,04,83,008,39,09,56,294,38,03,43,173,36,16,43,110,37,1*65
$GPGSV,3,2,11,26,38,065,35,48,33,182,33,07,27,235,34,31,25,058,36,1*64
$GPGSV,3,3,11,06,23,285,31,11,13,323,29,29,03,021,26,1*5A
$GLGSV,2,1,07,68,72,345,33,78,60,168,19,67,47,111,30,84,17,298,,1*72
$GLGSV,2,2,07,85,12,350,25,79,12,196,22,76,04,028,15,1*48
$GAGSV,3,1,09,06,82,052,35,09,68,299,36,04,56,091,32,31,32,152,30,7*7D
$GAGSV,3,2,09,36,26,258,26,34,21,313,27,21,15,035,26,05,15,284,23,7*7A
$GAGSV,3,3,09,11,06,213,17,7*4A
$GBGSV,3,1,09,32,85,222,40,23,69,135,40,25,34,054,35,41,32,132,34,1*7E
$GBGSV,3,2,09,20,30,305,34,37,30,202,34,35,02,343,,38,01,332,21,1*75
$GBGSV,3,3,09,04,01,262,,1*4C
$GNRMC,175326.000,A,4910.425816,N,12304.400766,W,0.02,0.00,051224,,,D,V*1C
$GNVTG,0.00,T,,M,0.02,N,0.03,K,D*27
$GNGGA,175327.000,4910.425840,N,12304.400826,W,2,27,0.52,6.421,M,-16.816,M,,*4F
$GNGLL,4910.425840,N,12304.400826,W,175327.000,A,D*5A
$GNGSA,A,3,04,09,03,16,26,07,31,06,11,,,,0.90,0.52,0.74,1*02
$GNGSA,A,3,68,67,85,79,,,,,,,,,0.90,0.52,0.74,2*03
$GNGSA,A,3,06,09,04,31,36,34,21,11,,,,,0.90,0.52,0.74,3*06
$GNGSA,A,3,32,23,25,41,20,37,,,,,,,0.90,0.52,0.74,4*0D
$GPGSV,3,1,11,04,83,008,39,09,56,294,38,03,43,173,36,16,43,110,37,1*65
$GPGSV,3,2,11,26,38,065,35,48,33,182,33,07,27,235,34,31,25,058,36,1*64
$GPGSV,3,3,11,06,23,285,31,11,13,323,29,29,03,021,27,1*5B
$GLGSV,2,1,07,68,72,345,33,78,60,168,19,67,47,111,30,84,17,298,,1*72
$GLGSV,2,2,07,85,12,350,24,79,12,196,22,76,04,028,15,1*49
$GAGSV,3,1,09,06,82,052,35,09,68,299,36,04,56,091,32,31,32,152,30,7*7D
$GAGSV,3,2,09,36,26,258,26,34,21,313,27,21,15,035,26,05,15,284,23,7*7A
$GAGSV,3,3,09,11,06,213,17,7*4A
$GBGSV,3,1,09,32,85,222,40,23,69,135,40,25,34,054,35,41,32,132,34,1*7E
$GBGSV,3,2,09,20,30,305,34,37,30,202,34,35,02,343,,38,01,332,21,1*75
$GBGSV,3,3,09,04,01,262,,1*4C
$GNRMC,175327.000,A,4910.425840,N,12304.400826,W,0.02,0.00,051224,,,D,V*15
$GNVTG,0.00,T,,M,0.02,N,0.03,K,D*27
$GNGGA,175328.000,4910.425846,N,12304.400892,W,2,27,0.52,6.306,M,-16.817,M,,*4A
$GNGLL,4910.425846,N,12304.400892,W,175328.000,A,D*5C
$GNGSA,A,3,04,09,03,16,26,07,31,06,11,,,,0.90,0.52,0.74,1*02
$GNGSA,A,3,68,67,85,79,,,,,,,,,0.90,0.52,0.74,2*03
$GNGSA,A,3,06,09,04,31,36,34,21,11,,,,,0.90,0.52,0.74,3*06
$GNGSA,A,3,32,23,25,41,20,37,,,,,,,0.90,0.52,0.74,4*0D
$GPGSV,3,1,11,04,83,008,39,09,56,294,38,03,43,173,36,16,43,110,37,1*65
$GPGSV,3,2,11,26,38,065,35,48,33,182,33,07,27,235,34,31,25,058,36,1*64
$GPGSV,3,3,11,06,23,285,31,11,13,323,29,29,03,021,27,1*5B
$GLGSV,2,1,07,68,72,345,33,78,60,168,19,67,47,111,30,84,17,298,,1*72
$GLGSV,2,2,07,85,12,350,25,79,12,196,22,76,04,028,16,1*4B
$GAGSV,3,1,09,06,82,052,35,09,68,299,36,04,56,091,32,31,32,152,30,7*7D
$GAGSV,3,2,09,36,26,258,26,34,21,313,26,21,15,035,26,05,15,284,23,7*7B
$GAGSV,3,3,09,11,06,213,17,7*4A
$GBGSV,3,1,09,32,85,222,40,23,69,135,40,25,34,054,35,41,32,132,34,1*7E
$GBGSV,3,2,09,20,30,305,33,37,30,202,34,35,02,343,,38,01,332,21,1*72
$GBGSV,3,3,09,04,01,262,,1*4C
$GNRMC,175328.000,A,4910.425846,N,12304.400892,W,0.02,0.00,051224,,,D,V*13
$GNVTG,0.00,T,,M,0.02,N,0.03,K,D*27
$GNGGA,175329.000,4910.425924,N,12304.400904,W,2,27,0.52,6.225,M,-16.816,M,,*41
$GNGLL,4910.425924,N,12304.400904,W,175329.000,A,D*56
$GNGSA,A,3,04,09,03,16,26,07,31,06,11,,,,0.90,0.52,0.74,1*02
$GNGSA,A,3,68,67,85,79,,,,,,,,,0.90,0.52,0.74,2*03
$GNGSA,A,3,06,09,04,31,36,34,21,11,,,,,0.90,0.52,0.74,3*06
$GNGSA,A,3,32,23,25,41,20,37,,,,,,,0.90,0.52,0.74,4*0D
$GPGSV,3,1,11,04,83,008,39,09,56,294,38,03,43,173,36,16,43,110,37,1*65
$GPGSV,3,2,11,26,38,065,35,48,33,182,33,07,27,235,34,31,25,058,36,1*64
$GPGSV,3,3,11,06,23,285,31,11,13,323,29,29,03,021,26,1*5A
$GLGSV,2,1,07,68,72,345,33,78,60,168,19,67,47,111,30,84,17,298,,1*72
$GLGSV,2,2,07,85,12,350,24,79,12,196,22,76,04,028,16,1*4A
$GAGSV,3,1,09,06,82,052,35,09,68,299,36,04,56,091,32,31,32,152,29,7*75
$GAGSV,3,2,09,36,26,258,26,34,21,312,26,21,15,035,26,05,15,284,22,7*7B
$GAGSV,3,3,09,11,06,213,17,7*4A
$GBGSV,3,1,09,32,85,222,40,23,69,135,40,25,34,054,35,41,32,132,34,1*7E
$GBGSV,3,2,09,20,30,305,33,37,30,202,34,35,02,343,,38,01,332,21,1*72
$GBGSV,3,3,09,04,01,262,,1*4C
$GNRMC,175329.000,A,4910.425924,N,12304.400904,W,0.02,0.00,051224,,,D,V*19
$GNVTG,0.00,T,,M,0.02,N,0.03,K,D*27
$GNGGA,175330.000,4910.425972,N,12304.400982,W,2,27,0.52,6.130,M,-16.816,M,,*43
$GNGLL,4910.425972,N,12304.400982,W,175330.000,A,D*53
$GNGSA,A,3,04,09,03,16,26,07,31,06,11,,,,0.90,0.52,0.74,1*02
$GNGSA,A,3,68,67,85,79,,,,,,,,,0.90,0.52,0.74,2*03
$GNGSA,A,3,06,09,04,31,36,34,21,11,,,,,0.90,0.52,0.74,3*06
$GNGSA,A,3,32,23,25,41,20,37,,,,,,,0.90,0.52,0.74,4*0D
$GPGSV,3,1,11,04,83,008,39,09,56,294,38,03,43,173,36,16,43,110,37,1*65
$GPGSV,3,2,11,26,38,065,35,48,33,182,33,07,27,235,34,31,25,058,36,1*64
$GPGSV,3,3,11,06,23,285,31,11,13,323,30,29,03,021,26,1*52
$GLGSV,2,1,07,68,72,345,33,78,60,168,19,67,47,111,30,84,17,298,,1*72
$GLGSV,2,2,07,85,12,350,25,79,12,196,22,76,04,028,16,1*4B
$GAGSV,3,1,09,06,82,052,35,09,68,299,36,04,56,091,32,31,32,152,29,7*75
$GAGSV,3,2,09,36,26,258,26,34,21,312,26,21,15,035,26,05,15,284,22,7*7B
$GAGSV,3,3,09,11,06,213,17,7*4A
$GBGSV,3,1,09,32,85,222,39,23,69,135,40,25,34,054,35,41,32,132,34,1*70
$GBGSV,3,2,09,20,30,305,33,37,30,202,34,35,02,343,,38,01,332,21,1*72
$GBGSV,3,3,09,04,01,262,,1*4C
$GNRMC,175330.000,A,4910.425972,N,12304.400982,W,0.02,0.00,051224,,,D,V*1C
$GNVTG,0.00,T,,M,0.02,N,0.03,K,D*27
$GNGGA,175331.000,4910.426062,N,12304.401060,W,2,27,0.52,6.026,M,-16.816,M,,*4B
$GNGLL,4910.426062,N,12304.401060,W,175331.000,A,D*5D
$GNGSA,A,3,04,09,03,16,26,07,31,06,11,,,,0.90,0.52,0.74,1*02
$GNGSA,A,3,68,67,85,79,,,,,,,,,0.90,0.52,0.74,2*03
$GNGSA,A,3,06,09,04,31,36,34,21,11,,,,,0.90,0.52,0.74,3*06
$GNGSA,A,3,32,23,25,41,20,37,,,,,,,0.90,0.52,0.74,4*0D
$GPGSV,3,1,11,04,83,008,39,09,56,294,38,03,43,173,36,16,43,110,37,1*65
$GPGSV,3,2,11,26,38,065,35,48,33,182,33,07,27,235,34,31,25,058,36,1*64
$GPGSV,3,3,11,06,23,285,31,11,13,323,30,29,03,021,26,1*52
$GLGSV,2,1,07,68,72,345,33,78,60,168,19,67,47,111,30,84,17,298,,1*72
$GLGSV,2,2,07,85,12,350,25,79,12,196,22,76,04,028,16,1*4B
$GAGSV,3,1,09,06,82,052,35,09,68,299,36,04,56,091,32,31,32,152,29,7*75
$GAGSV,3,2,09,36,25,257,26,34,21,312,26,21,15,035,26,05,15,284,22,7*77
$GAGSV,3,3,09,11,06,213,16,7*4B
$GBGSV,3,1,09,32,85,222,39,23,69,135,40,25,34,054,35,41,32,132,34,1*70
$GBGSV,3,2,09,20,30,305,33,37,30,202,34,35,02,343,,38,01,332,21,1*72
$GBGSV,3,3,09,04,01,262,,1*4C
$GNRMC,175331.000,A,4910.426062,N,12304.401060,W,0.02,0.00,051224,,,D,V*12
$GNVTG,0.00,T,,M,0.02,N,0.04,K,D*20
$GNGGA,175332.000,4910.426194,N,12304.401150,W,2,27,0.52,5.859,M,-16.816,M,,*41
$GNGLL,4910.426194,N,12304.401150,W,175332.000,A,D*54
$GNGSA,A,3,04,09,03,16,26,07,31,06,11,,,,0.90,0.52,0.74,1*02
$GNGSA,A,3,68,67,85,79,,,,,,,,,0.90,0.52,0.74,2*03
$GNGSA,A,3,06,09,04,31,36,34,21,11,,,,,0.90,0.52,0.74,3*06
$GNGSA,A,3,32,23,25,41,20,37,,,,,,,0.90,0.52,0.74,4*0D
$GPGSV,3,1,11,04,83,008,39,09,56,294,38,03,43,173,36,16,43,110,37,1*65
$GPGSV,3,2,11,26,38,065,35,48,33,182,33,07,27,235,34,31,25,058,36,1*64
$GPGSV,3,3,11,06,23,285,31,11,13,323,30,29,03,021,26,1*52
$GLGSV,2,1,07,68,72,345,33,78,60,168,19,67,47,111,30,84,17,298,,1*72
$GLGSV,2,2,07,85,12,350,25,79,12,196,23,76,04,028,16,1*4A
$GAGSV,3,1,09,06,82,052,35,09,68,299,36,04,56,091,32,31,32,152,29,7*75
$GAGSV,3,2,09,36,25,257,26,34,21,312,26,21,15,035,26,05,15,284,22,7*77
$GAGSV,3,3,09,11,06,213,16,7*4B
$GBGSV,3,1,09,32,85,222,39,23,69,135,40,25,34,054,35,41,32,132,34,1*70
$GBGSV,3,2,09,20,30,305,33,37,30,202,34,35,02,343,,38,01,332,21,1*72
$GBGSV,3,3,09,04,01,262,,1*4C
$GNRMC,175332.000,A,4910.426194,N,12304.401150,W,0.03,0.00,051224,,,D,V*1A
$GNVTG,0.00,T,,M,0.03,N,0.06,K,D*23
$GNGGA,175333.000,4910.426326,N,12304.401318,W,2,27,0.52,5.738,M,-16.817,M,,*4C
$GNGLL,4910.426326,N,12304.401318,W,175333.000,A,D*50
