2024-12-05 10:05:37,900 [INFO] Console logging setup complete. Logs are being saved to logs/NMEA_20241205_100537898465\console_output_20241205_100537898465.txt
2024-12-05 10:05:38,002 [INFO] Connected to serial port COM9 with baudrate 115200.
2024-12-05 10:05:38,138 [INFO] Standard NMEA Message: $GNGGA,180539.000,4910.426692,N,12304.399830,W,2,28,0.52,10.311,M,-16.816,M,,*72
2024-12-05 10:05:38,143 [INFO] GGA - Fix Data:
  Timestamp: 18:05:39+00:00
  Latitude: 49.1737782 N
  Longitude: -123.0733305 W
  GPS Quality Indicator: 2
  Number of Satellites in Use: 28
  Horizontal Dilution of Precision (HDOP): 0.52
  Antenna Altitude (Above Mean Sea Level): 10.311 M
  Geoidal Separation: -16.816 M
  Age of Differential GPS Data: 
  Differential Reference Station ID: 

2024-12-05 10:05:38,153 [INFO] Standard NMEA Message: $GNGLL,4910.426692,N,12304.399830,W,180539.000,A,D*5B
2024-12-05 10:05:38,163 [INFO] GLL - Geographic Position:
  Latitude: 49.1737782 N
  Longitude: -123.0733305 W
  Timestamp: 18:05:39+00:00
  Status: A
  FAA Mode: D

2024-12-05 10:05:38,168 [INFO] Standard NMEA Message: $GNGSA,A,3,04,09,16,03,26,07,06,31,11,,,,0.93,0.52,0.77,1*02
2024-12-05 10:05:38,179 [INFO] GSA - Satellite Info:
  Mode: A
  Mode Fix Type: 3
  Satellites Used: 04, 09, 16, 03, 26, 07, 06, 31, 11
  PDOP: 0.93
  HDOP: 0.52
  VDOP: 0.77

2024-12-05 10:05:38,186 [INFO] Standard NMEA Message: $GNGSA,A,3,68,78,67,79,85,,,,,,,,0.93,0.52,0.77,2*0C
2024-12-05 10:05:38,194 [INFO] GSA - Satellite Info:
  Mode: A
  Mode Fix Type: 3
  Satellites Used: 68, 78, 67, 79, 85
  PDOP: 0.93
  HDOP: 0.52
  VDOP: 0.77

2024-12-05 10:05:38,203 [INFO] Standard NMEA Message: $GNGSA,A,3,06,09,04,31,36,34,05,21,,,,,0.93,0.52,0.77,3*03
2024-12-05 10:05:38,213 [INFO] GSA - Satellite Info:
  Mode: A
  Mode Fix Type: 3
  Satellites Used: 06, 09, 04, 31, 36, 34, 05, 21
  PDOP: 0.93
  HDOP: 0.52
  VDOP: 0.77

2024-12-05 10:05:38,226 [INFO] Standard NMEA Message: $GNGSA,A,3,32,23,20,37,25,41,,,,,,,0.93,0.52,0.77,4*0D
2024-12-05 10:05:38,238 [INFO] GSA - Satellite Info:
  Mode: A
  Mode Fix Type: 3
  Satellites Used: 32, 23, 20, 37, 25, 41
  PDOP: 0.93
  HDOP: 0.52
  VDOP: 0.77

2024-12-05 10:05:38,249 [INFO] Standard NMEA Message: $GPGSV,3,1,12,04,82,051,39,09,61,297,39,16,46,103,37,03,38,173,35,1*65
2024-12-05 10:05:38,259 [INFO] GSV - Satellites in View:
  Number of Messages: 3
  Message Number: 1
  Total Satellites in View: 12
  Satellite 1 PRN: 04 - Elevation: 82° - Azimuth: 051° - SNR: 39 dB
  Satellite 2 PRN: 09 - Elevation: 61° - Azimuth: 297° - SNR: 39 dB
  Satellite 3 PRN: 16 - Elevation: 46° - Azimuth: 103° - SNR: 37 dB
  Satellite 4 PRN: 03 - Elevation: 38° - Azimuth: 173° - SNR: 35 dB

2024-12-05 10:05:38,273 [INFO] Standard NMEA Message: $GPGSV,3,2,12,26,35,060,34,48,33,182,34,07,32,237,34,06,21,280,28,1*67
2024-12-05 10:05:38,284 [INFO] GSV - Satellites in View:
  Number of Messages: 3
  Message Number: 2
  Total Satellites in View: 12
  Satellite 1 PRN: 26 - Elevation: 35° - Azimuth: 060° - SNR: 34 dB
  Satellite 2 PRN: 48 - Elevation: 33° - Azimuth: 182° - SNR: 34 dB
  Satellite 3 PRN: 07 - Elevation: 32° - Azimuth: 237° - SNR: 34 dB
  Satellite 4 PRN: 06 - Elevation: 21° - Azimuth: 280° - SNR: 28 dB

2024-12-05 10:05:38,301 [INFO] Standard NMEA Message: $GPGSV,3,3,12,31,20,059,30,11,14,319,30,29,03,017,22,20,01,328,23,1*60
2024-12-05 10:05:38,310 [INFO] GSV - Satellites in View:
  Number of Messages: 3
  Message Number: 3
  Total Satellites in View: 12
  Satellite 1 PRN: 31 - Elevation: 20° - Azimuth: 059° - SNR: 30 dB
  Satellite 2 PRN: 11 - Elevation: 14° - Azimuth: 319° - SNR: 30 dB
  Satellite 3 PRN: 29 - Elevation: 03° - Azimuth: 017° - SNR: 22 dB
  Satellite 4 PRN: 20 - Elevation: 01° - Azimuth: 328° - SNR: 23 dB

2024-12-05 10:05:38,324 [INFO] Standard NMEA Message: $GLGSV,2,1,06,68,78,006,30,78,68,162,19,67,41,118,28,79,19,198,27,1*70
2024-12-05 10:05:38,334 [INFO] GSV - Satellites in View:
  Number of Messages: 2
  Message Number: 1
  Total Satellites in View: 06
  Satellite 1 PRN: 68 - Elevation: 78° - Azimuth: 006° - SNR: 30 dB
  Satellite 2 PRN: 78 - Elevation: 68° - Azimuth: 162° - SNR: 19 dB
  Satellite 3 PRN: 67 - Elevation: 41° - Azimuth: 118° - SNR: 28 dB
  Satellite 4 PRN: 79 - Elevation: 19° - Azimuth: 198° - SNR: 27 dB

2024-12-05 10:05:38,347 [INFO] Standard NMEA Message: $GLGSV,2,2,06,84,14,292,,85,13,344,24,1*74
2024-12-05 10:05:38,361 [INFO] GSV - Satellites in View:
  Number of Messages: 2
  Message Number: 2
  Total Satellites in View: 06
  Satellite 1 PRN: 84 - Elevation: 14° - Azimuth: 292° - SNR:  dB
  Satellite 2 PRN: 85 - Elevation: 13° - Azimuth: 344° - SNR: 24 dB
  Satellite 3 PRN: 1 - Elevation: ° - Azimuth: ° - SNR:  dB
  Satellite 4 PRN:  - Elevation: ° - Azimuth: ° - SNR:  dB

2024-12-05 10:05:38,365 [INFO] Standard NMEA Message: $GAGSV,3,1,10,06,79,072,35,09,72,304,35,04,53,095,32,31,37,150,29,7*70
2024-12-05 10:05:38,377 [INFO] GSV - Satellites in View:
  Number of Messages: 3
  Message Number: 1
  Total Satellites in View: 10
  Satellite 1 PRN: 06 - Elevation: 79° - Azimuth: 072° - SNR: 35 dB
  Satellite 2 PRN: 09 - Elevation: 72° - Azimuth: 304° - SNR: 35 dB
  Satellite 3 PRN: 04 - Elevation: 53° - Azimuth: 095° - SNR: 32 dB
  Satellite 4 PRN: 31 - Elevation: 37° - Azimuth: 150° - SNR: 29 dB

2024-12-05 10:05:38,384 [INFO] Standard NMEA Message: $GAGSV,3,2,10,36,22,254,26,34,21,308,26,05,18,286,27,21,12,033,23,7*7E
2024-12-05 10:05:38,390 [INFO] GSV - Satellites in View:
  Number of Messages: 3
  Message Number: 2
  Total Satellites in View: 10
  Satellite 1 PRN: 36 - Elevation: 22° - Azimuth: 254° - SNR: 26 dB
  Satellite 2 PRN: 34 - Elevation: 21° - Azimuth: 308° - SNR: 26 dB
  Satellite 3 PRN: 05 - Elevation: 18° - Azimuth: 286° - SNR: 27 dB
  Satellite 4 PRN: 21 - Elevation: 12° - Azimuth: 033° - SNR: 23 dB

2024-12-05 10:05:38,404 [INFO] Standard NMEA Message: $GAGSV,3,3,10,11,02,211,10,24,01,186,12,7*78
2024-12-05 10:05:38,416 [INFO] GSV - Satellites in View:
  Number of Messages: 3
  Message Number: 3
  Total Satellites in View: 10
  Satellite 1 PRN: 11 - Elevation: 02° - Azimuth: 211° - SNR: 10 dB
  Satellite 2 PRN: 24 - Elevation: 01° - Azimuth: 186° - SNR: 12 dB
  Satellite 3 PRN: 7 - Elevation: ° - Azimuth: ° - SNR:  dB
  Satellite 4 PRN:  - Elevation: ° - Azimuth: ° - SNR:  dB

2024-12-05 10:05:38,424 [INFO] Standard NMEA Message: $GBGSV,3,1,09,32,81,179,41,23,71,118,40,20,36,306,37,37,35,204,36,1*73
2024-12-05 10:05:38,430 [INFO] GSV - Satellites in View:
  Number of Messages: 3
  Message Number: 1
  Total Satellites in View: 09
  Satellite 1 PRN: 32 - Elevation: 81° - Azimuth: 179° - SNR: 41 dB
  Satellite 2 PRN: 23 - Elevation: 71° - Azimuth: 118° - SNR: 40 dB
  Satellite 3 PRN: 20 - Elevation: 36° - Azimuth: 306° - SNR: 37 dB
  Satellite 4 PRN: 37 - Elevation: 35° - Azimuth: 204° - SNR: 36 dB

2024-12-05 10:05:38,442 [INFO] Standard NMEA Message: $GBGSV,3,2,09,25,29,052,36,41,28,134,34,38,03,332,24,04,01,262,,1*71
2024-12-05 10:05:38,448 [INFO] GSV - Satellites in View:
  Number of Messages: 3
  Message Number: 2
  Total Satellites in View: 09
  Satellite 1 PRN: 25 - Elevation: 29° - Azimuth: 052° - SNR: 36 dB
  Satellite 2 PRN: 41 - Elevation: 28° - Azimuth: 134° - SNR: 34 dB
  Satellite 3 PRN: 38 - Elevation: 03° - Azimuth: 332° - SNR: 24 dB
  Satellite 4 PRN: 04 - Elevation: 01° - Azimuth: 262° - SNR:  dB

2024-12-05 10:05:38,460 [INFO] Standard NMEA Message: $GBGSV,3,3,09,35,01,338,,1*40
2024-12-05 10:05:38,469 [INFO] GSV - Satellites in View:
  Number of Messages: 3
  Message Number: 3
  Total Satellites in View: 09
  Satellite 1 PRN: 35 - Elevation: 01° - Azimuth: 338° - SNR:  dB
  Satellite 2 PRN: 1 - Elevation: ° - Azimuth: ° - SNR:  dB
  Satellite 3 PRN:  - Elevation: ° - Azimuth: ° - SNR:  dB
  Satellite 4 PRN:  - Elevation: ° - Azimuth: ° - SNR:  dB

2024-12-05 10:05:38,481 [INFO] Standard NMEA Message: $GNRMC,180539.000,A,4910.426692,N,12304.399830,W,0.02,0.00,051224,,,D,V*14
2024-12-05 10:05:38,493 [INFO] RMC - Recommended Minimum:
  Timestamp: 18:05:39+00:00
  Status: A
  Latitude: 49.1737782 N
  Longitude: -123.0733305 W
  Speed over Ground: 0.02 knots
  Course over Ground: 0.0
  Date: 2024-12-05
  Magnetic Variation:  
  Mode Indicator: D
  Navigational Status: V

2024-12-05 10:05:38,503 [INFO] Standard NMEA Message: $GNVTG,0.00,T,,M,0.02,N,0.03,K,D*27
2024-12-05 10:05:38,514 [INFO] VTG - Course over Ground and Ground Speed:
  True Track: 0.0° T
  Magnetic Track: None° M
  Speed over Ground: 0.02 knots / 0.03 km/h
  FAA Mode: D

2024-12-05 10:05:39,132 [INFO] Standard NMEA Message: $GNGGA,180540.000,4910.426644,N,12304.399902,W,2,28,0.52,10.260,M,-16.816,M,,*70
2024-12-05 10:05:39,145 [INFO] GGA - Fix Data:
  Timestamp: 18:05:40+00:00
  Latitude: 49.1737774 N
  Longitude: -123.0733317 W
  GPS Quality Indicator: 2
  Number of Satellites in Use: 28
  Horizontal Dilution of Precision (HDOP): 0.52
  Antenna Altitude (Above Mean Sea Level): 10.26 M
  Geoidal Separation: -16.816 M
  Age of Differential GPS Data: 
  Differential Reference Station ID: 

2024-12-05 10:05:39,164 [INFO] Standard NMEA Message: $GNGLL,4910.426644,N,12304.399902,W,180540.000,A,D*5E
2024-12-05 10:05:39,182 [INFO] GLL - Geographic Position:
  Latitude: 49.1737774 N
  Longitude: -123.0733317 W
  Timestamp: 18:05:40+00:00
  Status: A
  FAA Mode: D

2024-12-05 10:05:39,191 [INFO] Standard NMEA Message: $GNGSA,A,3,04,09,16,03,26,07,06,31,11,,,,0.93,0.52,0.77,1*02
2024-12-05 10:05:39,203 [INFO] GSA - Satellite Info:
  Mode: A
  Mode Fix Type: 3
  Satellites Used: 04, 09, 16, 03, 26, 07, 06, 31, 11
  PDOP: 0.93
  HDOP: 0.52
  VDOP: 0.77

2024-12-05 10:05:39,217 [INFO] Standard NMEA Message: $GNGSA,A,3,68,78,67,79,85,,,,,,,,0.93,0.52,0.77,2*0C
2024-12-05 10:05:39,230 [INFO] GSA - Satellite Info:
  Mode: A
  Mode Fix Type: 3
  Satellites Used: 68, 78, 67, 79, 85
  PDOP: 0.93
  HDOP: 0.52
  VDOP: 0.77

2024-12-05 10:05:39,242 [INFO] Standard NMEA Message: $GNGSA,A,3,06,09,04,31,36,34,05,21,,,,,0.93,0.52,0.77,3*03
2024-12-05 10:05:39,253 [INFO] GSA - Satellite Info:
  Mode: A
  Mode Fix Type: 3
  Satellites Used: 06, 09, 04, 31, 36, 34, 05, 21
  PDOP: 0.93
  HDOP: 0.52
  VDOP: 0.77

2024-12-05 10:05:39,266 [INFO] Standard NMEA Message: $GNGSA,A,3,32,23,20,37,25,41,,,,,,,0.93,0.52,0.77,4*0D
2024-12-05 10:05:39,275 [INFO] GSA - Satellite Info:
  Mode: A
  Mode Fix Type: 3
  Satellites Used: 32, 23, 20, 37, 25, 41
  PDOP: 0.93
  HDOP: 0.52
  VDOP: 0.77

2024-12-05 10:05:39,282 [INFO] Standard NMEA Message: $GPGSV,3,1,12,04,82,051,39,09,61,297,39,16,46,103,37,03,38,173,35,1*65
2024-12-05 10:05:39,291 [INFO] GSV - Satellites in View:
  Number of Messages: 3
  Message Number: 1
  Total Satellites in View: 12
  Satellite 1 PRN: 04 - Elevation: 82° - Azimuth: 051° - SNR: 39 dB
  Satellite 2 PRN: 09 - Elevation: 61° - Azimuth: 297° - SNR: 39 dB
  Satellite 3 PRN: 16 - Elevation: 46° - Azimuth: 103° - SNR: 37 dB
  Satellite 4 PRN: 03 - Elevation: 38° - Azimuth: 173° - SNR: 35 dB

2024-12-05 10:05:39,297 [INFO] Standard NMEA Message: $GPGSV,3,2,12,26,35,060,34,48,33,182,34,07,32,237,34,06,21,280,28,1*67
2024-12-05 10:05:39,307 [INFO] GSV - Satellites in View:
  Number of Messages: 3
  Message Number: 2
  Total Satellites in View: 12
  Satellite 1 PRN: 26 - Elevation: 35° - Azimuth: 060° - SNR: 34 dB
  Satellite 2 PRN: 48 - Elevation: 33° - Azimuth: 182° - SNR: 34 dB
  Satellite 3 PRN: 07 - Elevation: 32° - Azimuth: 237° - SNR: 34 dB
  Satellite 4 PRN: 06 - Elevation: 21° - Azimuth: 280° - SNR: 28 dB

2024-12-05 10:05:39,320 [INFO] Standard NMEA Message: $GPGSV,3,3,12,31,20,059,30,11,14,319,30,29,03,017,22,20,01,328,24,1*67
2024-12-05 10:05:39,331 [INFO] GSV - Satellites in View:
  Number of Messages: 3
  Message Number: 3
  Total Satellites in View: 12
  Satellite 1 PRN: 31 - Elevation: 20° - Azimuth: 059° - SNR: 30 dB
  Satellite 2 PRN: 11 - Elevation: 14° - Azimuth: 319° - SNR: 30 dB
  Satellite 3 PRN: 29 - Elevation: 03° - Azimuth: 017° - SNR: 22 dB
  Satellite 4 PRN: 20 - Elevation: 01° - Azimuth: 328° - SNR: 24 dB

2024-12-05 10:05:39,343 [INFO] Standard NMEA Message: $GLGSV,2,1,06,68,78,006,30,78,68,162,20,67,41,118,28,79,19,198,27,1*7A
2024-12-05 10:05:39,350 [INFO] GSV - Satellites in View:
  Number of Messages: 2
  Message Number: 1
  Total Satellites in View: 06
  Satellite 1 PRN: 68 - Elevation: 78° - Azimuth: 006° - SNR: 30 dB
  Satellite 2 PRN: 78 - Elevation: 68° - Azimuth: 162° - SNR: 20 dB
  Satellite 3 PRN: 67 - Elevation: 41° - Azimuth: 118° - SNR: 28 dB
  Satellite 4 PRN: 79 - Elevation: 19° - Azimuth: 198° - SNR: 27 dB

2024-12-05 10:05:39,357 [INFO] Standard NMEA Message: $GLGSV,2,2,06,84,14,292,,85,13,344,24,1*74
2024-12-05 10:05:39,365 [INFO] GSV - Satellites in View:
  Number of Messages: 2
  Message Number: 2
  Total Satellites in View: 06
  Satellite 1 PRN: 84 - Elevation: 14° - Azimuth: 292° - SNR:  dB
  Satellite 2 PRN: 85 - Elevation: 13° - Azimuth: 344° - SNR: 24 dB
  Satellite 3 PRN: 1 - Elevation: ° - Azimuth: ° - SNR:  dB
  Satellite 4 PRN:  - Elevation: ° - Azimuth: ° - SNR:  dB

2024-12-05 10:05:39,378 [INFO] Standard NMEA Message: $GAGSV,3,1,10,06,79,072,35,09,72,304,35,04,53,095,32,31,37,150,29,7*70
2024-12-05 10:05:39,385 [INFO] GSV - Satellites in View:
  Number of Messages: 3
  Message Number: 1
  Total Satellites in View: 10
  Satellite 1 PRN: 06 - Elevation: 79° - Azimuth: 072° - SNR: 35 dB
  Satellite 2 PRN: 09 - Elevation: 72° - Azimuth: 304° - SNR: 35 dB
  Satellite 3 PRN: 04 - Elevation: 53° - Azimuth: 095° - SNR: 32 dB
  Satellite 4 PRN: 31 - Elevation: 37° - Azimuth: 150° - SNR: 29 dB

2024-12-05 10:05:39,388 [INFO] Standard NMEA Message: $GAGSV,3,2,10,36,22,254,26,34,21,308,26,05,18,286,27,21,12,033,23,7*7E
2024-12-05 10:05:39,399 [INFO] GSV - Satellites in View:
  Number of Messages: 3
  Message Number: 2
  Total Satellites in View: 10
  Satellite 1 PRN: 36 - Elevation: 22° - Azimuth: 254° - SNR: 26 dB
  Satellite 2 PRN: 34 - Elevation: 21° - Azimuth: 308° - SNR: 26 dB
  Satellite 3 PRN: 05 - Elevation: 18° - Azimuth: 286° - SNR: 27 dB
  Satellite 4 PRN: 21 - Elevation: 12° - Azimuth: 033° - SNR: 23 dB

2024-12-05 10:05:39,401 [INFO] Standard NMEA Message: $GAGSV,3,3,10,11,02,211,10,24,01,186,12,7*78
2024-12-05 10:05:39,408 [INFO] GSV - Satellites in View:
  Number of Messages: 3
  Message Number: 3
  Total Satellites in View: 10
  Satellite 1 PRN: 11 - Elevation: 02° - Azimuth: 211° - SNR: 10 dB
  Satellite 2 PRN: 24 - Elevation: 01° - Azimuth: 186° - SNR: 12 dB
  Satellite 3 PRN: 7 - Elevation: ° - Azimuth: ° - SNR:  dB
  Satellite 4 PRN:  - Elevation: ° - Azimuth: ° - SNR:  dB

2024-12-05 10:05:39,417 [INFO] Standard NMEA Message: $GBGSV,3,1,09,32,81,179,41,23,71,118,40,20,36,306,37,37,36,204,36,1*70
2024-12-05 10:05:39,423 [INFO] GSV - Satellites in View:
  Number of Messages: 3
  Message Number: 1
  Total Satellites in View: 09
  Satellite 1 PRN: 32 - Elevation: 81° - Azimuth: 179° - SNR: 41 dB
  Satellite 2 PRN: 23 - Elevation: 71° - Azimuth: 118° - SNR: 40 dB
  Satellite 3 PRN: 20 - Elevation: 36° - Azimuth: 306° - SNR: 37 dB
  Satellite 4 PRN: 37 - Elevation: 36° - Azimuth: 204° - SNR: 36 dB

2024-12-05 10:05:39,435 [INFO] Standard NMEA Message: $GBGSV,3,2,09,25,29,052,36,41,28,134,34,38,03,332,24,04,01,262,,1*71
2024-12-05 10:05:39,441 [INFO] GSV - Satellites in View:
  Number of Messages: 3
  Message Number: 2
  Total Satellites in View: 09
  Satellite 1 PRN: 25 - Elevation: 29° - Azimuth: 052° - SNR: 36 dB
  Satellite 2 PRN: 41 - Elevation: 28° - Azimuth: 134° - SNR: 34 dB
  Satellite 3 PRN: 38 - Elevation: 03° - Azimuth: 332° - SNR: 24 dB
  Satellite 4 PRN: 04 - Elevation: 01° - Azimuth: 262° - SNR:  dB

2024-12-05 10:05:39,455 [INFO] Standard NMEA Message: $GBGSV,3,3,09,35,01,338,,1*40
2024-12-05 10:05:39,468 [INFO] GSV - Satellites in View:
  Number of Messages: 3
  Message Number: 3
  Total Satellites in View: 09
  Satellite 1 PRN: 35 - Elevation: 01° - Azimuth: 338° - SNR:  dB
  Satellite 2 PRN: 1 - Elevation: ° - Azimuth: ° - SNR:  dB
  Satellite 3 PRN:  - Elevation: ° - Azimuth: ° - SNR:  dB
  Satellite 4 PRN:  - Elevation: ° - Azimuth: ° - SNR:  dB

2024-12-05 10:05:39,485 [INFO] Standard NMEA Message: $GNRMC,180540.000,A,4910.426644,N,12304.399902,W,0.02,0.00,051224,,,D,V*11
2024-12-05 10:05:39,501 [INFO] RMC - Recommended Minimum:
  Timestamp: 18:05:40+00:00
  Status: A
  Latitude: 49.1737774 N
  Longitude: -123.0733317 W
  Speed over Ground: 0.02 knots
  Course over Ground: 0.0
  Date: 2024-12-05
  Magnetic Variation:  
  Mode Indicator: D
  Navigational Status: V

2024-12-05 10:05:39,514 [INFO] Standard NMEA Message: $GNVTG,0.00,T,,M,0.02,N,0.03,K,D*27
2024-12-05 10:05:39,524 [INFO] VTG - Course over Ground and Ground Speed:
  True Track: 0.0° T
  Magnetic Track: None° M
  Speed over Ground: 0.02 knots / 0.03 km/h
  FAA Mode: D

2024-12-05 10:05:40,127 [INFO] Standard NMEA Message: $GNGGA,180541.000,4910.426614,N,12304.399950,W,2,28,0.52,10.193,M,-16.816,M,,*7C
2024-12-05 10:05:40,142 [INFO] GGA - Fix Data:
  Timestamp: 18:05:41+00:00
  Latitude: 49.1737769 N
  Longitude: -123.0733325 W
  GPS Quality Indicator: 2
  Number of Satellites in Use: 28
  Horizontal Dilution of Precision (HDOP): 0.52
  Antenna Altitude (Above Mean Sea Level): 10.193 M
  Geoidal Separation: -16.816 M
  Age of Differential GPS Data: 
  Differential Reference Station ID: 

2024-12-05 10:05:40,166 [INFO] Standard NMEA Message: $GNGLL,4910.426614,N,12304.399950,W,180541.000,A,D*5D
2024-12-05 10:05:40,179 [INFO] GLL - Geographic Position:
  Latitude: 49.1737769 N
  Longitude: -123.0733325 W
  Timestamp: 18:05:41+00:00
  Status: A
  FAA Mode: D

2024-12-05 10:05:40,189 [INFO] Standard NMEA Message: $GNGSA,A,3,04,09,16,03,26,07,06,31,11,,,,0.93,0.52,0.77,1*02
2024-12-05 10:05:40,200 [INFO] GSA - Satellite Info:
  Mode: A
  Mode Fix Type: 3
  Satellites Used: 04, 09, 16, 03, 26, 07, 06, 31, 11
  PDOP: 0.93
  HDOP: 0.52
  VDOP: 0.77

2024-12-05 10:05:40,202 [INFO] Standard NMEA Message: $GNGSA,A,3,68,78,67,79,85,,,,,,,,0.93,0.52,0.77,2*0C
2024-12-05 10:05:40,203 [INFO] GSA - Satellite Info:
  Mode: A
  Mode Fix Type: 3
  Satellites Used: 68, 78, 67, 79, 85
  PDOP: 0.93
  HDOP: 0.52
  VDOP: 0.77

2024-12-05 10:05:40,206 [INFO] Standard NMEA Message: $GNGSA,A,3,06,09,04,31,36,34,05,21,,,,,0.93,0.52,0.77,3*03
2024-12-05 10:05:40,207 [INFO] GSA - Satellite Info:
  Mode: A
  Mode Fix Type: 3
  Satellites Used: 06, 09, 04, 31, 36, 34, 05, 21
  PDOP: 0.93
  HDOP: 0.52
  VDOP: 0.77

2024-12-05 10:05:40,208 [INFO] Standard NMEA Message: $GNGSA,A,3,32,23,20,37,25,41,,,,,,,0.93,0.52,0.77,4*0D
2024-12-05 10:05:40,209 [INFO] GSA - Satellite Info:
  Mode: A
  Mode Fix Type: 3
  Satellites Used: 32, 23, 20, 37, 25, 41
  PDOP: 0.93
  HDOP: 0.52
  VDOP: 0.77

2024-12-05 10:05:40,211 [INFO] Standard NMEA Message: $GPGSV,3,1,12,04,82,051,39,09,61,297,39,16,46,103,37,03,38,173,35,1*65
2024-12-05 10:05:40,212 [INFO] GSV - Satellites in View:
  Number of Messages: 3
  Message Number: 1
  Total Satellites in View: 12
  Satellite 1 PRN: 04 - Elevation: 82° - Azimuth: 051° - SNR: 39 dB
  Satellite 2 PRN: 09 - Elevation: 61° - Azimuth: 297° - SNR: 39 dB
  Satellite 3 PRN: 16 - Elevation: 46° - Azimuth: 103° - SNR: 37 dB
  Satellite 4 PRN: 03 - Elevation: 38° - Azimuth: 173° - SNR: 35 dB

2024-12-05 10:05:40,214 [INFO] Standard NMEA Message: $GPGSV,3,2,12,26,35,060,34,48,33,182,34,07,32,237,34,06,21,280,29,1*66
2024-12-05 10:05:40,215 [INFO] GSV - Satellites in View:
  Number of Messages: 3
  Message Number: 2
  Total Satellites in View: 12
  Satellite 1 PRN: 26 - Elevation: 35° - Azimuth: 060° - SNR: 34 dB
  Satellite 2 PRN: 48 - Elevation: 33° - Azimuth: 182° - SNR: 34 dB
  Satellite 3 PRN: 07 - Elevation: 32° - Azimuth: 237° - SNR: 34 dB
  Satellite 4 PRN: 06 - Elevation: 21° - Azimuth: 280° - SNR: 29 dB

2024-12-05 10:05:40,217 [INFO] Standard NMEA Message: $GPGSV,3,3,12,31,20,059,30,11,14,319,30,29,03,017,22,20,01,328,24,1*67
2024-12-05 10:05:40,218 [INFO] GSV - Satellites in View:
  Number of Messages: 3
  Message Number: 3
  Total Satellites in View: 12
  Satellite 1 PRN: 31 - Elevation: 20° - Azimuth: 059° - SNR: 30 dB
  Satellite 2 PRN: 11 - Elevation: 14° - Azimuth: 319° - SNR: 30 dB
  Satellite 3 PRN: 29 - Elevation: 03° - Azimuth: 017° - SNR: 22 dB
  Satellite 4 PRN: 20 - Elevation: 01° - Azimuth: 328° - SNR: 24 dB

2024-12-05 10:05:40,220 [INFO] Standard NMEA Message: $GLGSV,2,1,06,68,78,006,30,78,68,162,20,67,41,118,28,79,19,198,27,1*7A
2024-12-05 10:05:40,221 [INFO] GSV - Satellites in View:
  Number of Messages: 2
  Message Number: 1
  Total Satellites in View: 06
  Satellite 1 PRN: 68 - Elevation: 78° - Azimuth: 006° - SNR: 30 dB
  Satellite 2 PRN: 78 - Elevation: 68° - Azimuth: 162° - SNR: 20 dB
  Satellite 3 PRN: 67 - Elevation: 41° - Azimuth: 118° - SNR: 28 dB
  Satellite 4 PRN: 79 - Elevation: 19° - Azimuth: 198° - SNR: 27 dB

2024-12-05 10:05:40,223 [INFO] Standard NMEA Message: $GLGSV,2,2,06,84,14,292,,85,13,344,24,1*74
2024-12-05 10:05:40,224 [INFO] GSV - Satellites in View:
  Number of Messages: 2
  Message Number: 2
  Total Satellites in View: 06
  Satellite 1 PRN: 84 - Elevation: 14° - Azimuth: 292° - SNR:  dB
  Satellite 2 PRN: 85 - Elevation: 13° - Azimuth: 344° - SNR: 24 dB
  Satellite 3 PRN: 1 - Elevation: ° - Azimuth: ° - SNR:  dB
  Satellite 4 PRN:  - Elevation: ° - Azimuth: ° - SNR:  dB

2024-12-05 10:05:40,237 [INFO] Standard NMEA Message: $GAGSV,3,1,10,06,79,072,35,09,72,304,35,04,53,095,32,31,37,150,29,7*70
2024-12-05 10:05:40,249 [INFO] GSV - Satellites in View:
  Number of Messages: 3
  Message Number: 1
  Total Satellites in View: 10
  Satellite 1 PRN: 06 - Elevation: 79° - Azimuth: 072° - SNR: 35 dB
  Satellite 2 PRN: 09 - Elevation: 72° - Azimuth: 304° - SNR: 35 dB
  Satellite 3 PRN: 04 - Elevation: 53° - Azimuth: 095° - SNR: 32 dB
  Satellite 4 PRN: 31 - Elevation: 37° - Azimuth: 150° - SNR: 29 dB

2024-12-05 10:05:40,262 [INFO] Standard NMEA Message: $GAGSV,3,2,10,36,22,254,26,34,21,308,26,05,18,286,27,21,12,033,23,7*7E
2024-12-05 10:05:40,274 [INFO] GSV - Satellites in View:
  Number of Messages: 3
  Message Number: 2
  Total Satellites in View: 10
  Satellite 1 PRN: 36 - Elevation: 22° - Azimuth: 254° - SNR: 26 dB
  Satellite 2 PRN: 34 - Elevation: 21° - Azimuth: 308° - SNR: 26 dB
  Satellite 3 PRN: 05 - Elevation: 18° - Azimuth: 286° - SNR: 27 dB
  Satellite 4 PRN: 21 - Elevation: 12° - Azimuth: 033° - SNR: 23 dB

2024-12-05 10:05:40,286 [INFO] Standard NMEA Message: $GAGSV,3,3,10,11,02,211,10,24,01,186,11,7*7B
2024-12-05 10:05:40,300 [INFO] GSV - Satellites in View:
  Number of Messages: 3
  Message Number: 3
  Total Satellites in View: 10
  Satellite 1 PRN: 11 - Elevation: 02° - Azimuth: 211° - SNR: 10 dB
  Satellite 2 PRN: 24 - Elevation: 01° - Azimuth: 186° - SNR: 11 dB
  Satellite 3 PRN: 7 - Elevation: ° - Azimuth: ° - SNR:  dB
  Satellite 4 PRN:  - Elevation: ° - Azimuth: ° - SNR:  dB

2024-12-05 10:05:40,309 [INFO] Standard NMEA Message: $GBGSV,3,1,09,32,81,179,41,23,71,118,40,20,36,306,37,37,36,204,36,1*70
2024-12-05 10:05:40,319 [INFO] GSV - Satellites in View:
  Number of Messages: 3
  Message Number: 1
  Total Satellites in View: 09
  Satellite 1 PRN: 32 - Elevation: 81° - Azimuth: 179° - SNR: 41 dB
  Satellite 2 PRN: 23 - Elevation: 71° - Azimuth: 118° - SNR: 40 dB
  Satellite 3 PRN: 20 - Elevation: 36° - Azimuth: 306° - SNR: 37 dB
  Satellite 4 PRN: 37 - Elevation: 36° - Azimuth: 204° - SNR: 36 dB

2024-12-05 10:05:40,326 [INFO] Standard NMEA Message: $GBGSV,3,2,09,25,29,052,36,41,28,134,34,38,03,332,24,04,01,262,,1*71
2024-12-05 10:05:40,336 [INFO] GSV - Satellites in View:
  Number of Messages: 3
  Message Number: 2
  Total Satellites in View: 09
  Satellite 1 PRN: 25 - Elevation: 29° - Azimuth: 052° - SNR: 36 dB
  Satellite 2 PRN: 41 - Elevation: 28° - Azimuth: 134° - SNR: 34 dB
  Satellite 3 PRN: 38 - Elevation: 03° - Azimuth: 332° - SNR: 24 dB
  Satellite 4 PRN: 04 - Elevation: 01° - Azimuth: 262° - SNR:  dB

2024-12-05 10:05:40,350 [INFO] Standard NMEA Message: $GBGSV,3,3,09,35,01,338,,1*40
2024-12-05 10:05:40,356 [INFO] GSV - Satellites in View:
  Number of Messages: 3
  Message Number: 3
  Total Satellites in View: 09
  Satellite 1 PRN: 35 - Elevation: 01° - Azimuth: 338° - SNR:  dB
  Satellite 2 PRN: 1 - Elevation: ° - Azimuth: ° - SNR:  dB
  Satellite 3 PRN:  - Elevation: ° - Azimuth: ° - SNR:  dB
  Satellite 4 PRN:  - Elevation: ° - Azimuth: ° - SNR:  dB

2024-12-05 10:05:40,363 [INFO] Standard NMEA Message: $GNRMC,180541.000,A,4910.426614,N,12304.399950,W,0.02,0.00,051224,,,D,V*12
2024-12-05 10:05:40,369 [INFO] RMC - Recommended Minimum:
  Timestamp: 18:05:41+00:00
  Status: A
  Latitude: 49.1737769 N
  Longitude: -123.0733325 W
  Speed over Ground: 0.02 knots
  Course over Ground: 0.0
  Date: 2024-12-05
  Magnetic Variation:  
  Mode Indicator: D
  Navigational Status: V

2024-12-05 10:05:40,383 [INFO] Standard NMEA Message: $GNVTG,0.00,T,,M,0.02,N,0.03,K,D*27
2024-12-05 10:05:40,394 [INFO] VTG - Course over Ground and Ground Speed:
  True Track: 0.0° T
  Magnetic Track: None° M
  Speed over Ground: 0.02 knots / 0.03 km/h
  FAA Mode: D

2024-12-05 10:05:41,141 [INFO] Standard NMEA Message: $GNGGA,180542.000,4910.426548,N,12304.400034,W,2,28,0.52,10.071,M,-16.816,M,,*74
2024-12-05 10:05:41,155 [INFO] GGA - Fix Data:
  Timestamp: 18:05:42+00:00
  Latitude: 49.1737758 N
  Longitude: -123.0733339 W
  GPS Quality Indicator: 2
  Number of Satellites in Use: 28
  Horizontal Dilution of Precision (HDOP): 0.52
  Antenna Altitude (Above Mean Sea Level): 10.071 M
  Geoidal Separation: -16.816 M
  Age of Differential GPS Data: 
  Differential Reference Station ID: 

2024-12-05 10:05:41,177 [INFO] Standard NMEA Message: $GNGLL,4910.426548,N,12304.400034,W,180542.000,A,D*58
2024-12-05 10:05:41,192 [INFO] GLL - Geographic Position:
  Latitude: 49.1737758 N
  Longitude: -123.0733339 W
  Timestamp: 18:05:42+00:00
  Status: A
  FAA Mode: D

2024-12-05 10:05:41,206 [INFO] Standard NMEA Message: $GNGSA,A,3,04,09,16,03,26,07,06,31,11,,,,0.93,0.52,0.77,1*02
2024-12-05 10:05:41,216 [INFO] GSA - Satellite Info:
  Mode: A
  Mode Fix Type: 3
  Satellites Used: 04, 09, 16, 03, 26, 07, 06, 31, 11
  PDOP: 0.93
  HDOP: 0.52
  VDOP: 0.77

2024-12-05 10:05:41,229 [INFO] Standard NMEA Message: $GNGSA,A,3,68,78,67,79,85,,,,,,,,0.93,0.52,0.77,2*0C
2024-12-05 10:05:41,239 [INFO] GSA - Satellite Info:
  Mode: A
  Mode Fix Type: 3
  Satellites Used: 68, 78, 67, 79, 85
  PDOP: 0.93
  HDOP: 0.52
  VDOP: 0.77

2024-12-05 10:05:41,243 [INFO] Standard NMEA Message: $GNGSA,A,3,06,09,04,31,36,34,05,21,,,,,0.93,0.52,0.77,3*03
2024-12-05 10:05:41,254 [INFO] GSA - Satellite Info:
  Mode: A
  Mode Fix Type: 3
  Satellites Used: 06, 09, 04, 31, 36, 34, 05, 21
  PDOP: 0.93
  HDOP: 0.52
  VDOP: 0.77

2024-12-05 10:05:41,266 [INFO] Standard NMEA Message: $GNGSA,A,3,32,23,20,37,25,41,,,,,,,0.93,0.52,0.77,4*0D
2024-12-05 10:05:41,275 [INFO] GSA - Satellite Info:
  Mode: A
  Mode Fix Type: 3
  Satellites Used: 32, 23, 20, 37, 25, 41
  PDOP: 0.93
  HDOP: 0.52
  VDOP: 0.77

2024-12-05 10:05:41,287 [INFO] Standard NMEA Message: $GPGSV,3,1,12,04,82,051,39,09,61,297,39,16,46,103,37,03,38,173,35,1*65
2024-12-05 10:05:41,297 [INFO] GSV - Satellites in View:
  Number of Messages: 3
  Message Number: 1
  Total Satellites in View: 12
  Satellite 1 PRN: 04 - Elevation: 82° - Azimuth: 051° - SNR: 39 dB
  Satellite 2 PRN: 09 - Elevation: 61° - Azimuth: 297° - SNR: 39 dB
  Satellite 3 PRN: 16 - Elevation: 46° - Azimuth: 103° - SNR: 37 dB
  Satellite 4 PRN: 03 - Elevation: 38° - Azimuth: 173° - SNR: 35 dB

2024-12-05 10:05:41,310 [INFO] Standard NMEA Message: $GPGSV,3,2,12,26,35,060,34,48,33,182,34,07,32,237,34,06,21,280,29,1*66
2024-12-05 10:05:41,316 [INFO] GSV - Satellites in View:
  Number of Messages: 3
  Message Number: 2
  Total Satellites in View: 12
  Satellite 1 PRN: 26 - Elevation: 35° - Azimuth: 060° - SNR: 34 dB
  Satellite 2 PRN: 48 - Elevation: 33° - Azimuth: 182° - SNR: 34 dB
  Satellite 3 PRN: 07 - Elevation: 32° - Azimuth: 237° - SNR: 34 dB
  Satellite 4 PRN: 06 - Elevation: 21° - Azimuth: 280° - SNR: 29 dB

2024-12-05 10:05:41,331 [INFO] Standard NMEA Message: $GPGSV,3,3,12,31,20,059,30,11,14,319,30,29,03,017,22,20,01,328,23,1*60
2024-12-05 10:05:41,341 [INFO] GSV - Satellites in View:
  Number of Messages: 3
  Message Number: 3
  Total Satellites in View: 12
  Satellite 1 PRN: 31 - Elevation: 20° - Azimuth: 059° - SNR: 30 dB
  Satellite 2 PRN: 11 - Elevation: 14° - Azimuth: 319° - SNR: 30 dB
  Satellite 3 PRN: 29 - Elevation: 03° - Azimuth: 017° - SNR: 22 dB
  Satellite 4 PRN: 20 - Elevation: 01° - Azimuth: 328° - SNR: 23 dB

2024-12-05 10:05:41,355 [INFO] Standard NMEA Message: $GLGSV,2,1,06,68,78,006,30,78,68,162,20,67,41,118,28,79,19,198,26,1*7B
2024-12-05 10:05:41,366 [INFO] GSV - Satellites in View:
  Number of Messages: 2
  Message Number: 1
  Total Satellites in View: 06
  Satellite 1 PRN: 68 - Elevation: 78° - Azimuth: 006° - SNR: 30 dB
  Satellite 2 PRN: 78 - Elevation: 68° - Azimuth: 162° - SNR: 20 dB
  Satellite 3 PRN: 67 - Elevation: 41° - Azimuth: 118° - SNR: 28 dB
  Satellite 4 PRN: 79 - Elevation: 19° - Azimuth: 198° - SNR: 26 dB

2024-12-05 10:05:41,380 [INFO] Standard NMEA Message: $GLGSV,2,2,06,84,14,292,,85,13,344,24,1*74
2024-12-05 10:05:41,389 [INFO] GSV - Satellites in View:
  Number of Messages: 2
  Message Number: 2
  Total Satellites in View: 06
  Satellite 1 PRN: 84 - Elevation: 14° - Azimuth: 292° - SNR:  dB
  Satellite 2 PRN: 85 - Elevation: 13° - Azimuth: 344° - SNR: 24 dB
  Satellite 3 PRN: 1 - Elevation: ° - Azimuth: ° - SNR:  dB
  Satellite 4 PRN:  - Elevation: ° - Azimuth: ° - SNR:  dB

2024-12-05 10:05:41,396 [INFO] Standard NMEA Message: $GAGSV,3,1,10,06,79,072,35,09,72,304,35,04,53,095,32,31,37,150,29,7*70
2024-12-05 10:05:41,407 [INFO] GSV - Satellites in View:
  Number of Messages: 3
  Message Number: 1
  Total Satellites in View: 10
  Satellite 1 PRN: 06 - Elevation: 79° - Azimuth: 072° - SNR: 35 dB
  Satellite 2 PRN: 09 - Elevation: 72° - Azimuth: 304° - SNR: 35 dB
  Satellite 3 PRN: 04 - Elevation: 53° - Azimuth: 095° - SNR: 32 dB
  Satellite 4 PRN: 31 - Elevation: 37° - Azimuth: 150° - SNR: 29 dB

2024-12-05 10:05:41,414 [INFO] Standard NMEA Message: $GAGSV,3,2,10,36,22,254,26,34,21,308,26,05,18,286,27,21,12,033,23,7*7E
2024-12-05 10:05:41,426 [INFO] GSV - Satellites in View:
  Number of Messages: 3
  Message Number: 2
  Total Satellites in View: 10
  Satellite 1 PRN: 36 - Elevation: 22° - Azimuth: 254° - SNR: 26 dB
  Satellite 2 PRN: 34 - Elevation: 21° - Azimuth: 308° - SNR: 26 dB
  Satellite 3 PRN: 05 - Elevation: 18° - Azimuth: 286° - SNR: 27 dB
  Satellite 4 PRN: 21 - Elevation: 12° - Azimuth: 033° - SNR: 23 dB

2024-12-05 10:05:41,438 [INFO] Standard NMEA Message: $GAGSV,3,3,10,11,02,211,11,24,01,186,11,7*7A
2024-12-05 10:05:41,449 [INFO] GSV - Satellites in View:
  Number of Messages: 3
  Message Number: 3
  Total Satellites in View: 10
  Satellite 1 PRN: 11 - Elevation: 02° - Azimuth: 211° - SNR: 11 dB
  Satellite 2 PRN: 24 - Elevation: 01° - Azimuth: 186° - SNR: 11 dB
  Satellite 3 PRN: 7 - Elevation: ° - Azimuth: ° - SNR:  dB
  Satellite 4 PRN:  - Elevation: ° - Azimuth: ° - SNR:  dB

2024-12-05 10:05:41,461 [INFO] Standard NMEA Message: $GBGSV,3,1,09,32,81,179,41,23,71,118,40,20,36,306,37,37,36,204,36,1*70
2024-12-05 10:05:41,472 [INFO] GSV - Satellites in View:
  Number of Messages: 3
  Message Number: 1
  Total Satellites in View: 09
  Satellite 1 PRN: 32 - Elevation: 81° - Azimuth: 179° - SNR: 41 dB
  Satellite 2 PRN: 23 - Elevation: 71° - Azimuth: 118° - SNR: 40 dB
  Satellite 3 PRN: 20 - Elevation: 36° - Azimuth: 306° - SNR: 37 dB
  Satellite 4 PRN: 37 - Elevation: 36° - Azimuth: 204° - SNR: 36 dB

2024-12-05 10:05:41,484 [INFO] Standard NMEA Message: $GBGSV,3,2,09,25,29,052,36,41,28,134,34,38,03,332,24,04,01,262,,1*71
2024-12-05 10:05:41,493 [INFO] GSV - Satellites in View:
  Number of Messages: 3
  Message Number: 2
  Total Satellites in View: 09
  Satellite 1 PRN: 25 - Elevation: 29° - Azimuth: 052° - SNR: 36 dB
  Satellite 2 PRN: 41 - Elevation: 28° - Azimuth: 134° - SNR: 34 dB
  Satellite 3 PRN: 38 - Elevation: 03° - Azimuth: 332° - SNR: 24 dB
  Satellite 4 PRN: 04 - Elevation: 01° - Azimuth: 262° - SNR:  dB

2024-12-05 10:05:41,505 [INFO] Standard NMEA Message: $GBGSV,3,3,09,35,01,338,,1*40
2024-12-05 10:05:41,516 [INFO] GSV - Satellites in View:
  Number of Messages: 3
  Message Number: 3
  Total Satellites in View: 09
  Satellite 1 PRN: 35 - Elevation: 01° - Azimuth: 338° - SNR:  dB
  Satellite 2 PRN: 1 - Elevation: ° - Azimuth: ° - SNR:  dB
  Satellite 3 PRN:  - Elevation: ° - Azimuth: ° - SNR:  dB
  Satellite 4 PRN:  - Elevation: ° - Azimuth: ° - SNR:  dB

2024-12-05 10:05:41,531 [INFO] Standard NMEA Message: $GNRMC,180542.000,A,4910.426548,N,12304.400034,W,0.02,0.00,051224,,,D,V*17
2024-12-05 10:05:41,542 [INFO] RMC - Recommended Minimum:
  Timestamp: 18:05:42+00:00
  Status: A
  Latitude: 49.1737758 N
  Longitude: -123.0733339 W
  Speed over Ground: 0.02 knots
  Course over Ground: 0.0
  Date: 2024-12-05
  Magnetic Variation:  
  Mode Indicator: D
  Navigational Status: V

2024-12-05 10:05:41,554 [INFO] Standard NMEA Message: $GNVTG,0.00,T,,M,0.02,N,0.04,K,D*20
2024-12-05 10:05:41,560 [INFO] VTG - Course over Ground and Ground Speed:
  True Track: 0.0° T
  Magnetic Track: None° M
  Speed over Ground: 0.02 knots / 0.04 km/h
  FAA Mode: D

2024-12-05 10:05:42,130 [INFO] Standard NMEA Message: $GNGGA,180543.000,4910.426464,N,12304.400100,W,2,28,0.52,9.857,M,-16.816,M,,*48
2024-12-05 10:05:42,142 [INFO] GGA - Fix Data:
  Timestamp: 18:05:43+00:00
  Latitude: 49.1737744 N
  Longitude: -123.073335 W
  GPS Quality Indicator: 2
  Number of Satellites in Use: 28
  Horizontal Dilution of Precision (HDOP): 0.52
  Antenna Altitude (Above Mean Sea Level): 9.857 M
  Geoidal Separation: -16.816 M
  Age of Differential GPS Data: 
  Differential Reference Station ID: 

2024-12-05 10:05:42,163 [INFO] Standard NMEA Message: $GNGLL,4910.426464,N,12304.400100,W,180543.000,A,D*50
2024-12-05 10:05:42,168 [INFO] GLL - Geographic Position:
  Latitude: 49.1737744 N
  Longitude: -123.073335 W
  Timestamp: 18:05:43+00:00
  Status: A
  FAA Mode: D

2024-12-05 10:05:42,178 [INFO] Standard NMEA Message: $GNGSA,A,3,04,09,16,03,26,07,06,31,11,,,,0.80,0.52,0.61,1*07
2024-12-05 10:05:42,189 [INFO] GSA - Satellite Info:
  Mode: A
  Mode Fix Type: 3
  Satellites Used: 04, 09, 16, 03, 26, 07, 06, 31, 11
  PDOP: 0.80
  HDOP: 0.52
  VDOP: 0.61

2024-12-05 10:05:42,196 [INFO] Standard NMEA Message: $GNGSA,A,3,68,78,67,79,85,,,,,,,,0.80,0.52,0.61,2*09
2024-12-05 10:05:42,207 [INFO] GSA - Satellite Info:
  Mode: A
  Mode Fix Type: 3
  Satellites Used: 68, 78, 67, 79, 85
  PDOP: 0.80
  HDOP: 0.52
  VDOP: 0.61

2024-12-05 10:05:42,218 [INFO] Standard NMEA Message: $GNGSA,A,3,06,09,04,31,36,34,05,21,,,,,0.80,0.52,0.61,3*06
2024-12-05 10:05:42,227 [INFO] GSA - Satellite Info:
  Mode: A
  Mode Fix Type: 3
  Satellites Used: 06, 09, 04, 31, 36, 34, 05, 21
  PDOP: 0.80
  HDOP: 0.52
  VDOP: 0.61

2024-12-05 10:05:42,239 [INFO] Standard NMEA Message: $GNGSA,A,3,32,23,20,37,25,41,,,,,,,0.80,0.52,0.61,4*08
2024-12-05 10:05:42,248 [INFO] GSA - Satellite Info:
  Mode: A
  Mode Fix Type: 3
  Satellites Used: 32, 23, 20, 37, 25, 41
  PDOP: 0.80
  HDOP: 0.52
  VDOP: 0.61

2024-12-05 10:05:42,260 [INFO] Standard NMEA Message: $GPGSV,3,1,12,04,82,051,39,09,61,297,39,16,46,103,37,03,38,173,35,1*65
2024-12-05 10:05:42,268 [INFO] GSV - Satellites in View:
  Number of Messages: 3
  Message Number: 1
  Total Satellites in View: 12
  Satellite 1 PRN: 04 - Elevation: 82° - Azimuth: 051° - SNR: 39 dB
  Satellite 2 PRN: 09 - Elevation: 61° - Azimuth: 297° - SNR: 39 dB
  Satellite 3 PRN: 16 - Elevation: 46° - Azimuth: 103° - SNR: 37 dB
  Satellite 4 PRN: 03 - Elevation: 38° - Azimuth: 173° - SNR: 35 dB

2024-12-05 10:05:42,275 [INFO] Standard NMEA Message: $GPGSV,3,2,12,26,35,060,34,48,33,182,34,07,32,237,34,06,21,280,29,1*66
2024-12-05 10:05:42,286 [INFO] GSV - Satellites in View:
  Number of Messages: 3
  Message Number: 2
  Total Satellites in View: 12
  Satellite 1 PRN: 26 - Elevation: 35° - Azimuth: 060° - SNR: 34 dB
  Satellite 2 PRN: 48 - Elevation: 33° - Azimuth: 182° - SNR: 34 dB
  Satellite 3 PRN: 07 - Elevation: 32° - Azimuth: 237° - SNR: 34 dB
  Satellite 4 PRN: 06 - Elevation: 21° - Azimuth: 280° - SNR: 29 dB

2024-12-05 10:05:42,299 [INFO] Standard NMEA Message: $GPGSV,3,3,12,31,20,059,30,11,14,319,30,29,03,017,22,20,01,328,23,1*60
2024-12-05 10:05:42,309 [INFO] GSV - Satellites in View:
  Number of Messages: 3
  Message Number: 3
  Total Satellites in View: 12
  Satellite 1 PRN: 31 - Elevation: 20° - Azimuth: 059° - SNR: 30 dB
  Satellite 2 PRN: 11 - Elevation: 14° - Azimuth: 319° - SNR: 30 dB
  Satellite 3 PRN: 29 - Elevation: 03° - Azimuth: 017° - SNR: 22 dB
  Satellite 4 PRN: 20 - Elevation: 01° - Azimuth: 328° - SNR: 23 dB

2024-12-05 10:05:42,324 [INFO] Standard NMEA Message: $GLGSV,2,1,06,68,78,006,29,78,68,162,19,67,41,118,27,79,19,198,25,1*75
2024-12-05 10:05:42,334 [INFO] GSV - Satellites in View:
  Number of Messages: 2
  Message Number: 1
  Total Satellites in View: 06
  Satellite 1 PRN: 68 - Elevation: 78° - Azimuth: 006° - SNR: 29 dB
  Satellite 2 PRN: 78 - Elevation: 68° - Azimuth: 162° - SNR: 19 dB
  Satellite 3 PRN: 67 - Elevation: 41° - Azimuth: 118° - SNR: 27 dB
  Satellite 4 PRN: 79 - Elevation: 19° - Azimuth: 198° - SNR: 25 dB

2024-12-05 10:05:42,349 [INFO] Standard NMEA Message: $GLGSV,2,2,06,84,14,292,,85,13,344,24,1*74
2024-12-05 10:05:42,362 [INFO] GSV - Satellites in View:
  Number of Messages: 2
  Message Number: 2
  Total Satellites in View: 06
  Satellite 1 PRN: 84 - Elevation: 14° - Azimuth: 292° - SNR:  dB
  Satellite 2 PRN: 85 - Elevation: 13° - Azimuth: 344° - SNR: 24 dB
  Satellite 3 PRN: 1 - Elevation: ° - Azimuth: ° - SNR:  dB
  Satellite 4 PRN:  - Elevation: ° - Azimuth: ° - SNR:  dB

2024-12-05 10:05:42,365 [INFO] Standard NMEA Message: $GAGSV,3,1,10,06,79,072,35,09,72,304,35,04,53,095,32,31,37,150,29,7*70
2024-12-05 10:05:42,375 [INFO] GSV - Satellites in View:
  Number of Messages: 3
  Message Number: 1
  Total Satellites in View: 10
  Satellite 1 PRN: 06 - Elevation: 79° - Azimuth: 072° - SNR: 35 dB
  Satellite 2 PRN: 09 - Elevation: 72° - Azimuth: 304° - SNR: 35 dB
  Satellite 3 PRN: 04 - Elevation: 53° - Azimuth: 095° - SNR: 32 dB
  Satellite 4 PRN: 31 - Elevation: 37° - Azimuth: 150° - SNR: 29 dB

2024-12-05 10:05:42,383 [INFO] Standard NMEA Message: $GAGSV,3,2,10,36,22,254,26,34,21,308,26,05,18,286,28,21,12,033,23,7*71
2024-12-05 10:05:42,393 [INFO] GSV - Satellites in View:
  Number of Messages: 3
  Message Number: 2
  Total Satellites in View: 10
  Satellite 1 PRN: 36 - Elevation: 22° - Azimuth: 254° - SNR: 26 dB
  Satellite 2 PRN: 34 - Elevation: 21° - Azimuth: 308° - SNR: 26 dB
  Satellite 3 PRN: 05 - Elevation: 18° - Azimuth: 286° - SNR: 28 dB
  Satellite 4 PRN: 21 - Elevation: 12° - Azimuth: 033° - SNR: 23 dB

2024-12-05 10:05:42,406 [INFO] Standard NMEA Message: $GAGSV,3,3,10,11,02,211,11,24,01,186,12,7*79
2024-12-05 10:05:42,414 [INFO] GSV - Satellites in View:
  Number of Messages: 3
  Message Number: 3
  Total Satellites in View: 10
  Satellite 1 PRN: 11 - Elevation: 02° - Azimuth: 211° - SNR: 11 dB
  Satellite 2 PRN: 24 - Elevation: 01° - Azimuth: 186° - SNR: 12 dB
  Satellite 3 PRN: 7 - Elevation: ° - Azimuth: ° - SNR:  dB
  Satellite 4 PRN:  - Elevation: ° - Azimuth: ° - SNR:  dB

2024-12-05 10:05:42,426 [INFO] Standard NMEA Message: $GBGSV,3,1,09,32,81,179,41,23,71,118,40,20,36,306,37,37,36,204,36,1*70
2024-12-05 10:05:42,438 [INFO] GSV - Satellites in View:
  Number of Messages: 3
  Message Number: 1
  Total Satellites in View: 09
  Satellite 1 PRN: 32 - Elevation: 81° - Azimuth: 179° - SNR: 41 dB
  Satellite 2 PRN: 23 - Elevation: 71° - Azimuth: 118° - SNR: 40 dB
  Satellite 3 PRN: 20 - Elevation: 36° - Azimuth: 306° - SNR: 37 dB
  Satellite 4 PRN: 37 - Elevation: 36° - Azimuth: 204° - SNR: 36 dB

2024-12-05 10:05:42,450 [INFO] Standard NMEA Message: $GBGSV,3,2,09,25,29,052,36,41,28,134,34,38,03,332,24,04,01,262,,1*71
2024-12-05 10:05:42,460 [INFO] GSV - Satellites in View:
  Number of Messages: 3
  Message Number: 2
  Total Satellites in View: 09
  Satellite 1 PRN: 25 - Elevation: 29° - Azimuth: 052° - SNR: 36 dB
  Satellite 2 PRN: 41 - Elevation: 28° - Azimuth: 134° - SNR: 34 dB
  Satellite 3 PRN: 38 - Elevation: 03° - Azimuth: 332° - SNR: 24 dB
  Satellite 4 PRN: 04 - Elevation: 01° - Azimuth: 262° - SNR:  dB

2024-12-05 10:05:42,472 [INFO] Standard NMEA Message: $GBGSV,3,3,09,35,01,338,,1*40
2024-12-05 10:05:42,483 [INFO] GSV - Satellites in View:
  Number of Messages: 3
  Message Number: 3
  Total Satellites in View: 09
  Satellite 1 PRN: 35 - Elevation: 01° - Azimuth: 338° - SNR:  dB
  Satellite 2 PRN: 1 - Elevation: ° - Azimuth: ° - SNR:  dB
  Satellite 3 PRN:  - Elevation: ° - Azimuth: ° - SNR:  dB
  Satellite 4 PRN:  - Elevation: ° - Azimuth: ° - SNR:  dB

2024-12-05 10:05:42,497 [INFO] Standard NMEA Message: $GNRMC,180543.000,A,4910.426464,N,12304.400100,W,0.03,0.00,051224,,,D,V*1E
2024-12-05 10:05:42,508 [INFO] RMC - Recommended Minimum:
  Timestamp: 18:05:43+00:00
  Status: A
  Latitude: 49.1737744 N
  Longitude: -123.073335 W
  Speed over Ground: 0.03 knots
  Course over Ground: 0.0
  Date: 2024-12-05
  Magnetic Variation:  
  Mode Indicator: D
  Navigational Status: V

2024-12-05 10:05:42,522 [INFO] Standard NMEA Message: $GNVTG,0.00,T,,M,0.03,N,0.06,K,D*23
2024-12-05 10:05:42,533 [INFO] VTG - Course over Ground and Ground Speed:
  True Track: 0.0° T
  Magnetic Track: None° M
  Speed over Ground: 0.03 knots / 0.06 km/h
  FAA Mode: D

2024-12-05 10:05:43,130 [INFO] Standard NMEA Message: $GNGGA,180544.000,4910.426434,N,12304.400136,W,2,28,0.52,9.665,M,-16.816,M,,*40
2024-12-05 10:05:43,134 [INFO] GGA - Fix Data:
  Timestamp: 18:05:44+00:00
  Latitude: 49.1737739 N
  Longitude: -123.0733356 W
  GPS Quality Indicator: 2
  Number of Satellites in Use: 28
  Horizontal Dilution of Precision (HDOP): 0.52
  Antenna Altitude (Above Mean Sea Level): 9.665 M
  Geoidal Separation: -16.816 M
  Age of Differential GPS Data: 
  Differential Reference Station ID: 

2024-12-05 10:05:43,140 [INFO] Standard NMEA Message: $GNGLL,4910.426434,N,12304.400136,W,180544.000,A,D*57
2024-12-05 10:05:43,143 [INFO] GLL - Geographic Position:
  Latitude: 49.1737739 N
  Longitude: -123.0733356 W
  Timestamp: 18:05:44+00:00
  Status: A
  FAA Mode: D

2024-12-05 10:05:43,146 [INFO] Standard NMEA Message: $GNGSA,A,3,04,09,16,03,26,07,06,31,11,,,,0.93,0.52,0.77,1*02
2024-12-05 10:05:43,148 [INFO] GSA - Satellite Info:
  Mode: A
  Mode Fix Type: 3
  Satellites Used: 04, 09, 16, 03, 26, 07, 06, 31, 11
  PDOP: 0.93
  HDOP: 0.52
  VDOP: 0.77

2024-12-05 10:05:43,150 [INFO] Standard NMEA Message: $GNGSA,A,3,68,78,67,79,85,,,,,,,,0.93,0.52,0.77,2*0C
2024-12-05 10:05:43,152 [INFO] GSA - Satellite Info:
  Mode: A
  Mode Fix Type: 3
  Satellites Used: 68, 78, 67, 79, 85
  PDOP: 0.93
  HDOP: 0.52
  VDOP: 0.77

2024-12-05 10:05:43,154 [INFO] Standard NMEA Message: $GNGSA,A,3,06,09,04,31,36,34,05,21,,,,,0.93,0.52,0.77,3*03
2024-12-05 10:05:43,156 [INFO] GSA - Satellite Info:
  Mode: A
  Mode Fix Type: 3
  Satellites Used: 06, 09, 04, 31, 36, 34, 05, 21
  PDOP: 0.93
  HDOP: 0.52
  VDOP: 0.77

2024-12-05 10:05:43,158 [INFO] Standard NMEA Message: $GNGSA,A,3,32,23,20,37,25,41,,,,,,,0.93,0.52,0.77,4*0D
2024-12-05 10:05:43,160 [INFO] GSA - Satellite Info:
  Mode: A
  Mode Fix Type: 3
  Satellites Used: 32, 23, 20, 37, 25, 41
  PDOP: 0.93
  HDOP: 0.52
  VDOP: 0.77

2024-12-05 10:05:43,164 [INFO] Standard NMEA Message: $GPGSV,3,1,12,04,82,051,39,09,61,297,39,16,46,103,37,03,38,173,35,1*65
2024-12-05 10:05:43,167 [INFO] GSV - Satellites in View:
  Number of Messages: 3
  Message Number: 1
  Total Satellites in View: 12
  Satellite 1 PRN: 04 - Elevation: 82° - Azimuth: 051° - SNR: 39 dB
  Satellite 2 PRN: 09 - Elevation: 61° - Azimuth: 297° - SNR: 39 dB
  Satellite 3 PRN: 16 - Elevation: 46° - Azimuth: 103° - SNR: 37 dB
  Satellite 4 PRN: 03 - Elevation: 38° - Azimuth: 173° - SNR: 35 dB

2024-12-05 10:05:43,190 [INFO] Standard NMEA Message: $GPGSV,3,2,12,26,35,060,35,48,33,182,34,07,32,237,34,06,21,280,29,1*67
2024-12-05 10:05:43,204 [INFO] GSV - Satellites in View:
  Number of Messages: 3
  Message Number: 2
  Total Satellites in View: 12
  Satellite 1 PRN: 26 - Elevation: 35° - Azimuth: 060° - SNR: 35 dB
  Satellite 2 PRN: 48 - Elevation: 33° - Azimuth: 182° - SNR: 34 dB
  Satellite 3 PRN: 07 - Elevation: 32° - Azimuth: 237° - SNR: 34 dB
  Satellite 4 PRN: 06 - Elevation: 21° - Azimuth: 280° - SNR: 29 dB

2024-12-05 10:05:43,216 [INFO] Standard NMEA Message: $GPGSV,3,3,12,31,20,059,30,11,14,319,30,29,03,017,22,20,01,328,23,1*60
2024-12-05 10:05:43,230 [INFO] GSV - Satellites in View:
  Number of Messages: 3
  Message Number: 3
  Total Satellites in View: 12
  Satellite 1 PRN: 31 - Elevation: 20° - Azimuth: 059° - SNR: 30 dB
  Satellite 2 PRN: 11 - Elevation: 14° - Azimuth: 319° - SNR: 30 dB
  Satellite 3 PRN: 29 - Elevation: 03° - Azimuth: 017° - SNR: 22 dB
  Satellite 4 PRN: 20 - Elevation: 01° - Azimuth: 328° - SNR: 23 dB

2024-12-05 10:05:43,248 [INFO] Standard NMEA Message: $GLGSV,2,1,06,68,78,006,30,78,68,162,19,67,41,118,27,79,19,198,26,1*7E
2024-12-05 10:05:43,261 [INFO] GSV - Satellites in View:
  Number of Messages: 2
  Message Number: 1
  Total Satellites in View: 06
  Satellite 1 PRN: 68 - Elevation: 78° - Azimuth: 006° - SNR: 30 dB
  Satellite 2 PRN: 78 - Elevation: 68° - Azimuth: 162° - SNR: 19 dB
  Satellite 3 PRN: 67 - Elevation: 41° - Azimuth: 118° - SNR: 27 dB
  Satellite 4 PRN: 79 - Elevation: 19° - Azimuth: 198° - SNR: 26 dB

2024-12-05 10:05:43,273 [INFO] Standard NMEA Message: $GLGSV,2,2,06,84,14,292,,85,13,344,24,1*74
2024-12-05 10:05:43,284 [INFO] GSV - Satellites in View:
  Number of Messages: 2
  Message Number: 2
  Total Satellites in View: 06
  Satellite 1 PRN: 84 - Elevation: 14° - Azimuth: 292° - SNR:  dB
  Satellite 2 PRN: 85 - Elevation: 13° - Azimuth: 344° - SNR: 24 dB
  Satellite 3 PRN: 1 - Elevation: ° - Azimuth: ° - SNR:  dB
  Satellite 4 PRN:  - Elevation: ° - Azimuth: ° - SNR:  dB

2024-12-05 10:05:43,298 [INFO] Standard NMEA Message: $GAGSV,3,1,10,06,79,072,35,09,72,304,35,04,53,095,32,31,37,150,29,7*70
2024-12-05 10:05:43,308 [INFO] GSV - Satellites in View:
  Number of Messages: 3
  Message Number: 1
  Total Satellites in View: 10
  Satellite 1 PRN: 06 - Elevation: 79° - Azimuth: 072° - SNR: 35 dB
  Satellite 2 PRN: 09 - Elevation: 72° - Azimuth: 304° - SNR: 35 dB
  Satellite 3 PRN: 04 - Elevation: 53° - Azimuth: 095° - SNR: 32 dB
  Satellite 4 PRN: 31 - Elevation: 37° - Azimuth: 150° - SNR: 29 dB

2024-12-05 10:05:43,319 [INFO] Standard NMEA Message: $GAGSV,3,2,10,36,22,254,26,34,21,308,26,05,18,286,28,21,12,033,23,7*71
2024-12-05 10:05:43,329 [INFO] GSV - Satellites in View:
  Number of Messages: 3
  Message Number: 2
  Total Satellites in View: 10
  Satellite 1 PRN: 36 - Elevation: 22° - Azimuth: 254° - SNR: 26 dB
  Satellite 2 PRN: 34 - Elevation: 21° - Azimuth: 308° - SNR: 26 dB
  Satellite 3 PRN: 05 - Elevation: 18° - Azimuth: 286° - SNR: 28 dB
  Satellite 4 PRN: 21 - Elevation: 12° - Azimuth: 033° - SNR: 23 dB

2024-12-05 10:05:43,335 [INFO] Standard NMEA Message: $GAGSV,3,3,10,11,02,211,10,24,01,186,13,7*79
2024-12-05 10:05:43,337 [INFO] GSV - Satellites in View:
  Number of Messages: 3
  Message Number: 3
  Total Satellites in View: 10
  Satellite 1 PRN: 11 - Elevation: 02° - Azimuth: 211° - SNR: 10 dB
  Satellite 2 PRN: 24 - Elevation: 01° - Azimuth: 186° - SNR: 13 dB
  Satellite 3 PRN: 7 - Elevation: ° - Azimuth: ° - SNR:  dB
  Satellite 4 PRN:  - Elevation: ° - Azimuth: ° - SNR:  dB

2024-12-05 10:05:43,344 [INFO] Standard NMEA Message: $GBGSV,3,1,09,32,81,179,41,23,71,118,40,20,36,306,37,37,36,204,36,1*70
2024-12-05 10:05:43,345 [INFO] GSV - Satellites in View:
  Number of Messages: 3
  Message Number: 1
  Total Satellites in View: 09
  Satellite 1 PRN: 32 - Elevation: 81° - Azimuth: 179° - SNR: 41 dB
  Satellite 2 PRN: 23 - Elevation: 71° - Azimuth: 118° - SNR: 40 dB
  Satellite 3 PRN: 20 - Elevation: 36° - Azimuth: 306° - SNR: 37 dB
  Satellite 4 PRN: 37 - Elevation: 36° - Azimuth: 204° - SNR: 36 dB

2024-12-05 10:05:43,348 [INFO] Standard NMEA Message: $GBGSV,3,2,09,25,29,052,36,41,27,135,34,38,03,332,24,04,01,262,,1*7F
2024-12-05 10:05:43,353 [INFO] GSV - Satellites in View:
  Number of Messages: 3
  Message Number: 2
  Total Satellites in View: 09
  Satellite 1 PRN: 25 - Elevation: 29° - Azimuth: 052° - SNR: 36 dB
  Satellite 2 PRN: 41 - Elevation: 27° - Azimuth: 135° - SNR: 34 dB
  Satellite 3 PRN: 38 - Elevation: 03° - Azimuth: 332° - SNR: 24 dB
  Satellite 4 PRN: 04 - Elevation: 01° - Azimuth: 262° - SNR:  dB

2024-12-05 10:05:43,356 [INFO] Standard NMEA Message: $GBGSV,3,3,09,35,01,338,,1*40
2024-12-05 10:05:43,357 [INFO] GSV - Satellites in View:
  Number of Messages: 3
  Message Number: 3
  Total Satellites in View: 09
  Satellite 1 PRN: 35 - Elevation: 01° - Azimuth: 338° - SNR:  dB
  Satellite 2 PRN: 1 - Elevation: ° - Azimuth: ° - SNR:  dB
  Satellite 3 PRN:  - Elevation: ° - Azimuth: ° - SNR:  dB
  Satellite 4 PRN:  - Elevation: ° - Azimuth: ° - SNR:  dB

2024-12-05 10:05:43,359 [INFO] Standard NMEA Message: $GNRMC,180544.000,A,4910.426434,N,12304.400136,W,0.03,0.00,051224,,,D,V*19
2024-12-05 10:05:43,361 [INFO] RMC - Recommended Minimum:
  Timestamp: 18:05:44+00:00
  Status: A
  Latitude: 49.1737739 N
  Longitude: -123.0733356 W
  Speed over Ground: 0.03 knots
  Course over Ground: 0.0
  Date: 2024-12-05
  Magnetic Variation:  
  Mode Indicator: D
  Navigational Status: V

2024-12-05 10:05:43,367 [INFO] Standard NMEA Message: $GNVTG,0.00,T,,M,0.03,N,0.06,K,D*23
2024-12-05 10:05:43,378 [INFO] VTG - Course over Ground and Ground Speed:
  True Track: 0.0° T
  Magnetic Track: None° M
  Speed over Ground: 0.03 knots / 0.06 km/h
  FAA Mode: D

2024-12-05 10:05:44,141 [INFO] Standard NMEA Message: $GNGGA,180545.000,4910.426428,N,12304.400136,W,2,28,0.52,9.521,M,-16.816,M,,*4F
2024-12-05 10:05:44,154 [INFO] GGA - Fix Data:
  Timestamp: 18:05:45+00:00
  Latitude: 49.1737738 N
  Longitude: -123.0733356 W
  GPS Quality Indicator: 2
  Number of Satellites in Use: 28
  Horizontal Dilution of Precision (HDOP): 0.52
  Antenna Altitude (Above Mean Sea Level): 9.521 M
  Geoidal Separation: -16.816 M
  Age of Differential GPS Data: 
  Differential Reference Station ID: 

2024-12-05 10:05:44,181 [INFO] Standard NMEA Message: $GNGLL,4910.426428,N,12304.400136,W,180545.000,A,D*5B
2024-12-05 10:05:44,194 [INFO] GLL - Geographic Position:
  Latitude: 49.1737738 N
  Longitude: -123.0733356 W
  Timestamp: 18:05:45+00:00
  Status: A
  FAA Mode: D

2024-12-05 10:05:44,208 [INFO] Standard NMEA Message: $GNGSA,A,3,04,09,16,03,26,07,06,31,11,,,,0.93,0.52,0.77,1*02
2024-12-05 10:05:44,222 [INFO] GSA - Satellite Info:
  Mode: A
  Mode Fix Type: 3
  Satellites Used: 04, 09, 16, 03, 26, 07, 06, 31, 11
  PDOP: 0.93
  HDOP: 0.52
  VDOP: 0.77

2024-12-05 10:05:44,237 [INFO] Standard NMEA Message: $GNGSA,A,3,68,78,67,79,85,,,,,,,,0.93,0.52,0.77,2*0C
2024-12-05 10:05:44,247 [INFO] GSA - Satellite Info:
  Mode: A
  Mode Fix Type: 3
  Satellites Used: 68, 78, 67, 79, 85
  PDOP: 0.93
  HDOP: 0.52
  VDOP: 0.77

2024-12-05 10:05:44,258 [INFO] Standard NMEA Message: $GNGSA,A,3,06,09,04,31,36,34,05,21,,,,,0.93,0.52,0.77,3*03
2024-12-05 10:05:44,272 [INFO] GSA - Satellite Info:
  Mode: A
  Mode Fix Type: 3
  Satellites Used: 06, 09, 04, 31, 36, 34, 05, 21
  PDOP: 0.93
  HDOP: 0.52
  VDOP: 0.77

2024-12-05 10:05:44,282 [INFO] Standard NMEA Message: $GNGSA,A,3,32,23,20,37,25,41,,,,,,,0.93,0.52,0.77,4*0D
2024-12-05 10:05:44,293 [INFO] GSA - Satellite Info:
  Mode: A
  Mode Fix Type: 3
  Satellites Used: 32, 23, 20, 37, 25, 41
  PDOP: 0.93
  HDOP: 0.52
  VDOP: 0.77

2024-12-05 10:05:44,307 [INFO] Standard NMEA Message: $GPGSV,3,1,12,04,82,051,39,09,61,297,39,16,46,103,37,03,38,173,36,1*66
2024-12-05 10:05:44,317 [INFO] GSV - Satellites in View:
  Number of Messages: 3
  Message Number: 1
  Total Satellites in View: 12
  Satellite 1 PRN: 04 - Elevation: 82° - Azimuth: 051° - SNR: 39 dB
  Satellite 2 PRN: 09 - Elevation: 61° - Azimuth: 297° - SNR: 39 dB
  Satellite 3 PRN: 16 - Elevation: 46° - Azimuth: 103° - SNR: 37 dB
  Satellite 4 PRN: 03 - Elevation: 38° - Azimuth: 173° - SNR: 36 dB

2024-12-05 10:05:44,333 [INFO] Standard NMEA Message: $GPGSV,3,2,12,26,35,060,35,48,33,182,34,07,32,237,34,06,21,280,29,1*67
2024-12-05 10:05:44,342 [INFO] GSV - Satellites in View:
  Number of Messages: 3
  Message Number: 2
  Total Satellites in View: 12
  Satellite 1 PRN: 26 - Elevation: 35° - Azimuth: 060° - SNR: 35 dB
  Satellite 2 PRN: 48 - Elevation: 33° - Azimuth: 182° - SNR: 34 dB
  Satellite 3 PRN: 07 - Elevation: 32° - Azimuth: 237° - SNR: 34 dB
  Satellite 4 PRN: 06 - Elevation: 21° - Azimuth: 280° - SNR: 29 dB

2024-12-05 10:05:44,354 [INFO] Standard NMEA Message: $GPGSV,3,3,12,31,20,059,30,11,14,319,30,29,03,017,22,20,01,328,23,1*60
2024-12-05 10:05:44,359 [INFO] GSV - Satellites in View:
  Number of Messages: 3
  Message Number: 3
  Total Satellites in View: 12
  Satellite 1 PRN: 31 - Elevation: 20° - Azimuth: 059° - SNR: 30 dB
  Satellite 2 PRN: 11 - Elevation: 14° - Azimuth: 319° - SNR: 30 dB
  Satellite 3 PRN: 29 - Elevation: 03° - Azimuth: 017° - SNR: 22 dB
  Satellite 4 PRN: 20 - Elevation: 01° - Azimuth: 328° - SNR: 23 dB

2024-12-05 10:05:44,370 [INFO] Standard NMEA Message: $GLGSV,2,1,06,68,78,006,29,78,68,162,19,67,41,118,26,79,19,198,25,1*74
2024-12-05 10:05:44,376 [INFO] GSV - Satellites in View:
  Number of Messages: 2
  Message Number: 1
  Total Satellites in View: 06
  Satellite 1 PRN: 68 - Elevation: 78° - Azimuth: 006° - SNR: 29 dB
  Satellite 2 PRN: 78 - Elevation: 68° - Azimuth: 162° - SNR: 19 dB
  Satellite 3 PRN: 67 - Elevation: 41° - Azimuth: 118° - SNR: 26 dB
  Satellite 4 PRN: 79 - Elevation: 19° - Azimuth: 198° - SNR: 25 dB

2024-12-05 10:05:44,383 [INFO] Standard NMEA Message: $GLGSV,2,2,06,84,14,292,,85,13,344,23,1*73
2024-12-05 10:05:44,395 [INFO] GSV - Satellites in View:
  Number of Messages: 2
  Message Number: 2
  Total Satellites in View: 06
  Satellite 1 PRN: 84 - Elevation: 14° - Azimuth: 292° - SNR:  dB
  Satellite 2 PRN: 85 - Elevation: 13° - Azimuth: 344° - SNR: 23 dB
  Satellite 3 PRN: 1 - Elevation: ° - Azimuth: ° - SNR:  dB
  Satellite 4 PRN:  - Elevation: ° - Azimuth: ° - SNR:  dB

2024-12-05 10:05:44,402 [INFO] Standard NMEA Message: $GAGSV,3,1,10,06,79,072,35,09,72,304,35,04,53,095,32,31,37,150,29,7*70
2024-12-05 10:05:44,412 [INFO] GSV - Satellites in View:
  Number of Messages: 3
  Message Number: 1
  Total Satellites in View: 10
  Satellite 1 PRN: 06 - Elevation: 79° - Azimuth: 072° - SNR: 35 dB
  Satellite 2 PRN: 09 - Elevation: 72° - Azimuth: 304° - SNR: 35 dB
  Satellite 3 PRN: 04 - Elevation: 53° - Azimuth: 095° - SNR: 32 dB
  Satellite 4 PRN: 31 - Elevation: 37° - Azimuth: 150° - SNR: 29 dB

2024-12-05 10:05:44,415 [INFO] Standard NMEA Message: $GAGSV,3,2,10,36,22,254,27,34,21,308,26,05,18,286,28,21,12,033,23,7*70
2024-12-05 10:05:44,421 [INFO] GSV - Satellites in View:
  Number of Messages: 3
  Message Number: 2
  Total Satellites in View: 10
  Satellite 1 PRN: 36 - Elevation: 22° - Azimuth: 254° - SNR: 27 dB
  Satellite 2 PRN: 34 - Elevation: 21° - Azimuth: 308° - SNR: 26 dB
  Satellite 3 PRN: 05 - Elevation: 18° - Azimuth: 286° - SNR: 28 dB
  Satellite 4 PRN: 21 - Elevation: 12° - Azimuth: 033° - SNR: 23 dB

2024-12-05 10:05:44,434 [INFO] Standard NMEA Message: $GAGSV,3,3,10,11,02,211,10,24,01,186,13,7*79
2024-12-05 10:05:44,440 [INFO] GSV - Satellites in View:
  Number of Messages: 3
  Message Number: 3
  Total Satellites in View: 10
  Satellite 1 PRN: 11 - Elevation: 02° - Azimuth: 211° - SNR: 10 dB
  Satellite 2 PRN: 24 - Elevation: 01° - Azimuth: 186° - SNR: 13 dB
  Satellite 3 PRN: 7 - Elevation: ° - Azimuth: ° - SNR:  dB
  Satellite 4 PRN:  - Elevation: ° - Azimuth: ° - SNR:  dB

2024-12-05 10:05:44,452 [INFO] Standard NMEA Message: $GBGSV,3,1,09,32,81,179,41,23,71,118,40,20,36,306,37,37,36,204,36,1*70
2024-12-05 10:05:44,465 [INFO] GSV - Satellites in View:
  Number of Messages: 3
  Message Number: 1
  Total Satellites in View: 09
  Satellite 1 PRN: 32 - Elevation: 81° - Azimuth: 179° - SNR: 41 dB
  Satellite 2 PRN: 23 - Elevation: 71° - Azimuth: 118° - SNR: 40 dB
  Satellite 3 PRN: 20 - Elevation: 36° - Azimuth: 306° - SNR: 37 dB
  Satellite 4 PRN: 37 - Elevation: 36° - Azimuth: 204° - SNR: 36 dB

2024-12-05 10:05:44,476 [INFO] Standard NMEA Message: $GBGSV,3,2,09,25,29,052,36,41,27,135,34,38,03,332,24,04,01,262,,1*7F
2024-12-05 10:05:44,486 [INFO] GSV - Satellites in View:
  Number of Messages: 3
  Message Number: 2
  Total Satellites in View: 09
  Satellite 1 PRN: 25 - Elevation: 29° - Azimuth: 052° - SNR: 36 dB
  Satellite 2 PRN: 41 - Elevation: 27° - Azimuth: 135° - SNR: 34 dB
  Satellite 3 PRN: 38 - Elevation: 03° - Azimuth: 332° - SNR: 24 dB
  Satellite 4 PRN: 04 - Elevation: 01° - Azimuth: 262° - SNR:  dB

2024-12-05 10:05:44,500 [INFO] Standard NMEA Message: $GBGSV,3,3,09,35,01,338,,1*40
2024-12-05 10:05:44,511 [INFO] GSV - Satellites in View:
  Number of Messages: 3
  Message Number: 3
  Total Satellites in View: 09
  Satellite 1 PRN: 35 - Elevation: 01° - Azimuth: 338° - SNR:  dB
  Satellite 2 PRN: 1 - Elevation: ° - Azimuth: ° - SNR:  dB
  Satellite 3 PRN:  - Elevation: ° - Azimuth: ° - SNR:  dB
  Satellite 4 PRN:  - Elevation: ° - Azimuth: ° - SNR:  dB

2024-12-05 10:05:44,525 [INFO] Standard NMEA Message: $GNRMC,180545.000,A,4910.426428,N,12304.400136,W,0.03,0.00,051224,,,D,V*15
2024-12-05 10:05:44,538 [INFO] RMC - Recommended Minimum:
  Timestamp: 18:05:45+00:00
  Status: A
  Latitude: 49.1737738 N
  Longitude: -123.0733356 W
  Speed over Ground: 0.03 knots
  Course over Ground: 0.0
  Date: 2024-12-05
  Magnetic Variation:  
  Mode Indicator: D
  Navigational Status: V

2024-12-05 10:05:44,552 [INFO] Standard NMEA Message: $GNVTG,0.00,T,,M,0.03,N,0.06,K,D*23
2024-12-05 10:05:44,564 [INFO] VTG - Course over Ground and Ground Speed:
  True Track: 0.0° T
  Magnetic Track: None° M
  Speed over Ground: 0.03 knots / 0.06 km/h
  FAA Mode: D

2024-12-05 10:05:45,133 [INFO] Standard NMEA Message: $GNGGA,180546.000,4910.426458,N,12304.400124,W,2,28,0.52,9.365,M,-16.817,M,,*4F
2024-12-05 10:05:45,147 [INFO] GGA - Fix Data:
  Timestamp: 18:05:46+00:00
  Latitude: 49.1737743 N
  Longitude: -123.0733354 W
  GPS Quality Indicator: 2
  Number of Satellites in Use: 28
  Horizontal Dilution of Precision (HDOP): 0.52
  Antenna Altitude (Above Mean Sea Level): 9.365 M
  Geoidal Separation: -16.817 M
  Age of Differential GPS Data: 
  Differential Reference Station ID: 

2024-12-05 10:05:45,167 [INFO] Standard NMEA Message: $GNGLL,4910.426458,N,12304.400124,W,180546.000,A,D*5C
2024-12-05 10:05:45,177 [INFO] GLL - Geographic Position:
  Latitude: 49.1737743 N
  Longitude: -123.0733354 W
  Timestamp: 18:05:46+00:00
  Status: A
  FAA Mode: D

2024-12-05 10:05:45,189 [INFO] Standard NMEA Message: $GNGSA,A,3,04,09,16,03,26,07,06,31,11,,,,0.93,0.52,0.77,1*02
2024-12-05 10:05:45,200 [INFO] GSA - Satellite Info:
  Mode: A
  Mode Fix Type: 3
  Satellites Used: 04, 09, 16, 03, 26, 07, 06, 31, 11
  PDOP: 0.93
  HDOP: 0.52
  VDOP: 0.77

2024-12-05 10:05:45,212 [INFO] Standard NMEA Message: $GNGSA,A,3,68,78,67,79,85,,,,,,,,0.93,0.52,0.77,2*0C
2024-12-05 10:05:45,221 [INFO] GSA - Satellite Info:
  Mode: A
  Mode Fix Type: 3
  Satellites Used: 68, 78, 67, 79, 85
  PDOP: 0.93
  HDOP: 0.52
  VDOP: 0.77

2024-12-05 10:05:45,241 [INFO] Standard NMEA Message: $GNGSA,A,3,06,09,04,31,36,34,05,21,,,,,0.93,0.52,0.77,3*03
2024-12-05 10:05:45,250 [INFO] GSA - Satellite Info:
  Mode: A
  Mode Fix Type: 3
  Satellites Used: 06, 09, 04, 31, 36, 34, 05, 21
  PDOP: 0.93
  HDOP: 0.52
  VDOP: 0.77

2024-12-05 10:05:45,264 [INFO] Standard NMEA Message: $GNGSA,A,3,32,23,20,37,25,41,,,,,,,0.93,0.52,0.77,4*0D
