$GNGGA,180539.000,4910.426692,N,12304.399830,W,2,28,0.52,10.311,M,-16.816,M,,*72
$GNGLL,4910.426692,N,12304.399830,W,180539.000,A,D*5B
$GNGSA,A,3,04,09,16,03,26,07,06,31,11,,,,0.93,0.52,0.77,1*02
$GNGSA,A,3,68,78,67,79,85,,,,,,,,0.93,0.52,0.77,2*0C
$GNGSA,A,3,06,09,04,31,36,34,05,21,,,,,0.93,0.52,0.77,3*03
$GNGSA,A,3,32,23,20,37,25,41,,,,,,,0.93,0.52,0.77,4*0D
$GPGSV,3,1,12,04,82,051,39,09,61,297,39,16,46,103,37,03,38,173,35,1*65
$GPGSV,3,2,12,26,35,060,34,48,33,182,34,07,32,237,34,06,21,280,28,1*67
$GPGSV,3,3,12,31,20,059,30,11,14,319,30,29,03,017,22,20,01,328,23,1*60
$GLGSV,2,1,06,68,78,006,30,78,68,162,19,67,41,118,28,79,19,198,27,1*70
$GLGSV,2,2,06,84,14,292,,85,13,344,24,1*74
$GAGSV,3,1,10,06,79,072,35,09,72,304,35,04,53,095,32,31,37,150,29,7*70
$GAGSV,3,2,10,36,22,254,26,34,21,308,26,05,18,286,27,21,12,033,23,7*7E
$GAGSV,3,3,10,11,02,211,10,24,01,186,12,7*78
$GBGSV,3,1,09,32,81,179,41,23,71,118,40,20,36,306,37,37,35,204,36,1*73
$GBGSV,3,2,09,25,29,052,36,41,28,134,34,38,03,332,24,04,01,262,,1*71
$GBGSV,3,3,09,35,01,338,,1*40
$GNRMC,180539.000,A,4910.426692,N,12304.399830,W,0.02,0.00,051224,,,D,V*14
$GNVTG,0.00,T,,M,0.02,N,0.03,K,D*27
$GNGGA,180540.000,4910.426644,N,12304.399902,W,2,28,0.52,10.260,M,-16.816,M,,*70
$GNGLL,4910.426644,N,12304.399902,W,180540.000,A,D*5E
$GNGSA,A,3,04,09,16,03,26,07,06,31,11,,,,0.93,0.52,0.77,1*02
$GNGSA,A,3,68,78,67,79,85,,,,,,,,0.93,0.52,0.77,2*0C
$GNGSA,A,3,06,09,04,31,36,34,05,21,,,,,0.93,0.52,0.77,3*03
$GNGSA,A,3,32,23,20,37,25,41,,,,,,,0.93,0.52,0.77,4*0D
$GPGSV,3,1,12,04,82,051,39,09,61,297,39,16,46,103,37,03,38,173,35,1*65
$GPGSV,3,2,12,26,35,060,34,48,33,182,34,07,32,237,34,06,21,280,28,1*67
$GPGSV,3,3,12,31,20,059,30,11,14,319,30,29,03,017,22,20,01,328,24,1*67
$GLGSV,2,1,06,68,78,006,30,78,68,162,20,67,41,118,28,79,19,198,27,1*7A
$GLGSV,2,2,06,84,14,292,,85,13,344,24,1*74
$GAGSV,3,1,10,06,79,072,35,09,72,304,35,04,53,095,32,31,37,150,29,7*70
$GAGSV,3,2,10,36,22,254,26,34,21,308,26,05,18,286,27,21,12,033,23,7*7E
$GAGSV,3,3,10,11,02,211,10,24,01,186,12,7*78
$GBGSV,3,1,09,32,81,179,41,23,71,118,40,20,36,306,37,37,36,204,36,1*70
$GBGSV,3,2,09,25,29,052,36,41,28,134,34,38,03,332,24,04,01,262,,1*71
$GBGSV,3,3,09,35,01,338,,1*40
$GNRMC,180540.000,A,4910.426644,N,12304.399902,W,0.02,0.00,051224,,,D,V*11
$GNVTG,0.00,T,,M,0.02,N,0.03,K,D*27
$GNGGA,180541.000,4910.426614,N,12304.399950,W,2,28,0.52,10.193,M,-16.816,M,,*7C
$GNGLL,4910.426614,N,12304.399950,W,180541.000,A,D*5D
$GNGSA,A,3,04,09,16,03,26,07,06,31,11,,,,0.93,0.52,0.77,1*02
$GNGSA,A,3,68,78,67,79,85,,,,,,,,0.93,0.52,0.77,2*0C
$GNGSA,A,3,06,09,04,31,36,34,05,21,,,,,0.93,0.52,0.77,3*03
$GNGSA,A,3,32,23,20,37,25,41,,,,,,,0.93,0.52,0.77,4*0D
$GPGSV,3,1,12,04,82,051,39,09,61,297,39,16,46,103,37,03,38,173,35,1*65
$GPGSV,3,2,12,26,35,060,34,48,33,182,34,07,32,237,34,06,21,280,29,1*66
$GPGSV,3,3,12,31,20,059,30,11,14,319,30,29,03,017,22,20,01,328,24,1*67
$GLGSV,2,1,06,68,78,006,30,78,68,162,20,67,41,118,28,79,19,198,27,1*7A
$GLGSV,2,2,06,84,14,292,,85,13,344,24,1*74
$GAGSV,3,1,10,06,79,072,35,09,72,304,35,04,53,095,32,31,37,150,29,7*70
$GAGSV,3,2,10,36,22,254,26,34,21,308,26,05,18,286,27,21,12,033,23,7*7E
$GAGSV,3,3,10,11,02,211,10,24,01,186,11,7*7B
$GBGSV,3,1,09,32,81,179,41,23,71,118,40,20,36,306,37,37,36,204,36,1*70
$GBGSV,3,2,09,25,29,052,36,41,28,134,34,38,03,332,24,04,01,262,,1*71
$GBGSV,3,3,09,35,01,338,,1*40
$GNRMC,180541.000,A,4910.426614,N,12304.399950,W,0.02,0.00,051224,,,D,V*12
$GNVTG,0.00,T,,M,0.02,N,0.03,K,D*27
$GNGGA,180542.000,4910.426548,N,12304.400034,W,2,28,0.52,10.071,M,-16.816,M,,*74
$GNGLL,4910.426548,N,12304.400034,W,180542.000,A,D*58
$GNGSA,A,3,04,09,16,03,26,07,06,31,11,,,,0.93,0.52,0.77,1*02
$GNGSA,A,3,68,78,67,79,85,,,,,,,,0.93,0.52,0.77,2*0C
$GNGSA,A,3,06,09,04,31,36,34,05,21,,,,,0.93,0.52,0.77,3*03
$GNGSA,A,3,32,23,20,37,25,41,,,,,,,0.93,0.52,0.77,4*0D
$GPGSV,3,1,12,04,82,051,39,09,61,297,39,16,46,103,37,03,38,173,35,1*65
$GPGSV,3,2,12,26,35,060,34,48,33,182,34,07,32,237,34,06,21,280,29,1*66
$GPGSV,3,3,12,31,20,059,30,11,14,319,30,29,03,017,22,20,01,328,23,1*60
$GLGSV,2,1,06,68,78,006,30,78,68,162,20,67,41,118,28,79,19,198,26,1*7B
$GLGSV,2,2,06,84,14,292,,85,13,344,24,1*74
$GAGSV,3,1,10,06,79,072,35,09,72,304,35,04,53,095,32,31,37,150,29,7*70
$GAGSV,3,2,10,36,22,254,26,34,21,308,26,05,18,286,27,21,12,033,23,7*7E
$GAGSV,3,3,10,11,02,211,11,24,01,186,11,7*7A
$GBGSV,3,1,09,32,81,179,41,23,71,118,40,20,36,306,37,37,36,204,36,1*70
$GBGSV,3,2,09,25,29,052,36,41,28,134,34,38,03,332,24,04,01,262,,1*71
$GBGSV,3,3,09,35,01,338,,1*40
$GNRMC,180542.000,A,4910.426548,N,12304.400034,W,0.02,0.00,051224,,,D,V*17
$GNVTG,0.00,T,,M,0.02,N,0.04,K,D*20
$GNGGA,180543.000,4910.426464,N,12304.400100,W,2,28,0.52,9.857,M,-16.816,M,,*48
$GNGLL,4910.426464,N,12304.400100,W,180543.000,A,D*50
$GNGSA,A,3,04,09,16,03,26,07,06,31,11,,,,0.80,0.52,0.61,1*07
$GNGSA,A,3,68,78,67,79,85,,,,,,,,0.80,0.52,0.61,2*09
$GNGSA,A,3,06,09,04,31,36,34,05,21,,,,,0.80,0.52,0.61,3*06
$GNGSA,A,3,32,23,20,37,25,41,,,,,,,0.80,0.52,0.61,4*08
$GPGSV,3,1,12,04,82,051,39,09,61,297,39,16,46,103,37,03,38,173,35,1*65
$GPGSV,3,2,12,26,35,060,34,48,33,182,34,07,32,237,34,06,21,280,29,1*66
$GPGSV,3,3,12,31,20,059,30,11,14,319,30,29,03,017,22,20,01,328,23,1*60
$GLGSV,2,1,06,68,78,006,29,78,68,162,19,67,41,118,27,79,19,198,25,1*75
$GLGSV,2,2,06,84,14,292,,85,13,344,24,1*74
$GAGSV,3,1,10,06,79,072,35,09,72,304,35,04,53,095,32,31,37,150,29,7*70
$GAGSV,3,2,10,36,22,254,26,34,21,308,26,05,18,286,28,21,12,033,23,7*71
$GAGSV,3,3,10,11,02,211,11,24,01,186,12,7*79
$GBGSV,3,1,09,32,81,179,41,23,71,118,40,20,36,306,37,37,36,204,36,1*70
$GBGSV,3,2,09,25,29,052,36,41,28,134,34,38,03,332,24,04,01,262,,1*71
$GBGSV,3,3,09,35,01,338,,1*40
$GNRMC,180543.000,A,4910.426464,N,12304.400100,W,0.03,0.00,051224,,,D,V*1E
$GNVTG,0.00,T,,M,0.03,N,0.06,K,D*23
$GNGGA,180544.000,4910.426434,N,12304.400136,W,2,28,0.52,9.665,M,-16.816,M,,*40
$GNGLL,4910.426434,N,12304.400136,W,180544.000,A,D*57
$GNGSA,A,3,04,09,16,03,26,07,06,31,11,,,,0.93,0.52,0.77,1*02
$GNGSA,A,3,68,78,67,79,85,,,,,,,,0.93,0.52,0.77,2*0C
$GNGSA,A,3,06,09,04,31,36,34,05,21,,,,,0.93,0.52,0.77,3*03
$GNGSA,A,3,32,23,20,37,25,41,,,,,,,0.93,0.52,0.77,4*0D
$GPGSV,3,1,12,04,82,051,39,09,61,297,39,16,46,103,37,03,38,173,35,1*65
$GPGSV,3,2,12,26,35,060,35,48,33,182,34,07,32,237,34,06,21,280,29,1*67
$GPGSV,3,3,12,31,20,059,30,11,14,319,30,29,03,017,22,20,01,328,23,1*60
$GLGSV,2,1,06,68,78,006,30,78,68,162,19,67,41,118,27,79,19,198,26,1*7E
$GLGSV,2,2,06,84,14,292,,85,13,344,24,1*74
$GAGSV,3,1,10,06,79,072,35,09,72,304,35,04,53,095,32,31,37,150,29,7*70
$GAGSV,3,2,10,36,22,254,26,34,21,308,26,05,18,286,28,21,12,033,23,7*71
$GAGSV,3,3,10,11,02,211,10,24,01,186,13,7*79
$GBGSV,3,1,09,32,81,179,41,23,71,118,40,20,36,306,37,37,36,204,36,1*70
$GBGSV,3,2,09,25,29,052,36,41,27,135,34,38,03,332,24,04,01,262,,1*7F
$GBGSV,3,3,09,35,01,338,,1*40
$GNRMC,180544.000,A,4910.426434,N,12304.400136,W,0.03,0.00,051224,,,D,V*19
$GNVTG,0.00,T,,M,0.03,N,0.06,K,D*23
$GNGGA,180545.000,4910.426428,N,12304.400136,W,2,28,0.52,9.521,M,-16.816,M,,*4F
$GNGLL,4910.426428,N,12304.400136,W,180545.000,A,D*5B
$GNGSA,A,3,04,09,16,03,26,07,06,31,11,,,,0.93,0.52,0.77,1*02
$GNGSA,A,3,68,78,67,79,85,,,,,,,,0.93,0.52,0.77,2*0C
$GNGSA,A,3,06,09,04,31,36,34,05,21,,,,,0.93,0.52,0.77,3*03
$GNGSA,A,3,32,23,20,37,25,41,,,,,,,0.93,0.52,0.77,4*0D
$GPGSV,3,1,12,04,82,051,39,09,61,297,39,16,46,103,37,03,38,173,36,1*66
$GPGSV,3,2,12,26,35,060,35,48,33,182,34,07,32,237,34,06,21,280,29,1*67
$GPGSV,3,3,12,31,20,059,30,11,14,319,30,29,03,017,22,20,01,328,23,1*60
$GLGSV,2,1,06,68,78,006,29,78,68,162,19,67,41,118,26,79,19,198,25,1*74
$GLGSV,2,2,06,84,14,292,,85,13,344,23,1*73
$GAGSV,3,1,10,06,79,072,35,09,72,304,35,04,53,095,32,31,37,150,29,7*70
$GAGSV,3,2,10,36,22,254,27,34,21,308,26,05,18,286,28,21,12,033,23,7*70
$GAGSV,3,3,10,11,02,211,10,24,01,186,13,7*79
$GBGSV,3,1,09,32,81,179,41,23,71,118,40,20,36,306,37,37,36,204,36,1*70
$GBGSV,3,2,09,25,29,052,36,41,27,135,34,38,03,332,24,04,01,262,,1*7F
$GBGSV,3,3,09,35,01,338,,1*40
$GNRMC,180545.000,A,4910.426428,N,12304.400136,W,0.03,0.00,051224,,,D,V*15
$GNVTG,0.00,T,,M,0.03,N,0.06,K,D*23
$GNGGA,180546.000,4910.426458,N,12304.400124,W,2,28,0.52,9.365,M,-16.817,M,,*4F
$GNGLL,4910.426458,N,12304.400124,W,180546.000,A,D*5C
$GNGSA,A,3,04,09,16,03,26,07,06,31,11,,,,0.93,0.52,0.77,1*02
$GNGSA,A,3,68,78,67,79,85,,,,,,,,0.93,0.52,0.77,2*0C
$GNGSA,A,3,06,09,04,31,36,34,05,21,,,,,0.93,0.52,0.77,3*03
$GNGSA,A,3,32,23,20,37,25,41,,,,,,,0.93,0.52,0.77,4*0D
$GPGSV,3,1,12,04,82,051,39,09,61,297,39,16,46,103,37,03,38,173,36,1*66
$GPGSV,3,2,12,26,35,060,35,48,33,182,34,07,32,237,34,06,21,280,29,1*67
$GPGSV,3,3,12,31,20,059,30,11,14,319,30,29,03,017,22,20,01,328,23,1*60
$GLGSV,2,1,06,68,78,006,30,78,68,162,19,67,41,118,27,79,19,198,25,1*7D
$GLGSV,2,2,06,84,14,292,,85,13,344,24,1*74
$GAGSV,3,1,10,06,79,072,35,09,72,304,35,04,53,095,32,31,37,150,29,7*70
$GAGSV,3,2,10,36,22,254,27,34,21,308,26,05,18,286,28,21,12,033,23,7*70
$GAGSV,3,3,10,11,02,211,10,24,01,186,12,7*78
$GBGSV,3,1,09,32,81,179,41,23,71,118,40,20,36,306,37,37,36,204,36,1*70
$GBGSV,3,2,09,25,29,052,36,41,27,135,34,38,03,332,24,04,01,262,,1*7F
$GBGSV,3,3,09,35,01,338,,1*40
$GNRMC,180546.000,A,4910.426458,N,12304.400124,W,0.03,0.00,051224,,,D,V*12
$GNVTG,0.00,T,,M,0.03,N,0.05,K,D*20
$GNGGA,180547.000,4910.426434,N,12304.400184,W,2,28,0.52,9.227,M,-16.816,M,,*48
$GNGLL,4910.426434,N,12304.400184,W,180547.000,A,D*5D
$GNGSA,A,3,04,09,16,03,26,07,06,31,11,,,,0.93,0.52,0.77,1*02
$GNGSA,A,3,68,78,67,79,85,,,,,,,,0.93,0.52,0.77,2*0C
$GNGSA,A,3,06,09,04,31,36,34,05,21,,,,,0.93,0.52,0.77,3*03
$GNGSA,A,3,32,23,20,37,25,41,,,,,,,0.93,0.52,0.77,4*0D
$GPGSV,3,1,12,04,82,051,39,09,61,297,39,16,46,103,37,03,38,173,36,1*66
$GPGSV,3,2,12,26,35,060,35,48,33,182,34,07,32,237,34,06,21,280,29,1*67
$GPGSV,3,3,12,31,20,059,30,11,14,319,30,29,03,017,23,20,01,328,23,1*61
$GLGSV,2,1,06,68,78,006,30,78,68,162,19,67,41,118,27,79,19,198,25,1*7D
$GLGSV,2,2,06,84,14,292,,85,13,344,24,1*74
$GAGSV,3,1,10,06,79,072,35,09,72,304,35,04,53,095,32,31,37,150,29,7*70
$GAGSV,3,2,10,36,22,254,27,34,21,308,26,05,18,286,28,21,12,033,23,7*70
$GAGSV,3,3,10,11,02,211,10,24,01,186,12,7*78
$GBGSV,3,1,09,32,81,179,41,23,71,118,40,20,36,306,37,37,36,204,36,1*70
$GBGSV,3,2,09,25,29,052,36,41,27,135,34,38,03,332,24,04,01,262,,1*7F
$GBGSV,3,3,09,35,01,338,,1*40
$GNRMC,180547.000,A,4910.426434,N,12304.400184,W,0.02,0.00,051224,,,D,V*12
$GNVTG,0.00,T,,M,0.02,N,0.04,K,D*20
$GNGGA,180548.000,4910.426410,N,12304.400268,W,2,28,0.52,9.177,M,-16.816,M,,*46
$GNGLL,4910.426410,N,12304.400268,W,180548.000,A,D*55
$GNGSA,A,3,04,09,16,03,26,07,06,31,11,,,,0.93,0.52,0.77,1*02
$GNGSA,A,3,68,78,67,79,85,,,,,,,,0.93,0.52,0.77,2*0C
$GNGSA,A,3,06,09,04,31,36,34,05,21,,,,,0.93,0.52,0.77,3*03
$GNGSA,A,3,32,23,20,37,25,41,,,,,,,0.93,0.52,0.77,4*0D
$GPGSV,3,1,12,04,82,051,39,09,61,297,39,16,46,103,37,03,38,173,36,1*66
$GPGSV,3,2,12,26,35,060,35,48,33,182,34,07,32,237,33,06,21,280,29,1*60
$GPGSV,3,3,12,31,20,059,30,11,14,319,30,29,03,017,23,20,01,328,23,1*61
$GLGSV,2,1,06,68,78,006,30,78,68,162,19,67,41,118,27,79,19,198,25,1*7D
$GLGSV,2,2,06,84,14,292,,85,13,344,24,1*74
$GAGSV,3,1,10,06,79,072,35,09,72,304,35,04,53,095,32,31,37,150,29,7*70
$GAGSV,3,2,10,36,22,254,26,34,21,308,26,05,18,286,28,21,12,033,23,7*71
$GAGSV,3,3,10,11,02,211,09,24,01,186,12,7*70
$GBGSV,3,1,09,32,81,179,41,23,71,118,40,20,36,306,37,37,36,204,36,1*70
$GBGSV,3,2,09,25,29,052,36,41,27,135,34,38,03,332,24,04,01,262,,1*7F
$GBGSV,3,3,09,35,01,338,,1*40
$GNRMC,180548.000,A,4910.426410,N,12304.400268,W,0.02,0.00,051224,,,D,V*1A
$GNVTG,0.00,T,,M,0.02,N,0.03,K,D*27
$GNGGA,180549.000,4910.426392,N,12304.400388,W,2,28,0.52,9.121,M,-16.817,M,,*47
$GNGLL,4910.426392,N,12304.400388,W,180549.000,A,D*56
$GNGSA,A,3,04,09,16,03,26,07,06,31,11,,,,0.93,0.52,0.77,1*02
$GNGSA,A,3,68,78,67,79,85,,,,,,,,0.93,0.52,0.77,2*0C
$GNGSA,A,3,06,09,04,31,36,34,05,21,,,,,0.93,0.52,0.77,3*03
$GNGSA,A,3,32,23,20,37,25,41,,,,,,,0.93,0.52,0.77,4*0D
$GPGSV,3,1,12,04,82,051,39,09,61,297,39,16,46,103,37,03,38,173,36,1*66
$GPGSV,3,2,12,26,35,060,35,48,33,182,34,07,32,237,33,06,21,280,29,1*60
$GPGSV,3,3,12,31,20,059,30,11,14,319,30,29,03,017,23,20,01,328,23,1*61
$GLGSV,2,1,06,68,78,006,30,78,68,162,19,67,41,118,27,79,19,198,25,1*7D
$GLGSV,2,2,06,84,14,292,,85,13,344,24,1*74
$GAGSV,3,1,10,06,79,072,35,09,72,304,35,04,53,095,32,31,37,150,29,7*70
$GAGSV,3,2,10,36,22,254,26,34,21,308,27,05,18,286,28,21,12,033,23,7*70
$GAGSV,3,3,10,11,02,211,09,24,01,186,12,7*70
$GBGSV,3,1,09,32,81,179,41,23,71,118,40,20,36,306,37,37,36,204,36,1*70
$GBGSV,3,2,09,25,29,052,36,41,27,135,34,38,03,332,24,04,01,262,,1*7F
$GBGSV,3,3,09,35,01,338,,1*40
$GNRMC,180549.000,A,4910.426392,N,12304.400388,W,0.02,0.00,051224,,,D,V*19
$GNVTG,0.00,T,,M,0.02,N,0.03,K,D*27
$GNGGA,180550.000,4910.426356,N,12304.400514,W,2,28,0.52,9.164,M,-16.817,M,,*45
$GNGLL,4910.426356,N,12304.400514,W,180550.000,A,D*55
$GNGSA,A,3,04,09,16,03,26,07,06,31,11,,,,0.93,0.52,0.77,1*02
$GNGSA,A,3,68,78,67,79,85,,,,,,,,0.93,0.52,0.77,2*0C
$GNGSA,A,3,06,09,04,31,36,34,05,21,,,,,0.93,0.52,0.77,3*03
$GNGSA,A,3,32,23,20,37,25,41,,,,,,,0.93,0.52,0.77,4*0D
$GPGSV,3,1,12,04,82,051,39,09,61,297,39,16,46,103,37,03,38,173,36,1*66
$GPGSV,3,2,12,26,35,060,35,48,33,182,34,07,32,237,33,06,21,280,29,1*60
$GPGSV,3,3,12,31,20,059,30,11,14,319,30,29,03,017,23,20,01,328,24,1*66
$GLGSV,2,1,06,68,78,006,30,78,68,162,19,67,41,118,27,79,19,198,25,1*7D
$GLGSV,2,2,06,84,14,292,,85,13,344,24,1*74
$GAGSV,3,1,10,06,79,072,35,09,72,304,35,04,53,095,32,31,37,150,29,7*70
$GAGSV,3,2,10,36,22,254,26,34,21,308,27,05,18,286,28,21,12,033,23,7*70
$GAGSV,3,3,10,11,02,211,10,24,01,186,12,7*78
$GBGSV,3,1,09,32,81,179,41,23,71,118,40,20,36,306,37,37,36,204,36,1*70
$GBGSV,3,2,09,25,29,052,36,41,27,135,34,38,03,332,24,04,01,262,,1*7F
$GBGSV,3,3,09,35,01,338,,1*40
$GNRMC,180550.000,A,4910.426356,N,12304.400514,W,0.02,0.00,051224,,,D,V*1A
$GNVTG,0.00,T,,M,0.02,N,0.03,K,D*27
$GNGGA,180551.000,4910.426380,N,12304.400628,W,2,28,0.52,9.262,M,-16.816,M,,*47
$GNGLL,4910.426380,N,12304.400628,W,180551.000,A,D*53
$GNGSA,A,3,04,09,16,03,26,07,06,31,11,,,,0.93,0.52,0.77,1*02
$GNGSA,A,3,68,78,67,79,85,,,,,,,,0.93,0.52,0.77,2*0C
$GNGSA,A,3,06,09,04,31,36,34,05,21,,,,,0.93,0.52,0.77,3*03
$GNGSA,A,3,32,23,20,37,25,41,,,,,,,0.93,0.52,0.77,4*0D
$GPGSV,3,1,12,04,82,051,39,09,61,297,39,16,46,103,37,03,38,173,36,1*66
$GPGSV,3,2,12,26,35,060,35,48,33,182,34,07,32,237,33,06,21,280,29,1*60
$GPGSV,3,3,12,31,20,059,30,11,14,319,30,29,03,017,23,20,01,328,24,1*66
$GLGSV,2,1,06,68,78,006,30,78,68,162,19,67,41,118,27,79,19,198,25,1*7D
$GLGSV,2,2,06,84,14,292,,85,13,344,24,1*74
$GAGSV,3,1,10,06,79,072,35,09,72,304,35,04,53,095,32,31,37,150,30,7*78
$GAGSV,3,2,10,36,22,254,26,34,21,308,27,05,18,286,28,21,12,033,23,7*70
$GAGSV,3,3,10,11,02,211,10,24,01,186,12,7*78
$GBGSV,3,1,09,32,81,179,41,23,71,118,39,20,36,306,37,37,36,204,36,1*7E
$GBGSV,3,2,09,25,29,052,36,41,27,135,34,38,03,332,24,04,01,262,,1*7F
$GBGSV,3,3,09,35,01,338,,1*40
$GNRMC,180551.000,A,4910.426380,N,12304.400628,W,0.02,0.00,051224,,,D,V*1C
$GNVTG,0.00,T,,M,0.02,N,0.03,K,D*27
$GNGGA,180552.000,4910.426386,N,12304.400814,W,2,28,0.52,9.313,M,-16.816,M,,*44
$GNGLL,4910.426386,N,12304.400814,W,180552.000,A,D*57
$GNGSA,A,3,04,09,16,03,26,07,06,31,11,,,,0.93,0.52,0.77,1*02
$GNGSA,A,3,68,78,67,79,85,,,,,,,,0.93,0.52,0.77,2*0C
$GNGSA,A,3,06,09,04,31,36,34,05,21,,,,,0.93,0.52,0.77,3*03
$GNGSA,A,3,32,23,20,37,25,41,,,,,,,0.93,0.52,0.77,4*0D
$GPGSV,3,1,12,04,82,051,39,09,61,297,39,16,46,103,37,03,38,173,36,1*66
$GPGSV,3,2,12,26,35,060,35,48,33,182,34,07,32,237,33,06,21,280,29,1*60
$GPGSV,3,3,12,31,20,059,30,11,14,319,30,29,03,017,23,20,01,328,24,1*66
$GLGSV,2,1,06,68,78,006,30,78,68,162,19,67,41,118,27,79,19,198,25,1*7D
$GLGSV,2,2,06,84,14,292,,85,13,344,24,1*74
$GAGSV,3,1,10,06,79,072,35,09,72,304,35,04,53,095,32,31,37,150,30,7*78
$GAGSV,3,2,10,36,22,254,26,34,21,308,27,05,18,286,27,21,12,033,23,7*7F
$GAGSV,3,3,10,11,02,211,10,24,01,186,12,7*78
$GBGSV,3,1,09,32,81,179,40,23,71,118,39,20,36,306,36,37,36,204,36,1*7E
$GBGSV,3,2,09,25,29,052,36,41,27,135,34,38,03,332,24,04,01,262,,1*7F
$GBGSV,3,3,09,35,01,338,,1*40
$GNRMC,180552.000,A,4910.426386,N,12304.400814,W,0.02,0.00,051224,,,D,V*18
$GNVTG,0.00,T,,M,0.02,N,0.04,K,D*20
$GNGGA,180553.000,4910.426368,N,12304.400934,W,2,28,0.52,9.311,M,-16.816,M,,*44
$GNGLL,4910.426368,N,12304.400934,W,180553.000,A,D*55
$GNGSA,A,3,04,09,16,03,26,07,06,31,11,,,,0.93,0.52,0.77,1*02
$GNGSA,A,3,68,78,67,79,85,,,,,,,,0.93,0.52,0.77,2*0C
$GNGSA,A,3,06,09,04,31,36,34,05,21,,,,,0.93,0.52,0.77,3*03
$GNGSA,A,3,32,23,20,37,25,41,,,,,,,0.93,0.52,0.77,4*0D
$GPGSV,3,1,12,04,82,051,39,09,61,297,39,16,46,103,37,03,38,173,36,1*66
$GPGSV,3,2,12,26,35,060,35,48,33,182,34,07,32,237,33,06,21,280,29,1*60
$GPGSV,3,3,12,31,20,059,30,11,14,319,30,29,03,017,23,20,01,328,24,1*66
$GLGSV,2,1,06,68,78,006,30,78,68,162,19,67,41,118,27,79,19,198,26,1*7E
$GLGSV,2,2,06,84,14,292,,85,13,344,24,1*74
$GAGSV,3,1,10,06,79,072,35,09,72,304,35,04,53,095,32,31,37,150,30,7*78
$GAGSV,3,2,10,36,22,254,26,34,21,308,27,05,18,286,27,21,12,033,23,7*7F
$GAGSV,3,3,10,11,02,211,10,24,01,186,12,7*78
$GBGSV,3,1,09,32,81,179,40,23,71,118,39,20,36,306,36,37,36,204,36,1*7E
$GBGSV,3,2,09,25,29,052,36,41,27,135,34,38,03,332,24,04,01,262,,1*7F
$GBGSV,3,3,09,35,01,338,,1*40
$GNRMC,180553.000,A,4910.426368,N,12304.400934,W,0.03,0.00,051224,,,D,V*1B
$GNVTG,0.00,T,,M,0.03,N,0.05,K,D*20
$GNGGA,180554.000,4910.426344,N,12304.401036,W,2,28,0.52,9.333,M,-16.816,M,,*47
$GNGLL,4910.426344,N,12304.401036,W,180554.000,A,D*56
$GNGSA,A,3,04,09,16,03,26,07,06,31,11,,,,0.93,0.52,0.77,1*02
$GNGSA,A,3,68,78,67,79,85,,,,,,,,0.93,0.52,0.77,2*0C
$GNGSA,A,3,06,09,04,31,36,34,05,21,,,,,0.93,0.52,0.77,3*03
$GNGSA,A,3,32,23,20,37,25,41,,,,,,,0.93,0.52,0.77,4*0D
$GPGSV,3,1,12,04,82,051,39,09,61,297,39,16,46,103,37,03,38,173,36,1*66
$GPGSV,3,2,12,26,35,060,36,48,33,182,34,07,32,237,33,06,21,280,29,1*63
$GPGSV,3,3,12,31,20,059,31,11,14,319,30,29,03,017,23,20,01,328,25,1*66
$GLGSV,2,1,06,68,78,006,30,78,68,162,19,67,41,118,27,79,19,198,27,1*7F
$GLGSV,2,2,06,84,14,292,,85,13,344,24,1*74
$GAGSV,3,1,10,06,79,072,35,09,72,304,35,04,53,095,32,31,37,150,30,7*78
$GAGSV,3,2,10,36,22,254,26,34,21,308,27,05,18,286,28,21,12,033,24,7*77
$GAGSV,3,3,10,11,02,211,10,24,01,186,12,7*78
$GBGSV,3,1,09,32,81,179,40,23,71,118,39,20,36,306,36,37,36,204,36,1*7E
$GBGSV,3,2,09,25,29,052,36,41,27,135,34,38,03,332,24,04,01,262,,1*7F
$GBGSV,3,3,09,35,01,338,,1*40
$GNRMC,180554.000,A,4910.426344,N,12304.401036,W,0.03,0.00,051224,,,D,V*18
$GNVTG,0.00,T,,M,0.03,N,0.05,K,D*20
$GNGGA,180555.000,4910.426416,N,12304.401126,W,2,28,0.52,9.331,M,-16.816,M,,*44
$GNGLL,4910.426416,N,12304.401126,W,180555.000,A,D*57
$GNGSA,A,3,04,09,16,03,26,07,06,31,11,,,,0.93,0.52,0.77,1*02
$GNGSA,A,3,68,78,67,79,85,,,,,,,,0.93,0.52,0.77,2*0C
$GNGSA,A,3,06,09,04,31,36,34,05,21,,,,,0.93,0.52,0.77,3*03
$GNGSA,A,3,32,23,20,37,25,41,,,,,,,0.93,0.52,0.77,4*0D
$GPGSV,3,1,12,04,82,051,39,09,61,297,39,16,46,103,37,03,38,173,36,1*66
$GPGSV,3,2,12,26,35,060,36,48,33,182,34,07,32,237,33,06,21,280,29,1*63
$GPGSV,3,3,12,31,20,059,31,11,14,319,30,29,03,017,23,20,01,328,25,1*66
$GLGSV,2,1,06,68,78,006,30,78,68,162,18,67,41,118,27,79,19,198,27,1*7E
$GLGSV,2,2,06,84,14,292,,85,13,344,24,1*74
$GAGSV,3,1,10,06,79,072,35,09,72,304,35,04,53,095,32,31,37,150,30,7*78
$GAGSV,3,2,10,36,22,254,27,34,21,308,27,05,18,286,28,21,12,033,24,7*76
$GAGSV,3,3,10,11,02,211,10,24,01,186,12,7*78
$GBGSV,3,1,09,32,81,179,40,23,71,118,39,20,36,306,36,37,36,204,36,1*7E
$GBGSV,3,2,09,25,29,052,36,41,27,135,34,38,03,332,24,04,01,262,,1*7F
$GBGSV,3,3,09,35,01,338,,1*40
$GNRMC,180555.000,A,4910.426416,N,12304.401126,W,0.03,0.00,051224,,,D,V*19
$GNVTG,0.00,T,,M,0.03,N,0.05,K,D*20
$GNGGA,180556.000,4910.426488,N,12304.401216,W,2,28,0.52,9.336,M,-16.817,M,,*46
$GNGLL,4910.426488,N,12304.401216,W,180556.000,A,D*53
$GNGSA,A,3,04,09,16,03,26,07,06,31,11,,,,0.93,0.52,0.77,1*02
$GNGSA,A,3,68,78,67,79,85,,,,,,,,0.93,0.52,0.77,2*0C
$GNGSA,A,3,06,09,04,31,36,34,05,21,,,,,0.93,0.52,0.77,3*03
$GNGSA,A,3,32,23,20,37,25,41,,,,,,,0.93,0.52,0.77,4*0D
$GPGSV,3,1,12,04,82,051,39,09,61,297,39,16,46,103,37,03,38,173,36,1*66
$GPGSV,3,2,12,26,35,060,36,48,33,182,34,07,32,237,33,06,21,280,29,1*63
$GPGSV,3,3,12,31,20,059,31,11,14,319,30,29,03,017,23,20,01,328,26,1*65
$GLGSV,2,1,06,68,78,006,30,78,68,162,18,67,41,118,28,79,19,198,27,1*71
$GLGSV,2,2,06,84,14,292,,85,13,344,24,1*74
$GAGSV,3,1,10,06,79,072,35,09,72,304,35,04,53,095,32,31,37,150,30,7*78
$GAGSV,3,2,10,36,22,254,27,34,21,308,27,05,18,286,28,21,12,033,24,7*76
$GAGSV,3,3,10,11,02,211,10,24,01,186,12,7*78
$GBGSV,3,1,09,32,81,179,40,23,71,118,39,20,36,306,36,37,36,204,36,1*7E
$GBGSV,3,2,09,25,29,052,36,41,27,135,34,38,03,332,24,04,01,262,,1*7F
$GBGSV,3,3,09,35,01,338,,1*40
$GNRMC,180556.000,A,4910.426488,N,12304.401216,W,0.02,0.00,051224,,,D,V*1C
$GNVTG,0.00,T,,M,0.02,N,0.04,K,D*20
$GNGGA,180557.000,4910.426542,N,12304.401204,W,2,28,0.52,9.298,M,-16.816,M,,*47
$GNGLL,4910.426542,N,12304.401204,W,180557.000,A,D*56
$GNGSA,A,3,04,09,16,03,26,07,06,31,11,,,,0.93,0.52,0.77,1*02
$GNGSA,A,3,68,78,67,79,85,,,,,,,,0.93,0.52,0.77,2*0C
$GNGSA,A,3,06,09,04,31,36,34,05,21,,,,,0.93,0.52,0.77,3*03
$GNGSA,A,3,32,23,20,37,25,41,,,,,,,0.93,0.52,0.77,4*0D
$GPGSV,3,1,12,04,82,051,39,09,61,297,39,16,46,103,37,03,38,173,36,1*66
$GPGSV,3,2,12,26,35,060,36,48,33,182,34,07,32,237,33,06,21,280,29,1*63
$GPGSV,3,3,12,31,20,059,31,11,14,319,30,29,03,017,23,20,01,328,24,1*67
$GLGSV,2,1,06,68,78,006,30,78,68,162,18,67,41,118,29,79,19,198,26,1*71
$GLGSV,2,2,06,84,14,292,,85,13,344,24,1*74
$GAGSV,3,1,10,06,79,072,35,09,72,304,35,04,53,095,32,31,37,150,30,7*78
$GAGSV,3,2,10,36,22,254,26,34,21,308,27,05,18,286,28,21,12,033,24,7*77
$GAGSV,3,3,10,11,02,211,10,24,01,186,12,7*78
$GBGSV,3,1,09,32,81,179,40,23,71,118,39,20,36,306,36,37,36,204,36,1*7E
$GBGSV,3,2,09,25,29,052,36,41,27,135,34,38,03,332,24,04,01,262,,1*7F
$GBGSV,3,3,09,35,01,338,,1*40
$GNRMC,180557.000,A,4910.426542,N,12304.401204,W,0.02,0.00,051224,,,D,V*19
$GNVTG,0.00,T,,M,0.02,N,0.04,K,D*20
$GNGGA,180558.000,4910.426602,N,12304.401246,W,2,28,0.52,9.379,M,-16.816,M,,*47
$GNGLL,4910.426602,N,12304.401246,W,180558.000,A,D*58
$GNGSA,A,3,04,09,16,03,26,07,06,31,11,,,,0.93,0.52,0.77,1*02
$GNGSA,A,3,68,78,67,79,85,,,,,,,,0.93,0.52,0.77,2*0C
$GNGSA,A,3,06,09,04,31,36,34,05,21,,,,,0.93,0.52,0.77,3*03
$GNGSA,A,3,32,23,20,37,25,41,,,,,,,0.93,0.52,0.77,4*0D
$GPGSV,3,1,12,04,82,051,39,09,61,297,39,16,46,103,37,03,38,173,36,1*66
$GPGSV,3,2,12,26,35,060,36,48,33,182,34,07,32,237,33,06,21,280,29,1*63
$GPGSV,3,3,12,31,20,059,31,11,14,319,30,29,03,017,23,20,01,328,25,1*66
$GLGSV,2,1,06,68,78,006,30,78,68,162,18,67,41,118,29,79,19,198,26,1*71
$GLGSV,2,2,06,84,14,292,,85,13,344,24,1*74
$GAGSV,3,1,10,06,79,072,35,09,72,304,35,04,53,095,32,31,37,150,30,7*78
$GAGSV,3,2,10,36,22,254,26,34,21,308,27,05,18,286,28,21,12,033,24,7*77
$GAGSV,3,3,10,11,02,211,10,24,01,186,12,7*78
$GBGSV,3,1,09,32,81,179,40,23,71,118,39,20,36,306,36,37,36,204,36,1*7E
$GBGSV,3,2,09,25,29,052,36,41,27,135,34,38,03,332,24,04,01,262,,1*7F
$GBGSV,3,3,09,35,01,338,,1*40
$GNRMC,180558.000,A,4910.426602,N,12304.401246,W,0.02,0.00,051224,,,D,V*17
$GNVTG,0.00,T,,M,0.02,N,0.03,K,D*27
$GNGGA,180559.000,4910.426644,N,12304.401390,W,2,28,0.52,9.561,M,-16.816,M,,*41
$GNGLL,4910.426644,N,12304.401390,W,180559.000,A,D*51
$GNGSA,A,3,04,09,16,03,26,07,06,31,11,,,,0.93,0.52,0.77,1*02
$GNGSA,A,3,68,78,67,79,85,,,,,,,,0.93,0.52,0.77,2*0C
$GNGSA,A,3,06,09,04,31,36,34,05,21,,,,,0.93,0.52,0.77,3*03
$GNGSA,A,3,32,23,20,37,25,41,,,,,,,0.93,0.52,0.77,4*0D
$GPGSV,3,1,12,04,82,051,39,09,61,297,39,16,46,103,37,03,38,173,36,1*66
$GPGSV,3,2,12,26,35,060,36,48,33,182,34,07,32,237,33,06,21,280,29,1*63
$GPGSV,3,3,12,31,20,059,31,11,14,319,30,29,03,017,23,20,01,328,26,1*65
$GLGSV,2,1,06,68,78,006,29,78,68,162,18,67,41,118,28,79,19,198,26,1*78
$GLGSV,2,2,06,84,14,292,,85,13,344,24,1*74
$GAGSV,3,1,10,06,79,072,35,09,72,304,35,04,53,095,32,31,37,150,30,7*78
$GAGSV,3,2,10,36,22,254,26,34,21,308,27,05,18,286,28,21,12,033,24,7*77
$GAGSV,3,3,10,11,02,211,10,24,01,186,12,7*78
$GBGSV,3,1,09,32,81,179,40,23,71,118,39,20,36,306,36,37,36,204,36,1*7E
$GBGSV,3,2,09,25,29,052,36,41,27,135,34,38,03,332,24,04,01,262,,1*7F
$GBGSV,3,3,09,35,01,338,,1*40
$GNRMC,180559.000,A,4910.426644,N,12304.401390,W,0.02,0.00,051224,,,D,V*1E
$GNVTG,0.00,T,,M,0.02,N,0.03,K,D*27
$GNGGA,180600.000,4910.426644,N,12304.401486,W,2,28,0.52,9.606,M,-16.816,M,,*4C
$GNGLL,4910.426644,N,12304.401486,W,180600.000,A,D*5E
$GNGSA,A,3,04,09,16,03,26,07,06,31,11,,,,0.93,0.52,0.77,1*02
$GNGSA,A,3,68,78,67,79,85,,,,,,,,0.93,0.52,0.77,2*0C
$GNGSA,A,3,06,09,04,31,36,34,05,21,,,,,0.93,0.52,0.77,3*03
$GNGSA,A,3,32,23,20,37,25,41,,,,,,,0.93,0.52,0.77,4*0D
$GPGSV,3,1,12,04,82,051,39,09,61,297,39,16,46,103,37,03,38,173,35,1*65
$GPGSV,3,2,12,26,35,060,35,48,33,182,34,07,32,237,33,06,21,280,28,1*61
$GPGSV,3,3,12,31,20,059,31,11,14,319,30,29,03,017,23,20,01,328,24,1*67
$GLGSV,2,1,06,68,78,006,30,78,68,162,19,67,41,118,29,79,19,198,26,1*70
$GLGSV,2,2,06,84,14,292,,85,13,344,24,1*74
$GAGSV,3,1,10,06,79,072,34,09,72,304,34,04,53,095,31,31,37,150,29,7*73
$GAGSV,3,2,10,36,22,254,26,34,21,308,27,05,18,286,27,21,12,033,23,7*7F
$GAGSV,3,3,10,11,02,211,10,24,01,186,12,7*78
$GBGSV,3,1,09,32,81,179,40,23,71,118,39,20,36,306,36,37,36,204,36,1*7E
$GBGSV,3,2,09,25,29,052,36,41,27,135,34,38,03,332,24,04,01,262,,1*7F
$GBGSV,3,3,09,35,01,338,,1*40
$GNRMC,180600.000,A,4910.426644,N,12304.401486,W,0.02,0.00,051224,,,D,V*11
$GNVTG,0.00,T,,M,0.02,N,0.03,K,D*27
$GNGGA,180601.000,4910.426650,N,12304.401588,W,2,28,0.52,9.745,M,-16.816,M,,*41
$GNGLL,4910.426650,N,12304.401588,W,180601.000,A,D*55
$GNGSA,A,3,04,09,16,03,26,07,06,31,11,,,,0.93,0.52,0.77,1*02
$GNGSA,A,3,68,78,67,79,85,,,,,,,,0.93,0.52,0.77,2*0C
$GNGSA,A,3,06,09,04,31,36,34,05,21,,,,,0.93,0.52,0.77,3*03
$GNGSA,A,3,32,23,20,37,25,41,,,,,,,0.93,0.52,0.77,4*0D
$GPGSV,3,1,12,04,82,051,39,09,61,297,38,16,46,103,37,03,38,173,35,1*64
$GPGSV,3,2,12,26,35,060,34,48,33,182,34,07,32,237,33,06,21,280,28,1*60
$GPGSV,3,3,12,31,20,059,31,11,14,319,30,29,03,017,22,20,01,328,24,1*66
$GLGSV,2,1,06,68,78,006,31,78,68,162,19,67,41,118,29,79,19,198,26,1*71
$GLGSV,2,2,06,84,14,292,,85,13,344,24,1*74
$GAGSV,3,1,10,06,79,072,34,09,72,304,34,04,53,095,31,31,37,150,29,7*73
$GAGSV,3,2,10,36,22,254,26,34,21,308,27,05,18,286,27,21,12,033,23,7*7F
$GAGSV,3,3,10,11,02,211,10,24,01,186,12,7*78
$GBGSV,3,1,09,32,81,179,40,23,71,118,39,20,36,306,37,37,36,204,36,1*7F
$GBGSV,3,2,09,25,29,052,36,41,27,135,34,38,03,332,24,04,01,262,,1*7F
$GBGSV,3,3,09,35,01,338,,1*40
$GNRMC,180601.000,A,4910.426650,N,12304.401588,W,0.01,0.00,051224,,,D,V*19
$GNVTG,0.00,T,,M,0.01,N,0.03,K,D*24
$GNGGA,180602.000,4910.426614,N,12304.401726,W,2,28,0.52,9.793,M,-16.816,M,,*4F
$GNGLL,4910.426614,N,12304.401726,W,180602.000,A,D*50
$GNGSA,A,3,04,09,16,03,26,07,06,31,11,,,,0.93,0.52,0.77,1*02
$GNGSA,A,3,68,78,67,79,85,,,,,,,,0.93,0.52,0.77,2*0C
$GNGSA,A,3,06,09,04,31,36,34,05,21,,,,,0.93,0.52,0.77,3*03
$GNGSA,A,3,32,23,20,37,25,41,,,,,,,0.93,0.52,0.77,4*0D
$GPGSV,3,1,12,04,82,051,39,09,61,297,38,16,46,103,37,03,38,173,35,1*64
$GPGSV,3,2,12,26,35,060,34,48,33,182,34,07,32,237,33,06,21,280,28,1*60
$GPGSV,3,3,12,31,20,059,30,11,14,319,30,29,03,017,22,20,01,328,25,1*66
$GLGSV,2,1,06,68,78,006,31,78,68,162,19,67,41,118,29,79,19,198,26,1*71
$GLGSV,2,2,06,84,14,292,,85,13,344,24,1*74
$GAGSV,3,1,10,06,79,072,34,09,72,304,34,04,53,095,31,31,37,150,29,7*73
$GAGSV,3,2,10,36,22,254,26,34,21,308,27,05,18,286,27,21,12,033,23,7*7F
$GAGSV,3,3,10,11,02,211,10,24,01,186,12,7*78
$GBGSV,3,1,09,32,81,179,40,23,71,118,39,20,36,306,37,37,36,204,36,1*7F
$GBGSV,3,2,09,25,29,052,36,41,27,135,34,38,03,332,24,04,01,262,,1*7F
$GBGSV,3,3,09,35,01,338,,1*40
$GNRMC,180602.000,A,4910.426614,N,12304.401726,W,0.02,0.00,051224,,,D,V*1F
$GNVTG,0.00,T,,M,0.02,N,0.03,K,D*27
$GNGGA,180603.000,4910.426602,N,12304.401882,W,2,28,0.52,9.791,M,-16.816,M,,*4A
$GNGLL,4910.426602,N,12304.401882,W,180603.000,A,D*57
$GNGSA,A,3,04,09,16,03,26,07,06,31,11,,,,0.93,0.52,0.77,1*02
$GNGSA,A,3,68,78,67,79,85,,,,,,,,0.93,0.52,0.77,2*0C
$GNGSA,A,3,06,09,04,31,36,34,05,21,,,,,0.93,0.52,0.77,3*03
$GNGSA,A,3,32,23,20,37,25,41,,,,,,,0.93,0.52,0.77,4*0D
$GPGSV,3,1,12,04,82,051,39,09,61,297,38,16,46,103,37,03,38,173,35,1*64
$GPGSV,3,2,12,26,35,060,34,48,33,182,34,07,32,237,33,06,21,280,28,1*60
$GPGSV,3,3,12,31,20,059,30,11,14,319,30,29,03,017,22,20,01,328,25,1*66
$GLGSV,2,1,06,68,78,006,31,78,68,162,19,67,41,118,29,79,19,198,26,1*71
$GLGSV,2,2,06,84,14,292,,85,13,344,23,1*73
$GAGSV,3,1,10,06,79,072,34,09,72,304,34,04,53,095,31,31,37,150,29,7*73
$GAGSV,3,2,10,36,22,254,26,34,21,308,27,05,18,286,27,21,12,033,23,7*7F
$GAGSV,3,3,10,11,02,211,10,24,01,186,13,7*79
$GBGSV,3,1,09,32,81,179,40,23,71,118,39,20,36,306,37,37,36,204,36,1*7F
$GBGSV,3,2,09,25,29,052,36,41,27,135,34,38,03,332,24,04,01,262,,1*7F
$GBGSV,3,3,09,35,01,338,,1*40
$GNRMC,180603.000,A,4910.426602,N,12304.401882,W,0.02,0.00,051224,,,D,V*18
$GNVTG,0.00,T,,M,0.02,N,0.04,K,D*20
$GNGGA,180604.000,4910.426590,N,12304.402008,W,2,28,0.52,9.746,M,-16.816,M,,*46
$GNGLL,4910.426590,N,12304.402008,W,180604.000,A,D*51
$GNGSA,A,3,04,09,16,03,26,07,06,31,11,,,,0.93,0.52,0.77,1*02
$GNGSA,A,3,68,78,67,79,85,,,,,,,,0.93,0.52,0.77,2*0C
$GNGSA,A,3,06,09,04,31,36,34,05,21,,,,,0.93,0.52,0.77,3*03
$GNGSA,A,3,32,23,20,37,25,41,,,,,,,0.93,0.52,0.77,4*0D
$GPGSV,3,1,12,04,82,051,39,09,61,297,38,16,46,103,37,03,38,173,35,1*64
$GPGSV,3,2,12,26,35,060,34,48,33,182,34,07,32,237,33,06,21,280,28,1*60
$GPGSV,3,3,12,31,20,059,30,11,14,319,30,29,03,017,22,20,01,328,26,1*65
$GLGSV,2,1,06,68,78,006,31,78,68,162,19,67,41,118,29,79,19,198,26,1*71
$GLGSV,2,2,06,84,14,292,,85,13,344,23,1*73
$GAGSV,3,1,10,06,79,072,34,09,72,304,34,04,53,095,31,31,37,150,29,7*73
$GAGSV,3,2,10,36,22,254,26,34,21,308,27,05,18,286,27,21,12,033,23,7*7F
$GAGSV,3,3,10,11,02,211,10,24,01,186,13,7*79
$GBGSV,3,1,09,32,81,179,40,23,71,118,39,20,36,306,37,37,36,204,36,1*7F
$GBGSV,3,2,09,25,29,052,36,41,27,135,34,38,03,332,24,04,01,262,,1*7F
$GBGSV,3,3,09,35,01,338,,1*40
$GNRMC,180604.000,A,4910.426590,N,12304.402008,W,0.02,0.00,051224,,,D,V*1E
$GNVTG,0.00,T,,M,0.02,N,0.04,K,D*20
$GNGGA,180605.000,4910.426602,N,12304.402068,W,2,28,0.52,9.767,M,-16.816,M,,*4A
$GNGLL,4910.426602,N,12304.402068,W,180605.000,A,D*5E
$GNGSA,A,3,04,09,16,03,26,07,06,31,11,,,,0.93,0.52,0.77,1*02
$GNGSA,A,3,68,78,67,79,85,,,,,,,,0.93,0.52,0.77,2*0C
$GNGSA,A,3,06,09,04,31,36,34,05,21,,,,,0.93,0.52,0.77,3*03
$GNGSA,A,3,32,23,20,37,25,41,,,,,,,0.93,0.52,0.77,4*0D
$GPGSV,3,1,12,04,82,051,39,09,61,297,38,16,46,103,37,03,38,173,35,1*64
$GPGSV,3,2,12,26,35,060,34,48,33,182,34,07,32,237,33,06,21,280,28,1*60
$GPGSV,3,3,12,31,20,059,30,11,14,319,30,29,03,017,22,20,01,328,25,1*66
$GLGSV,2,1,06,68,78,006,31,78,68,162,20,67,41,118,29,79,19,198,26,1*7B
$GLGSV,2,2,06,84,14,292,,85,13,344,23,1*73
$GAGSV,3,1,10,06,79,072,34,09,72,304,33,04,53,095,31,31,37,150,29,7*74
$GAGSV,3,2,10,36,22,254,26,34,21,308,27,05,18,286,27,21,12,033,22,7*7E
$GAGSV,3,3,10,11,02,211,10,24,01,186,12,7*78
$GBGSV,3,1,09,32,81,179,40,23,71,118,39,20,36,306,37,37,36,204,36,1*7F
$GBGSV,3,2,09,25,29,052,36,41,27,135,34,38,03,332,24,04,01,262,,1*7F
$GBGSV,3,3,09,35,01,338,,1*40
$GNRMC,180605.000,A,4910.426602,N,12304.402068,W,0.02,0.00,051224,,,D,V*11
$GNVTG,0.00,T,,M,0.02,N,0.04,K,D*20
$GNGGA,180606.000,4910.426608,N,12304.402152,W,2,28,0.52,9.701,M,-16.816,M,,*4B
$GNGLL,4910.426608,N,12304.402152,W,180606.000,A,D*5F
$GNGSA,A,3,04,09,16,03,26,07,06,31,11,,,,0.93,0.52,0.77,1*02
$GNGSA,A,3,68,78,67,79,85,,,,,,,,0.93,0.52,0.77,2*0C
$GNGSA,A,3,06,09,04,31,36,34,05,21,,,,,0.93,0.52,0.77,3*03
$GNGSA,A,3,32,23,20,37,25,41,,,,,,,0.93,0.52,0.77,4*0D
$GPGSV,3,1,12,04,82,051,39,09,61,297,38,16,46,103,37,03,38,173,35,1*64
$GPGSV,3,2,12,26,35,060,34,48,33,182,34,07,32,237,33,06,21,280,28,1*60
$GPGSV,3,3,12,31,20,059,30,11,14,319,30,29,03,017,23,20,01,328,26,1*64
$GLGSV,2,1,06,68,78,006,31,78,68,162,20,67,41,118,29,79,19,198,26,1*7B
$GLGSV,2,2,06,84,14,292,,85,13,344,23,1*73
$GAGSV,3,1,10,06,79,072,34,09,72,304,33,04,53,095,31,31,37,150,29,7*74
$GAGSV,3,2,10,36,22,254,25,34,21,308,26,05,18,286,27,21,12,033,22,7*7C
$GAGSV,3,3,10,11,02,211,11,24,01,186,12,7*79
$GBGSV,3,1,09,32,81,179,40,23,71,118,40,20,36,306,37,37,36,204,36,1*71
$GBGSV,3,2,09,25,29,052,36,41,27,135,34,38,03,332,24,04,01,262,,1*7F
$GBGSV,3,3,09,35,01,338,,1*40
$GNRMC,180606.000,A,4910.426608,N,12304.402152,W,0.02,0.00,051224,,,D,V*10
$GNVTG,0.00,T,,M,0.02,N,0.03,K,D*27
$GNGGA,180607.000,4910.426668,N,12304.402218,W,2,28,0.52,9.632,M,-16.816,M,,*40
$GNGLL,4910.426668,N,12304.402218,W,180607.000,A,D*55
$GNGSA,A,3,04,09,16,03,26,07,06,31,11,,,,0.93,0.52,0.77,1*02
$GNGSA,A,3,68,78,67,79,85,,,,,,,,0.93,0.52,0.77,2*0C
$GNGSA,A,3,06,09,04,31,36,34,05,21,,,,,0.93,0.52,0.77,3*03
$GNGSA,A,3,32,23,20,37,25,41,,,,,,,0.93,0.52,0.77,4*0D
$GPGSV,3,1,12,04,82,051,39,09,61,297,38,16,46,103,37,03,38,173,35,1*64
$GPGSV,3,2,12,26,35,060,34,48,33,182,34,07,32,237,33,06,21,280,28,1*60
$GPGSV,3,3,12,31,20,059,30,11,14,319,30,29,03,017,23,20,01,328,27,1*65
$GLGSV,2,1,06,68,78,006,31,78,68,162,20,67,41,118,29,79,19,198,26,1*7B
$GLGSV,2,2,06,84,14,292,,85,13,344,22,1*72
$GAGSV,3,1,10,06,79,072,34,09,72,304,34,04,53,095,31,31,37,150,29,7*73
$GAGSV,3,2,10,36,22,254,25,34,21,308,26,05,18,286,27,21,12,033,22,7*7C
$GAGSV,3,3,10,11,02,211,11,24,01,186,11,7*7A
$GBGSV,3,1,09,32,81,179,40,23,71,118,40,20,36,306,37,37,36,204,36,1*71
$GBGSV,3,2,09,25,29,052,36,41,27,135,34,38,03,332,24,04,01,262,,1*7F
$GBGSV,3,3,09,35,01,338,,1*40
$GNRMC,180607.000,A,4910.426668,N,12304.402218,W,0.02,0.00,051224,,,D,V*1A
$GNVTG,0.00,T,,M,0.02,N,0.04,K,D*20
$GNGGA,180608.000,4910.426710,N,12304.402368,W,2,28,0.52,9.518,M,-16.816,M,,*4C
$GNGLL,4910.426710,N,12304.402368,W,180608.000,A,D*52
$GNGSA,A,3,04,09,16,03,26,07,06,31,11,,,,0.93,0.52,0.77,1*02
$GNGSA,A,3,68,78,67,79,85,,,,,,,,0.93,0.52,0.77,2*0C
$GNGSA,A,3,06,09,04,31,36,34,05,21,,,,,0.93,0.52,0.77,3*03
$GNGSA,A,3,32,23,20,37,25,41,,,,,,,0.93,0.52,0.77,4*0D
$GPGSV,3,1,12,04,82,051,39,09,61,297,38,16,46,103,37,03,38,173,35,1*64
$GPGSV,3,2,12,26,35,060,34,48,33,182,34,07,32,237,33,06,21,280,29,1*61
$GPGSV,3,3,12,31,20,059,30,11,14,319,30,29,03,017,23,20,01,328,27,1*65
$GLGSV,2,1,06,68,78,006,31,78,68,162,20,67,41,118,29,79,19,198,27,1*7A
$GLGSV,2,2,06,84,14,292,,85,13,344,22,1*72
$GAGSV,3,1,10,06,79,072,34,09,72,304,34,04,53,095,31,31,37,150,29,7*73
$GAGSV,3,2,10,36,22,254,25,34,21,308,27,05,18,286,27,21,12,033,22,7*7D
$GAGSV,3,3,10,11,02,211,11,24,01,186,12,7*79
$GBGSV,3,1,09,32,81,179,40,23,71,118,40,20,36,306,37,37,36,204,36,1*71
$GBGSV,3,2,09,25,29,052,36,41,27,135,34,38,03,332,24,04,01,262,,1*7F
$GBGSV,3,3,09,35,01,338,,1*40
$GNRMC,180608.000,A,4910.426710,N,12304.402368,W,0.02,0.00,051224,,,D,V*1D
$GNVTG,0.00,T,,M,0.02,N,0.04,K,D*20
$GNGGA,180609.000,4910.426740,N,12304.402446,W,2,28,0.52,9.346,M,-16.817,M,,*4F
