$GNGGA,010143.000,4910.428600,N,12304.399704,W,2,29,0.47,3.003,M,-16.816,M,,*49
$GNGLL,4910.428600,N,12304.399704,W,010143.000,A,D*57
$GNGSA,A,3,17,22,19,14,24,13,15,02,06,30,21,,0.86,0.47,0.72,1*06
$GNGSA,A,3,79,80,88,71,78,,,,,,,,0.86,0.47,0.72,2*05
$GNGSA,A,3,21,06,04,31,09,26,15,,,,,,0.86,0.47,0.72,3*01
$GNGSA,A,3,26,35,24,44,45,41,,,,,,,0.86,0.47,0.72,4*0C
$GPGSV,4,1,13,17,71,083,33,22,67,070,30,19,65,190,31,14,44,085,31,1*66
$GPGSV,4,2,13,24,40,302,30,46,33,188,29,13,24,212,26,15,22,249,26,1*66
$GPGSV,4,3,13,02,18,040,26,06,14,157,22,30,12,143,23,12,10,272,17,1*6E
$GPGSV,4,4,13,21,05,027,22,1*55
$GLGSV,2,1,07,79,65,073,38,80,47,312,36,88,31,036,36,82,28,170,,1*74
$GLGSV,2,2,07,70,21,283,,71,18,333,27,78,17,105,15,1*42
$GAGSV,3,1,10,21,38,082,25,06,36,271,25,04,33,239,21,31,31,274,23,7*7A
$GAGSV,3,2,10,09,30,299,23,26,28,130,24,15,07,021,16,19,03,189,06,7*7A
$GAGSV,3,3,10,05,01,341,,33,01,168,,7*7E
$GBGSV,3,1,10,26,78,121,25,35,60,132,22,24,46,297,19,44,29,188,19,1*79
$GBGSV,3,2,10,29,29,049,,45,21,117,19,33,11,283,,41,08,330,18,1*7B
$GBGSV,3,3,10,12,07,196,16,14,06,259,,1*77
$GNRMC,010143.000,A,4910.428600,N,12304.399704,W,0.02,123.77,041224,,,D,V*19
$GNVTG,123.77,T,,M,0.02,N,0.04,K,D*20
$PAIRLOG,Full*51
$GNGGA,010144.000,4910.428630,N,12304.399788,W,2,30,0.46,2.909,M,-16.816,M,,*42
$GNGLL,4910.428630,N,12304.399788,W,010144.000,A,D*57
$GNGSA,A,3,17,22,19,14,24,13,15,02,06,30,21,,0.85,0.46,0.72,1*04
$GNGSA,A,3,79,80,88,71,78,,,,,,,,0.85,0.46,0.72,2*07
$GNGSA,A,3,21,06,04,31,09,26,15,,,,,,0.85,0.46,0.72,3*03
$GNGSA,A,3,26,35,24,44,29,45,41,,,,,,0.85,0.46,0.72,4*05
$GPGSV,4,1,13,17,71,083,33,22,67,070,30,19,65,190,31,14,44,085,31,1*66
$GPGSV,4,2,13,24,40,302,30,46,33,188,29,13,24,212,27,15,22,249,27,1*66
$GPGSV,4,3,13,02,18,040,26,06,14,157,22,30,12,143,23,12,10,272,17,1*6E
$GPGSV,4,4,13,21,05,027,23,1*54
$GLGSV,2,1,07,79,65,073,38,80,47,312,36,88,31,036,35,82,28,170,,1*77
$GLGSV,2,2,07,70,21,283,,71,18,333,27,78,17,105,12,1*45
$GAGSV,3,1,10,21,38,082,25,06,36,271,25,04,33,239,21,31,31,274,23,7*7A
$GAGSV,3,2,10,09,30,299,23,26,28,130,24,15,07,021,16,19,03,189,06,7*7A
$GAGSV,3,3,10,05,01,341,,33,01,168,,7*7E
$GBGSV,3,1,10,26,78,121,26,35,60,132,25,24,46,297,22,44,29,188,19,1*75
$GBGSV,3,2,10,29,29,049,17,45,21,117,18,33,11,283,,41,08,330,18,1*7C
$GBGSV,3,3,10,12,07,196,15,14,06,259,,1*74
$GNRMC,010144.000,A,4910.428630,N,12304.399788,W,0.02,123.77,041224,,,D,V*19
$GNVTG,123.77,T,,M,0.02,N,0.04,K,D*20
$PAIRLOG,Full*51
$GNGGA,010145.000,4910.428666,N,12304.399728,W,2,30,0.46,2.915,M,-16.816,M,,*47
$GNGLL,4910.428666,N,12304.399728,W,010145.000,A,D*5F
$GNGSA,A,3,17,22,19,14,24,13,15,02,06,30,21,,0.85,0.46,0.72,1*04
$GNGSA,A,3,79,80,88,71,78,,,,,,,,0.85,0.46,0.72,2*07
$GNGSA,A,3,21,06,04,31,09,26,15,,,,,,0.85,0.46,0.72,3*03
$GNGSA,A,3,26,35,24,44,29,45,41,,,,,,0.85,0.46,0.72,4*05
$GPGSV,4,1,13,17,71,083,33,22,67,070,30,19,65,190,31,14,44,085,30,1*67
$GPGSV,4,2,13,24,40,302,30,46,33,188,29,13,24,212,27,15,22,249,27,1*66
$GPGSV,4,3,13,02,18,040,26,06,14,157,22,30,12,143,22,12,10,272,17,1*6F
$GPGSV,4,4,13,21,05,027,23,1*54
$GLGSV,2,1,07,79,65,073,38,80,47,312,36,88,31,036,35,82,28,170,,1*77
$GLGSV,2,2,07,70,21,283,,71,18,333,27,78,17,105,11,1*46
$GAGSV,3,1,10,21,38,082,25,06,36,271,25,04,33,239,21,31,31,274,23,7*7A
$GAGSV,3,2,10,09,30,299,23,26,28,130,24,15,07,021,15,19,03,189,06,7*79
$GAGSV,3,3,10,05,01,341,,33,01,168,,7*7E
$GBGSV,3,1,10,26,78,121,30,35,60,132,28,24,46,297,27,44,29,188,19,1*7A
$GBGSV,3,2,10,29,29,049,17,45,21,117,19,33,11,283,,41,08,330,18,1*7D
$GBGSV,3,3,10,12,07,196,16,14,06,259,,1*77
$GNRMC,010145.000,A,4910.428666,N,12304.399728,W,0.02,123.77,041224,,,D,V*11
$GNVTG,123.77,T,,M,0.02,N,0.04,K,D*20
$PAIRLOG,Full*51
$GNGGA,010146.000,4910.428708,N,12304.399728,W,2,30,0.46,3.002,M,-16.817,M,,*42
$GNGLL,4910.428708,N,12304.399728,W,010146.000,A,D*55
$GNGSA,A,3,17,22,19,14,24,13,15,02,06,30,21,,0.85,0.46,0.72,1*04
$GNGSA,A,3,79,80,88,71,78,,,,,,,,0.85,0.46,0.72,2*07
$GNGSA,A,3,21,06,04,31,09,26,15,,,,,,0.85,0.46,0.72,3*03
$GNGSA,A,3,26,35,24,44,29,45,41,,,,,,0.85,0.46,0.72,4*05
$GPGSV,4,1,13,17,71,083,33,22,67,070,30,19,65,190,31,14,44,085,30,1*67
$GPGSV,4,2,13,24,40,302,30,46,33,188,29,13,24,212,26,15,22,249,26,1*66
$GPGSV,4,3,13,02,18,040,25,06,14,157,22,30,12,143,22,12,10,272,17,1*6C
$GPGSV,4,4,13,21,05,027,23,1*54
$GLGSV,2,1,07,79,65,073,38,80,47,312,36,88,31,036,35,82,28,170,,1*77
$GLGSV,2,2,07,70,21,283,,71,18,333,27,78,17,105,10,1*47
$GAGSV,3,1,10,21,38,082,25,06,36,271,25,04,33,239,21,31,31,274,22,7*7B
$GAGSV,3,2,10,09,30,299,23,26,28,130,23,15,07,021,15,19,03,189,06,7*7E
$GAGSV,3,3,10,05,01,341,,33,01,168,,7*7E
$GBGSV,3,1,10,26,78,121,30,35,60,132,29,24,46,297,27,44,29,188,20,1*71
$GBGSV,3,2,10,29,29,049,17,45,21,117,20,33,11,283,,41,08,330,18,1*77
$GBGSV,3,3,10,12,07,196,16,14,06,259,,1*77
$GNRMC,010146.000,A,4910.428708,N,12304.399728,W,0.02,123.77,041224,,,D,V*1B
$GNVTG,123.77,T,,M,0.02,N,0.03,K,D*27
$PAIRLOG,Full*51
$GNGGA,010147.000,4910.428744,N,12304.399746,W,2,28,0.48,2.982,M,-16.816,M,,*45
$GNGLL,4910.428744,N,12304.399746,W,010147.000,A,D*54
$GNGSA,A,3,17,22,19,14,24,13,15,02,06,30,21,,0.87,0.48,0.73,1*09
$GNGSA,A,3,79,80,88,71,,,,,,,,,0.87,0.48,0.73,2*05
$GNGSA,A,3,21,06,04,31,09,26,15,,,,,,0.87,0.48,0.73,3*0E
$GNGSA,A,3,26,35,24,44,45,41,,,,,,,0.87,0.48,0.73,4*03
$GPGSV,4,1,13,17,71,083,33,22,67,070,30,19,65,190,31,14,44,085,30,1*67
$GPGSV,4,2,13,24,40,302,30,46,33,188,29,13,24,212,27,15,22,249,26,1*67
$GPGSV,4,3,13,02,18,040,26,06,14,157,22,30,12,143,22,12,10,272,17,1*6F
$GPGSV,4,4,13,21,05,027,23,1*54
$GLGSV,2,1,07,79,65,073,37,80,47,312,35,88,30,036,35,82,28,170,,1*7A
$GLGSV,2,2,07,70,21,283,,71,18,333,27,78,17,105,,1*46
$GAGSV,3,1,10,21,38,082,25,06,36,271,25,04,33,239,21,31,31,274,22,7*7B
$GAGSV,3,2,10,09,30,299,23,26,28,130,23,15,07,021,16,19,03,189,06,7*7D
$GAGSV,3,3,10,05,01,341,,33,01,168,,7*7E
$GBGSV,3,1,10,26,78,121,27,35,60,132,24,24,46,297,21,44,29,188,20,1*7C
$GBGSV,3,2,10,29,29,049,,45,21,117,20,33,11,283,,41,08,330,17,1*7E
$GBGSV,3,3,10,12,07,196,16,14,06,259,,1*77
$GNRMC,010147.000,A,4910.428744,N,12304.399746,W,0.02,123.77,041224,,,D,V*1A
$GNVTG,123.77,T,,M,0.02,N,0.03,K,D*27
$PAIRLOG,Full*51
$GNGGA,010148.000,4910.428828,N,12304.399836,W,2,28,0.48,3.121,M,-16.817,M,,*46
$GNGLL,4910.428828,N,12304.399836,W,010148.000,A,D*56
$GNGSA,A,3,17,22,19,14,24,13,15,02,06,30,21,,0.87,0.48,0.73,1*09
$GNGSA,A,3,79,80,88,71,,,,,,,,,0.87,0.48,0.73,2*05
$GNGSA,A,3,21,06,04,31,09,26,15,,,,,,0.87,0.48,0.73,3*0E
$GNGSA,A,3,26,35,24,44,45,41,,,,,,,0.87,0.48,0.73,4*03
$GPGSV,4,1,13,17,71,083,33,22,67,070,30,19,65,190,31,14,44,085,30,1*67
$GPGSV,4,2,13,24,40,302,30,46,33,188,29,13,24,212,27,15,22,249,26,1*67
$GPGSV,4,3,13,02,18,040,24,06,14,157,22,30,12,143,22,12,10,272,17,1*6D
$GPGSV,4,4,13,21,05,027,23,1*54
$GLGSV,2,1,07,79,65,073,37,80,47,312,35,88,30,036,35,82,28,170,,1*7A
$GLGSV,2,2,07,70,21,283,,71,18,333,27,78,17,105,,1*46
$GAGSV,3,1,10,21,38,082,25,06,36,271,25,04,33,239,21,31,31,274,22,7*7B
$GAGSV,3,2,10,09,30,299,23,26,28,130,23,15,07,021,16,19,03,189,06,7*7D
$GAGSV,3,3,10,05,01,341,,33,01,168,,7*7E
$GBGSV,3,1,10,26,78,121,28,35,60,132,25,24,46,297,25,44,29,188,20,1*76
$GBGSV,3,2,10,29,29,049,,45,21,117,19,33,11,283,,41,08,330,17,1*74
$GBGSV,3,3,10,12,07,196,16,14,06,259,,1*77
$GNRMC,010148.000,A,4910.428828,N,12304.399836,W,0.02,123.77,041224,,,D,V*18
$GNVTG,123.77,T,,M,0.02,N,0.03,K,D*27
$PAIRLOG,Full*51
$GNGGA,010149.000,4910.428876,N,12304.399902,W,2,28,0.48,3.177,M,-16.816,M,,*48
$GNGLL,4910.428876,N,12304.399902,W,010149.000,A,D*5A
$GNGSA,A,3,17,22,19,14,24,13,15,02,06,30,21,,0.87,0.48,0.73,1*09
$GNGSA,A,3,79,80,88,71,,,,,,,,,0.87,0.48,0.73,2*05
$GNGSA,A,3,21,06,04,31,09,26,15,,,,,,0.87,0.48,0.73,3*0E
$GNGSA,A,3,26,35,24,44,45,41,,,,,,,0.87,0.48,0.73,4*03
$GPGSV,4,1,13,17,71,083,32,22,67,070,29,19,65,190,30,14,44,085,29,1*67
$GPGSV,4,2,13,24,40,302,29,46,33,188,28,13,24,212,26,15,22,249,25,1*6C
$GPGSV,4,3,13,02,18,040,23,06,14,157,22,30,12,143,21,12,10,272,17,1*69
$GPGSV,4,4,13,21,05,027,22,1*55
$GLGSV,2,1,07,79,65,073,37,80,47,312,35,88,30,036,35,82,28,170,,1*7A
$GLGSV,2,2,07,70,21,283,,71,18,333,27,78,17,105,,1*46
$GAGSV,3,1,10,21,38,082,24,06,36,271,25,04,33,239,20,31,31,274,22,7*7B
$GAGSV,3,2,10,09,30,299,22,26,28,130,23,15,07,021,15,19,03,189,06,7*7F
$GAGSV,3,3,10,05,01,341,,33,01,168,,7*7E
$GBGSV,3,1,10,26,78,121,28,35,60,132,25,24,46,297,23,44,29,188,19,1*7A
$GBGSV,3,2,10,29,29,049,,45,21,117,18,33,11,283,,41,08,330,17,1*75
$GBGSV,3,3,10,12,07,196,16,14,06,259,,1*77
$GNRMC,010149.000,A,4910.428876,N,12304.399902,W,0.02,123.77,041224,,,D,V*14
$GNVTG,123.77,T,,M,0.02,N,0.04,K,D*20
$PAIRLOG,Full*51
$GNGGA,010150.000,4910.428834,N,12304.400052,W,2,29,0.47,3.171,M,-16.817,M,,*44
$GNGLL,4910.428834,N,12304.400052,W,010150.000,A,D*5F
$GNGSA,A,3,17,22,19,14,24,13,15,02,06,30,21,,0.85,0.47,0.71,1*06
$GNGSA,A,3,79,80,88,71,78,,,,,,,,0.85,0.47,0.71,2*05
$GNGSA,A,3,21,06,04,31,09,26,15,,,,,,0.85,0.47,0.71,3*01
$GNGSA,A,3,26,35,24,44,45,41,,,,,,,0.85,0.47,0.71,4*0C
$GPGSV,4,1,13,17,71,083,32,22,67,070,29,19,65,190,30,14,44,085,29,1*67
$GPGSV,4,2,13,24,40,302,29,46,33,188,28,13,24,212,26,15,22,249,25,1*6C
$GPGSV,4,3,13,02,18,040,28,06,14,157,22,30,12,143,21,12,10,272,17,1*62
$GPGSV,4,4,13,21,05,027,22,1*55
$GLGSV,2,1,07,79,65,073,38,80,47,312,36,88,30,036,36,82,28,170,,1*75
$GLGSV,2,2,07,70,21,283,,71,18,333,28,78,17,105,12,1*4A
$GAGSV,3,1,10,21,38,082,24,06,36,271,25,04,33,239,21,31,31,274,22,7*7A
$GAGSV,3,2,10,09,30,299,22,26,28,130,24,15,07,021,16,19,03,189,06,7*7B
$GAGSV,3,3,10,05,01,341,,33,01,168,,7*7E
$GBGSV,3,1,10,26,78,121,27,35,60,132,24,24,46,297,20,44,29,188,18,1*76
$GBGSV,3,2,10,29,29,049,,45,21,117,18,33,11,283,,41,08,330,17,1*75
$GBGSV,3,3,10,12,07,196,16,14,06,259,,1*77
$GNRMC,010150.000,A,4910.428834,N,12304.400052,W,0.02,123.77,041224,,,D,V*11
$GNVTG,123.77,T,,M,0.02,N,0.04,K,D*20
$PAIRLOG,Full*51
$GNGGA,010151.000,4910.428738,N,12304.400172,W,2,30,0.46,3.087,M,-16.816,M,,*45
$GNGLL,4910.428738,N,12304.400172,W,010151.000,A,D*5E
$GNGSA,A,3,17,22,19,14,24,13,15,02,06,30,21,,0.85,0.46,0.71,1*07
$GNGSA,A,3,79,80,88,71,78,,,,,,,,0.85,0.46,0.71,2*04
$GNGSA,A,3,21,06,04,31,09,26,15,,,,,,0.85,0.46,0.71,3*00
$GNGSA,A,3,26,35,24,44,29,45,41,,,,,,0.85,0.46,0.71,4*06
$GPGSV,4,1,13,17,71,083,32,22,67,070,29,19,65,190,30,14,44,085,29,1*67
$GPGSV,4,2,13,24,40,302,30,46,33,188,28,13,24,212,26,15,22,249,25,1*64
$GPGSV,4,3,13,02,18,040,26,06,14,157,21,30,12,143,21,12,10,272,18,1*60
$GPGSV,4,4,13,21,05,027,22,1*55
$GLGSV,2,1,07,79,65,073,38,80,47,312,36,88,30,036,35,82,28,170,,1*76
$GLGSV,2,2,07,70,21,283,,71,18,333,28,78,17,105,14,1*4C
$GAGSV,3,1,10,21,38,082,24,06,36,271,25,04,33,239,21,31,31,274,22,7*7A
$GAGSV,3,2,10,09,30,299,23,26,28,130,24,15,07,021,16,19,03,189,07,7*7B
$GAGSV,3,3,10,05,01,341,,33,01,168,,7*7E
$GBGSV,3,1,10,26,78,121,27,35,60,132,24,24,46,297,22,44,29,188,18,1*74
$GBGSV,3,2,10,29,29,049,17,45,21,117,18,33,11,283,,41,08,330,17,1*73
$GBGSV,3,3,10,12,07,196,16,14,06,259,,1*77
$GNRMC,010151.000,A,4910.428738,N,12304.400172,W,0.02,123.77,041224,,,D,V*10
$GNVTG,123.77,T,,M,0.02,N,0.04,K,D*20
$PAIRLOG,Full*51
$GNGGA,010152.000,4910.428618,N,12304.400226,W,2,29,0.46,3.070,M,-16.816,M,,*47
$GNGLL,4910.428618,N,12304.400226,W,010152.000,A,D*5C
$GNGSA,A,3,17,22,19,14,24,13,15,02,06,30,21,,0.87,0.46,0.74,1*00
$GNGSA,A,3,79,80,88,71,78,,,,,,,,0.87,0.46,0.74,2*03
$GNGSA,A,3,21,06,04,31,09,26,15,,,,,,0.87,0.46,0.74,3*07
$GNGSA,A,3,26,24,44,29,45,41,,,,,,,0.87,0.46,0.74,4*07
$GPGSV,4,1,13,17,71,083,33,22,67,070,30,19,65,190,31,14,44,085,30,1*67
$GPGSV,4,2,13,24,40,302,30,46,33,188,29,13,24,212,27,15,22,249,26,1*67
$GPGSV,4,3,13,02,18,040,27,06,14,157,21,30,12,143,21,12,10,272,18,1*61
$GPGSV,4,4,13,21,05,027,23,1*54
$GLGSV,2,1,07,79,65,073,38,80,47,312,36,88,30,036,35,82,28,170,,1*76
$GLGSV,2,2,07,70,21,283,,71,18,333,28,78,17,105,14,1*4C
$GAGSV,3,1,10,21,38,082,24,06,36,271,25,04,33,239,21,31,31,274,23,7*7B
$GAGSV,3,2,10,09,30,299,23,26,28,130,25,15,07,021,16,19,03,189,08,7*75
$GAGSV,3,3,10,05,01,341,,33,01,168,,7*7E
$GBGSV,3,1,10,26,78,121,25,35,60,132,,24,46,297,22,44,29,188,17,1*7F
$GBGSV,3,2,10,29,29,049,17,45,21,117,18,33,11,283,,41,08,330,15,1*71
$GBGSV,3,3,10,12,07,196,15,14,06,259,,1*74
$GNRMC,010152.000,A,4910.428618,N,12304.400226,W,0.02,123.77,041224,,,D,V*12
$GNVTG,123.77,T,,M,0.02,N,0.04,K,D*20
$PAIRLOG,Full*51
$GNGGA,010153.000,4910.428528,N,12304.400280,W,2,30,0.46,3.045,M,-16.816,M,,*44
$GNGLL,4910.428528,N,12304.400280,W,010153.000,A,D*51
$GNGSA,A,3,17,22,19,14,24,13,15,02,06,30,21,,0.85,0.46,0.71,1*07
$GNGSA,A,3,79,80,88,71,78,,,,,,,,0.85,0.46,0.71,2*04
$GNGSA,A,3,21,06,04,31,09,26,15,,,,,,0.85,0.46,0.71,3*00
$GNGSA,A,3,26,35,24,44,29,45,41,,,,,,0.85,0.46,0.71,4*06
$GPGSV,4,1,13,17,71,083,33,22,67,070,30,19,65,190,31,14,44,085,30,1*67
$GPGSV,4,2,13,24,40,302,30,46,33,188,29,13,24,212,27,15,22,249,27,1*66
$GPGSV,4,3,13,02,18,040,27,06,14,157,21,30,12,143,21,12,10,272,18,1*61
$GPGSV,4,4,13,21,05,027,23,1*54
$GLGSV,2,1,07,79,65,073,38,80,47,312,36,88,30,036,35,82,28,170,,1*76
$GLGSV,2,2,07,70,21,283,,71,18,333,29,78,17,105,14,1*4D
$GAGSV,3,1,10,21,38,082,24,06,36,271,25,04,33,239,21,31,31,274,23,7*7B
$GAGSV,3,2,10,09,30,299,23,26,28,130,25,15,07,021,16,19,03,189,08,7*75
$GAGSV,3,3,10,05,01,341,,33,01,168,,7*7E
$GBGSV,3,1,10,26,78,121,29,35,60,132,26,24,46,297,24,44,29,188,20,1*75
$GBGSV,3,2,10,29,29,049,17,45,21,117,18,33,11,283,,41,08,330,17,1*73
$GBGSV,3,3,10,12,07,196,15,14,06,259,,1*74
$GNRMC,010153.000,A,4910.428528,N,12304.400280,W,0.02,123.77,041224,,,D,V*1F
$GNVTG,123.77,T,,M,0.02,N,0.04,K,D*20
$PAIRLOG,Full*51
$GNGGA,010154.000,4910.428474,N,12304.400322,W,2,30,0.46,3.001,M,-16.816,M,,*42
$GNGLL,4910.428474,N,12304.400322,W,010154.000,A,D*57
$GNGSA,A,3,17,22,19,14,24,13,15,02,06,30,21,,0.85,0.46,0.71,1*07
$GNGSA,A,3,79,80,88,71,78,,,,,,,,0.85,0.46,0.71,2*04
$GNGSA,A,3,21,06,04,31,09,26,15,,,,,,0.85,0.46,0.71,3*00
$GNGSA,A,3,26,35,24,44,29,45,41,,,,,,0.85,0.46,0.71,4*06
$GPGSV,4,1,13,17,71,083,32,22,67,070,30,19,65,190,30,14,44,085,29,1*6F
$GPGSV,4,2,13,24,40,302,30,46,33,188,28,13,24,212,26,15,22,249,27,1*66
$GPGSV,4,3,13,02,18,040,27,06,14,157,21,30,12,143,21,12,10,272,18,1*61
$GPGSV,4,4,13,21,05,027,23,1*54
$GLGSV,2,1,07,79,65,073,38,80,47,312,35,88,30,036,35,82,28,170,,1*75
$GLGSV,2,2,07,70,21,283,,71,18,333,29,78,17,105,13,1*4A
$GAGSV,3,1,10,21,38,082,23,06,36,271,25,04,33,239,21,31,31,274,22,7*7D
$GAGSV,3,2,10,09,30,299,23,26,28,130,24,15,07,021,16,19,03,189,08,7*74
$GAGSV,3,3,10,05,01,341,,33,01,168,,7*7E
$GBGSV,3,1,10,26,78,121,24,35,60,132,23,24,46,297,21,44,29,188,19,1*72
$GBGSV,3,2,10,29,29,049,18,45,21,117,18,33,11,283,,41,08,330,16,1*7D
$GBGSV,3,3,10,12,07,196,15,14,06,259,,1*74
$GNRMC,010154.000,A,4910.428474,N,12304.400322,W,0.03,123.77,041224,,,D,V*18
$GNVTG,123.77,T,,M,0.03,N,0.05,K,D*20
$PAIRLOG,Full*51
$GNGGA,010155.000,4910.428288,N,12304.400346,W,2,29,0.47,3.015,M,-16.817,M,,*49
$GNGLL,4910.428288,N,12304.400346,W,010155.000,A,D*51
$GNGSA,A,3,17,22,19,14,24,13,15,02,06,30,21,,0.87,0.47,0.73,1*06
$GNGSA,A,3,79,80,88,71,,,,,,,,,0.87,0.47,0.73,2*0A
$GNGSA,A,3,21,06,04,31,09,26,15,,,,,,0.87,0.47,0.73,3*01
$GNGSA,A,3,26,35,24,44,29,45,41,,,,,,0.87,0.47,0.73,4*07
$GPGSV,4,1,13,17,71,083,32,22,67,070,30,19,65,190,30,14,44,085,29,1*6F
$GPGSV,4,2,13,24,40,302,30,46,33,188,29,13,24,212,26,15,22,249,27,1*67
$GPGSV,4,3,13,02,18,040,27,06,14,157,22,30,12,143,21,12,10,272,18,1*62
$GPGSV,4,4,13,21,05,027,23,1*54
$GLGSV,2,1,07,79,65,073,38,80,47,312,35,88,30,036,35,82,28,170,,1*75
$GLGSV,2,2,07,70,21,283,,71,18,333,29,78,17,105,,1*48
$GAGSV,3,1,10,21,38,082,23,06,36,271,26,04,33,239,22,31,31,274,23,7*7C
$GAGSV,3,2,10,09,30,299,24,26,28,130,24,15,07,021,17,19,03,189,08,7*72
$GAGSV,3,3,10,05,01,341,,33,01,168,,7*7E
$GBGSV,3,1,10,26,78,121,29,35,60,132,25,24,46,297,26,44,29,188,20,1*74
$GBGSV,3,2,10,29,29,049,18,45,21,117,18,33,11,283,,41,08,330,17,1*7C
$GBGSV,3,3,10,12,07,196,15,14,06,259,,1*74
$GNRMC,010155.000,A,4910.428288,N,12304.400346,W,0.03,123.77,041224,,,D,V*1E
$GNVTG,123.77,T,,M,0.03,N,0.05,K,D*20
$PAIRLOG,Full*51
$GNGGA,010156.000,4910.428228,N,12304.400340,W,2,29,0.47,3.027,M,-16.816,M,,*46
$GNGLL,4910.428228,N,12304.400340,W,010156.000,A,D*5E
$GNGSA,A,3,17,22,19,14,24,13,15,02,06,30,21,,0.87,0.47,0.73,1*06
$GNGSA,A,3,79,80,88,71,,,,,,,,,0.87,0.47,0.73,2*0A
$GNGSA,A,3,21,06,04,31,09,26,15,,,,,,0.87,0.47,0.73,3*01
$GNGSA,A,3,26,35,24,44,29,45,41,,,,,,0.87,0.47,0.73,4*07
$GPGSV,4,1,13,17,71,083,32,22,67,070,30,19,65,190,30,14,44,085,29,1*6F
$GPGSV,4,2,13,24,40,302,29,46,33,188,29,13,24,212,25,15,22,249,26,1*6D
$GPGSV,4,3,13,02,18,040,27,06,14,157,22,30,12,143,21,12,10,272,18,1*62
$GPGSV,4,4,13,21,05,027,23,1*54
$GLGSV,2,1,07,79,65,073,38,80,47,312,36,88,30,036,35,82,28,170,,1*76
$GLGSV,2,2,07,70,21,283,,71,18,333,29,78,17,105,,1*48
$GAGSV,3,1,10,21,38,082,23,06,36,271,25,04,33,239,22,31,31,274,23,7*7F
$GAGSV,3,2,10,09,30,299,24,26,28,130,24,15,07,021,17,19,03,189,07,7*7D
$GAGSV,3,3,10,05,01,341,,33,01,168,,7*7E
$GBGSV,3,1,10,26,78,121,29,35,60,132,25,24,46,297,25,44,29,188,21,1*76
$GBGSV,3,2,10,29,29,049,18,45,21,117,18,33,11,283,,41,08,330,18,1*73
$GBGSV,3,3,10,12,07,196,15,14,06,259,,1*74
$GNRMC,010156.000,A,4910.428228,N,12304.400340,W,0.03,123.77,041224,,,D,V*11
$GNVTG,123.77,T,,M,0.03,N,0.05,K,D*20
$PAIRLOG,Full*51
$GNGGA,010157.000,4910.428156,N,12304.400310,W,2,29,0.47,3.116,M,-16.817,M,,*4A
$GNGLL,4910.428156,N,12304.400310,W,010157.000,A,D*50
$GNGSA,A,3,17,22,19,14,24,13,15,02,06,30,21,,0.87,0.47,0.73,1*06
$GNGSA,A,3,79,80,88,71,,,,,,,,,0.87,0.47,0.73,2*0A
$GNGSA,A,3,21,06,04,31,09,26,15,,,,,,0.87,0.47,0.73,3*01
$GNGSA,A,3,26,35,24,44,29,45,41,,,,,,0.87,0.47,0.73,4*07
$GPGSV,4,1,13,17,71,083,32,22,67,070,29,19,65,190,30,14,44,085,29,1*67
$GPGSV,4,2,13,24,40,302,29,46,33,188,28,13,24,212,25,15,22,249,26,1*6C
$GPGSV,4,3,13,02,18,040,26,06,14,157,22,30,12,143,21,12,10,272,18,1*63
$GPGSV,4,4,13,21,05,027,22,1*55
$GLGSV,2,1,07,79,65,073,38,80,47,312,36,88,30,036,35,82,28,170,,1*76
$GLGSV,2,2,07,70,21,283,,71,18,333,29,78,17,105,,1*48
$GAGSV,3,1,10,21,38,082,23,06,36,271,24,04,33,239,22,31,31,274,22,7*7F
$GAGSV,3,2,10,09,30,299,24,26,28,130,24,15,07,021,17,19,03,189,07,7*7D
$GAGSV,3,3,10,05,01,341,,33,01,168,,7*7E
$GBGSV,3,1,10,26,78,121,30,35,60,132,27,24,46,297,25,44,29,188,23,1*7E
$GBGSV,3,2,10,29,29,049,17,45,21,117,18,33,11,283,,41,08,330,18,1*7C
$GBGSV,3,3,10,12,07,196,15,14,06,259,,1*74
$GNRMC,010157.000,A,4910.428156,N,12304.400310,W,0.03,123.77,041224,,,D,V*1F
$GNVTG,123.77,T,,M,0.03,N,0.05,K,D*20
$PAIRLOG,Full*51
$GNGGA,010158.000,4910.428144,N,12304.400268,W,2,29,0.47,3.120,M,-16.816,M,,*4C
$GNGLL,4910.428144,N,12304.400268,W,010158.000,A,D*52
$GNGSA,A,3,17,22,19,14,24,13,15,02,06,30,21,,0.87,0.47,0.73,1*06
$GNGSA,A,3,79,80,88,71,,,,,,,,,0.87,0.47,0.73,2*0A
$GNGSA,A,3,21,06,04,31,09,26,15,,,,,,0.87,0.47,0.73,3*01
$GNGSA,A,3,26,35,24,44,29,45,41,,,,,,0.87,0.47,0.73,4*07
$GPGSV,4,1,13,17,71,083,31,22,67,070,29,19,65,190,30,14,44,085,29,1*64
$GPGSV,4,2,13,24,40,302,29,46,33,188,28,13,24,212,25,15,22,249,26,1*6C
$GPGSV,4,3,13,02,18,040,26,06,14,157,22,30,12,143,21,12,10,272,18,1*63
$GPGSV,4,4,13,21,05,027,22,1*55
$GLGSV,2,1,07,79,65,073,38,80,47,312,36,88,30,036,35,82,28,170,,1*76
$GLGSV,2,2,07,70,21,283,,71,18,333,29,78,17,105,,1*48
$GAGSV,3,1,10,21,38,082,23,06,36,271,24,04,33,239,21,31,31,274,22,7*7C
$GAGSV,3,2,10,09,30,299,24,26,28,130,24,15,07,021,17,19,03,189,08,7*72
$GAGSV,3,3,10,05,01,341,,33,01,168,,7*7E
$GBGSV,3,1,10,26,78,121,32,35,60,132,27,24,46,297,27,44,29,188,24,1*79
$GBGSV,3,2,10,29,29,049,17,45,21,117,18,33,11,283,,41,08,330,19,1*7D
$GBGSV,3,3,10,12,07,196,16,14,06,259,,1*77
$GNRMC,010158.000,A,4910.428144,N,12304.400268,W,0.02,123.77,041224,,,D,V*1C
$GNVTG,123.77,T,,M,0.02,N,0.04,K,D*20
$PAIRLOG,Full*51
$GNGGA,010159.000,4910.428126,N,12304.400190,W,2,29,0.47,3.079,M,-16.816,M,,*40
$GNGLL,4910.428126,N,12304.400190,W,010159.000,A,D*53
$GNGSA,A,3,17,22,19,14,24,13,15,02,06,30,21,,0.87,0.47,0.73,1*06
$GNGSA,A,3,79,80,88,71,,,,,,,,,0.87,0.47,0.73,2*0A
$GNGSA,A,3,21,06,04,31,09,26,15,,,,,,0.87,0.47,0.73,3*01
$GNGSA,A,3,26,35,24,44,29,45,41,,,,,,0.87,0.47,0.73,4*07
$GPGSV,4,1,13,17,71,083,32,22,67,070,30,19,65,190,31,14,44,085,29,1*6E
$GPGSV,4,2,13,24,40,302,29,46,33,188,28,13,24,212,25,15,22,249,26,1*6C
$GPGSV,4,3,13,02,18,040,26,06,14,157,23,30,12,143,21,12,10,272,19,1*63
$GPGSV,4,4,13,21,05,027,22,1*55
$GLGSV,2,1,07,79,65,073,38,80,47,312,36,88,30,036,35,82,28,170,,1*76
$GLGSV,2,2,07,70,21,283,,71,18,333,29,78,17,105,,1*48
$GAGSV,3,1,10,21,38,082,23,06,36,271,24,04,33,239,21,31,31,274,22,7*7C
$GAGSV,3,2,10,09,30,299,24,26,28,130,24,15,07,021,17,19,03,189,08,7*72
$GAGSV,3,3,10,05,01,341,,33,01,168,,7*7E
$GBGSV,3,1,10,26,78,121,30,35,60,132,27,24,46,297,25,44,29,188,24,1*79
$GBGSV,3,2,10,29,29,049,17,45,21,117,18,33,11,283,,41,08,330,19,1*7D
$GBGSV,3,3,10,12,07,196,16,14,06,259,,1*77
$GNRMC,010159.000,A,4910.428126,N,12304.400190,W,0.01,123.77,041224,,,D,V*1E
$GNVTG,123.77,T,,M,0.01,N,0.03,K,D*24
$PAIRLOG,Full*51
$GNGGA,010200.000,4910.428114,N,12304.400166,W,2,29,0.47,3.080,M,-16.816,M,,*41
$GNGLL,4910.428114,N,12304.400166,W,010200.000,A,D*54
$GNGSA,A,3,17,22,19,14,24,13,15,02,06,30,21,,0.87,0.47,0.73,1*06
$GNGSA,A,3,79,80,88,71,,,,,,,,,0.87,0.47,0.73,2*0A
$GNGSA,A,3,21,06,04,31,09,26,15,,,,,,0.87,0.47,0.73,3*01
$GNGSA,A,3,26,35,24,44,29,45,41,,,,,,0.87,0.47,0.73,4*07
$GPGSV,4,1,13,17,71,083,30,22,67,070,23,19,65,190,29,14,44,085,27,1*69
$GPGSV,4,2,13,24,40,302,28,46,33,188,27,13,24,212,24,15,22,249,25,1*60
$GPGSV,4,3,13,02,18,040,25,06,14,157,22,30,12,143,20,12,10,272,19,1*60
$GPGSV,4,4,13,21,05,027,21,1*56
$GLGSV,2,1,07,79,65,073,38,80,47,312,36,88,30,036,35,82,28,170,,1*76
$GLGSV,2,2,07,70,21,283,,71,18,333,29,78,17,105,,1*48
$GAGSV,3,1,10,21,38,082,22,06,36,271,23,04,33,239,20,31,31,274,21,7*78
$GAGSV,3,2,10,09,30,299,23,26,28,130,23,15,07,021,17,19,03,189,08,7*72
$GAGSV,3,3,10,05,01,341,,33,01,168,,7*7E
$GBGSV,3,1,10,26,78,121,29,35,60,132,24,24,46,297,24,44,29,188,23,1*74
$GBGSV,3,2,10,29,29,049,17,45,21,117,18,33,11,283,,41,08,330,18,1*7C
$GBGSV,3,3,10,12,07,196,16,14,06,259,,1*77
$GNRMC,010200.000,A,4910.428114,N,12304.400166,W,0.01,123.77,041224,,,D,V*19
$GNVTG,123.77,T,,M,0.01,N,0.02,K,D*25
$PAIRLOG,Full*51
$GNGGA,010201.000,4910.428066,N,12304.399932,W,2,29,0.47,3.298,M,-16.816,M,,*41
$GNGLL,4910.428066,N,12304.399932,W,010201.000,A,D*5F
$GNGSA,A,3,17,22,19,14,24,13,15,02,06,30,21,,0.87,0.47,0.73,1*06
$GNGSA,A,3,79,80,88,71,,,,,,,,,0.87,0.47,0.73,2*0A
$GNGSA,A,3,21,06,04,31,09,26,15,,,,,,0.87,0.47,0.73,3*01
$GNGSA,A,3,26,35,24,44,29,45,41,,,,,,0.87,0.47,0.73,4*07
$GPGSV,4,1,13,17,71,083,32,22,67,070,34,19,65,190,31,14,44,085,34,1*66
$GPGSV,4,2,13,24,40,302,30,46,33,188,28,13,24,212,26,15,22,249,26,1*67
$GPGSV,4,3,13,02,18,040,26,06,14,157,23,30,12,143,20,12,10,272,20,1*68
$GPGSV,4,4,13,21,05,027,22,1*55
$GLGSV,2,1,07,79,65,073,38,80,47,312,36,88,30,036,35,82,28,170,,1*76
$GLGSV,2,2,07,70,21,283,,71,18,333,28,78,17,105,,1*49
$GAGSV,3,1,10,21,38,082,23,06,36,271,24,04,33,239,22,31,31,274,23,7*7E
$GAGSV,3,2,10,09,30,299,24,26,28,130,24,15,07,021,18,19,03,189,08,7*7D
$GAGSV,3,3,10,05,01,341,,33,01,168,,7*7E
$GBGSV,3,1,10,26,78,121,29,35,60,132,25,24,46,297,25,44,29,188,23,1*74
$GBGSV,3,2,10,29,29,049,17,45,21,117,18,33,11,283,,41,08,330,19,1*7D
$GBGSV,3,3,10,12,07,196,16,14,06,258,,1*76
$GNRMC,010201.000,A,4910.428066,N,12304.399932,W,0.02,123.77,041224,,,D,V*11
$GNVTG,123.77,T,,M,0.02,N,0.03,K,D*27
$PAIRLOG,Full*51
$GNGGA,010202.000,4910.428012,N,12304.399824,W,2,29,0.47,3.567,M,-16.816,M,,*40
$GNGLL,4910.428012,N,12304.399824,W,010202.000,A,D*59
$GNGSA,A,3,17,22,19,14,24,13,15,02,06,30,21,,0.87,0.47,0.73,1*06
$GNGSA,A,3,79,80,88,71,,,,,,,,,0.87,0.47,0.73,2*0A
$GNGSA,A,3,21,06,04,31,09,26,15,,,,,,0.87,0.47,0.73,3*01
$GNGSA,A,3,26,35,24,44,29,45,41,,,,,,0.87,0.47,0.73,4*07
$GPGSV,4,1,13,17,71,083,32,22,67,070,33,19,65,190,32,14,44,085,33,1*65
$GPGSV,4,2,13,24,40,302,30,46,33,188,29,13,24,212,26,15,22,249,27,1*67
$GPGSV,4,3,13,02,18,040,26,06,14,157,23,30,12,143,21,12,10,272,20,1*69
$GPGSV,4,4,13,21,05,027,23,1*54
$GLGSV,2,1,07,79,65,073,39,80,47,312,37,88,30,036,35,82,28,170,,1*76
$GLGSV,2,2,07,70,21,283,,71,18,333,28,78,17,105,,1*49
$GAGSV,3,1,10,21,38,082,23,06,36,271,24,04,33,239,22,31,31,274,24,7*79
$GAGSV,3,2,10,09,30,299,24,26,28,130,25,15,07,021,18,19,03,189,08,7*7C
$GAGSV,3,3,10,05,01,341,,33,01,168,,7*7E
$GBGSV,3,1,10,26,78,121,28,35,60,132,25,24,46,297,24,44,29,188,22,1*75
$GBGSV,3,2,10,29,29,049,17,45,21,117,17,33,11,283,,41,08,330,19,1*72
$GBGSV,3,3,10,12,07,196,16,14,06,258,,1*76
$GNRMC,010202.000,A,4910.428012,N,12304.399824,W,0.02,123.77,041224,,,D,V*17
$GNVTG,123.77,T,,M,0.02,N,0.04,K,D*20
$PAIRLOG,Full*51
$GNGGA,010203.000,4910.428066,N,12304.399716,W,2,29,0.47,3.555,M,-16.816,M,,*4D
$GNGLL,4910.428066,N,12304.399716,W,010203.000,A,D*55
$GNGSA,A,3,17,22,19,14,24,13,15,02,06,30,21,,0.85,0.47,0.71,1*06
$GNGSA,A,3,79,80,88,71,,,,,,,,,0.85,0.47,0.71,2*0A
$GNGSA,A,3,21,06,04,31,09,26,15,,,,,,0.85,0.47,0.71,3*01
$GNGSA,A,3,26,35,24,44,45,33,41,,,,,,0.85,0.47,0.71,4*0C
$GPGSV,4,1,13,17,71,083,31,22,67,070,33,19,65,190,31,14,44,085,32,1*64
$GPGSV,4,2,13,24,40,302,30,46,33,188,29,13,24,212,26,15,22,249,26,1*66
$GPGSV,4,3,13,02,18,040,26,06,14,157,23,30,12,143,21,12,10,272,20,1*69
$GPGSV,4,4,13,21,05,027,22,1*55
$GLGSV,2,1,07,79,65,073,39,80,47,312,37,88,30,036,35,82,28,170,,1*76
$GLGSV,2,2,07,70,21,283,,71,18,333,28,78,17,105,,1*49
$GAGSV,3,1,10,21,38,082,23,06,36,271,24,04,33,239,22,31,31,274,23,7*7E
$GAGSV,3,2,10,09,30,299,24,26,28,130,25,15,07,021,18,19,03,189,08,7*7C
$GAGSV,3,3,10,05,01,341,,33,01,168,,7*7E
$GBGSV,3,1,10,26,78,121,28,35,60,132,25,24,46,297,24,44,29,188,22,1*75
$GBGSV,3,2,10,29,29,049,,45,21,117,17,33,11,283,16,41,08,330,19,1*73
$GBGSV,3,3,10,12,07,196,16,14,06,258,,1*76
$GNRMC,010203.000,A,4910.428066,N,12304.399716,W,0.02,123.77,041224,,,D,V*1B
$GNVTG,123.77,T,,M,0.02,N,0.04,K,D*20
$PAIRLOG,Full*51
$GNGGA,010204.000,4910.428102,N,12304.399692,W,2,29,0.47,3.666,M,-16.817,M,,*46
$GNGLL,4910.428102,N,12304.399692,W,010204.000,A,D*5C
$GNGSA,A,3,17,22,19,14,24,13,15,02,06,30,21,,0.85,0.47,0.71,1*06
$GNGSA,A,3,79,80,88,71,,,,,,,,,0.85,0.47,0.71,2*0A
$GNGSA,A,3,21,06,04,31,09,26,15,,,,,,0.85,0.47,0.71,3*01
$GNGSA,A,3,26,35,24,44,45,33,41,,,,,,0.85,0.47,0.71,4*0C
$GPGSV,4,1,13,17,71,083,31,22,67,070,33,19,65,190,31,14,44,085,31,1*67
$GPGSV,4,2,13,24,40,302,30,46,33,188,29,13,24,212,26,15,22,249,26,1*66
$GPGSV,4,3,13,02,18,040,26,06,14,157,23,30,12,143,21,12,10,272,20,1*69
$GPGSV,4,4,13,21,05,027,22,1*55
$GLGSV,2,1,07,79,65,073,39,80,47,312,37,88,30,036,35,82,28,170,,1*76
$GLGSV,2,2,07,70,21,283,,71,18,333,28,78,17,105,,1*49
$GAGSV,3,1,10,21,38,082,24,06,36,271,25,04,33,239,22,31,31,274,23,7*78
$GAGSV,3,2,10,09,30,299,24,26,28,130,26,15,07,021,18,19,03,189,07,7*70
$GAGSV,3,3,10,05,01,341,,33,01,168,,7*7E
$GBGSV,3,1,10,26,78,121,29,35,60,132,25,24,46,297,25,44,29,188,22,1*75
$GBGSV,3,2,10,29,29,049,,45,21,117,17,33,11,283,14,41,08,330,19,1*71
$GBGSV,3,3,10,12,07,196,16,14,06,258,,1*76
$GNRMC,010204.000,A,4910.428102,N,12304.399692,W,0.02,123.77,041224,,,D,V*12
$GNVTG,123.77,T,,M,0.02,N,0.04,K,D*20
$PAIRLOG,Full*51
$GNGGA,010205.000,4910.428096,N,12304.399656,W,2,29,0.47,3.773,M,-16.817,M,,*46
$GNGLL,4910.428096,N,12304.399656,W,010205.000,A,D*59
$GNGSA,A,3,17,22,19,14,24,13,15,02,06,30,21,,0.85,0.47,0.71,1*06
$GNGSA,A,3,79,80,88,71,,,,,,,,,0.85,0.47,0.71,2*0A
$GNGSA,A,3,21,06,04,31,09,26,15,,,,,,0.85,0.47,0.71,3*01
$GNGSA,A,3,26,35,24,44,45,33,41,,,,,,0.85,0.47,0.71,4*0C
$GPGSV,4,1,13,17,71,083,30,22,67,070,31,19,65,190,30,14,44,085,30,1*64
$GPGSV,4,2,13,24,40,302,29,46,33,188,28,13,24,212,25,15,22,249,25,1*6F
$GPGSV,4,3,13,02,18,040,26,06,14,157,22,30,12,143,20,12,10,272,20,1*69
$GPGSV,4,4,13,21,05,027,21,1*56
$GLGSV,2,1,07,79,65,073,39,80,47,312,37,88,30,036,36,82,28,170,,1*75
$GLGSV,2,2,07,70,21,283,,71,18,333,29,78,17,105,,1*48
$GAGSV,3,1,10,21,38,082,24,06,36,271,24,04,33,239,21,31,31,274,22,7*7B
$GAGSV,3,2,10,09,30,299,23,26,28,130,26,15,07,021,18,19,03,189,06,7*76
$GAGSV,3,3,10,05,01,341,,33,01,168,,7*7E
$GBGSV,3,1,10,26,78,121,29,35,60,132,26,24,46,297,27,44,29,188,22,1*74
$GBGSV,3,2,10,29,29,049,,45,21,117,17,33,11,283,14,41,08,330,19,1*71
$GBGSV,3,3,10,12,07,196,16,14,06,258,,1*76
$GNRMC,010205.000,A,4910.428096,N,12304.399656,W,0.02,123.77,041224,,,D,V*17
$GNVTG,123.77,T,,M,0.02,N,0.03,K,D*27
$PAIRLOG,Full*51
$GNGGA,010206.000,4910.428024,N,12304.399650,W,2,29,0.47,3.862,M,-16.816,M,,*44
$GNGLL,4910.428024,N,12304.399650,W,010206.000,A,D*55
$GNGSA,A,3,17,22,19,14,24,13,15,02,06,30,21,,0.85,0.47,0.71,1*06
$GNGSA,A,3,79,80,88,71,,,,,,,,,0.85,0.47,0.71,2*0A
$GNGSA,A,3,21,06,04,31,09,26,15,,,,,,0.85,0.47,0.71,3*01
$GNGSA,A,3,26,35,24,44,45,33,41,,,,,,0.85,0.47,0.71,4*0C
$GPGSV,4,1,13,17,71,083,31,22,67,070,31,19,65,190,30,14,44,085,30,1*65
$GPGSV,4,2,13,24,40,302,29,46,33,188,28,13,24,212,25,15,22,249,26,1*6C
$GPGSV,4,3,13,02,18,040,26,06,14,157,22,30,12,143,20,12,10,272,20,1*69
$GPGSV,4,4,13,21,05,027,21,1*56
$GLGSV,2,1,07,79,65,073,39,80,47,312,37,88,30,036,36,82,28,170,,1*75
$GLGSV,2,2,07,70,21,283,,71,18,333,29,78,17,105,,1*48
$GAGSV,3,1,10,21,38,082,24,06,36,271,24,04,33,239,21,31,31,274,22,7*7B
$GAGSV,3,2,10,09,30,299,24,26,28,130,26,15,07,021,18,19,03,189,06,7*71
$GAGSV,3,3,10,05,01,341,,33,01,168,,7*7E
$GBGSV,3,1,09,26,78,121,30,35,60,132,30,24,46,297,31,44,29,188,24,1*72
$GBGSV,3,2,09,45,21,117,18,33,11,283,14,41,08,330,20,12,07,196,17,1*7D
$GBGSV,3,3,09,14,06,258,,1*43
$GNRMC,010206.000,A,4910.428024,N,12304.399650,W,0.02,123.77,041224,,,D,V*1B
$GNVTG,123.77,T,,M,0.02,N,0.03,K,D*27
$PAIRLOG,Full*51
$GNGGA,010207.000,4910.428012,N,12304.399692,W,2,29,0.47,3.887,M,-16.817,M,,*44
$GNGLL,4910.428012,N,12304.399692,W,010207.000,A,D*5F
$GNGSA,A,3,17,22,19,14,24,13,15,02,06,30,21,,0.85,0.47,0.71,1*06
$GNGSA,A,3,79,80,88,71,,,,,,,,,0.85,0.47,0.71,2*0A
$GNGSA,A,3,21,06,04,31,09,26,15,,,,,,0.85,0.47,0.71,3*01
$GNGSA,A,3,26,35,24,44,45,33,41,,,,,,0.85,0.47,0.71,4*0C
$GPGSV,4,1,13,17,71,083,31,22,67,070,30,19,65,190,30,14,44,085,30,1*64
$GPGSV,4,2,13,24,40,302,29,46,33,188,28,13,24,212,25,15,22,249,26,1*6C
$GPGSV,4,3,13,02,18,040,26,06,14,157,22,30,12,143,20,12,10,272,20,1*69
$GPGSV,4,4,13,21,05,027,21,1*56
$GLGSV,2,1,07,79,65,073,39,80,47,312,38,88,30,036,37,82,28,170,,1*7B
$GLGSV,2,2,07,70,21,283,,71,18,333,29,78,17,105,,1*48
$GAGSV,3,1,10,21,38,082,24,06,36,271,24,04,33,239,20,31,31,274,22,7*7A
$GAGSV,3,2,10,09,30,299,24,26,28,130,25,15,07,021,18,19,03,189,06,7*72
$GAGSV,3,3,10,05,01,341,,33,01,168,,7*7E
$GBGSV,3,1,10,26,78,121,31,35,60,132,31,24,46,297,32,44,29,188,25,1*78
$GBGSV,3,2,10,29,29,049,,45,21,117,20,33,11,283,14,41,08,330,21,1*7E
$GBGSV,3,3,10,12,07,196,18,14,06,258,,1*78
$GNRMC,010207.000,A,4910.428012,N,12304.399692,W,0.01,123.77,041224,,,D,V*12
$GNVTG,123.77,T,,M,0.01,N,0.02,K,D*25
$PAIRLOG,Full*51
$GNGGA,010208.000,4910.428018,N,12304.399788,W,2,30,0.46,3.957,M,-16.817,M,,*4E
$GNGLL,4910.428018,N,12304.399788,W,010208.000,A,D*50
$GNGSA,A,3,17,22,19,14,24,13,15,02,06,30,21,,0.85,0.46,0.71,1*07
$GNGSA,A,3,79,80,88,71,,,,,,,,,0.85,0.46,0.71,2*0B
$GNGSA,A,3,21,06,04,31,09,26,15,,,,,,0.85,0.46,0.71,3*00
$GNGSA,A,3,26,35,24,44,29,45,33,41,,,,,0.85,0.46,0.71,4*06
$GPGSV,4,1,13,17,71,083,31,22,67,070,29,19,65,190,30,14,44,085,30,1*6C
$GPGSV,4,2,13,24,40,302,29,46,33,188,28,13,24,212,25,15,22,249,26,1*6C
$GPGSV,4,3,13,02,18,040,26,06,14,157,22,30,12,143,20,12,10,272,20,1*69
$GPGSV,4,4,13,21,05,027,21,1*56
$GLGSV,2,1,07,79,65,073,39,80,47,312,38,88,30,036,37,82,28,170,,1*7B
$GLGSV,2,2,07,70,21,283,,71,18,333,29,78,17,105,,1*48
$GAGSV,3,1,10,21,38,082,24,06,36,271,24,04,33,239,20,31,31,274,22,7*7A
$GAGSV,3,2,10,09,30,299,24,26,28,130,25,15,07,021,18,19,03,189,05,7*71
$GAGSV,3,3,10,05,01,341,,33,01,168,,7*7E
$GBGSV,3,1,10,26,78,121,32,35,60,132,31,24,46,297,31,44,29,188,26,1*7B
$GBGSV,3,2,10,29,29,049,26,45,21,117,20,33,11,283,14,41,08,330,21,1*7A
$GBGSV,3,3,10,12,07,196,18,14,06,258,,1*78
$GNRMC,010208.000,A,4910.428018,N,12304.399788,W,0.01,123.77,041224,,,D,V*1D
$GNVTG,123.77,T,,M,0.01,N,0.02,K,D*25
$PAIRLOG,Full*51
$GNGGA,010209.000,4910.428012,N,12304.399830,W,2,30,0.46,4.081,M,-16.816,M,,*4D
$GNGLL,4910.428012,N,12304.399830,W,010209.000,A,D*57
$GNGSA,A,3,17,22,19,14,24,13,15,02,06,30,21,,0.85,0.46,0.71,1*07
$GNGSA,A,3,79,80,88,71,,,,,,,,,0.85,0.46,0.71,2*0B
$GNGSA,A,3,21,06,04,31,09,26,15,,,,,,0.85,0.46,0.71,3*00
$GNGSA,A,3,26,35,24,44,29,45,33,41,,,,,0.85,0.46,0.71,4*06
$GPGSV,4,1,13,17,71,083,31,22,67,070,29,19,65,190,30,14,44,085,30,1*6C
$GPGSV,4,2,13,24,40,302,28,46,33,188,28,13,24,212,25,15,22,249,26,1*6D
$GPGSV,4,3,13,02,18,040,25,06,14,157,22,30,12,143,21,12,10,272,19,1*61
$GPGSV,4,4,13,21,05,027,21,1*56
$GLGSV,2,1,07,79,65,073,39,80,47,312,38,88,30,036,36,82,28,170,,1*7A
$GLGSV,2,2,07,70,21,283,,71,18,333,29,78,17,105,,1*48
$GAGSV,3,1,10,21,38,082,24,06,36,271,23,04,33,239,20,31,31,274,22,7*7D
$GAGSV,3,2,10,09,30,299,23,26,28,130,25,15,07,021,17,19,03,189,05,7*79
$GAGSV,3,3,10,05,01,341,,33,01,168,,7*7E
$GBGSV,3,1,10,26,78,121,32,35,60,132,30,24,46,297,31,44,29,188,26,1*7A
$GBGSV,3,2,10,29,29,049,26,45,21,117,20,33,11,283,14,41,08,330,22,1*79
$GBGSV,3,3,10,12,07,196,19,14,06,258,,1*79
$GNRMC,010209.000,A,4910.428012,N,12304.399830,W,0.01,123.77,041224,,,D,V*1A
$GNVTG,123.77,T,,M,0.01,N,0.02,K,D*25
$PAIRLOG,Full*51
$GNGGA,010210.000,4910.428042,N,12304.399890,W,2,30,0.46,4.185,M,-16.816,M,,*4F
$GNGLL,4910.428042,N,12304.399890,W,010210.000,A,D*50
$GNGSA,A,3,17,22,19,14,24,13,15,02,06,30,21,,0.85,0.46,0.71,1*07
$GNGSA,A,3,79,80,88,71,,,,,,,,,0.85,0.46,0.71,2*0B
$GNGSA,A,3,21,06,04,31,09,26,15,,,,,,0.85,0.46,0.71,3*00
$GNGSA,A,3,26,35,24,44,29,45,33,41,,,,,0.85,0.46,0.71,4*06
$GPGSV,4,1,13,17,71,083,32,22,67,070,30,19,65,190,30,14,44,085,30,1*67
$GPGSV,4,2,13,24,40,302,28,46,33,188,28,13,24,212,26,15,22,249,26,1*6E
$GPGSV,4,3,13,02,18,040,25,06,14,157,23,30,12,143,22,12,10,272,19,1*63
$GPGSV,4,4,13,21,05,027,21,1*56
$GLGSV,2,1,07,79,65,073,38,80,47,312,37,88,30,036,36,82,28,170,,1*74
$GLGSV,2,2,07,70,21,283,,71,18,333,29,78,17,105,,1*48
$GAGSV,3,1,10,21,38,082,25,06,36,271,23,04,33,239,21,31,31,274,23,7*7C
$GAGSV,3,2,10,09,30,299,23,26,28,130,25,15,07,021,17,19,03,189,06,7*7A
$GAGSV,3,3,10,05,01,341,,33,01,168,,7*7E
$GBGSV,3,1,10,26,78,121,31,35,60,132,30,24,46,297,28,44,29,188,26,1*71
$GBGSV,3,2,10,29,29,049,25,45,21,117,20,33,11,283,14,41,08,330,22,1*7A
$GBGSV,3,3,10,12,07,196,18,14,06,258,,1*78
$GNRMC,010210.000,A,4910.428042,N,12304.399890,W,0.01,123.77,041224,,,D,V*1D
$GNVTG,123.77,T,,M,0.01,N,0.03,K,D*24
$PAIRLOG,Full*51
$GNGGA,010211.000,4910.428054,N,12304.399926,W,2,30,0.46,4.252,M,-16.816,M,,*4C
$GNGLL,4910.428054,N,12304.399926,W,010211.000,A,D*5A
$GNGSA,A,3,17,22,19,14,24,13,15,02,06,30,21,,0.85,0.46,0.71,1*07
$GNGSA,A,3,79,80,88,71,,,,,,,,,0.85,0.46,0.71,2*0B
$GNGSA,A,3,21,06,04,31,09,26,15,,,,,,0.85,0.46,0.71,3*00
$GNGSA,A,3,26,35,24,44,29,45,33,41,,,,,0.85,0.46,0.71,4*06
$GPGSV,4,1,13,17,71,083,31,22,67,070,29,19,65,190,29,14,44,085,29,1*6C
$GPGSV,4,2,13,24,40,302,27,46,33,188,28,13,24,212,25,15,22,249,25,1*61
$GPGSV,4,3,13,02,18,040,25,06,14,157,22,30,12,143,21,12,10,272,18,1*60
$GPGSV,4,4,13,21,05,027,19,1*5D
$GLGSV,2,1,07,79,65,073,38,80,47,312,37,88,30,036,36,82,28,170,,1*74
$GLGSV,2,2,07,70,21,283,,71,18,333,29,78,17,105,,1*48
$GAGSV,3,1,10,21,38,082,25,06,36,271,23,04,33,239,21,31,31,274,22,7*7D
$GAGSV,3,2,10,09,30,299,22,26,28,130,24,15,07,021,16,19,03,189,06,7*7B
$GAGSV,3,3,10,05,01,341,,33,01,168,,7*7E
$GBGSV,3,1,10,26,78,121,31,35,60,132,30,24,47,297,30,44,29,188,26,1*79
$GBGSV,3,2,10,29,29,049,26,45,21,117,20,33,11,283,14,41,08,330,22,1*79
$GBGSV,3,3,10,12,07,196,18,14,06,258,,1*78
$GNRMC,010211.000,A,4910.428054,N,12304.399926,W,0.01,123.77,041224,,,D,V*17
$GNVTG,123.77,T,,M,0.01,N,0.02,K,D*25
$PAIRLOG,Full*51
$GNGGA,010212.000,4910.428048,N,12304.399932,W,2,30,0.46,4.357,M,-16.816,M,,*43
$GNGLL,4910.428048,N,12304.399932,W,010212.000,A,D*51
$GNGSA,A,3,17,22,19,14,24,13,15,02,06,30,21,,0.85,0.46,0.71,1*07
$GNGSA,A,3,79,80,88,71,,,,,,,,,0.85,0.46,0.71,2*0B
$GNGSA,A,3,21,06,04,31,09,26,15,,,,,,0.85,0.46,0.71,3*00
$GNGSA,A,3,26,35,24,44,29,45,33,41,,,,,0.85,0.46,0.71,4*06
$GPGSV,4,1,13,17,71,083,31,22,67,070,29,19,65,190,29,14,44,085,29,1*6C
$GPGSV,4,2,13,24,40,302,27,46,33,188,28,13,24,212,25,15,22,249,25,1*61
$GPGSV,4,3,13,02,18,040,25,06,14,157,23,30,12,143,21,12,10,272,18,1*61
$GPGSV,4,4,13,21,05,027,20,1*57
$GLGSV,2,1,07,79,65,073,38,80,47,312,37,88,30,036,36,82,28,170,,1*74
$GLGSV,2,2,07,70,21,283,,71,18,333,29,78,17,105,,1*48
$GAGSV,3,1,10,21,38,082,25,06,36,271,23,04,33,239,21,31,31,274,22,7*7D
$GAGSV,3,2,10,09,30,299,22,26,28,130,24,15,07,021,16,19,03,189,06,7*7B
$GAGSV,3,3,10,05,01,341,,33,01,168,,7*7E
$GBGSV,3,1,10,26,78,121,31,35,60,132,30,24,47,297,30,44,29,188,26,1*79
$GBGSV,3,2,10,29,29,049,26,45,21,117,21,33,11,283,14,41,08,330,22,1*78
$GBGSV,3,3,10,12,07,196,18,14,06,258,,1*78
$GNRMC,010212.000,A,4910.428048,N,12304.399932,W,0.01,123.77,041224,,,D,V*1C
$GNVTG,123.77,T,,M,0.01,N,0.03,K,D*24
$PAIRLOG,Full*51
$GNGGA,010213.000,4910.428042,N,12304.399902,W,2,30,0.46,4.451,M,-16.816,M,,*4A
