$GNGGA,010143.000,4910.427490,N,12304.399314,W,2,33,0.43,2.289,M,-16.816,M,,*46
$GNGLL,4910.427490,N,12304.399314,W,010143.000,A,D*56
$GNGSA,A,3,17,22,19,06,14,24,13,15,02,30,21,,0.79,0.43,0.66,1*07
$GNGSA,A,3,79,80,88,71,,,,,,,,,0.79,0.43,0.66,2*0B
$GNGSA,A,3,21,06,04,13,31,09,26,15,,,,,0.79,0.43,0.66,3*02
$GNGSA,A,3,26,35,24,29,44,45,33,41,12,14,,,0.79,0.43,0.66,4*00
$GPGSV,4,1,13,17,71,083,36,22,67,070,36,19,65,190,35,06,59,115,25,1*63
$GPGSV,4,2,13,14,44,084,34,24,40,302,33,48,33,182,29,13,24,212,31,1*66
$GPGSV,4,3,13,15,22,249,30,02,18,040,30,30,12,143,30,12,10,272,21,1*66
$GPGSV,4,4,13,21,05,027,24,1*53
$GLGSV,2,1,07,79,65,073,28,80,47,312,24,88,30,036,22,82,28,170,,1*72
$GLGSV,2,2,07,70,21,283,,71,18,333,25,78,17,105,,1*44
$GAGSV,3,1,11,21,38,082,28,06,36,271,25,04,33,239,26,13,33,068,28,7*77
$GAGSV,3,2,11,31,31,274,26,09,30,299,28,26,28,130,27,15,07,021,19,7*74
$GAGSV,3,3,11,19,03,189,09,05,01,341,,33,01,168,,7*4D
$GBGSV,3,1,10,26,78,121,39,35,60,132,38,24,46,297,36,29,29,049,34,1*7A
$GBGSV,3,2,10,44,28,188,33,45,21,117,27,33,11,283,17,41,08,330,27,1*7A
$GBGSV,3,3,10,12,07,196,23,14,06,259,14,1*74
$GNRMC,010143.000,A,4910.427490,N,12304.399314,W,0.03,0.00,041224,,,D,V*19
$GNVTG,0.00,T,,M,0.03,N,0.05,K,D*20
$GNGGA,010144.000,4910.427484,N,12304.399320,W,2,33,0.43,2.341,M,-16.817,M,,*47
$GNGLL,4910.427484,N,12304.399320,W,010144.000,A,D*53
$GNGSA,A,3,17,22,19,06,14,24,13,15,02,30,21,,0.79,0.43,0.66,1*07
$GNGSA,A,3,79,80,88,71,,,,,,,,,0.79,0.43,0.66,2*0B
$GNGSA,A,3,21,06,04,13,31,09,26,15,,,,,0.79,0.43,0.66,3*02
$GNGSA,A,3,26,35,24,29,44,45,33,41,12,14,,,0.79,0.43,0.66,4*00
$GPGSV,4,1,13,17,71,083,36,22,67,070,36,19,65,190,35,06,59,115,25,1*63
$GPGSV,4,2,13,14,44,084,34,24,40,302,33,48,33,182,29,13,24,212,31,1*66
$GPGSV,4,3,13,15,22,249,30,02,18,040,30,30,12,143,30,12,10,272,21,1*66
$GPGSV,4,4,13,21,05,027,24,1*53
$GLGSV,2,1,06,79,65,073,28,80,47,312,24,88,30,036,22,70,21,283,,1*78
$GLGSV,2,2,06,71,18,333,27,78,17,105,,1*7A
$GAGSV,3,1,11,21,38,082,28,06,36,271,25,04,33,239,26,13,33,068,28,7*77
$GAGSV,3,2,11,31,31,274,26,09,30,299,28,26,28,130,27,15,07,021,19,7*74
$GAGSV,3,3,11,19,03,189,09,05,01,341,,33,01,168,,7*4D
$GBGSV,3,1,10,26,78,121,39,35,60,132,38,24,46,297,36,29,29,049,34,1*7A
$GBGSV,3,2,10,44,28,188,33,45,21,117,28,33,11,283,17,41,08,330,27,1*75
$GBGSV,3,3,10,12,07,196,23,14,06,259,14,1*74
$GNRMC,010144.000,A,4910.427484,N,12304.399320,W,0.02,0.00,041224,,,D,V*1D
$GNVTG,0.00,T,,M,0.02,N,0.04,K,D*20
$GNGGA,010145.000,4910.427466,N,12304.399308,W,2,33,0.43,2.374,M,-16.816,M,,*47
$GNGLL,4910.427466,N,12304.399308,W,010145.000,A,D*54
$GNGSA,A,3,17,22,19,06,14,24,13,15,02,30,21,,0.79,0.43,0.66,1*07
$GNGSA,A,3,79,80,88,71,,,,,,,,,0.79,0.43,0.66,2*0B
$GNGSA,A,3,21,06,04,13,31,09,26,15,,,,,0.79,0.43,0.66,3*02
$GNGSA,A,3,26,35,24,29,44,45,33,41,12,14,,,0.79,0.43,0.66,4*00
$GPGSV,4,1,13,17,71,083,36,22,67,070,36,19,65,190,35,06,59,115,26,1*60
$GPGSV,4,2,13,14,44,084,34,24,40,302,33,48,33,182,30,13,24,212,31,1*6E
$GPGSV,4,3,13,15,22,249,31,02,18,040,30,30,12,143,30,12,10,272,21,1*67
$GPGSV,4,4,13,21,05,027,24,1*53
$GLGSV,2,1,07,79,65,073,28,80,47,312,24,88,30,036,21,82,28,170,,1*71
$GLGSV,2,2,07,70,21,283,,71,18,333,26,78,17,105,,1*47
$GAGSV,3,1,11,21,38,082,28,06,36,271,25,04,33,239,26,13,33,068,28,7*77
$GAGSV,3,2,11,31,31,274,26,09,30,299,28,26,28,130,27,15,07,021,19,7*74
$GAGSV,3,3,11,19,03,189,09,05,01,341,,33,01,168,,7*4D
$GBGSV,3,1,10,26,78,121,39,35,60,132,38,24,46,297,36,29,29,049,34,1*7A
$GBGSV,3,2,10,44,28,188,33,45,21,117,28,33,11,283,17,41,08,330,27,1*75
$GBGSV,3,3,10,12,07,196,24,14,06,259,15,1*72
$GNRMC,010145.000,A,4910.427466,N,12304.399308,W,0.02,0.00,041224,,,D,V*1A
$GNVTG,0.00,T,,M,0.02,N,0.04,K,D*20
$GNGGA,010146.000,4910.427466,N,12304.399278,W,2,33,0.43,2.426,M,-16.816,M,,*42
$GNGLL,4910.427466,N,12304.399278,W,010146.000,A,D*51
$GNGSA,A,3,17,22,19,06,14,24,13,15,02,30,21,,0.79,0.43,0.66,1*07
$GNGSA,A,3,79,80,88,71,,,,,,,,,0.79,0.43,0.66,2*0B
$GNGSA,A,3,21,06,04,13,31,09,26,15,,,,,0.79,0.43,0.66,3*02
$GNGSA,A,3,26,35,24,29,44,45,33,41,12,14,,,0.79,0.43,0.66,4*00
$GPGSV,4,1,13,17,71,083,36,22,67,070,36,19,65,190,35,06,59,115,27,1*61
$GPGSV,4,2,13,14,44,084,34,24,40,302,33,48,33,182,30,13,24,212,31,1*6E
$GPGSV,4,3,13,15,22,249,31,02,18,040,30,30,12,143,30,12,10,272,21,1*67
$GPGSV,4,4,13,21,05,027,25,1*52
$GLGSV,2,1,07,79,65,073,28,80,47,312,24,88,30,036,21,82,28,170,,1*71
$GLGSV,2,2,07,70,21,283,,71,18,333,28,78,17,105,,1*49
$GAGSV,3,1,11,21,38,082,28,06,36,271,25,04,33,239,26,13,33,068,28,7*77
$GAGSV,3,2,11,31,31,274,26,09,30,299,28,26,28,130,27,15,07,021,19,7*74
$GAGSV,3,3,11,19,03,189,09,05,01,341,,33,01,168,,7*4D
$GBGSV,3,1,10,26,78,121,39,35,60,132,38,24,46,297,36,29,29,049,34,1*7A
$GBGSV,3,2,10,44,28,188,33,45,21,117,28,33,11,283,17,41,08,330,27,1*75
$GBGSV,3,3,10,12,07,196,24,14,06,259,15,1*72
$GNRMC,010146.000,A,4910.427466,N,12304.399278,W,0.01,0.00,041224,,,D,V*1C
$GNVTG,0.00,T,,M,0.01,N,0.03,K,D*24
$GNGGA,010147.000,4910.427490,N,12304.399278,W,2,33,0.43,2.509,M,-16.816,M,,*46
$GNGLL,4910.427490,N,12304.399278,W,010147.000,A,D*59
$GNGSA,A,3,17,22,19,06,14,24,13,15,02,30,21,,0.79,0.43,0.66,1*07
$GNGSA,A,3,79,80,88,71,,,,,,,,,0.79,0.43,0.66,2*0B
$GNGSA,A,3,21,06,04,13,31,09,26,15,,,,,0.79,0.43,0.66,3*02
$GNGSA,A,3,26,35,24,29,44,45,33,41,12,14,,,0.79,0.43,0.66,4*00
$GPGSV,4,1,13,17,71,083,36,22,67,070,36,19,65,190,35,06,59,115,27,1*61
$GPGSV,4,2,13,14,44,084,34,24,40,302,33,48,33,182,30,13,24,212,31,1*6E
$GPGSV,4,3,13,15,22,249,31,02,18,040,30,30,12,143,30,12,10,272,21,1*67
$GPGSV,4,4,13,21,05,027,26,1*51
$GLGSV,2,1,07,79,65,073,28,80,47,312,24,88,30,036,22,82,28,170,,1*72
$GLGSV,2,2,07,70,21,283,,71,18,333,25,78,17,105,,1*44
$GAGSV,3,1,11,21,38,082,28,06,36,271,26,04,33,239,26,13,33,068,28,7*74
$GAGSV,3,2,11,31,31,274,26,09,30,299,28,26,28,130,28,15,07,021,19,7*7B
$GAGSV,3,3,11,19,03,189,09,05,01,341,,33,01,168,,7*4D
$GBGSV,3,1,10,26,78,121,39,35,60,132,38,24,46,297,36,29,29,049,34,1*7A
$GBGSV,3,2,10,44,28,188,33,45,21,117,28,33,11,283,17,41,08,330,28,1*7A
$GBGSV,3,3,10,12,07,196,24,14,06,259,15,1*72
$GNRMC,010147.000,A,4910.427490,N,12304.399278,W,0.01,0.00,041224,,,D,V*14
$GNVTG,0.00,T,,M,0.01,N,0.02,K,D*25
$GNGGA,010148.000,4910.427490,N,12304.399266,W,2,33,0.43,2.592,M,-16.817,M,,*45
$GNGLL,4910.427490,N,12304.399266,W,010148.000,A,D*59
$GNGSA,A,3,17,22,19,06,14,24,13,15,02,30,21,,0.79,0.43,0.66,1*07
$GNGSA,A,3,79,80,88,71,,,,,,,,,0.79,0.43,0.66,2*0B
$GNGSA,A,3,21,06,04,13,31,09,26,15,,,,,0.79,0.43,0.66,3*02
$GNGSA,A,3,26,35,24,29,44,45,33,41,12,14,,,0.79,0.43,0.66,4*00
$GPGSV,4,1,13,17,71,083,35,22,67,070,35,19,65,190,34,06,59,115,26,1*61
$GPGSV,4,2,13,14,44,084,34,24,40,302,32,48,33,182,29,13,24,212,31,1*67
$GPGSV,4,3,13,15,22,249,31,02,18,040,30,30,12,143,29,12,10,272,21,1*6F
$GPGSV,4,4,13,21,05,027,25,1*52
$GLGSV,2,1,07,79,65,073,28,80,47,312,24,88,30,036,22,82,28,170,,1*72
$GLGSV,2,2,07,70,21,283,,71,18,333,25,78,17,105,,1*44
$GAGSV,3,1,11,21,38,082,27,06,36,271,25,04,33,239,26,13,33,068,28,7*78
$GAGSV,3,2,11,31,31,274,26,09,30,299,28,26,28,130,28,15,07,021,19,7*7B
$GAGSV,3,3,11,19,03,189,09,05,01,341,,33,01,168,,7*4D
$GBGSV,3,1,10,26,78,121,39,35,60,132,38,24,46,297,36,29,29,049,34,1*7A
$GBGSV,3,2,10,44,28,188,33,45,21,117,28,33,11,283,17,41,08,330,28,1*7A
$GBGSV,3,3,10,12,07,196,24,14,06,259,14,1*73
$GNRMC,010148.000,A,4910.427490,N,12304.399266,W,0.01,0.00,041224,,,D,V*14
$GNVTG,0.00,T,,M,0.01,N,0.02,K,D*25
$GNGGA,010149.000,4910.427508,N,12304.399242,W,2,33,0.43,2.686,M,-16.816,M,,*45
$GNGLL,4910.427508,N,12304.399242,W,010149.000,A,D*5E
$GNGSA,A,3,17,22,19,06,14,24,13,15,02,30,21,,0.79,0.43,0.66,1*07
$GNGSA,A,3,79,80,88,71,,,,,,,,,0.79,0.43,0.66,2*0B
$GNGSA,A,3,21,06,04,13,31,09,26,15,,,,,0.79,0.43,0.66,3*02
$GNGSA,A,3,26,35,24,29,44,45,33,41,12,14,,,0.79,0.43,0.66,4*00
$GPGSV,4,1,13,17,71,083,35,22,67,070,35,19,65,190,34,06,59,115,26,1*61
$GPGSV,4,2,13,14,44,084,34,24,40,302,32,48,33,182,28,13,24,212,31,1*66
$GPGSV,4,3,13,15,22,249,31,02,18,040,30,30,12,143,29,12,10,272,21,1*6F
$GPGSV,4,4,13,21,05,027,24,1*53
$GLGSV,2,1,06,79,65,073,27,80,47,312,24,88,30,036,22,70,21,283,,1*77
$GLGSV,2,2,06,71,18,333,25,78,17,105,,1*78
$GAGSV,3,1,11,21,38,082,27,06,36,271,25,04,33,239,26,13,33,068,28,7*78
$GAGSV,3,2,11,31,31,274,26,09,30,299,27,26,28,130,28,15,07,021,19,7*74
$GAGSV,3,3,11,19,03,189,09,05,01,341,,33,01,168,,7*4D
$GBGSV,3,1,10,26,78,121,39,35,60,132,38,24,46,297,36,29,29,049,34,1*7A
$GBGSV,3,2,10,44,28,188,33,45,21,117,27,33,11,283,17,41,08,330,28,1*75
$GBGSV,3,3,10,12,07,196,24,14,06,258,15,1*73
$GNRMC,010149.000,A,4910.427508,N,12304.399242,W,0.02,0.00,041224,,,D,V*10
$GNVTG,0.00,T,,M,0.02,N,0.03,K,D*27
$GNGGA,010150.000,4910.427478,N,12304.399194,W,2,33,0.43,2.768,M,-16.817,M,,*43
$GNGLL,4910.427478,N,12304.399194,W,010150.000,A,D*58
$GNGSA,A,3,17,22,19,06,14,24,13,15,02,30,21,,0.79,0.43,0.66,1*07
$GNGSA,A,3,79,80,88,71,,,,,,,,,0.79,0.43,0.66,2*0B
$GNGSA,A,3,21,06,04,13,31,09,26,15,,,,,0.79,0.43,0.66,3*02
$GNGSA,A,3,26,35,24,29,44,45,33,41,12,14,,,0.79,0.43,0.66,4*00
$GPGSV,4,1,13,17,71,083,35,22,67,070,35,19,65,190,34,06,59,115,26,1*61
$GPGSV,4,2,13,14,44,084,34,24,40,302,32,48,33,182,29,13,24,212,31,1*67
$GPGSV,4,3,13,15,22,249,31,02,18,040,30,30,12,143,29,12,10,272,21,1*6F
$GPGSV,4,4,13,21,05,027,24,1*53
$GLGSV,2,1,07,79,65,073,27,80,47,312,24,88,30,036,22,82,28,170,,1*7D
$GLGSV,2,2,07,70,21,283,,71,18,333,26,78,17,105,,1*47
$GAGSV,3,1,11,21,38,082,27,06,36,271,25,04,33,239,26,13,33,068,27,7*77
$GAGSV,3,2,11,31,31,274,26,09,30,299,27,26,28,130,28,15,07,021,19,7*74
$GAGSV,3,3,11,19,03,189,09,05,01,341,,33,01,168,,7*4D
$GBGSV,3,1,10,26,78,121,39,35,60,132,38,24,46,297,36,29,29,049,34,1*7A
$GBGSV,3,2,10,44,28,188,33,45,21,117,27,33,11,283,17,41,08,330,28,1*75
$GBGSV,3,3,10,12,07,196,24,14,06,258,13,1*75
$GNRMC,010150.000,A,4910.427478,N,12304.399194,W,0.02,0.00,041224,,,D,V*16
$GNVTG,0.00,T,,M,0.02,N,0.04,K,D*20
$GNGGA,010151.000,4910.427454,N,12304.399230,W,2,33,0.43,2.845,M,-16.816,M,,*40
$GNGLL,4910.427454,N,12304.399230,W,010151.000,A,D*5A
$GNGSA,A,3,17,22,19,06,14,24,13,15,02,30,21,,0.79,0.43,0.66,1*07
$GNGSA,A,3,79,80,88,71,,,,,,,,,0.79,0.43,0.66,2*0B
$GNGSA,A,3,21,06,04,13,31,09,26,15,,,,,0.79,0.43,0.66,3*02
$GNGSA,A,3,26,35,24,29,44,45,33,41,12,14,,,0.79,0.43,0.66,4*00
$GPGSV,4,1,13,17,71,083,35,22,67,070,35,19,65,190,34,06,59,115,26,1*61
$GPGSV,4,2,13,14,44,084,34,24,40,302,32,48,33,182,29,13,24,212,31,1*67
$GPGSV,4,3,13,15,22,249,31,02,18,040,30,30,12,143,29,12,10,272,21,1*6F
$GPGSV,4,4,13,21,05,027,24,1*53
$GLGSV,2,1,07,79,65,073,27,80,47,312,25,88,30,036,23,82,28,170,,1*7D
$GLGSV,2,2,07,70,21,283,,71,18,333,26,78,17,105,,1*47
$GAGSV,3,1,11,21,38,082,27,06,36,271,25,04,33,239,26,13,33,068,27,7*77
$GAGSV,3,2,11,31,31,274,26,09,30,299,28,26,28,130,28,15,07,021,19,7*7B
$GAGSV,3,3,11,19,03,189,09,05,01,341,,33,01,168,,7*4D
$GBGSV,3,1,10,26,78,121,39,35,60,132,37,24,46,297,35,29,29,049,33,1*71
$GBGSV,3,2,10,44,28,188,32,45,21,117,26,33,11,283,17,41,08,330,27,1*7A
$GBGSV,3,3,10,12,07,196,23,14,06,258,12,1*73
$GNRMC,010151.000,A,4910.427454,N,12304.399230,W,0.02,0.00,041224,,,D,V*14
$GNVTG,0.00,T,,M,0.02,N,0.04,K,D*20
$GNGGA,010152.000,4910.427430,N,12304.399200,W,2,33,0.43,2.973,M,-16.816,M,,*46
$GNGLL,4910.427430,N,12304.399200,W,010152.000,A,D*58
$GNGSA,A,3,17,22,19,06,14,24,13,15,02,30,21,,0.79,0.43,0.66,1*07
$GNGSA,A,3,79,80,88,71,,,,,,,,,0.79,0.43,0.66,2*0B
$GNGSA,A,3,21,06,04,13,31,09,26,15,,,,,0.79,0.43,0.66,3*02
$GNGSA,A,3,26,35,24,29,44,45,33,41,12,14,,,0.79,0.43,0.66,4*00
$GPGSV,4,1,13,17,71,083,35,22,67,070,35,19,65,190,34,06,59,115,26,1*61
$GPGSV,4,2,13,14,44,084,34,24,40,302,32,48,33,182,29,13,24,212,31,1*67
$GPGSV,4,3,13,15,22,249,31,02,18,040,29,30,12,143,28,12,10,272,21,1*66
$GPGSV,4,4,13,21,05,027,23,1*54
$GLGSV,2,1,07,79,65,073,28,80,47,312,25,88,30,036,23,82,28,170,,1*72
$GLGSV,2,2,07,70,21,283,,71,18,333,25,78,17,105,,1*44
$GAGSV,3,1,11,21,38,082,27,06,36,271,25,04,33,239,26,13,33,068,27,7*77
$GAGSV,3,2,11,31,31,274,26,09,30,299,28,26,28,130,28,15,07,021,19,7*7B
$GAGSV,3,3,11,19,03,189,09,05,01,341,,33,01,168,,7*4D
$GBGSV,3,1,10,26,78,121,39,35,60,132,37,24,46,297,36,29,29,049,33,1*72
$GBGSV,3,2,10,44,28,188,32,45,21,117,26,33,11,283,17,41,08,330,27,1*7A
$GBGSV,3,3,10,12,07,196,23,14,06,258,13,1*72
$GNRMC,010152.000,A,4910.427430,N,12304.399200,W,0.02,0.00,041224,,,D,V*16
$GNVTG,0.00,T,,M,0.02,N,0.04,K,D*20
$GNGGA,010153.000,4910.427370,N,12304.399212,W,2,33,0.43,3.026,M,-16.816,M,,*4F
$GNGLL,4910.427370,N,12304.399212,W,010153.000,A,D*59
$GNGSA,A,3,17,22,19,06,14,24,13,15,02,30,21,,0.79,0.43,0.66,1*07
$GNGSA,A,3,79,80,88,71,,,,,,,,,0.79,0.43,0.66,2*0B
$GNGSA,A,3,21,06,04,13,31,09,26,15,,,,,0.79,0.43,0.66,3*02
$GNGSA,A,3,26,35,24,29,44,45,33,41,12,14,,,0.79,0.43,0.66,4*00
$GPGSV,4,1,13,17,71,083,35,22,67,070,35,19,65,190,34,06,59,115,26,1*61
$GPGSV,4,2,13,14,44,084,34,24,40,302,32,48,33,182,29,13,24,212,31,1*67
$GPGSV,4,3,13,15,22,249,31,02,18,040,29,30,12,143,28,12,10,272,21,1*66
$GPGSV,4,4,13,21,05,027,24,1*53
$GLGSV,2,1,07,79,65,073,28,80,47,312,25,88,30,036,23,82,28,170,,1*72
$GLGSV,2,2,07,70,21,283,,71,18,333,26,78,17,105,,1*47
$GAGSV,3,1,11,21,38,082,27,06,36,271,25,04,33,239,26,13,33,068,27,7*77
$GAGSV,3,2,11,31,31,274,26,09,30,299,28,26,28,130,28,15,07,021,19,7*7B
$GAGSV,3,3,11,19,03,189,09,05,01,341,,33,01,168,,7*4D
$GBGSV,3,1,10,26,78,121,39,35,60,132,36,24,46,297,36,29,29,049,32,1*72
$GBGSV,3,2,10,44,28,188,32,45,21,117,26,33,11,283,17,41,08,330,27,1*7A
$GBGSV,3,3,10,12,07,196,23,14,06,258,15,1*74
$GNRMC,010153.000,A,4910.427370,N,12304.399212,W,0.02,0.00,041224,,,D,V*17
$GNVTG,0.00,T,,M,0.02,N,0.04,K,D*20
$GNGGA,010154.000,4910.427334,N,12304.399218,W,2,33,0.43,3.128,M,-16.816,M,,*4D
$GNGLL,4910.427334,N,12304.399218,W,010154.000,A,D*54
$GNGSA,A,3,17,22,19,06,14,24,13,15,02,30,21,,0.79,0.43,0.66,1*07
$GNGSA,A,3,79,80,88,71,,,,,,,,,0.79,0.43,0.66,2*0B
$GNGSA,A,3,21,06,04,13,31,09,26,15,,,,,0.79,0.43,0.66,3*02
$GNGSA,A,3,26,35,24,29,44,45,33,41,12,14,,,0.79,0.43,0.66,4*00
$GPGSV,4,1,13,17,71,083,34,22,67,070,34,19,65,190,33,06,59,115,26,1*66
$GPGSV,4,2,13,14,44,084,33,24,40,302,31,48,33,182,28,13,24,212,30,1*63
$GPGSV,4,3,13,15,22,249,30,02,18,040,28,30,12,143,27,12,10,272,20,1*68
$GPGSV,4,4,13,21,05,027,23,1*54
$GLGSV,2,1,07,79,65,073,28,80,47,312,25,88,30,036,23,82,28,170,,1*72
$GLGSV,2,2,07,70,21,283,,71,18,333,26,78,17,105,,1*47
$GAGSV,3,1,11,21,38,082,26,06,36,271,24,04,33,239,25,13,33,068,26,7*75
$GAGSV,3,2,11,31,31,274,25,09,30,299,27,26,28,130,27,15,07,021,19,7*78
$GAGSV,3,3,11,19,03,189,09,05,01,341,,33,01,168,,7*4D
$GBGSV,3,1,10,26,78,121,39,35,60,132,36,24,46,297,36,29,29,049,32,1*72
$GBGSV,3,2,10,44,28,188,32,45,21,117,26,33,11,283,16,41,08,330,27,1*7B
$GBGSV,3,3,10,12,07,196,23,14,06,258,14,1*75
$GNRMC,010154.000,A,4910.427334,N,12304.399218,W,0.02,0.00,041224,,,D,V*1A
$GNVTG,0.00,T,,M,0.02,N,0.03,K,D*27
$GNGGA,010155.000,4910.427280,N,12304.399188,W,2,33,0.43,3.309,M,-16.816,M,,*49
$GNGLL,4910.427280,N,12304.399188,W,010155.000,A,D*51
$GNGSA,A,3,17,22,19,06,14,24,13,15,02,30,21,,0.79,0.43,0.66,1*07
$GNGSA,A,3,79,80,88,71,,,,,,,,,0.79,0.43,0.66,2*0B
$GNGSA,A,3,21,06,04,13,31,09,26,15,,,,,0.79,0.43,0.66,3*02
$GNGSA,A,3,26,35,24,29,44,45,33,41,12,14,,,0.79,0.43,0.66,4*00
$GPGSV,4,1,13,17,71,083,35,22,67,070,34,19,65,190,34,06,59,115,26,1*60
$GPGSV,4,2,13,14,44,084,33,24,40,302,32,48,33,182,29,13,24,212,30,1*61
$GPGSV,4,3,13,15,22,249,31,02,18,040,28,30,12,143,28,12,10,272,20,1*66
$GPGSV,4,4,13,21,05,027,24,1*53
$GLGSV,2,1,06,79,65,073,28,80,47,312,25,88,30,036,23,70,21,283,,1*78
$GLGSV,2,2,06,71,18,333,26,78,17,105,,1*7B
$GAGSV,3,1,11,21,38,082,26,06,36,271,24,04,33,239,25,13,33,068,26,7*75
$GAGSV,3,2,11,31,31,274,25,09,30,299,27,26,28,130,27,15,07,021,19,7*78
$GAGSV,3,3,11,19,03,189,09,05,01,341,,33,01,168,,7*4D
$GBGSV,3,1,10,26,78,121,39,35,60,132,37,24,46,297,36,29,29,049,33,1*72
$GBGSV,3,2,10,44,28,188,33,45,21,117,27,33,11,283,16,41,08,330,27,1*7B
$GBGSV,3,3,10,12,07,196,24,14,06,258,12,1*74
$GNRMC,010155.000,A,4910.427280,N,12304.399188,W,0.01,0.00,041224,,,D,V*1C
$GNVTG,0.00,T,,M,0.01,N,0.03,K,D*24
$GNGGA,010156.000,4910.427238,N,12304.399182,W,2,33,0.43,3.362,M,-16.816,M,,*4E
$GNGLL,4910.427238,N,12304.399182,W,010156.000,A,D*5B
$GNGSA,A,3,17,22,19,06,14,24,13,15,02,30,21,,0.79,0.43,0.66,1*07
$GNGSA,A,3,79,80,88,71,,,,,,,,,0.79,0.43,0.66,2*0B
$GNGSA,A,3,21,06,04,13,31,09,26,15,,,,,0.79,0.43,0.66,3*02
$GNGSA,A,3,26,35,24,29,44,45,33,41,12,14,,,0.79,0.43,0.66,4*00
$GPGSV,4,1,13,17,71,083,36,22,67,070,35,19,65,190,34,06,59,115,26,1*62
$GPGSV,4,2,13,14,44,084,34,24,40,302,33,48,33,182,30,13,24,212,31,1*6E
$GPGSV,4,3,13,15,22,249,32,02,18,040,29,30,12,143,28,12,10,272,20,1*64
$GPGSV,4,4,13,21,05,027,24,1*53
$GLGSV,2,1,07,79,65,073,27,80,47,312,25,88,30,036,23,82,28,170,,1*7D
$GLGSV,2,2,07,70,21,283,,71,18,333,26,78,17,105,,1*47
$GAGSV,3,1,11,21,38,082,27,06,36,271,25,04,33,239,26,13,33,068,27,7*77
$GAGSV,3,2,11,31,31,274,25,09,30,299,28,26,28,130,28,15,07,021,19,7*78
$GAGSV,3,3,11,19,03,189,09,05,01,341,,33,01,168,,7*4D
$GBGSV,3,1,10,26,78,121,39,35,60,132,37,24,46,297,36,29,29,049,33,1*72
$GBGSV,3,2,10,44,28,188,33,45,21,117,27,33,11,283,17,41,08,330,28,1*75
$GBGSV,3,3,10,12,07,196,24,14,06,258,14,1*72
$GNRMC,010156.000,A,4910.427238,N,12304.399182,W,0.01,0.00,041224,,,D,V*16
$GNVTG,0.00,T,,M,0.01,N,0.02,K,D*25
$GNGGA,010157.000,4910.427202,N,12304.399134,W,2,33,0.43,3.373,M,-16.816,M,,*4B
$GNGLL,4910.427202,N,12304.399134,W,010157.000,A,D*5E
$GNGSA,A,3,17,22,19,06,14,24,13,15,02,30,21,,0.79,0.43,0.66,1*07
$GNGSA,A,3,79,80,88,71,,,,,,,,,0.79,0.43,0.66,2*0B
$GNGSA,A,3,21,06,04,13,31,09,26,15,,,,,0.79,0.43,0.66,3*02
$GNGSA,A,3,26,35,24,29,44,45,33,41,12,14,,,0.79,0.43,0.66,4*00
$GPGSV,4,1,13,17,71,083,36,22,67,070,35,19,65,190,34,06,59,115,26,1*62
$GPGSV,4,2,13,14,44,084,34,24,40,302,33,48,33,182,30,13,24,212,31,1*6E
$GPGSV,4,3,13,15,22,249,32,02,18,040,29,30,12,143,28,12,10,272,20,1*64
$GPGSV,4,4,13,21,05,027,25,1*52
$GLGSV,2,1,07,79,65,073,27,80,47,312,25,88,30,036,23,82,28,170,,1*7D
$GLGSV,2,2,07,70,21,283,,71,18,333,26,78,17,105,,1*47
$GAGSV,3,1,11,21,38,082,27,06,36,271,26,04,33,239,27,13,33,068,27,7*75
$GAGSV,3,2,11,31,31,274,26,09,30,299,28,26,28,130,29,15,07,021,19,7*7A
$GAGSV,3,3,11,19,03,189,09,05,01,341,,33,01,168,,7*4D
$GBGSV,3,1,10,26,78,121,39,35,60,132,37,24,46,297,36,29,29,049,34,1*75
$GBGSV,3,2,10,44,28,188,33,45,21,117,27,33,11,283,18,41,08,330,28,1*7A
$GBGSV,3,3,10,12,07,196,25,14,06,258,14,1*73
$GNRMC,010157.000,A,4910.427202,N,12304.399134,W,0.01,0.00,041224,,,D,V*13
$GNVTG,0.00,T,,M,0.01,N,0.02,K,D*25
$GNGGA,010158.000,4910.427154,N,12304.399080,W,2,33,0.43,3.451,M,-16.817,M,,*4C
$GNGLL,4910.427154,N,12304.399080,W,010158.000,A,D*5F
$GNGSA,A,3,17,22,19,06,14,24,13,15,02,30,21,,0.79,0.43,0.66,1*07
$GNGSA,A,3,79,80,88,71,,,,,,,,,0.79,0.43,0.66,2*0B
$GNGSA,A,3,21,06,04,13,31,09,26,15,,,,,0.79,0.43,0.66,3*02
$GNGSA,A,3,26,35,24,29,44,45,33,41,12,14,,,0.79,0.43,0.66,4*00
$GPGSV,4,1,13,17,71,083,36,22,67,070,35,19,65,190,34,06,59,115,26,1*62
$GPGSV,4,2,13,14,44,084,34,24,40,302,33,48,33,182,30,13,24,212,31,1*6E
$GPGSV,4,3,13,15,22,249,32,02,18,040,29,30,12,143,28,12,10,272,20,1*64
$GPGSV,4,4,13,21,05,027,26,1*51
$GLGSV,2,1,07,79,65,073,26,80,47,312,25,88,30,036,23,82,28,170,,1*7C
$GLGSV,2,2,07,70,21,283,,71,18,333,25,78,17,105,,1*44
$GAGSV,3,1,11,21,38,082,27,06,36,271,26,04,33,239,27,13,33,068,27,7*75
$GAGSV,3,2,11,31,31,274,26,09,30,299,28,26,28,130,29,15,07,021,19,7*7A
$GAGSV,3,3,11,19,03,189,09,05,01,341,,33,01,168,,7*4D
$GBGSV,3,1,10,26,78,121,39,35,60,132,37,24,46,297,36,29,29,049,34,1*75
$GBGSV,3,2,10,44,28,188,33,45,21,117,27,33,11,283,18,41,08,330,28,1*7A
$GBGSV,3,3,10,12,07,196,25,14,06,258,13,1*74
$GNRMC,010158.000,A,4910.427154,N,12304.399080,W,0.01,0.00,041224,,,D,V*12
$GNVTG,0.00,T,,M,0.01,N,0.01,K,D*26
$GNGGA,010159.000,4910.427112,N,12304.399068,W,2,33,0.43,3.535,M,-16.816,M,,*4B
$GNGLL,4910.427112,N,12304.399068,W,010159.000,A,D*5A
$GNGSA,A,3,17,22,19,06,14,24,13,15,02,30,21,,0.79,0.43,0.66,1*07
$GNGSA,A,3,79,80,88,71,,,,,,,,,0.79,0.43,0.66,2*0B
$GNGSA,A,3,21,06,04,13,31,09,26,15,,,,,0.79,0.43,0.66,3*02
$GNGSA,A,3,26,35,24,29,44,45,33,41,12,14,,,0.79,0.43,0.66,4*00
$GPGSV,4,1,13,17,71,083,36,22,67,070,35,19,65,190,35,06,59,115,27,1*62
$GPGSV,4,2,13,14,44,084,34,24,40,302,33,48,33,182,30,13,24,212,31,1*6E
$GPGSV,4,3,13,15,22,249,32,02,18,040,29,30,12,143,28,12,10,272,20,1*64
$GPGSV,4,4,13,21,05,027,25,1*52
$GLGSV,2,1,07,79,65,073,26,80,47,312,25,88,30,036,23,82,28,170,,1*7C
$GLGSV,2,2,07,70,21,283,,71,18,333,25,78,17,105,,1*44
$GAGSV,3,1,11,21,38,082,27,06,36,271,26,04,33,239,27,13,33,068,27,7*75
$GAGSV,3,2,11,31,31,274,26,09,30,299,28,26,28,130,29,15,07,021,19,7*7A
$GAGSV,3,3,11,19,03,189,09,05,01,341,,33,01,168,,7*4D
$GBGSV,3,1,10,26,78,121,39,35,60,132,37,24,47,297,36,29,29,049,34,1*74
$GBGSV,3,2,10,44,28,188,33,45,21,117,26,33,11,283,18,41,08,330,28,1*7B
$GBGSV,3,3,10,12,07,196,24,14,06,258,14,1*72
$GNRMC,010159.000,A,4910.427112,N,12304.399068,W,0.01,0.00,041224,,,D,V*17
$GNVTG,0.00,T,,M,0.01,N,0.01,K,D*26
$GNGGA,010200.000,4910.427100,N,12304.399062,W,2,33,0.43,3.753,M,-16.817,M,,*4E
$GNGLL,4910.427100,N,12304.399062,W,010200.000,A,D*5C
$GNGSA,A,3,17,22,19,06,14,24,13,15,02,30,21,,0.79,0.43,0.66,1*07
$GNGSA,A,3,79,80,88,71,,,,,,,,,0.79,0.43,0.66,2*0B
$GNGSA,A,3,21,06,04,13,31,09,26,15,,,,,0.79,0.43,0.66,3*02
$GNGSA,A,3,26,35,24,29,44,45,33,41,12,14,,,0.79,0.43,0.66,4*00
$GPGSV,4,1,13,17,71,083,36,22,67,070,34,19,65,190,34,06,59,115,26,1*63
$GPGSV,4,2,13,14,44,084,33,24,40,302,33,48,33,182,30,13,24,212,31,1*69
$GPGSV,4,3,13,15,22,249,31,02,18,040,29,30,12,143,28,12,10,272,20,1*67
$GPGSV,4,4,13,21,05,027,23,1*54
$GLGSV,2,1,07,79,65,073,27,80,47,312,25,88,30,036,23,82,28,170,,1*7D
$GLGSV,2,2,07,70,21,283,,71,18,333,25,78,17,105,,1*44
$GAGSV,3,1,11,21,38,082,27,06,36,271,26,04,33,239,26,13,33,068,26,7*75
$GAGSV,3,2,11,31,31,274,26,09,30,299,28,26,28,130,28,15,07,021,19,7*7B
$GAGSV,3,3,11,19,03,189,09,05,01,341,,33,01,168,,7*4D
$GBGSV,3,1,10,26,78,121,39,35,60,132,37,24,47,297,35,29,29,049,34,1*77
$GBGSV,3,2,10,44,28,188,33,45,21,117,27,33,11,283,18,41,08,330,28,1*7A
$GBGSV,3,3,10,12,07,196,24,14,06,258,14,1*72
$GNRMC,010200.000,A,4910.427100,N,12304.399062,W,0.01,0.00,041224,,,D,V*11
$GNVTG,0.00,T,,M,0.01,N,0.01,K,D*26
$GNGGA,010201.000,4910.427136,N,12304.399032,W,2,33,0.43,3.964,M,-16.816,M,,*44
$GNGLL,4910.427136,N,12304.399032,W,010201.000,A,D*5D
$GNGSA,A,3,17,22,19,06,14,24,13,15,02,30,21,,0.79,0.43,0.66,1*07
$GNGSA,A,3,79,80,88,71,,,,,,,,,0.79,0.43,0.66,2*0B
$GNGSA,A,3,21,06,04,13,31,09,26,15,,,,,0.79,0.43,0.66,3*02
$GNGSA,A,3,26,35,24,29,44,45,33,41,12,14,,,0.79,0.43,0.66,4*00
$GPGSV,4,1,13,17,71,083,35,22,67,070,34,19,65,190,34,06,59,115,26,1*60
$GPGSV,4,2,13,14,44,084,33,24,40,302,32,48,33,182,29,13,24,212,31,1*60
$GPGSV,4,3,13,15,22,249,30,02,18,040,28,30,12,143,28,12,10,272,20,1*67
$GPGSV,4,4,13,21,05,027,23,1*54
$GLGSV,2,1,07,79,65,073,26,80,47,312,25,88,30,036,22,82,28,170,,1*7D
$GLGSV,2,2,07,70,21,283,,71,18,333,25,78,17,105,,1*44
$GAGSV,3,1,11,21,38,082,26,06,36,271,26,04,33,239,26,13,33,068,26,7*74
$GAGSV,3,2,11,31,31,274,26,09,30,299,27,26,28,130,28,15,07,021,19,7*74
$GAGSV,3,3,11,19,03,189,08,05,01,341,,33,01,168,,7*4C
$GBGSV,3,1,10,26,77,122,39,35,60,132,37,24,47,297,35,29,29,049,34,1*7B
$GBGSV,3,2,10,44,28,188,33,45,21,117,27,33,11,283,18,41,08,330,28,1*7A
$GBGSV,3,3,10,12,07,196,24,14,06,258,14,1*72
$GNRMC,010201.000,A,4910.427136,N,12304.399032,W,0.01,0.00,041224,,,D,V*10
$GNVTG,0.00,T,,M,0.01,N,0.01,K,D*26
$PAIR010,0,1,2343,262939*39
$GNGGA,010202.000,4910.427172,N,12304.399014,W,2,33,0.43,4.131,M,-16.816,M,,*4C
$GNGLL,4910.427172,N,12304.399014,W,010202.000,A,D*5A
$GNGSA,A,3,17,22,19,06,14,24,13,15,02,30,21,,0.79,0.43,0.66,1*07
$GNGSA,A,3,79,80,88,71,,,,,,,,,0.79,0.43,0.66,2*0B
$GNGSA,A,3,21,06,04,13,31,09,26,15,,,,,0.79,0.43,0.66,3*02
$GNGSA,A,3,26,35,24,29,44,45,33,41,12,14,,,0.79,0.43,0.66,4*00
$GPGSV,4,1,13,17,71,083,35,22,67,070,34,19,65,190,34,06,59,115,26,1*60
$GPGSV,4,2,13,14,44,084,33,24,40,302,32,48,33,182,29,13,24,212,31,1*60
$GPGSV,4,3,13,15,22,249,30,02,18,040,28,30,12,143,28,12,10,272,20,1*67
$GPGSV,4,4,13,21,05,027,23,1*54
$GLGSV,2,1,07,79,65,073,27,80,47,312,25,88,30,036,22,82,28,170,,1*7C
$GLGSV,2,2,07,70,21,283,,71,18,333,25,78,17,105,,1*44
$GAGSV,3,1,11,21,38,082,26,06,36,271,26,04,33,239,26,13,33,068,26,7*74
$GAGSV,3,2,11,31,31,274,26,09,30,299,27,26,28,130,28,15,07,021,19,7*74
$GAGSV,3,3,11,19,03,189,08,05,01,341,,33,01,168,,7*4C
$GBGSV,3,1,10,26,77,122,38,35,60,132,36,24,47,297,35,29,29,049,34,1*7B
$GBGSV,3,2,10,44,28,188,33,45,21,117,26,33,11,283,18,41,08,330,28,1*7B
$GBGSV,3,3,10,12,07,196,24,14,06,258,13,1*75
$GNRMC,010202.000,A,4910.427172,N,12304.399014,W,0.01,0.00,041224,,,D,V*17
$GNVTG,0.00,T,,M,0.01,N,0.02,K,D*25
$GNGGA,010203.000,4910.427196,N,12304.399032,W,2,33,0.43,4.259,M,-16.816,M,,*4E
$GNGLL,4910.427196,N,12304.399032,W,010203.000,A,D*55
$GNGSA,A,3,17,22,19,06,14,24,13,15,02,30,21,,0.79,0.43,0.66,1*07
$GNGSA,A,3,79,80,88,71,,,,,,,,,0.79,0.43,0.66,2*0B
$GNGSA,A,3,21,06,04,13,31,09,26,15,,,,,0.79,0.43,0.66,3*02
$GNGSA,A,3,26,35,24,29,44,45,33,41,12,14,,,0.79,0.43,0.66,4*00
$GPGSV,4,1,13,17,71,083,35,22,67,070,34,19,65,190,34,06,59,115,26,1*60
$GPGSV,4,2,13,14,44,084,33,24,40,302,32,48,33,182,29,13,24,212,31,1*60
$GPGSV,4,3,13,15,22,249,30,02,18,040,28,30,12,143,28,12,10,272,20,1*67
$GPGSV,4,4,13,21,05,027,23,1*54
$GLGSV,2,1,07,79,65,073,27,80,47,312,25,88,30,036,21,82,28,170,,1*7F
$GLGSV,2,2,07,70,21,283,,71,18,333,25,78,17,105,,1*44
$GAGSV,3,1,11,21,38,082,27,06,36,271,26,04,33,239,26,13,33,068,26,7*75
$GAGSV,3,2,11,31,31,274,26,09,30,299,27,26,28,130,28,15,07,021,19,7*74
$GAGSV,3,3,11,19,03,189,07,05,01,341,,33,01,168,,7*43
$GBGSV,3,1,10,26,77,122,38,35,60,132,36,24,47,297,35,29,29,049,34,1*7B
$GBGSV,3,2,10,44,28,188,33,45,21,117,26,33,11,283,18,41,08,330,28,1*7B
$GBGSV,3,3,10,12,07,196,24,14,06,258,13,1*75
$GNRMC,010203.000,A,4910.427196,N,12304.399032,W,0.01,0.00,041224,,,D,V*18
$GNVTG,0.00,T,,M,0.01,N,0.03,K,D*24
$GNGGA,010204.000,4910.427178,N,12304.399062,W,2,33,0.43,4.380,M,-16.816,M,,*49
$GNGLL,4910.427178,N,12304.399062,W,010204.000,A,D*57
$GNGSA,A,3,17,22,19,06,14,24,13,15,02,30,21,,0.79,0.43,0.66,1*07
$GNGSA,A,3,79,80,88,71,,,,,,,,,0.79,0.43,0.66,2*0B
$GNGSA,A,3,21,06,04,13,31,09,26,15,,,,,0.79,0.43,0.66,3*02
$GNGSA,A,3,26,35,24,29,44,45,33,41,12,14,,,0.79,0.43,0.66,4*00
$GPGSV,4,1,13,17,71,083,35,22,67,070,34,19,65,190,34,06,59,115,28,1*6E
$GPGSV,4,2,13,14,44,084,33,24,40,302,33,48,33,182,29,13,24,212,31,1*61
$GPGSV,4,3,13,15,22,249,31,02,18,040,29,30,12,143,28,12,10,272,21,1*66
$GPGSV,4,4,13,21,05,027,24,1*53
$GLGSV,2,1,07,79,65,073,27,80,47,312,25,88,30,036,21,82,28,170,,1*7F
$GLGSV,2,2,07,70,21,283,,71,18,333,25,78,17,105,,1*44
$GAGSV,3,1,11,21,38,082,27,06,36,271,26,04,33,239,27,13,33,068,27,7*75
$GAGSV,3,2,11,31,31,274,27,09,30,299,28,26,28,130,28,15,07,021,19,7*7A
$GAGSV,3,3,11,19,03,189,07,05,01,341,,33,01,168,,7*43
$GBGSV,3,1,10,26,77,122,38,35,60,132,36,24,47,297,35,29,29,049,33,1*7C
$GBGSV,3,2,10,44,28,188,32,45,21,117,26,33,11,283,18,41,08,330,28,1*7A
$GBGSV,3,3,10,12,07,196,24,14,06,258,12,1*74
$GNRMC,010204.000,A,4910.427178,N,12304.399062,W,0.01,0.00,041224,,,D,V*1A
$GNVTG,0.00,T,,M,0.01,N,0.03,K,D*24
$GNGGA,010205.000,4910.427166,N,12304.399116,W,2,33,0.43,4.519,M,-16.817,M,,*42
$GNGLL,4910.427166,N,12304.399116,W,010205.000,A,D*5B
$GNGSA,A,3,17,22,19,06,14,24,13,15,02,30,21,,0.79,0.43,0.66,1*07
$GNGSA,A,3,79,80,88,71,,,,,,,,,0.79,0.43,0.66,2*0B
$GNGSA,A,3,21,06,04,13,31,09,26,15,,,,,0.79,0.43,0.66,3*02
$GNGSA,A,3,26,35,24,29,44,45,33,41,12,14,,,0.79,0.43,0.66,4*00
$GPGSV,4,1,13,17,71,083,36,22,67,070,34,19,65,190,34,06,59,115,27,1*62
$GPGSV,4,2,13,14,44,084,33,24,40,302,33,48,33,182,29,13,24,212,31,1*61
$GPGSV,4,3,13,15,22,249,31,02,18,040,29,30,12,143,28,12,10,272,21,1*66
$GPGSV,4,4,13,21,05,027,24,1*53
$GLGSV,2,1,06,79,65,073,27,80,47,312,25,88,30,036,21,70,21,283,,1*75
$GLGSV,2,2,06,71,18,333,25,78,17,105,,1*78
$GAGSV,3,1,11,21,38,082,27,06,36,271,26,04,33,239,27,13,33,068,27,7*75
$GAGSV,3,2,11,31,31,274,27,09,30,299,28,26,28,130,28,15,07,021,19,7*7A
$GAGSV,3,3,11,19,03,189,08,05,01,341,,33,01,168,,7*4C
$GBGSV,3,1,10,26,77,122,38,35,60,132,36,24,47,297,35,29,29,049,33,1*7C
$GBGSV,3,2,10,44,28,188,32,45,21,117,26,33,11,283,17,41,08,330,28,1*75
$GBGSV,3,3,10,12,07,196,24,14,06,258,14,1*72
$GNRMC,010205.000,A,4910.427166,N,12304.399116,W,0.01,0.00,041224,,,D,V*16
$GNVTG,0.00,T,,M,0.01,N,0.02,K,D*25
$GNGGA,010206.000,4910.427172,N,12304.399122,W,2,33,0.43,4.679,M,-16.816,M,,*47
$GNGLL,4910.427172,N,12304.399122,W,010206.000,A,D*5A
$GNGSA,A,3,17,22,19,06,14,24,13,15,02,30,21,,0.79,0.43,0.66,1*07
$GNGSA,A,3,79,80,88,71,,,,,,,,,0.79,0.43,0.66,2*0B
$GNGSA,A,3,21,06,04,13,31,09,26,15,,,,,0.79,0.43,0.66,3*02
$GNGSA,A,3,26,35,24,29,44,45,33,41,12,14,,,0.79,0.43,0.66,4*00
$GPGSV,4,1,13,17,71,083,36,22,67,070,34,19,65,190,34,06,59,115,27,1*62
$GPGSV,4,2,13,14,44,084,33,24,40,302,33,48,33,182,29,13,24,212,30,1*60
$GPGSV,4,3,13,15,22,249,31,02,18,040,29,30,12,143,28,12,10,272,21,1*66
$GPGSV,4,4,13,21,05,027,24,1*53
$GLGSV,2,1,07,79,65,073,26,80,47,312,25,88,30,036,21,82,28,170,,1*7E
$GLGSV,2,2,07,70,21,283,,71,18,333,24,78,17,105,,1*45
$GAGSV,3,1,11,21,38,082,27,06,36,271,26,04,33,239,27,13,33,068,27,7*75
$GAGSV,3,2,11,31,31,274,27,09,30,299,28,26,28,130,28,15,07,021,19,7*7A
$GAGSV,3,3,11,19,03,189,09,05,01,341,,33,01,168,,7*4D
$GBGSV,3,1,10,26,77,122,38,35,60,132,35,24,47,297,34,29,29,049,32,1*7F
$GBGSV,3,2,10,44,28,188,31,45,21,117,25,33,11,283,16,41,08,330,28,1*74
$GBGSV,3,3,10,12,07,196,23,14,06,258,13,1*72
$GNRMC,010206.000,A,4910.427172,N,12304.399122,W,0.01,0.00,041224,,,D,V*17
$GNVTG,0.00,T,,M,0.01,N,0.02,K,D*25
$GNGGA,010207.000,4910.427178,N,12304.399122,W,2,33,0.43,4.894,M,-16.816,M,,*41
$GNGLL,4910.427178,N,12304.399122,W,010207.000,A,D*51
$GNGSA,A,3,17,22,19,06,14,24,13,15,02,30,21,,0.79,0.43,0.66,1*07
$GNGSA,A,3,79,80,88,71,,,,,,,,,0.79,0.43,0.66,2*0B
$GNGSA,A,3,21,06,04,13,31,09,26,15,,,,,0.79,0.43,0.66,3*02
$GNGSA,A,3,26,35,24,29,44,45,33,41,12,14,,,0.79,0.43,0.66,4*00
$GPGSV,4,1,13,17,71,083,36,22,67,070,34,19,65,190,34,06,59,115,26,1*63
$GPGSV,4,2,13,14,44,084,33,24,40,302,33,48,33,182,29,13,24,212,30,1*60
$GPGSV,4,3,13,15,22,249,31,02,18,040,29,30,12,143,27,12,10,272,21,1*69
$GPGSV,4,4,13,21,05,027,24,1*53
$GLGSV,2,1,07,79,65,073,25,80,47,312,24,88,30,036,20,82,28,170,,1*7D
$GLGSV,2,2,07,70,21,283,,71,18,333,23,78,17,105,,1*42
$GAGSV,3,1,11,21,38,082,27,06,36,271,26,04,33,239,26,13,33,068,27,7*74
$GAGSV,3,2,11,31,31,274,27,09,30,299,28,26,28,130,28,15,07,021,19,7*7A
$GAGSV,3,3,11,19,03,189,09,05,01,341,,33,01,168,,7*4D
$GBGSV,3,1,10,26,77,122,38,35,60,132,35,24,47,297,34,29,29,049,32,1*7F
$GBGSV,3,2,10,44,28,188,31,45,21,117,25,33,11,283,15,41,08,330,27,1*78
$GBGSV,3,3,10,12,07,196,23,14,06,258,12,1*73
$GNRMC,010207.000,A,4910.427178,N,12304.399122,W,0.01,0.00,041224,,,D,V*1C
$GNVTG,0.00,T,,M,0.01,N,0.01,K,D*26
$GNGGA,010208.000,4910.427148,N,12304.399188,W,2,33,0.43,5.106,M,-16.816,M,,*4E
$GNGLL,4910.427148,N,12304.399188,W,010208.000,A,D*5D
$GNGSA,A,3,17,22,19,06,14,24,13,15,02,30,21,,0.79,0.43,0.66,1*07
$GNGSA,A,3,79,80,88,71,,,,,,,,,0.79,0.43,0.66,2*0B
$GNGSA,A,3,21,06,04,13,31,09,26,15,,,,,0.79,0.43,0.66,3*02
$GNGSA,A,3,26,35,24,29,44,45,33,41,12,14,,,0.79,0.43,0.66,4*00
$GPGSV,4,1,13,17,71,083,36,22,67,070,34,19,65,190,34,06,59,115,27,1*62
$GPGSV,4,2,13,14,44,084,33,24,40,302,33,48,33,182,29,13,24,212,30,1*60
$GPGSV,4,3,13,15,22,249,31,02,18,040,29,30,12,143,27,12,10,272,21,1*69
$GPGSV,4,4,13,21,05,027,24,1*53
$GLGSV,2,1,06,79,65,073,24,80,47,312,23,88,30,036,20,70,21,283,,1*71
$GLGSV,2,2,06,71,18,333,22,78,17,105,,1*7F
$GAGSV,3,1,11,21,38,082,27,06,36,271,26,04,33,239,26,13,33,068,27,7*74
$GAGSV,3,2,11,31,31,274,27,09,30,299,28,26,28,130,28,15,07,021,19,7*7A
$GAGSV,3,3,11,19,03,189,09,05,01,341,,33,01,168,,7*4D
$GBGSV,3,1,10,26,77,122,38,35,60,132,35,24,47,297,34,29,29,049,32,1*7F
$GBGSV,3,2,10,44,28,188,31,45,21,117,25,33,10,282,12,41,08,330,27,1*7F
$GBGSV,3,3,10,12,07,196,23,14,06,258,12,1*73
$GNRMC,010208.000,A,4910.427148,N,12304.399188,W,0.01,0.00,041224,,,D,V*10
$GNVTG,0.00,T,,M,0.01,N,0.02,K,D*25
$GNGGA,010209.000,4910.427142,N,12304.399314,W,2,33,0.43,5.396,M,-16.816,M,,*49
$GNGLL,4910.427142,N,12304.399314,W,010209.000,A,D*51
$GNGSA,A,3,17,22,19,06,14,24,13,15,02,30,21,,0.79,0.43,0.66,1*07
$GNGSA,A,3,79,80,88,71,,,,,,,,,0.79,0.43,0.66,2*0B
$GNGSA,A,3,21,06,04,13,31,09,26,15,,,,,0.79,0.43,0.66,3*02
$GNGSA,A,3,26,35,24,29,44,45,33,41,12,14,,,0.79,0.43,0.66,4*00
$GPGSV,4,1,13,17,71,083,36,22,67,070,35,19,65,190,35,06,59,115,30,1*64
$GPGSV,4,2,13,14,44,084,34,24,40,302,33,48,33,182,30,13,24,212,31,1*6E
$GPGSV,4,3,13,15,22,249,32,02,18,040,29,30,12,143,28,12,10,272,21,1*65
$GPGSV,4,4,13,21,05,027,25,1*52
$GLGSV,2,1,07,79,65,073,24,80,47,312,23,88,30,036,20,82,28,170,,1*7B
$GLGSV,2,2,07,70,21,283,,71,18,333,22,78,17,105,,1*43
$GAGSV,3,1,11,21,38,082,28,06,36,271,27,04,33,239,27,13,33,068,28,7*74
$GAGSV,3,2,11,31,31,274,28,09,30,299,29,26,28,130,29,15,07,021,20,7*7F
$GAGSV,3,3,11,19,03,189,08,05,01,341,,33,01,168,,7*4C
$GBGSV,3,1,10,26,77,122,37,35,60,132,34,24,47,297,33,29,29,049,31,1*75
$GBGSV,3,2,10,44,28,188,31,45,21,117,25,33,10,282,11,41,08,330,27,1*7C
$GBGSV,3,3,10,12,07,196,22,14,06,258,14,1*74
$GNRMC,010209.000,A,4910.427142,N,12304.399314,W,0.01,0.00,041224,,,D,V*1C
$GNVTG,0.00,T,,M,0.01,N,0.02,K,D*25
$GNGGA,010210.000,4910.427226,N,12304.399404,W,2,33,0.43,5.526,M,-16.816,M,,*4B
$GNGLL,4910.427226,N,12304.399404,W,010210.000,A,D*5E
$GNGSA,A,3,17,22,19,06,14,24,13,15,02,30,21,,0.79,0.43,0.66,1*07
$GNGSA,A,3,79,80,88,71,,,,,,,,,0.79,0.43,0.66,2*0B
$GNGSA,A,3,21,06,04,13,31,09,26,15,,,,,0.79,0.43,0.66,3*02
$GNGSA,A,3,26,35,24,29,44,45,33,41,12,14,,,0.79,0.43,0.66,4*00
$GPGSV,4,1,13,17,71,083,37,22,67,070,36,19,65,190,35,06,59,115,30,1*66
$GPGSV,4,2,13,14,44,084,35,24,40,302,34,48,33,182,31,13,24,212,32,1*6A
$GPGSV,4,3,13,15,22,249,32,02,18,040,29,30,12,143,28,12,10,272,22,1*66
$GPGSV,4,4,13,21,05,027,25,1*52
$GLGSV,2,1,07,79,65,073,24,80,47,312,23,88,30,036,20,82,28,170,,1*7B
$GLGSV,2,2,07,70,21,283,,71,18,333,23,78,17,105,,1*42
$GAGSV,3,1,11,21,38,082,29,06,36,271,28,04,33,239,28,13,33,068,29,7*74
$GAGSV,3,2,11,31,31,274,29,09,30,299,30,26,28,130,29,15,07,021,20,7*76
$GAGSV,3,3,11,19,03,189,08,05,01,341,,33,01,168,,7*4C
$GBGSV,3,1,10,26,77,122,37,35,61,131,34,24,47,297,33,29,29,049,31,1*77
$GBGSV,3,2,10,44,28,188,31,45,21,117,25,33,10,282,14,41,08,330,27,1*79
$GBGSV,3,3,10,12,07,196,22,14,06,258,11,1*71
$GNRMC,010210.000,A,4910.427226,N,12304.399404,W,0.02,0.00,041224,,,D,V*10
$GNVTG,0.00,T,,M,0.02,N,0.03,K,D*27
$GNGGA,010211.000,4910.427280,N,12304.399476,W,2,33,0.43,5.641,M,-16.816,M,,*41
$GNGLL,4910.427280,N,12304.399476,W,010211.000,A,D*56
$GNGSA,A,3,17,22,19,06,14,24,13,15,02,30,21,,0.79,0.43,0.66,1*07
$GNGSA,A,3,79,80,88,71,,,,,,,,,0.79,0.43,0.66,2*0B
$GNGSA,A,3,21,06,04,13,31,09,26,15,,,,,0.79,0.43,0.66,3*02
$GNGSA,A,3,26,35,24,29,44,45,33,41,12,14,,,0.79,0.43,0.66,4*00
$GPGSV,4,1,13,17,71,083,37,22,67,070,35,19,65,190,34,06,59,115,29,1*6C
$GPGSV,4,2,13,14,44,084,34,24,40,302,33,48,33,182,30,13,24,212,31,1*6E
$GPGSV,4,3,13,15,22,249,31,02,18,040,28,30,12,143,27,12,10,272,21,1*68
$GPGSV,4,4,13,21,05,027,24,1*53
$GLGSV,2,1,07,79,65,073,24,80,47,312,24,88,30,036,20,82,28,170,,1*7C
$GLGSV,2,2,07,70,21,283,,71,18,333,23,78,17,105,,1*42
$GAGSV,3,1,11,21,38,082,28,06,36,271,27,04,33,239,27,13,33,068,28,7*74
$GAGSV,3,2,11,31,31,274,28,09,30,299,29,26,28,130,28,15,07,021,20,7*7E
$GAGSV,3,3,11,19,03,189,08,05,01,341,,33,01,168,,7*4C
$GBGSV,3,1,10,26,77,122,37,35,61,131,34,24,47,297,33,29,29,049,31,1*77
$GBGSV,3,2,10,44,28,188,31,45,21,117,25,33,10,282,15,41,08,330,25,1*7A
$GBGSV,3,3,10,12,07,196,21,14,06,258,11,1*72
$GNRMC,010211.000,A,4910.427280,N,12304.399476,W,0.02,0.00,041224,,,D,V*18
$GNVTG,0.00,T,,M,0.02,N,0.03,K,D*27
$GNGGA,010212.000,4910.427322,N,12304.399446,W,2,32,0.44,5.767,M,-16.816,M,,*4B
$GNGLL,4910.427322,N,12304.399446,W,010212.000,A,D*5F
$GNGSA,A,3,17,22,19,06,14,24,13,15,02,30,21,,0.80,0.44,0.67,1*07
$GNGSA,A,3,79,80,88,71,,,,,,,,,0.80,0.44,0.67,2*0B
$GNGSA,A,3,21,06,04,13,31,09,26,15,,,,,0.80,0.44,0.67,3*02
$GNGSA,A,3,26,35,24,29,44,45,33,41,12,,,,0.80,0.44,0.67,4*05
$GPGSV,4,1,13,17,71,083,36,22,67,070,34,19,65,190,33,06,59,115,28,1*6A
$GPGSV,4,2,13,14,44,084,33,24,40,302,32,48,33,182,29,13,24,212,30,1*61
$GPGSV,4,3,13,15,22,249,29,02,18,040,27,30,12,143,26,12,10,272,20,1*6E
$GPGSV,4,4,13,21,05,027,23,1*54
$GLGSV,2,1,07,79,65,073,25,80,47,312,24,88,30,036,20,82,28,170,,1*7D
$GLGSV,2,2,07,70,21,283,,71,18,333,23,78,17,105,,1*42
$GAGSV,3,1,11,21,38,082,27,06,36,271,26,04,33,239,26,13,33,068,26,7*75
$GAGSV,3,2,11,31,31,274,27,09,30,299,28,26,28,130,27,15,07,021,19,7*75
$GAGSV,3,3,11,19,03,189,08,05,01,341,,33,01,168,,7*4C
$GBGSV,3,1,10,26,77,122,37,35,61,131,34,24,47,297,32,29,29,049,31,1*76
$GBGSV,3,2,10,44,28,188,30,45,21,117,25,33,10,282,13,41,08,330,25,1*7D
$GBGSV,3,3,10,12,07,196,21,14,06,258,09,1*7B
$GNRMC,010212.000,A,4910.427322,N,12304.399446,W,0.02,0.00,041224,,,D,V*11
$GNVTG,0.00,T,,M,0.02,N,0.04,K,D*20
$GNGGA,010213.000,4910.427334,N,12304.399482,W,2,33,0.43,5.935,M,-16.816,M,,*4A
