$GNGGA,233317.000,4910.424064,N,12304.400592,W,2,31,0.45,-7.445,M,-16.816,M,,*6F
$GNGLL,4910.424064,N,12304.400592,W,233317.000,A,D*55
$GNGSA,A,3,19,24,17,06,12,14,11,03,15,,,,0.78,0.45,0.63,1*05
$GNGSA,A,3,75,85,76,66,67,,,,,,,,0.78,0.45,0.63,2*06
$GNGSA,A,3,02,30,36,11,07,25,34,08,29,10,,,0.78,0.45,0.63,3*09
$GNGSA,A,3,24,35,26,44,12,25,29,,,,,,0.78,0.45,0.63,4*04
$GPGSV,4,1,13,19,81,093,29,24,56,274,28,17,49,059,28,06,36,147,20,1*63
$GPGSV,4,2,13,46,33,188,27,12,28,285,23,14,24,099,23,11,11,175,21,1*63
$GPGSV,4,3,13,03,05,060,15,15,05,234,18,02,03,029,,32,03,342,17,1*63
$GPGSV,4,4,13,13,03,202,,1*57
$GLGSV,2,1,07,75,77,358,29,85,58,166,25,84,52,049,18,74,39,114,,1*7F
$GLGSV,2,2,07,76,20,309,24,66,16,305,22,67,10,356,16,1*46
$GAGSV,3,1,10,02,74,073,28,30,47,287,24,36,45,111,21,11,30,049,14,7*79
$GAGSV,3,2,10,07,27,278,19,25,22,096,21,34,19,166,17,08,15,225,17,7*78
$GAGSV,3,3,10,29,11,330,18,10,11,029,19,7*72
$GBGSV,3,1,12,24,67,291,28,35,63,082,27,26,56,139,25,44,53,189,24,1*77
$GBGSV,3,2,12,12,29,200,17,25,14,305,17,29,11,044,21,34,04,213,15,1*75
$GBGSV,3,3,12,41,04,311,17,45,03,128,17,32,02,000,,39,01,328,15,1*7B
$GNRMC,233317.000,A,4910.424064,N,12304.400592,W,0.22,112.96,070125,,,D,V*14
$GNVTG,112.96,T,,M,0.22,N,0.41,K,D*2E
$PAIRLOG,Full*51
$GNGGA,233318.000,4910.424022,N,12304.400526,W,2,31,0.45,-7.516,M,-16.816,M,,*6A
$GNGLL,4910.424022,N,12304.400526,W,233318.000,A,D*57
$GNGSA,A,3,19,24,17,06,12,14,11,03,15,,,,0.78,0.45,0.63,1*05
$GNGSA,A,3,75,85,76,66,67,,,,,,,,0.78,0.45,0.63,2*06
$GNGSA,A,3,02,30,36,11,07,25,34,08,29,10,,,0.78,0.45,0.63,3*09
$GNGSA,A,3,24,35,26,44,12,25,29,,,,,,0.78,0.45,0.63,4*04
$GPGSV,4,1,13,19,81,093,28,24,56,274,27,17,49,059,27,06,36,147,19,1*68
$GPGSV,4,2,13,46,33,188,26,12,28,285,22,14,24,099,23,11,11,175,20,1*62
$GPGSV,4,3,13,03,05,060,15,15,05,234,18,02,03,029,,32,03,342,16,1*62
$GPGSV,4,4,13,13,03,202,,1*57
$GLGSV,2,1,07,75,77,358,30,85,58,166,25,84,52,049,18,74,39,114,,1*77
$GLGSV,2,2,07,76,20,309,25,66,16,305,22,67,10,356,16,1*47
$GAGSV,3,1,10,02,74,073,27,30,47,287,23,36,45,111,20,11,30,049,14,7*70
$GAGSV,3,2,10,07,27,278,18,25,22,096,20,34,19,166,16,08,15,225,17,7*79
$GAGSV,3,3,10,29,11,330,18,10,11,029,18,7*73
$GBGSV,3,1,12,24,67,291,28,35,63,082,28,26,56,139,25,44,53,189,24,1*78
$GBGSV,3,2,12,12,29,200,17,25,14,305,18,29,11,044,21,34,04,213,15,1*7A
$GBGSV,3,3,12,41,04,311,15,45,03,128,17,32,02,000,,39,01,328,15,1*79
$GNRMC,233318.000,A,4910.424022,N,12304.400526,W,0.22,112.06,070125,,,D,V*1F
$GNVTG,112.06,T,,M,0.22,N,0.41,K,D*27
$PAIRLOG,Full*51
$GNGGA,233319.000,4910.424028,N,12304.400538,W,2,31,0.45,-7.612,M,-16.817,M,,*68
$GNGLL,4910.424028,N,12304.400538,W,233319.000,A,D*53
$GNGSA,A,3,19,24,17,06,12,14,11,03,15,,,,0.78,0.45,0.63,1*05
$GNGSA,A,3,75,85,76,66,67,,,,,,,,0.78,0.45,0.63,2*06
$GNGSA,A,3,02,30,36,11,07,25,34,08,29,10,,,0.78,0.45,0.63,3*09
$GNGSA,A,3,24,35,26,44,12,25,29,,,,,,0.78,0.45,0.63,4*04
$GPGSV,4,1,13,19,81,093,27,24,56,274,26,17,49,059,26,06,36,147,18,1*66
$GPGSV,4,2,13,46,33,188,26,12,28,285,21,14,24,099,23,11,11,175,21,1*60
$GPGSV,4,3,13,03,05,060,16,15,05,234,18,02,03,029,,32,03,342,16,1*61
$GPGSV,4,4,13,13,03,202,,1*57
$GLGSV,2,1,07,75,77,358,31,85,58,166,26,84,52,049,18,74,39,114,,1*75
$GLGSV,2,2,07,76,20,309,26,66,16,305,22,67,10,356,17,1*45
$GAGSV,3,1,10,02,74,073,27,30,47,287,22,36,45,111,20,11,30,049,14,7*71
$GAGSV,3,2,10,07,27,278,18,25,22,096,21,34,19,166,16,08,15,225,16,7*79
$GAGSV,3,3,10,29,11,330,18,10,11,029,18,7*73
$GBGSV,3,1,12,24,67,291,29,35,63,082,28,26,56,139,26,44,53,189,25,1*7B
$GBGSV,3,2,12,12,29,200,18,25,14,305,19,29,11,044,22,34,04,213,16,1*74
$GBGSV,3,3,12,41,04,311,16,45,03,128,17,32,02,000,,39,01,328,16,1*79
$GNRMC,233319.000,A,4910.424028,N,12304.400538,W,0.20,111.88,070125,,,D,V*1C
$GNVTG,111.88,T,,M,0.20,N,0.37,K,D*21
$PAIRLOG,Full*51
$GNGGA,233320.000,4910.423998,N,12304.400574,W,2,31,0.45,-7.580,M,-16.817,M,,*67
$GNGLL,4910.423998,N,12304.400574,W,233320.000,A,D*54
$GNGSA,A,3,19,24,17,06,12,14,11,15,03,,,,0.78,0.45,0.63,1*05
$GNGSA,A,3,75,85,76,66,67,,,,,,,,0.78,0.45,0.63,2*06
$GNGSA,A,3,02,30,36,11,07,25,34,08,29,10,,,0.78,0.45,0.63,3*09
$GNGSA,A,3,24,35,26,44,12,25,29,,,,,,0.78,0.45,0.63,4*04
$GPGSV,4,1,13,19,81,093,29,24,56,274,28,17,49,059,28,06,36,147,20,1*63
$GPGSV,4,2,13,46,33,188,27,12,28,285,22,14,24,099,24,11,11,175,22,1*66
$GPGSV,4,3,13,15,05,234,18,03,05,060,16,13,03,202,,02,03,029,,1*60
$GPGSV,4,4,13,32,03,342,17,1*57
$GLGSV,2,1,07,75,77,358,31,85,58,166,27,84,52,049,18,74,39,114,,1*74
$GLGSV,2,2,07,76,20,309,27,66,16,305,21,67,10,356,18,1*48
$GAGSV,3,1,10,02,74,073,28,30,47,287,29,36,45,111,22,11,30,049,15,7*76
$GAGSV,3,2,10,07,27,278,19,25,22,096,22,34,19,166,17,08,15,225,17,7*7B
$GAGSV,3,3,10,29,11,330,18,10,11,029,18,7*73
$GBGSV,3,1,11,24,67,291,28,35,63,082,27,26,56,139,25,44,53,189,24,1*74
$GBGSV,3,2,11,12,29,200,18,25,14,305,19,29,11,044,21,41,04,311,16,1*75
$GBGSV,3,3,11,34,04,213,16,45,03,128,17,39,01,328,15,1*4B
$GNRMC,233320.000,A,4910.423998,N,12304.400574,W,0.22,111.45,070125,,,D,V*18
$GNVTG,111.45,T,,M,0.22,N,0.41,K,D*23
$PAIRLOG,Full*51
$GNGGA,233321.000,4910.423998,N,12304.400568,W,2,31,0.45,-7.621,M,-16.816,M,,*62
$GNGLL,4910.423998,N,12304.400568,W,233321.000,A,D*58
$GNGSA,A,3,19,24,17,06,12,14,11,03,15,,,,0.78,0.45,0.63,1*05
$GNGSA,A,3,75,85,76,66,67,,,,,,,,0.78,0.45,0.63,2*06
$GNGSA,A,3,02,30,36,11,07,25,34,08,29,10,,,0.78,0.45,0.63,3*09
$GNGSA,A,3,24,35,26,44,12,25,29,,,,,,0.78,0.45,0.63,4*04
$GPGSV,4,1,13,19,81,093,31,24,56,274,29,17,49,059,29,06,36,147,22,1*68
$GPGSV,4,2,13,46,33,188,28,12,28,285,24,14,24,099,24,11,11,175,23,1*6E
$GPGSV,4,3,13,03,05,060,16,15,05,234,19,02,03,029,,32,03,342,17,1*61
$GPGSV,4,4,13,13,03,202,,1*57
$GLGSV,2,1,07,75,77,358,32,85,58,166,27,84,52,049,18,74,39,114,,1*77
$GLGSV,2,2,07,76,20,309,27,66,16,305,21,67,10,356,19,1*49
$GAGSV,3,1,10,02,74,073,29,30,47,287,29,36,45,111,24,11,30,049,16,7*72
$GAGSV,3,2,10,07,27,278,21,25,22,096,23,34,19,166,18,08,15,225,18,7*71
$GAGSV,3,3,10,29,11,330,18,10,11,029,19,7*72
$GBGSV,3,1,12,24,67,291,27,35,63,082,26,26,56,139,25,44,53,189,24,1*79
$GBGSV,3,2,12,12,29,200,18,25,14,305,18,29,11,044,20,34,04,213,16,1*77
$GBGSV,3,3,12,41,04,311,16,45,03,128,17,32,02,000,,39,01,328,15,1*7A
$GNRMC,233321.000,A,4910.423998,N,12304.400568,W,0.28,111.45,070125,,,D,V*1E
$GNVTG,111.45,T,,M,0.28,N,0.52,K,D*2B
$PAIRLOG,Full*51
$GNGGA,233322.000,4910.424028,N,12304.400538,W,2,31,0.45,-7.633,M,-16.816,M,,*62
$GNGLL,4910.424028,N,12304.400538,W,233322.000,A,D*5B
$GNGSA,A,3,19,24,17,06,12,14,11,03,15,,,,0.78,0.45,0.63,1*05
$GNGSA,A,3,75,85,76,66,67,,,,,,,,0.78,0.45,0.63,2*06
$GNGSA,A,3,02,30,36,11,07,25,34,08,29,10,,,0.78,0.45,0.63,3*09
$GNGSA,A,3,24,35,26,44,12,25,29,,,,,,0.78,0.45,0.63,4*04
$GPGSV,4,1,13,19,81,093,29,24,56,274,27,17,49,059,27,06,36,147,21,1*62
$GPGSV,4,2,13,46,33,188,28,12,28,285,23,14,24,099,23,11,11,175,22,1*6F
$GPGSV,4,3,13,03,05,060,16,15,05,234,18,02,03,029,,32,03,342,17,1*60
$GPGSV,4,4,13,13,03,202,,1*57
$GLGSV,2,1,07,75,77,358,32,85,58,166,26,84,52,049,18,74,39,114,,1*76
$GLGSV,2,2,07,76,20,309,27,66,16,305,21,67,10,356,18,1*48
$GAGSV,3,1,10,02,74,073,28,30,47,287,21,36,45,111,22,11,30,049,16,7*7D
$GAGSV,3,2,10,07,27,278,20,25,22,096,22,34,19,166,18,08,15,225,18,7*71
$GAGSV,3,3,10,29,11,330,18,10,11,029,19,7*72
$GBGSV,3,1,12,24,67,291,28,35,63,082,28,26,56,139,27,44,53,189,25,1*7B
$GBGSV,3,2,12,12,29,200,18,25,14,305,17,29,11,044,20,34,04,213,16,1*78
$GBGSV,3,3,12,41,04,311,17,45,03,128,17,32,02,000,,39,01,328,15,1*7B
$GNRMC,233322.000,A,4910.424028,N,12304.400538,W,0.23,111.45,070125,,,D,V*16
$GNVTG,111.45,T,,M,0.23,N,0.43,K,D*20
$PAIRLOG,Full*51
$GNGGA,233323.000,4910.424112,N,12304.400550,W,2,31,0.45,-7.629,M,-16.816,M,,*6E
$GNGLL,4910.424112,N,12304.400550,W,233323.000,A,D*5C
$GNGSA,A,3,19,24,17,06,12,14,11,03,15,,,,0.78,0.45,0.63,1*05
$GNGSA,A,3,75,85,76,66,67,,,,,,,,0.78,0.45,0.63,2*06
$GNGSA,A,3,02,30,36,11,07,25,34,08,29,10,,,0.78,0.45,0.63,3*09
$GNGSA,A,3,24,35,26,44,12,25,29,,,,,,0.78,0.45,0.63,4*04
$GPGSV,4,1,13,19,81,093,29,24,56,274,27,17,49,059,27,06,36,147,21,1*62
$GPGSV,4,2,13,46,33,188,28,12,28,285,23,14,24,099,23,11,11,175,22,1*6F
$GPGSV,4,3,13,03,05,060,16,15,05,234,16,02,03,029,,32,03,342,16,1*6F
$GPGSV,4,4,13,13,03,202,,1*57
$GLGSV,2,1,07,75,77,358,32,85,58,166,25,84,52,049,18,74,39,114,,1*75
$GLGSV,2,2,07,76,20,309,27,66,16,305,21,67,10,356,18,1*48
$GAGSV,3,1,10,02,74,073,28,30,47,287,22,36,45,111,22,11,30,049,16,7*7E
$GAGSV,3,2,10,07,27,278,19,25,22,096,21,34,19,166,18,08,15,225,17,7*77
$GAGSV,3,3,10,29,11,330,18,10,11,029,18,7*73
$GBGSV,3,1,12,24,67,291,29,35,63,082,29,26,56,139,27,44,53,189,26,1*78
$GBGSV,3,2,12,12,29,200,18,25,14,305,19,29,11,044,20,34,04,213,16,1*76
$GBGSV,3,3,12,41,04,311,18,45,03,128,17,32,02,000,,39,01,328,15,1*74
$GNRMC,233323.000,A,4910.424112,N,12304.400550,W,0.18,111.45,070125,,,D,V*19
$GNVTG,111.45,T,,M,0.18,N,0.33,K,D*2F
$PAIRLOG,Full*51
$GNGGA,233324.000,4910.424004,N,12304.400664,W,2,31,0.45,-7.605,M,-16.816,M,,*65
$GNGLL,4910.424004,N,12304.400664,W,233324.000,A,D*59
$GNGSA,A,3,19,24,17,06,12,14,11,03,15,,,,0.78,0.45,0.63,1*05
$GNGSA,A,3,75,85,76,66,67,,,,,,,,0.78,0.45,0.63,2*06
$GNGSA,A,3,02,30,36,11,07,25,34,08,29,10,,,0.78,0.45,0.63,3*09
$GNGSA,A,3,24,35,26,44,12,25,29,,,,,,0.78,0.45,0.63,4*04
$GPGSV,4,1,13,19,81,093,30,24,56,274,28,17,49,059,28,06,36,147,23,1*68
$GPGSV,4,2,13,46,33,188,28,12,28,285,24,14,24,099,24,11,11,175,22,1*6F
$GPGSV,4,3,13,03,05,060,16,15,05,234,19,02,03,029,,32,03,342,17,1*61
$GPGSV,4,4,13,13,03,202,,1*57
$GLGSV,2,1,07,75,77,358,31,85,58,166,26,84,52,049,18,74,39,114,,1*75
$GLGSV,2,2,07,76,20,309,27,66,16,305,20,67,10,356,18,1*49
$GAGSV,3,1,10,02,74,073,28,30,47,287,23,36,45,111,23,11,30,049,17,7*7F
$GAGSV,3,2,10,07,27,278,19,25,22,096,22,34,19,166,19,08,15,225,17,7*75
$GAGSV,3,3,10,29,11,330,19,10,11,029,18,7*72
$GBGSV,3,1,12,24,67,291,29,35,63,082,28,26,56,139,27,44,53,189,25,1*7A
$GBGSV,3,2,12,12,29,200,18,25,14,305,17,29,11,044,20,34,04,213,16,1*78
$GBGSV,3,3,12,41,04,311,18,45,03,128,17,32,02,000,,39,01,328,15,1*74
$GNRMC,233324.000,A,4910.424004,N,12304.400664,W,0.15,111.45,070125,,,D,V*11
$GNVTG,111.45,T,,M,0.15,N,0.28,K,D*28
$PAIRLOG,Full*51
$GNGGA,233325.000,4910.423980,N,12304.400580,W,2,31,0.45,-7.642,M,-16.817,M,,*6D
$GNGLL,4910.423980,N,12304.400580,W,233325.000,A,D*53
$GNGSA,A,3,19,24,17,06,12,14,11,03,15,,,,0.78,0.45,0.63,1*05
$GNGSA,A,3,75,85,76,66,67,,,,,,,,0.78,0.45,0.63,2*06
$GNGSA,A,3,02,30,36,11,07,25,34,08,29,10,,,0.78,0.45,0.63,3*09
$GNGSA,A,3,24,35,26,44,12,25,29,,,,,,0.78,0.45,0.63,4*04
$GPGSV,4,1,13,19,81,093,30,24,56,274,27,17,49,059,28,06,36,147,23,1*67
$GPGSV,4,2,13,46,33,188,28,12,28,285,24,14,24,099,24,11,11,175,22,1*6F
$GPGSV,4,3,13,03,05,060,16,15,05,234,17,02,03,029,,32,03,342,17,1*6F
$GPGSV,4,4,13,13,03,202,,1*57
$GLGSV,2,1,07,75,77,358,32,85,58,166,26,84,52,049,18,74,39,114,,1*76
$GLGSV,2,2,07,76,20,309,27,66,16,305,21,67,10,356,18,1*48
$GAGSV,3,1,10,02,74,073,28,30,47,287,24,36,45,111,23,11,30,049,17,7*78
$GAGSV,3,2,10,07,27,278,19,25,22,096,22,34,19,166,19,08,15,225,17,7*75
$GAGSV,3,3,10,29,11,330,19,10,11,029,18,7*72
$GBGSV,3,1,12,24,67,291,29,35,63,082,29,26,56,139,27,44,53,189,24,1*7A
$GBGSV,3,2,12,12,29,200,19,25,14,305,18,29,11,044,20,34,04,213,16,1*76
$GBGSV,3,3,12,41,04,311,17,45,03,128,17,32,02,000,,39,01,328,15,1*7B
$GNRMC,233325.000,A,4910.423980,N,12304.400580,W,0.15,111.45,070125,,,D,V*1B
$GNVTG,111.45,T,,M,0.15,N,0.28,K,D*28
$PAIRLOG,Full*51
$GNGGA,233326.000,4910.423950,N,12304.400640,W,2,31,0.45,-7.495,M,-16.816,M,,*65
$GNGLL,4910.423950,N,12304.400640,W,233326.000,A,D*52
$GNGSA,A,3,19,24,17,06,12,14,11,03,15,,,,0.78,0.45,0.63,1*05
$GNGSA,A,3,75,85,76,66,67,,,,,,,,0.78,0.45,0.63,2*06
$GNGSA,A,3,02,30,36,11,07,25,34,08,29,10,,,0.78,0.45,0.63,3*09
$GNGSA,A,3,24,35,26,44,12,25,29,,,,,,0.78,0.45,0.63,4*04
$GPGSV,4,1,13,19,81,093,31,24,56,274,28,17,49,059,29,06,36,147,24,1*6F
$GPGSV,4,2,13,46,33,188,28,12,28,285,25,14,24,099,25,11,11,175,23,1*6E
$GPGSV,4,3,13,03,05,060,16,15,05,234,18,02,03,029,,32,03,342,17,1*60
$GPGSV,4,4,13,13,03,202,,1*57
$GLGSV,2,1,07,75,77,358,32,85,58,166,27,84,52,049,19,74,39,114,,1*76
$GLGSV,2,2,07,76,20,309,27,66,16,305,22,67,10,356,19,1*4A
$GAGSV,3,1,10,02,74,073,29,30,47,287,25,36,45,111,24,11,30,049,17,7*7F
$GAGSV,3,2,10,07,27,278,20,25,22,096,22,34,19,166,19,08,15,225,17,7*7F
$GAGSV,3,3,10,29,11,330,19,10,11,029,18,7*72
$GBGSV,3,1,12,24,67,291,30,35,63,082,29,26,56,139,29,44,53,189,25,1*7D
$GBGSV,3,2,12,12,29,200,19,25,14,305,20,29,11,044,23,34,04,213,16,1*7E
$GBGSV,3,3,12,41,04,311,18,45,03,128,17,32,02,000,,39,01,328,15,1*74
$GNRMC,233326.000,A,4910.423950,N,12304.400640,W,0.13,111.45,070125,,,D,V*1C
$GNVTG,111.45,T,,M,0.13,N,0.24,K,D*22
$PAIRLOG,Full*51
$GNGGA,233327.000,4910.423920,N,12304.400832,W,2,31,0.45,-7.450,M,-16.817,M,,*60
$GNGLL,4910.423920,N,12304.400832,W,233327.000,A,D*5F
$GNGSA,A,3,19,24,17,06,12,14,11,03,15,,,,0.78,0.45,0.63,1*05
$GNGSA,A,3,75,85,76,66,67,,,,,,,,0.78,0.45,0.63,2*06
$GNGSA,A,3,02,30,36,11,07,25,34,08,29,10,,,0.78,0.45,0.63,3*09
$GNGSA,A,3,24,35,26,44,12,25,29,,,,,,0.78,0.45,0.63,4*04
$GPGSV,4,1,13,19,81,093,32,24,56,274,30,17,49,059,30,06,36,147,25,1*6C
$GPGSV,4,2,13,46,33,188,28,12,28,285,26,14,24,099,26,11,11,175,23,1*6E
$GPGSV,4,3,13,03,05,060,16,15,05,234,18,32,03,342,18,13,03,202,,1*64
$GPGSV,4,4,13,02,02,028,,1*5C
$GLGSV,2,1,07,75,77,358,32,85,58,166,28,84,52,049,19,74,39,114,,1*79
$GLGSV,2,2,07,76,20,309,27,66,16,305,24,67,10,356,20,1*46
$GAGSV,3,1,10,02,74,073,30,30,47,287,26,36,45,111,25,11,30,049,17,7*75
$GAGSV,3,2,10,07,27,278,21,25,22,096,22,34,19,166,19,08,15,225,18,7*71
$GAGSV,3,3,10,29,11,330,19,10,11,029,19,7*73
$GBGSV,3,1,12,24,67,291,30,35,63,082,28,26,56,139,25,44,53,189,25,1*70
$GBGSV,3,2,12,12,29,200,19,25,14,305,19,29,11,044,21,34,04,213,16,1*76
$GBGSV,3,3,12,41,04,311,17,45,03,128,17,32,02,000,,39,01,328,14,1*7A
$GNRMC,233327.000,A,4910.423920,N,12304.400832,W,0.13,111.45,070125,,,D,V*11
$GNVTG,111.45,T,,M,0.13,N,0.24,K,D*22
$PAIRLOG,Full*51
$GNGGA,233328.000,4910.423884,N,12304.400826,W,2,31,0.45,-7.319,M,-16.816,M,,*6E
$GNGLL,4910.423884,N,12304.400826,W,233328.000,A,D*5A
$GNGSA,A,3,19,24,17,06,12,14,11,03,15,,,,0.78,0.45,0.63,1*05
$GNGSA,A,3,75,85,76,66,67,,,,,,,,0.78,0.45,0.63,2*06
$GNGSA,A,3,02,30,36,11,07,25,34,08,29,10,,,0.78,0.45,0.63,3*09
$GNGSA,A,3,24,35,26,44,12,25,29,,,,,,0.78,0.45,0.63,4*04
$GPGSV,4,1,13,19,81,093,31,24,56,274,30,17,49,059,30,06,36,147,25,1*6F
$GPGSV,4,2,13,46,33,188,28,12,28,285,26,14,24,099,26,11,11,175,22,1*6F
$GPGSV,4,3,13,03,06,059,16,15,05,234,19,32,03,342,18,13,03,202,,1*6C
$GPGSV,4,4,13,02,02,028,,1*5C
$GLGSV,2,1,07,75,77,358,32,85,58,166,28,84,52,049,19,74,39,114,,1*79
$GLGSV,2,2,07,76,20,309,27,66,16,305,24,67,10,356,20,1*46
$GAGSV,3,1,10,02,74,073,30,30,47,287,26,36,45,111,25,11,30,049,17,7*75
$GAGSV,3,2,10,07,27,278,21,25,22,096,22,34,19,166,19,08,15,225,18,7*71
$GAGSV,3,3,10,29,11,330,19,10,11,029,19,7*73
$GBGSV,3,1,12,24,67,291,29,35,63,082,25,26,56,139,22,44,53,189,20,1*77
$GBGSV,3,2,12,12,29,200,18,25,14,305,18,29,11,044,21,34,04,213,16,1*76
$GBGSV,3,3,12,41,04,311,17,45,03,128,16,32,02,000,,39,01,328,13,1*7C
$GNRMC,233328.000,A,4910.423884,N,12304.400826,W,0.14,111.45,070125,,,D,V*13
$GNVTG,111.45,T,,M,0.14,N,0.26,K,D*27
$PAIRLOG,Full*51
$GNGGA,233329.000,4910.423926,N,12304.400826,W,2,31,0.45,-7.177,M,-16.816,M,,*6C
$GNGLL,4910.423926,N,12304.400826,W,233329.000,A,D*52
$GNGSA,A,3,19,24,17,06,12,14,11,03,15,,,,0.78,0.45,0.63,1*05
$GNGSA,A,3,75,85,76,66,67,,,,,,,,0.78,0.45,0.63,2*06
$GNGSA,A,3,02,30,36,11,07,25,34,08,29,10,,,0.78,0.45,0.63,3*09
$GNGSA,A,3,24,35,26,44,12,25,29,,,,,,0.78,0.45,0.63,4*04
$GPGSV,4,1,13,19,81,093,31,24,56,274,30,17,49,059,30,06,36,147,25,1*6F
$GPGSV,4,2,13,46,33,188,28,12,28,285,25,14,24,099,25,11,11,175,22,1*6F
$GPGSV,4,3,13,03,06,059,16,15,05,234,19,32,03,342,18,13,03,202,,1*6C
$GPGSV,4,4,13,02,02,028,,1*5C
$GLGSV,2,1,07,75,77,358,32,85,58,166,29,84,52,049,20,74,39,114,,1*72
$GLGSV,2,2,07,76,20,309,27,66,16,305,25,67,10,356,21,1*46
$GAGSV,3,1,10,02,74,073,30,30,47,287,26,36,45,111,25,11,30,049,17,7*75
$GAGSV,3,2,10,07,27,278,21,25,22,096,22,34,19,166,19,08,15,225,18,7*71
$GAGSV,3,3,10,29,11,330,19,10,11,029,19,7*73
$GBGSV,3,1,12,24,67,291,29,35,63,082,27,26,56,139,25,44,53,189,25,1*77
$GBGSV,3,2,12,12,29,200,18,25,14,305,19,29,11,044,23,34,04,213,16,1*75
$GBGSV,3,3,12,41,04,311,17,45,03,128,16,32,02,000,,39,01,328,13,1*7C
$GNRMC,233329.000,A,4910.423926,N,12304.400826,W,0.14,111.45,070125,,,D,V*1B
$GNVTG,111.45,T,,M,0.14,N,0.26,K,D*27
$PAIRLOG,Full*51
$GNGGA,233330.000,4910.423956,N,12304.400796,W,2,31,0.45,-7.313,M,-16.816,M,,*67
$GNGLL,4910.423956,N,12304.400796,W,233330.000,A,D*59
$GNGSA,A,3,19,24,17,06,12,14,11,03,15,,,,0.78,0.45,0.63,1*05
$GNGSA,A,3,75,85,76,66,67,,,,,,,,0.78,0.45,0.63,2*06
$GNGSA,A,3,02,30,36,11,07,25,34,08,29,10,,,0.78,0.45,0.63,3*09
$GNGSA,A,3,24,35,26,44,12,25,29,,,,,,0.78,0.45,0.63,4*04
$GPGSV,4,1,13,19,81,093,31,24,56,274,29,17,49,059,29,06,36,147,25,1*6F
$GPGSV,4,2,13,46,33,188,28,12,28,285,25,14,24,099,25,11,11,175,20,1*6D
$GPGSV,4,3,13,03,06,059,16,15,05,234,19,32,03,342,18,13,03,202,,1*6C
$GPGSV,4,4,13,02,02,028,,1*5C
$GLGSV,2,1,07,75,77,358,33,85,58,166,30,84,52,049,21,74,39,114,,1*7A
$GLGSV,2,2,07,76,20,309,27,66,16,305,25,67,10,356,22,1*45
$GAGSV,3,1,10,02,74,073,29,30,47,287,25,36,45,111,25,11,30,049,17,7*7E
$GAGSV,3,2,10,07,27,278,20,25,22,096,21,34,19,166,19,08,15,225,18,7*73
$GAGSV,3,3,10,29,11,330,19,10,11,029,18,7*72
$GBGSV,3,1,12,24,67,291,28,35,63,082,27,26,56,139,24,44,53,189,23,1*71
$GBGSV,3,2,12,12,29,200,17,25,14,305,17,29,11,044,21,34,04,213,16,1*76
$GBGSV,3,3,12,41,04,311,17,45,03,128,16,32,02,000,,39,01,328,13,1*7C
$GNRMC,233330.000,A,4910.423956,N,12304.400796,W,0.13,111.45,070125,,,D,V*17
$GNVTG,111.45,T,,M,0.13,N,0.25,K,D*23
$PAIRLOG,Full*51
$GNGGA,233331.000,4910.423896,N,12304.400874,W,2,31,0.45,-7.681,M,-16.816,M,,*66
$GNGLL,4910.423896,N,12304.400874,W,233331.000,A,D*56
$GNGSA,A,3,19,24,17,06,12,14,11,03,15,,,,0.78,0.45,0.63,1*05
$GNGSA,A,3,75,85,76,66,67,,,,,,,,0.78,0.45,0.63,2*06
$GNGSA,A,3,02,30,36,11,07,25,34,08,29,10,,,0.78,0.45,0.63,3*09
$GNGSA,A,3,24,35,26,44,12,25,29,,,,,,0.78,0.45,0.63,4*04
$GPGSV,4,1,13,19,81,093,32,24,56,274,29,17,49,059,29,06,38,147,25,1*62
$GPGSV,4,2,13,46,33,188,28,12,28,285,26,14,24,099,26,11,11,175,25,1*68
$GPGSV,4,3,13,03,06,059,16,15,05,234,19,32,03,342,18,13,03,202,,1*6C
$GPGSV,4,4,13,02,02,028,,1*5C
$GLGSV,2,1,07,75,77,358,32,85,58,166,30,84,52,049,21,74,39,114,,1*7B
$GLGSV,2,2,07,76,20,309,27,66,16,305,25,67,10,356,22,1*45
$GAGSV,3,1,10,02,74,073,29,30,47,287,25,36,45,111,25,11,30,049,17,7*7E
$GAGSV,3,2,10,07,27,278,20,25,22,096,21,34,19,166,19,08,15,225,18,7*73
$GAGSV,3,3,10,29,11,330,19,10,11,029,18,7*72
$GBGSV,3,1,12,24,67,291,28,35,63,082,27,26,56,139,22,44,53,189,21,1*75
$GBGSV,3,2,12,12,29,200,17,25,14,305,17,29,11,044,21,34,04,213,15,1*75
$GBGSV,3,3,12,41,04,311,17,45,03,128,16,32,02,000,,39,01,328,13,1*7C
$GNRMC,233331.000,A,4910.423896,N,12304.400874,W,0.13,111.45,070125,,,D,V*18
$GNVTG,111.45,T,,M,0.13,N,0.24,K,D*22
$PAIRLOG,Full*51
$GNGGA,233332.000,4910.423818,N,12304.401006,W,2,30,0.46,-7.819,M,-16.817,M,,*63
$GNGLL,4910.423818,N,12304.401006,W,233332.000,A,D*5F
$GNGSA,A,3,19,24,17,06,12,14,11,03,15,,,,0.78,0.46,0.63,1*06
$GNGSA,A,3,75,85,76,66,67,,,,,,,,0.78,0.46,0.63,2*05
$GNGSA,A,3,02,30,36,11,07,25,34,08,29,10,,,0.78,0.46,0.63,3*0A
$GNGSA,A,3,24,35,26,12,25,29,,,,,,,0.78,0.46,0.63,4*07
$GPGSV,4,1,13,19,81,093,32,24,56,274,29,17,49,059,29,06,38,147,25,1*62
$GPGSV,4,2,13,46,33,188,28,12,28,285,26,14,24,099,26,11,11,175,23,1*6E
$GPGSV,4,3,13,03,06,059,16,15,05,234,19,32,03,342,18,13,03,202,,1*6C
$GPGSV,4,4,13,02,02,028,,1*5C
$GLGSV,2,1,07,75,77,358,33,85,58,166,30,84,52,049,21,74,39,114,,1*7A
$GLGSV,2,2,07,76,20,309,27,66,16,305,26,67,10,356,22,1*46
$GAGSV,3,1,10,02,74,073,29,30,47,287,25,36,45,111,25,11,30,049,17,7*7E
$GAGSV,3,2,10,07,27,278,21,25,22,096,22,34,19,166,19,08,15,225,18,7*71
$GAGSV,3,3,10,29,11,330,19,10,11,029,18,7*72
$GBGSV,3,1,12,24,67,291,28,35,63,082,28,26,56,139,24,44,53,189,,1*7F
$GBGSV,3,2,12,12,29,200,17,25,14,305,17,29,11,044,21,34,04,213,14,1*74
$GBGSV,3,3,12,41,04,311,17,45,03,128,16,32,02,000,,39,01,328,13,1*7C
$GNRMC,233332.000,A,4910.423818,N,12304.401006,W,0.14,111.45,070125,,,D,V*16
$GNVTG,111.45,T,,M,0.14,N,0.25,K,D*24
$PAIRLOG,Full*51
$GNGGA,233333.000,4910.423746,N,12304.401102,W,2,31,0.45,-7.947,M,-16.816,M,,*6A
$GNGLL,4910.423746,N,12304.401102,W,233333.000,A,D*5F
$GNGSA,A,3,19,24,17,06,12,14,11,03,15,,,,0.78,0.45,0.63,1*05
$GNGSA,A,3,75,85,76,66,67,,,,,,,,0.78,0.45,0.63,2*06
$GNGSA,A,3,02,30,36,11,07,25,34,08,29,10,,,0.78,0.45,0.63,3*09
$GNGSA,A,3,24,35,26,44,12,25,29,,,,,,0.78,0.45,0.63,4*04
$GPGSV,4,1,13,19,81,093,32,24,56,274,29,17,49,059,29,06,38,147,25,1*62
$GPGSV,4,2,13,46,33,188,28,12,28,285,26,14,24,099,27,11,11,175,23,1*6F
$GPGSV,4,3,13,03,06,059,16,15,05,234,19,32,03,342,18,13,03,202,,1*6C
$GPGSV,4,4,13,02,02,028,,1*5C
$GLGSV,2,1,07,75,77,358,33,85,58,166,30,84,52,049,21,74,39,114,,1*7A
$GLGSV,2,2,07,76,20,309,27,66,16,305,26,67,10,356,21,1*45
$GAGSV,3,1,10,02,74,073,29,30,47,287,25,36,45,111,25,11,30,049,17,7*7E
$GAGSV,3,2,10,07,27,278,21,25,22,096,22,34,19,166,19,08,15,225,18,7*71
$GAGSV,3,3,10,29,11,330,19,10,11,029,18,7*72
$GBGSV,3,1,12,24,67,291,28,35,63,082,28,26,56,139,23,44,53,189,24,1*7E
$GBGSV,3,2,12,12,29,200,17,25,14,305,17,29,11,044,21,34,04,213,13,1*73
$GBGSV,3,3,12,41,04,311,16,45,03,128,15,32,02,000,,39,01,328,12,1*7F
$GNRMC,233333.000,A,4910.423746,N,12304.401102,W,0.14,111.45,070125,,,D,V*16
$GNVTG,111.45,T,,M,0.14,N,0.26,K,D*27
$PAIRLOG,Full*51
$GNGGA,233334.000,4910.423848,N,12304.401144,W,2,31,0.45,-8.172,M,-16.816,M,,*6F
$GNGLL,4910.423848,N,12304.401144,W,233334.000,A,D*5B
$GNGSA,A,3,19,24,17,06,12,14,11,03,15,,,,0.78,0.45,0.63,1*05
$GNGSA,A,3,75,85,76,66,67,,,,,,,,0.78,0.45,0.63,2*06
$GNGSA,A,3,02,30,36,11,07,25,34,08,29,10,,,0.78,0.45,0.63,3*09
$GNGSA,A,3,24,35,26,44,12,25,29,,,,,,0.78,0.45,0.63,4*04
$GPGSV,4,1,13,19,81,093,32,24,56,274,29,17,49,059,29,06,38,147,25,1*62
$GPGSV,4,2,13,46,33,188,28,12,28,285,26,14,24,099,27,11,11,175,23,1*6F
$GPGSV,4,3,13,03,06,059,16,15,05,234,19,32,03,342,18,13,03,202,,1*6C
$GPGSV,4,4,13,02,02,028,,1*5C
$GLGSV,2,1,07,75,77,358,33,85,58,166,30,84,52,049,21,74,39,114,,1*7A
$GLGSV,2,2,07,76,20,309,27,66,16,305,26,67,10,356,21,1*45
$GAGSV,3,1,10,02,74,073,29,30,47,287,25,36,45,111,25,11,30,049,17,7*7E
$GAGSV,3,2,10,07,27,278,21,25,22,096,22,34,19,166,19,08,15,225,18,7*71
$GAGSV,3,3,10,29,11,330,19,10,11,029,18,7*72
$GBGSV,3,1,12,24,67,291,28,35,63,082,28,26,56,139,23,44,53,189,25,1*7F
$GBGSV,3,2,12,12,29,200,17,25,14,305,19,29,11,044,21,34,04,213,13,1*7D
$GBGSV,3,3,12,41,04,311,16,45,03,128,15,32,02,000,,39,01,328,13,1*7E
$GNRMC,233334.000,A,4910.423848,N,12304.401144,W,0.14,111.45,070125,,,D,V*12
$GNVTG,111.45,T,,M,0.14,N,0.26,K,D*27
$PAIRLOG,Full*51
$GNGGA,233335.000,4910.423866,N,12304.401258,W,2,31,0.45,-8.301,M,-16.816,M,,*6A
$GNGLL,4910.423866,N,12304.401258,W,233335.000,A,D*58
$GNGSA,A,3,19,24,17,06,12,14,11,03,15,,,,0.78,0.45,0.63,1*05
$GNGSA,A,3,75,85,76,66,67,,,,,,,,0.78,0.45,0.63,2*06
$GNGSA,A,3,02,30,36,11,07,25,34,08,10,29,,,0.78,0.45,0.63,3*09
$GNGSA,A,3,24,35,26,44,12,25,29,,,,,,0.78,0.45,0.63,4*04
$GPGSV,4,1,13,19,81,093,31,24,56,274,29,17,49,059,28,06,38,147,25,1*60
$GPGSV,4,2,13,46,33,188,28,12,28,285,25,14,24,099,27,11,11,175,23,1*6C
$GPGSV,4,3,13,03,06,059,16,15,05,234,19,13,03,202,,32,03,342,18,1*6C
$GPGSV,4,4,13,02,02,028,,1*5C
$GLGSV,2,1,06,75,77,358,33,85,58,166,30,84,52,049,21,76,20,309,27,1*7A
$GLGSV,2,2,06,66,16,305,26,67,10,356,21,1*78
$GAGSV,3,1,10,02,74,073,28,30,47,287,25,36,45,111,24,11,30,049,17,7*7E
$GAGSV,3,2,10,07,27,278,20,25,22,096,21,34,19,166,19,08,15,225,18,7*73
$GAGSV,3,3,10,10,11,029,18,29,11,330,19,7*72
$GBGSV,3,1,12,24,67,291,27,35,63,082,28,26,56,139,22,44,53,189,23,1*77
$GBGSV,3,2,12,12,29,200,16,25,14,305,18,29,11,044,21,34,04,213,12,1*7C
$GBGSV,3,3,12,41,04,311,14,45,03,128,15,32,02,000,,39,01,328,13,1*7C
$GNRMC,233335.000,A,4910.423866,N,12304.401258,W,0.13,111.45,070125,,,D,V*16
$GNVTG,111.45,T,,M,0.13,N,0.24,K,D*22
$PAIRLOG,Full*51
$GNGGA,233336.000,4910.423884,N,12304.401264,W,2,31,0.45,-8.303,M,-16.817,M,,*69
$GNGLL,4910.423884,N,12304.401264,W,233336.000,A,D*58
$GNGSA,A,3,19,24,17,06,12,14,11,03,15,,,,0.78,0.45,0.63,1*05
$GNGSA,A,3,75,85,76,66,67,,,,,,,,0.78,0.45,0.63,2*06
$GNGSA,A,3,02,30,36,11,07,25,34,08,29,10,,,0.78,0.45,0.63,3*09
$GNGSA,A,3,24,35,26,44,12,25,29,,,,,,0.78,0.45,0.63,4*04
$GPGSV,4,1,13,19,81,093,31,24,56,274,29,17,49,059,28,06,38,147,25,1*60
$GPGSV,4,2,13,46,33,188,28,12,28,285,24,14,24,099,26,11,12,175,22,1*6E
$GPGSV,4,3,13,03,06,059,16,15,05,234,19,32,03,342,18,13,03,202,,1*6C
$GPGSV,4,4,13,02,02,028,,1*5C
$GLGSV,2,1,07,75,77,358,33,85,58,166,31,84,52,049,21,74,39,114,,1*7B
$GLGSV,2,2,07,76,20,309,27,66,16,305,26,67,10,356,21,1*45
$GAGSV,3,1,10,02,74,073,28,30,47,287,25,36,45,111,24,11,30,049,17,7*7E
$GAGSV,3,2,10,07,27,278,20,25,22,096,20,34,19,166,19,08,15,225,18,7*72
$GAGSV,3,3,10,29,11,330,19,10,11,029,18,7*72
$GBGSV,3,1,12,24,67,291,26,35,63,082,28,26,56,139,21,44,53,189,24,1*72
$GBGSV,3,2,12,12,29,200,15,25,14,305,17,29,11,044,21,34,04,213,13,1*71
$GBGSV,3,3,12,41,04,311,15,45,03,128,14,32,02,000,,39,01,328,13,1*7C
$GNRMC,233336.000,A,4910.423884,N,12304.401264,W,0.12,111.45,070125,,,D,V*17
$GNVTG,111.45,T,,M,0.12,N,0.23,K,D*24
$PAIRLOG,Full*51
$GNGGA,233337.000,4910.423914,N,12304.401276,W,2,31,0.45,-8.280,M,-16.817,M,,*69
$GNGLL,4910.423914,N,12304.401276,W,233337.000,A,D*52
$GNGSA,A,3,19,24,17,06,12,14,11,03,15,,,,0.78,0.45,0.63,1*05
$GNGSA,A,3,75,85,76,66,67,,,,,,,,0.78,0.45,0.63,2*06
$GNGSA,A,3,02,30,36,11,07,25,34,08,29,10,,,0.78,0.45,0.63,3*09
$GNGSA,A,3,24,35,26,44,12,25,29,,,,,,0.78,0.45,0.63,4*04
$GPGSV,4,1,13,19,81,093,31,24,56,274,29,17,49,059,28,06,38,147,24,1*61
$GPGSV,4,2,13,46,33,188,28,12,29,285,24,14,24,099,26,11,12,175,22,1*6F
$GPGSV,4,3,13,03,06,059,15,15,05,234,19,32,03,342,17,13,03,202,,1*60
$GPGSV,4,4,13,02,02,028,,1*5C
$GLGSV,2,1,07,75,77,358,33,85,58,166,31,84,52,049,21,74,39,114,,1*7B
$GLGSV,2,2,07,76,20,309,27,66,16,305,26,67,10,356,21,1*45
$GAGSV,3,1,10,02,74,073,28,30,47,287,25,36,45,111,24,11,30,049,17,7*7E
$GAGSV,3,2,10,07,27,278,20,25,22,096,21,34,19,166,19,08,15,225,18,7*73
$GAGSV,3,3,10,29,11,330,19,10,11,029,18,7*72
$GBGSV,3,1,12,24,67,291,26,35,63,082,28,26,56,139,21,44,53,189,23,1*75
$GBGSV,3,2,12,12,29,200,16,25,14,305,18,29,11,044,21,34,04,213,13,1*7D
$GBGSV,3,3,12,41,04,311,12,45,03,128,14,32,02,000,,39,01,328,13,1*7B
$GNRMC,233337.000,A,4910.423914,N,12304.401276,W,0.11,111.45,070125,,,D,V*1E
$GNVTG,111.45,T,,M,0.11,N,0.21,K,D*25
$PAIRLOG,Full*51
$GNGGA,233338.000,4910.423956,N,12304.401312,W,2,31,0.45,-8.163,M,-16.816,M,,*6C
$GNGLL,4910.423956,N,12304.401312,W,233338.000,A,D*58
$GNGSA,A,3,19,24,17,06,12,14,11,03,15,,,,0.78,0.45,0.63,1*05
$GNGSA,A,3,75,85,76,66,67,,,,,,,,0.78,0.45,0.63,2*06
$GNGSA,A,3,02,30,36,11,07,25,34,08,29,10,,,0.78,0.45,0.63,3*09
$GNGSA,A,3,24,35,26,44,12,25,29,,,,,,0.78,0.45,0.63,4*04
$GPGSV,4,1,13,19,81,093,32,24,56,274,30,17,49,059,29,06,38,147,28,1*67
$GPGSV,4,2,13,46,33,188,28,12,29,285,25,14,24,099,27,11,12,175,25,1*68
$GPGSV,4,3,13,03,06,059,16,15,05,234,19,32,03,342,17,13,02,202,,1*62
$GPGSV,4,4,13,02,02,028,,1*5C
$GLGSV,2,1,07,75,77,358,32,85,58,166,31,84,52,049,20,74,39,114,,1*7B
$GLGSV,2,2,07,76,20,309,27,66,16,305,26,67,10,356,20,1*44
$GAGSV,3,1,10,02,74,073,29,30,47,287,26,36,45,111,25,11,30,049,17,7*7D
$GAGSV,3,2,10,07,27,278,21,25,22,096,21,34,19,166,20,08,15,225,19,7*79
$GAGSV,3,3,10,29,11,330,20,10,11,029,18,7*78
$GBGSV,3,1,12,24,67,291,28,35,63,082,29,26,56,139,23,44,53,189,27,1*7C
$GBGSV,3,2,12,12,29,200,19,25,14,305,18,29,11,044,22,34,04,213,13,1*71
$GBGSV,3,3,12,41,04,311,16,45,03,128,15,32,02,000,,39,01,328,13,1*7E
$GNRMC,233338.000,A,4910.423956,N,12304.401312,W,0.10,111.45,070125,,,D,V*15
$GNVTG,111.45,T,,M,0.10,N,0.19,K,D*2F
$PAIRLOG,Full*51
$GNGGA,233339.000,4910.423998,N,12304.401348,W,2,31,0.45,-8.095,M,-16.816,M,,*68
$GNGLL,4910.423998,N,12304.401348,W,233339.000,A,D*54
$GNGSA,A,3,19,24,17,06,12,14,11,03,15,,,,0.78,0.45,0.63,1*05
$GNGSA,A,3,75,85,76,66,67,,,,,,,,0.78,0.45,0.63,2*06
$GNGSA,A,3,02,30,36,11,07,25,34,08,29,10,,,0.78,0.45,0.63,3*09
$GNGSA,A,3,24,35,26,44,12,25,29,,,,,,0.78,0.45,0.63,4*04
$GPGSV,4,1,13,19,81,093,33,24,56,274,30,17,49,059,29,06,38,147,27,1*69
$GPGSV,4,2,13,46,33,188,28,12,29,285,26,14,23,100,27,11,12,175,24,1*6C
$GPGSV,4,3,13,03,06,059,14,15,05,234,19,32,03,342,17,13,02,202,,1*60
$GPGSV,4,4,13,02,02,028,,1*5C
$GLGSV,2,1,07,75,77,358,32,85,58,166,31,84,52,049,20,74,39,114,,1*7B
$GLGSV,2,2,07,76,20,309,27,66,16,305,26,67,10,356,19,1*4E
$GAGSV,3,1,10,02,74,073,29,30,47,287,27,36,45,111,26,11,30,049,18,7*70
$GAGSV,3,2,10,07,27,278,22,25,22,096,22,34,19,166,20,08,15,225,19,7*79
$GAGSV,3,3,10,29,11,330,20,10,11,029,18,7*78
$GBGSV,3,1,12,24,67,291,29,35,63,082,29,26,56,139,24,44,53,189,27,1*7A
$GBGSV,3,2,12,12,29,200,20,25,14,305,18,29,11,044,23,34,04,213,14,1*7D
$GBGSV,3,3,12,41,04,311,17,45,03,128,16,32,02,000,,39,01,328,14,1*7B
$GNRMC,233339.000,A,4910.423998,N,12304.401348,W,0.09,111.45,070125,,,D,V*11
$GNVTG,111.45,T,,M,0.09,N,0.17,K,D*29
$PAIRLOG,Full*51
$GNGGA,233340.000,4910.424022,N,12304.401372,W,2,31,0.45,-8.084,M,-16.816,M,,*60
$GNGLL,4910.424022,N,12304.401372,W,233340.000,A,D*5C
$GNGSA,A,3,19,24,17,06,12,14,11,03,15,,,,0.78,0.45,0.63,1*05
$GNGSA,A,3,75,85,76,66,67,,,,,,,,0.78,0.45,0.63,2*06
$GNGSA,A,3,02,30,36,11,07,25,34,08,29,10,,,0.78,0.45,0.63,3*09
$GNGSA,A,3,24,35,26,44,12,25,29,,,,,,0.78,0.45,0.63,4*04
$GPGSV,4,1,13,19,81,093,32,24,56,274,30,17,49,059,29,06,38,147,25,1*6A
$GPGSV,4,2,13,46,33,188,28,12,29,285,25,14,23,100,27,11,12,175,24,1*6F
$GPGSV,4,3,13,03,06,059,15,15,04,233,19,32,03,342,17,13,02,202,,1*67
$GPGSV,4,4,13,02,02,028,,1*5C
$GLGSV,2,1,07,75,77,358,32,85,58,166,31,84,52,049,20,74,39,114,,1*7B
$GLGSV,2,2,07,76,20,309,27,66,16,305,26,67,10,356,19,1*4E
$GAGSV,3,1,10,02,74,073,29,30,47,287,27,36,45,111,25,11,30,049,18,7*73
$GAGSV,3,2,10,07,27,278,21,25,22,096,22,34,19,166,20,08,15,225,19,7*7A
$GAGSV,3,3,10,29,11,330,20,10,11,029,18,7*78
$GBGSV,3,1,12,24,67,291,30,35,63,082,29,26,56,139,25,44,53,189,28,1*7C
$GBGSV,3,2,12,12,29,200,20,25,14,305,18,29,11,044,24,34,04,213,15,1*7B
$GBGSV,3,3,12,41,04,311,17,45,03,128,17,32,02,000,,39,01,328,15,1*7B
$GNRMC,233340.000,A,4910.424022,N,12304.401372,W,0.08,111.45,070125,,,D,V*18
$GNVTG,111.45,T,,M,0.08,N,0.15,K,D*2A
$PAIRLOG,Full*51
$GNGGA,233341.000,4910.424070,N,12304.401360,W,2,30,0.47,-8.037,M,-16.816,M,,*6E
$GNGLL,4910.424070,N,12304.401360,W,233341.000,A,D*59
$GNGSA,A,3,19,24,17,06,12,14,11,03,,,,,0.81,0.47,0.66,1*00
$GNGSA,A,3,75,85,76,66,67,,,,,,,,0.81,0.47,0.66,2*07
$GNGSA,A,3,02,30,36,11,07,25,34,08,10,29,,,0.81,0.47,0.66,3*08
$GNGSA,A,3,24,35,26,44,12,25,29,,,,,,0.81,0.47,0.66,4*05
$GPGSV,4,1,13,19,81,093,32,24,56,274,30,17,49,059,29,06,38,147,25,1*6A
$GPGSV,4,2,13,46,33,188,28,12,29,285,25,14,23,100,27,11,12,175,23,1*68
$GPGSV,4,3,13,03,06,059,15,15,04,233,19,32,03,342,18,13,02,202,,1*68
$GPGSV,4,4,13,02,02,028,,1*5C
$GLGSV,2,1,06,75,77,358,32,85,58,166,31,84,52,049,20,76,20,309,27,1*7B
$GLGSV,2,2,06,66,16,305,25,67,10,356,19,1*70
$GAGSV,3,1,10,02,74,073,29,30,47,287,27,36,45,111,25,11,30,049,18,7*73
$GAGSV,3,2,10,07,27,278,22,25,22,096,21,34,19,166,20,08,15,225,19,7*7A
$GAGSV,3,3,10,10,11,029,18,29,11,330,20,7*78
$GBGSV,3,1,12,24,67,291,30,35,63,082,29,26,56,139,25,44,53,189,26,1*72
$GBGSV,3,2,12,12,29,200,21,25,14,305,18,29,11,044,22,34,04,213,15,1*7C
$GBGSV,3,3,12,41,04,311,16,45,03,128,17,32,02,000,,39,01,328,15,1*7A
$GNRMC,233341.000,A,4910.424070,N,12304.401360,W,0.07,111.45,070125,,,D,V*12
$GNVTG,111.45,T,,M,0.07,N,0.13,K,D*23
$PAIRLOG,Full*51
$GNGGA,233342.000,4910.424094,N,12304.401324,W,2,30,0.47,-7.973,M,-16.817,M,,*60
$GNGLL,4910.424094,N,12304.401324,W,233342.000,A,D*50
$GNGSA,A,3,19,24,17,06,12,14,11,03,,,,,0.81,0.47,0.66,1*00
$GNGSA,A,3,75,85,76,66,67,,,,,,,,0.81,0.47,0.66,2*07
$GNGSA,A,3,02,30,36,11,07,25,34,08,29,10,,,0.81,0.47,0.66,3*08
$GNGSA,A,3,24,35,26,44,12,25,29,,,,,,0.81,0.47,0.66,4*05
$GPGSV,4,1,13,19,81,093,31,24,56,274,29,17,48,059,28,06,38,147,23,1*67
$GPGSV,4,2,13,46,33,188,27,12,29,285,24,14,23,100,27,11,12,175,21,1*64
$GPGSV,4,3,13,03,06,059,15,15,04,233,18,32,03,342,18,13,02,202,,1*69
$GPGSV,4,4,13,02,02,028,,1*5C
$GLGSV,2,1,07,75,77,358,32,85,58,166,31,84,52,049,20,74,39,114,,1*7B
$GLGSV,2,2,07,76,20,309,27,66,16,305,25,67,10,356,19,1*4D
$GAGSV,3,1,10,02,74,073,29,30,47,287,27,36,45,111,24,11,30,049,18,7*72
$GAGSV,3,2,10,07,27,278,22,25,22,096,20,34,19,166,19,08,15,225,19,7*71
$GAGSV,3,3,10,29,11,330,20,10,11,029,18,7*78
$GBGSV,3,1,12,24,67,291,30,35,63,082,29,26,56,139,25,44,53,189,25,1*71
$GBGSV,3,2,12,12,29,200,20,25,14,305,18,29,11,044,22,34,04,213,15,1*7D
$GBGSV,3,3,12,41,04,311,16,45,03,128,16,32,02,000,,39,01,328,15,1*7B
$GNRMC,233342.000,A,4910.424094,N,12304.401324,W,0.06,111.45,070125,,,D,V*1A
$GNVTG,111.45,T,,M,0.06,N,0.12,K,D*23
$PAIRLOG,Full*51
$GNGGA,233343.000,4910.424118,N,12304.401300,W,2,30,0.47,-7.859,M,-16.816,M,,*6A
$GNGLL,4910.424118,N,12304.401300,W,233343.000,A,D*52
$GNGSA,A,3,19,24,17,06,12,14,11,03,,,,,0.81,0.47,0.66,1*00
$GNGSA,A,3,75,85,76,66,67,,,,,,,,0.81,0.47,0.66,2*07
$GNGSA,A,3,02,30,36,11,07,25,34,08,29,10,,,0.81,0.47,0.66,3*08
$GNGSA,A,3,24,35,26,44,12,25,29,,,,,,0.81,0.47,0.66,4*05
$GPGSV,4,1,13,19,81,093,31,24,56,274,29,17,48,059,28,06,38,147,24,1*60
$GPGSV,4,2,13,46,33,188,27,12,29,285,24,14,23,100,27,11,12,175,22,1*67
$GPGSV,4,3,13,03,06,059,15,15,04,233,18,32,03,342,18,13,02,202,,1*69
$GPGSV,4,4,13,02,02,028,,1*5C
$GLGSV,2,1,07,75,77,358,32,85,58,166,31,84,52,049,20,74,39,114,,1*7B
$GLGSV,2,2,07,76,20,309,27,66,16,305,25,67,10,356,19,1*4D
$GAGSV,3,1,10,02,74,073,29,30,47,287,27,36,45,111,24,11,30,049,18,7*72
$GAGSV,3,2,10,07,27,278,22,25,22,096,20,34,19,166,19,08,15,225,19,7*71
$GAGSV,3,3,10,29,11,330,20,10,11,029,18,7*78
$GBGSV,3,1,12,24,67,291,30,35,63,082,29,26,56,139,25,44,53,189,26,1*72
$GBGSV,3,2,12,12,29,200,20,25,14,305,18,29,11,044,23,34,04,213,15,1*7C
$GBGSV,3,3,12,41,04,311,16,45,03,128,16,32,02,000,,39,01,328,15,1*7B
$GNRMC,233343.000,A,4910.424118,N,12304.401300,W,0.06,111.45,070125,,,D,V*18
$GNVTG,111.45,T,,M,0.06,N,0.10,K,D*21
$PAIRLOG,Full*51
$GNGGA,233344.000,4910.424130,N,12304.401246,W,2,30,0.47,-7.817,M,-16.816,M,,*6E
$GNGLL,4910.424130,N,12304.401246,W,233344.000,A,D*5C
$GNGSA,A,3,19,24,17,06,12,14,11,03,,,,,0.81,0.47,0.66,1*00
$GNGSA,A,3,75,85,76,66,67,,,,,,,,0.81,0.47,0.66,2*07
$GNGSA,A,3,02,30,36,11,07,25,34,08,29,10,,,0.81,0.47,0.66,3*08
$GNGSA,A,3,24,35,26,44,12,25,29,,,,,,0.81,0.47,0.66,4*05
$GPGSV,4,1,13,19,80,087,31,24,56,274,29,17,48,059,28,06,38,147,24,1*64
$GPGSV,4,2,13,46,33,188,27,12,29,285,24,14,23,100,27,11,12,175,22,1*67
$GPGSV,4,3,13,03,06,059,14,15,04,233,17,32,03,342,18,13,02,202,,1*67
$GPGSV,4,4,13,02,02,028,,1*5C
$GLGSV,2,1,07,75,77,358,33,85,58,166,31,84,52,049,20,74,39,114,,1*7A
$GLGSV,2,2,07,76,20,309,27,66,16,305,25,67,10,356,19,1*4D
$GAGSV,3,1,10,02,74,073,29,30,47,287,27,36,45,111,24,11,30,049,18,7*72
$GAGSV,3,2,10,07,27,278,22,25,22,096,20,34,19,166,19,08,15,225,19,7*71
$GAGSV,3,3,10,29,11,330,20,10,11,029,18,7*78
$GBGSV,3,1,12,24,67,291,30,35,63,082,29,26,56,139,26,44,53,189,27,1*70
$GBGSV,3,2,12,12,29,200,20,25,14,305,18,29,11,044,23,34,04,213,15,1*7C
$GBGSV,3,3,12,41,04,311,16,45,03,128,16,32,02,000,,39,01,328,15,1*7B
$GNRMC,233344.000,A,4910.424130,N,12304.401246,W,0.05,111.45,070125,,,D,V*15
$GNVTG,111.45,T,,M,0.05,N,0.10,K,D*22
$PAIRLOG,Full*51
$GNGGA,233345.000,4910.424172,N,12304.401150,W,2,30,0.47,-7.822,M,-16.816,M,,*6B
$GNGLL,4910.424172,N,12304.401150,W,233345.000,A,D*5F
$GNGSA,A,3,19,24,17,06,12,14,11,03,,,,,0.81,0.47,0.66,1*00
$GNGSA,A,3,75,85,76,66,67,,,,,,,,0.81,0.47,0.66,2*07
$GNGSA,A,3,02,30,36,11,07,25,34,08,29,10,,,0.81,0.47,0.66,3*08
$GNGSA,A,3,24,35,26,44,12,25,29,,,,,,0.81,0.47,0.66,4*05
$GPGSV,4,1,13,19,80,087,30,24,56,274,25,17,48,059,27,06,38,147,24,1*66
$GPGSV,4,2,13,46,33,188,27,12,29,285,23,14,23,100,26,11,12,175,21,1*62
$GPGSV,4,3,13,03,06,059,15,15,04,233,16,32,03,342,18,13,02,202,,1*67
$GPGSV,4,4,13,02,02,028,,1*5C
$GLGSV,2,1,07,75,77,358,32,85,58,166,31,84,52,049,20,74,39,114,,1*7B
$GLGSV,2,2,07,76,20,309,27,66,16,305,25,67,10,356,19,1*4D
$GAGSV,3,1,10,02,74,073,28,30,47,287,26,36,45,111,24,11,30,049,18,7*72
$GAGSV,3,2,10,07,27,278,21,25,22,096,20,34,19,166,19,08,15,225,18,7*73
$GAGSV,3,3,10,29,11,330,20,10,11,029,18,7*78
$GBGSV,3,1,12,24,67,291,29,35,63,082,28,26,56,139,25,44,53,189,25,1*78
$GBGSV,3,2,12,12,29,200,20,25,14,305,18,29,11,044,21,34,04,213,15,1*7E
$GBGSV,3,3,12,41,04,311,16,45,03,128,16,32,02,000,,39,01,328,15,1*7B
$GNRMC,233345.000,A,4910.424172,N,12304.401150,W,0.05,111.45,070125,,,D,V*16
$GNVTG,111.45,T,,M,0.05,N,0.09,K,D*2A
$PAIRLOG,Full*51
$GNGGA,233346.000,4910.424148,N,12304.401066,W,2,30,0.47,-7.870,M,-16.817,M,,*63
$GNGLL,4910.424148,N,12304.401066,W,233346.000,A,D*51
$GNGSA,A,3,19,24,17,06,12,14,11,03,,,,,0.81,0.47,0.66,1*00
$GNGSA,A,3,75,85,76,66,67,,,,,,,,0.81,0.47,0.66,2*07
$GNGSA,A,3,02,30,36,11,07,25,34,08,29,10,,,0.81,0.47,0.66,3*08
$GNGSA,A,3,24,35,26,44,12,25,29,,,,,,0.81,0.47,0.66,4*05
$GPGSV,4,1,13,19,80,087,29,24,56,274,23,17,48,059,26,06,38,147,21,1*6C
$GPGSV,4,2,13,46,33,188,26,12,29,285,22,14,23,100,24,11,12,175,21,1*60
$GPGSV,4,3,13,03,06,059,14,15,04,233,15,32,03,342,18,13,02,202,,1*65
$GPGSV,4,4,13,02,02,028,,1*5C
$GLGSV,2,1,07,75,77,358,33,85,58,166,31,84,52,049,20,74,39,114,,1*7A
$GLGSV,2,2,07,76,20,309,27,66,16,305,25,67,10,356,19,1*4D
$GAGSV,3,1,10,02,74,073,28,30,47,287,25,36,45,111,23,11,30,049,18,7*76
$GAGSV,3,2,10,07,27,278,20,25,22,096,19,34,19,166,19,08,15,225,17,7*77
$GAGSV,3,3,10,29,11,330,19,10,11,029,18,7*72
$GBGSV,3,1,12,24,67,291,29,35,63,082,28,26,56,139,24,44,53,189,24,1*78
$GBGSV,3,2,12,12,29,200,19,25,14,305,18,29,11,044,21,34,04,213,15,1*74
