$GNRMC,233317.000,A,4910.424868,N,12304.407378,W,0.13,0.00,070125,,,D,V*1A
$GNGGA,233317.000,4910.424868,N,12304.407378,W,2,42,0.54,19.273,M,-16.816,M,,*7B
$GNVTG,0.00,T,,M,0.13,N,0.25,K,D*23
$GNGSA,A,3,19,24,17,06,12,14,11,,,,,,0.91,0.54,0.73,1*04
$GNGSA,A,3,75,85,,,,,,,,,,,0.91,0.54,0.73,2*00
$GNGSA,A,3,02,30,36,11,07,25,34,08,29,10,,,0.91,0.54,0.73,3*0F
$GNGSA,A,3,24,35,26,44,12,29,,,,,,,0.91,0.54,0.73,4*05
$GPGSV,4,1,13,19,80,089,36,24,56,273,35,17,48,059,34,06,37,147,29,1*68
$GPGSV,4,2,13,44,33,171,29,12,29,285,33,14,23,100,30,11,12,175,25,1*6A
$GPGSV,4,3,13,03,05,059,20,15,04,233,22,32,03,342,22,13,03,202,12,1*6E
$GPGSV,4,4,13,02,02,029,13,1*5F
$GPGSV,1,1,04,24,56,273,32,06,37,147,27,14,23,100,24,11,12,175,19,8*65
$GLGSV,1,1,02,75,76,356,26,85,58,166,25,1*7B
$GAGSV,3,1,10,02,74,075,34,30,47,288,31,36,45,112,32,11,29,048,23,7*75
$GAGSV,3,2,10,07,26,278,26,25,22,096,26,34,18,166,23,08,15,225,24,7*74
$GAGSV,3,3,10,29,11,330,20,10,11,028,22,7*70
$GAGSV,2,1,08,02,74,075,29,30,47,288,27,36,45,112,26,11,29,048,16,1*73
$GAGSV,2,2,08,07,26,278,24,25,22,096,18,34,18,166,19,29,11,330,17,1*7E
$GBGSV,3,1,10,24,67,292,29,35,63,083,28,26,56,138,27,44,52,189,27,1*78
$GBGSV,3,2,10,12,28,200,19,25,13,305,19,29,11,044,19,41,04,312,15,1*78
$GBGSV,3,3,10,34,04,212,18,45,03,128,20,1*77
$GBGSV,2,1,08,24,67,292,29,35,63,083,29,26,56,138,29,44,52,189,29,5*75
$GBGSV,2,2,08,25,13,305,19,29,11,044,17,34,04,212,18,41,04,312,15,5*72
$GNGLL,4910.424868,N,12304.407378,W,233317.000,A,D*54
$GNRMC,233318.000,A,4910.424886,N,12304.407336,W,0.10,0.00,070125,,,D,V*1C
$GNGGA,233318.000,4910.424886,N,12304.407336,W,2,42,0.54,19.263,M,-16.816,M,,*7F
$GNVTG,0.00,T,,M,0.10,N,0.19,K,D*2F
$GNGSA,A,3,19,24,17,06,12,14,11,,,,,,0.91,0.54,0.73,1*04
$GNGSA,A,3,75,85,,,,,,,,,,,0.91,0.54,0.73,2*00
$GNGSA,A,3,02,30,36,11,07,25,34,08,29,10,,,0.91,0.54,0.73,3*0F
$GNGSA,A,3,24,35,26,44,12,29,,,,,,,0.91,0.54,0.73,4*05
$GPGSV,4,1,13,19,80,089,35,24,56,273,34,17,48,059,33,06,37,147,29,1*6D
$GPGSV,4,2,13,44,33,171,29,12,29,285,32,14,23,100,29,11,12,175,24,1*62
$GPGSV,4,3,13,03,05,059,19,15,04,233,22,32,03,342,21,13,03,202,11,1*64
$GPGSV,4,4,13,02,02,029,13,1*5F
$GPGSV,1,1,04,24,56,273,31,06,37,147,26,14,23,100,24,11,12,175,19,8*67
$GLGSV,1,1,02,75,76,356,26,85,58,166,25,1*7B
$GAGSV,3,1,10,02,74,075,33,30,47,288,30,36,45,112,31,11,29,048,22,7*71
$GAGSV,3,2,10,07,26,278,25,25,22,096,25,34,18,166,22,08,15,225,23,7*72
$GAGSV,3,3,10,29,11,330,19,10,11,028,21,7*79
$GAGSV,2,1,08,02,74,075,28,30,47,288,26,36,45,112,25,11,29,048,16,1*70
$GAGSV,2,2,08,07,26,278,23,25,22,096,18,34,18,166,19,29,11,330,17,1*79
$GBGSV,3,1,10,24,67,292,29,35,63,083,29,26,56,138,28,44,52,189,28,1*79
$GBGSV,3,2,10,12,28,200,19,25,13,305,19,29,11,044,19,41,04,312,15,1*78
$GBGSV,3,3,10,34,04,212,18,45,03,128,19,1*7D
$GBGSV,2,1,08,24,67,292,28,35,63,083,28,26,56,138,28,44,52,189,28,5*75
$GBGSV,2,2,08,25,13,305,19,29,11,044,16,34,04,212,18,41,04,312,15,5*73
$GNGLL,4910.424886,N,12304.407336,W,233318.000,A,D*51
$GNRMC,233319.000,A,4910.424922,N,12304.407360,W,0.09,0.00,070125,,,D,V*19
$GNGGA,233319.000,4910.424922,N,12304.407360,W,2,42,0.54,19.344,M,-16.816,M,,*76
$GNVTG,0.00,T,,M,0.09,N,0.17,K,D*29
$GNGSA,A,3,19,24,17,06,12,14,11,,,,,,0.91,0.54,0.73,1*04
$GNGSA,A,3,75,85,,,,,,,,,,,0.91,0.54,0.73,2*00
$GNGSA,A,3,02,30,36,11,07,25,34,08,29,10,,,0.91,0.54,0.73,3*0F
$GNGSA,A,3,24,35,26,44,12,29,,,,,,,0.91,0.54,0.73,4*05
$GPGSV,4,1,13,19,80,089,35,24,56,273,34,17,48,059,33,06,37,147,29,1*6D
$GPGSV,4,2,13,44,33,171,29,12,29,285,32,14,23,100,29,11,12,175,24,1*62
$GPGSV,4,3,13,03,05,059,19,15,04,233,24,32,03,342,21,13,03,202,13,1*60
$GPGSV,4,4,13,02,02,029,13,1*5F
$GPGSV,1,1,04,24,56,273,31,06,37,147,26,14,23,100,24,11,12,175,19,8*67
$GLGSV,1,1,02,75,76,356,25,85,58,166,25,1*78
$GAGSV,3,1,10,02,74,075,33,30,47,288,30,36,45,112,31,11,29,048,22,7*71
$GAGSV,3,2,10,07,26,278,25,25,22,096,25,34,18,166,23,08,15,225,23,7*73
$GAGSV,3,3,10,29,11,330,19,10,11,028,21,7*79
$GAGSV,2,1,08,02,74,075,28,30,47,288,26,36,45,112,26,11,29,048,16,1*73
$GAGSV,2,2,08,07,26,278,23,25,22,096,18,34,18,166,19,29,11,330,17,1*79
$GBGSV,3,1,10,24,67,292,30,35,63,083,30,26,56,138,28,44,52,189,29,1*78
$GBGSV,3,2,10,12,28,200,20,25,13,305,20,29,11,044,19,41,04,312,16,1*7B
$GBGSV,3,3,10,34,04,212,19,45,03,128,19,1*7C
$GBGSV,2,1,08,24,67,292,28,35,63,083,28,26,56,138,28,44,52,189,28,5*75
$GBGSV,2,2,08,25,13,305,19,29,11,044,16,34,04,212,18,41,04,312,15,5*73
$GNGLL,4910.424922,N,12304.407360,W,233319.000,A,D*5C
$GNRMC,233320.000,A,4910.424970,N,12304.407330,W,0.09,0.00,070125,,,D,V*11
$GNGGA,233320.000,4910.424970,N,12304.407330,W,2,42,0.54,19.353,M,-16.817,M,,*79
$GNVTG,0.00,T,,M,0.09,N,0.17,K,D*29
$GNGSA,A,3,19,24,17,06,12,14,11,,,,,,0.91,0.54,0.73,1*04
$GNGSA,A,3,75,85,,,,,,,,,,,0.91,0.54,0.73,2*00
$GNGSA,A,3,02,30,36,11,07,25,34,08,29,10,,,0.91,0.54,0.73,3*0F
$GNGSA,A,3,24,35,26,44,12,29,,,,,,,0.91,0.54,0.73,4*05
$GPGSV,4,1,13,19,80,089,34,24,56,273,33,17,48,059,32,06,37,147,28,1*6B
$GPGSV,4,2,13,44,33,171,28,12,29,285,31,14,23,100,28,11,12,175,23,1*66
$GPGSV,4,3,13,03,05,059,18,15,04,233,22,32,03,342,21,13,03,202,13,1*67
$GPGSV,4,4,13,02,02,029,14,1*58
$GPGSV,1,1,04,24,56,273,31,06,37,147,26,14,23,100,24,11,12,175,19,8*67
$GLGSV,1,1,02,75,76,356,25,85,58,166,25,1*78
$GAGSV,3,1,10,02,74,075,32,30,47,288,29,36,45,112,30,11,29,048,21,7*7A
$GAGSV,3,2,10,07,26,278,25,25,22,096,25,34,20,166,23,08,15,225,23,7*78
$GAGSV,3,3,10,29,11,330,18,10,11,028,21,7*78
$GAGSV,2,1,08,02,74,075,28,30,47,288,26,36,45,112,26,11,29,048,16,1*73
$GAGSV,2,2,08,07,26,278,23,25,22,096,18,34,20,166,19,29,11,330,17,1*72
$GBGSV,3,1,10,24,67,292,29,35,63,083,29,26,56,138,27,44,52,189,28,1*76
$GBGSV,3,2,10,12,28,200,20,25,13,305,20,29,11,044,19,41,04,312,16,1*7B
$GBGSV,3,3,10,34,04,212,18,45,03,128,19,1*7D
$GBGSV,2,1,08,24,67,292,28,35,63,083,28,26,56,138,28,44,52,189,28,5*75
$GBGSV,2,2,08,25,13,305,20,29,11,044,16,34,04,212,18,41,04,312,15,5*79
$GNGLL,4910.424970,N,12304.407330,W,233320.000,A,D*54
$GNRMC,233321.000,A,4910.424982,N,12304.407282,W,0.09,0.00,070125,,,D,V*15
$GNGGA,233321.000,4910.424982,N,12304.407282,W,2,42,0.54,19.233,M,-16.816,M,,*7B
$GNVTG,0.00,T,,M,0.09,N,0.17,K,D*29
$GNGSA,A,3,19,24,17,06,12,14,11,,,,,,0.91,0.54,0.73,1*04
$GNGSA,A,3,75,85,,,,,,,,,,,0.91,0.54,0.73,2*00
$GNGSA,A,3,02,30,36,11,07,25,34,08,29,10,,,0.91,0.54,0.73,3*0F
$GNGSA,A,3,24,35,26,44,12,29,,,,,,,0.91,0.54,0.73,4*05
$GPGSV,4,1,13,19,80,089,34,24,56,273,33,17,48,059,33,06,37,147,28,1*6A
$GPGSV,4,2,13,44,33,171,28,12,29,285,31,14,23,100,28,11,12,175,24,1*61
$GPGSV,4,3,13,03,05,059,18,15,04,233,22,32,03,342,21,13,03,202,12,1*66
$GPGSV,4,4,13,02,02,029,14,1*58
$GPGSV,1,1,04,24,56,273,31,06,37,147,26,14,23,100,23,11,12,175,19,8*60
$GLGSV,1,1,02,75,76,356,25,85,58,166,25,1*78
$GAGSV,3,1,10,02,74,075,33,30,47,288,29,36,45,112,31,11,29,048,21,7*7A
$GAGSV,3,2,10,07,26,278,26,25,22,096,26,34,20,166,23,08,15,225,23,7*78
$GAGSV,3,3,10,29,11,330,18,10,11,028,21,7*78
$GAGSV,2,1,08,02,74,075,28,30,47,288,26,36,45,112,25,11,29,048,16,1*70
$GAGSV,2,2,08,07,26,278,23,25,22,096,18,34,20,166,18,29,11,330,17,1*73
$GBGSV,3,1,10,24,67,292,29,35,63,083,29,26,56,138,27,44,52,189,28,1*76
$GBGSV,3,2,10,12,28,200,21,25,13,305,20,29,11,044,19,41,04,312,16,1*7A
$GBGSV,3,3,10,34,04,212,18,45,03,128,18,1*7C
$GBGSV,2,1,08,24,67,292,28,35,63,083,28,26,56,138,28,44,52,189,28,5*75
$GBGSV,2,2,08,25,13,305,20,29,11,044,16,34,04,212,17,41,04,312,15,5*76
$GNGLL,4910.424982,N,12304.407282,W,233321.000,A,D*50
$GNRMC,233322.000,A,4910.424988,N,12304.407258,W,0.10,0.00,070125,,,D,V*13
$GNGGA,233322.000,4910.424988,N,12304.407258,W,2,42,0.54,19.074,M,-16.816,M,,*74
$GNVTG,0.00,T,,M,0.10,N,0.18,K,D*2E
$GNGSA,A,3,19,24,17,06,12,14,11,,,,,,0.91,0.54,0.73,1*04
$GNGSA,A,3,75,85,,,,,,,,,,,0.91,0.54,0.73,2*00
$GNGSA,A,3,02,30,36,11,07,25,34,08,29,10,,,0.91,0.54,0.73,3*0F
$GNGSA,A,3,24,35,26,44,12,29,,,,,,,0.91,0.54,0.73,4*05
$GPGSV,4,1,13,19,80,089,34,24,56,273,33,17,48,059,33,06,37,147,28,1*6A
$GPGSV,4,2,13,44,33,171,28,12,29,285,31,14,23,100,28,11,12,175,24,1*61
$GPGSV,4,3,13,03,05,059,18,15,04,233,24,32,03,342,21,13,03,202,,1*63
$GPGSV,4,4,13,02,02,029,12,1*5E
$GPGSV,1,1,04,24,56,273,31,06,37,147,26,14,23,100,23,11,12,175,19,8*60
$GLGSV,1,1,02,75,76,356,25,85,58,166,26,1*7B
$GAGSV,3,1,10,02,74,075,33,30,47,288,29,36,46,111,31,11,29,048,21,7*7A
$GAGSV,3,2,10,07,26,278,26,25,22,096,26,34,20,166,23,08,15,225,23,7*78
$GAGSV,3,3,10,29,11,330,18,10,11,028,22,7*7B
$GAGSV,2,1,08,02,74,075,28,30,47,288,26,36,46,111,25,11,29,048,16,1*70
$GAGSV,2,2,08,07,26,278,23,25,22,096,18,34,20,166,18,29,11,330,17,1*73
$GBGSV,3,1,10,24,67,292,29,35,63,083,29,26,56,138,27,44,52,189,28,1*76
$GBGSV,3,2,10,12,28,200,21,25,13,305,19,29,11,044,19,41,04,312,16,1*70
$GBGSV,3,3,10,34,04,212,17,45,03,128,18,1*73
$GBGSV,2,1,08,24,67,292,28,35,63,083,28,26,56,138,28,44,52,189,28,5*75
$GBGSV,2,2,08,25,13,305,19,29,11,044,16,34,04,212,17,41,04,312,15,5*7C
$GNGLL,4910.424988,N,12304.407258,W,233322.000,A,D*5E
$GNRMC,233323.000,A,4910.424958,N,12304.407216,W,0.09,0.00,070125,,,D,V*1D
$GNGGA,233323.000,4910.424958,N,12304.407216,W,2,42,0.54,18.964,M,-16.816,M,,*7B
$GNVTG,0.00,T,,M,0.09,N,0.17,K,D*29
$GNGSA,A,3,19,24,17,06,12,14,11,,,,,,0.91,0.54,0.73,1*04
$GNGSA,A,3,75,85,,,,,,,,,,,0.91,0.54,0.73,2*00
$GNGSA,A,3,02,30,36,11,07,25,34,08,10,29,,,0.91,0.54,0.73,3*0F
$GNGSA,A,3,24,35,26,44,12,29,,,,,,,0.91,0.54,0.73,4*05
$GPGSV,4,1,13,19,80,089,35,24,56,273,33,17,48,059,33,06,37,147,28,1*6B
$GPGSV,4,2,13,44,33,171,28,12,29,285,31,14,23,100,28,11,12,175,24,1*61
$GPGSV,4,3,13,03,05,059,18,15,04,233,23,32,03,342,21,13,03,202,,1*64
$GPGSV,4,4,13,02,02,029,14,1*58
$GPGSV,1,1,04,24,56,273,31,06,37,147,26,14,23,100,23,11,12,175,19,8*60
$GLGSV,1,1,03,75,76,356,25,85,58,166,27,86,07,194,,1*4E
$GAGSV,3,1,10,02,74,075,33,30,47,288,29,36,46,111,31,11,29,048,22,7*79
$GAGSV,3,2,10,07,26,278,26,25,22,096,26,34,20,166,23,08,15,225,23,7*78
$GAGSV,3,3,10,10,11,028,21,29,11,330,19,7*79
$GAGSV,2,1,08,02,74,075,28,30,47,288,26,36,46,111,25,11,29,048,16,1*70
$GAGSV,2,2,08,07,26,278,23,25,22,096,18,34,20,166,18,29,11,330,17,1*73
$GBGSV,3,1,11,24,67,292,29,35,63,083,29,26,56,138,27,44,52,189,28,1*77
$GBGSV,3,2,11,12,28,200,21,25,13,305,19,29,11,044,19,34,04,212,17,1*73
$GBGSV,3,3,11,41,04,312,16,45,03,128,18,32,01,001,,1*41
$GBGSV,2,1,08,24,67,292,28,35,63,083,28,26,56,138,28,44,52,189,28,5*75
$GBGSV,2,2,08,25,13,305,19,29,11,044,16,34,04,212,17,41,04,312,15,5*7C
$GNGLL,4910.424958,N,12304.407216,W,233323.000,A,D*58
$GNRMC,233324.000,A,4910.424922,N,12304.407234,W,0.09,0.00,070125,,,D,V*17
$GNGGA,233324.000,4910.424922,N,12304.407234,W,2,42,0.54,19.088,M,-16.816,M,,*7B
$GNVTG,0.00,T,,M,0.09,N,0.16,K,D*28
$GNGSA,A,3,19,24,17,06,12,14,11,,,,,,0.91,0.54,0.73,1*04
$GNGSA,A,3,75,85,,,,,,,,,,,0.91,0.54,0.73,2*00
$GNGSA,A,3,02,30,36,11,07,25,34,08,29,10,,,0.91,0.54,0.73,3*0F
$GNGSA,A,3,24,35,26,44,12,29,,,,,,,0.91,0.54,0.73,4*05
$GPGSV,4,1,13,19,80,089,35,24,56,273,34,17,48,059,34,06,37,147,29,1*6A
$GPGSV,4,2,13,44,33,171,29,12,29,285,32,14,23,100,28,11,12,175,24,1*63
$GPGSV,4,3,13,03,05,059,18,15,04,233,23,32,03,342,22,13,03,202,,1*67
$GPGSV,4,4,13,02,02,029,13,1*5F
$GPGSV,1,1,04,24,56,273,32,06,37,147,26,14,23,100,23,11,12,175,19,8*63
$GLGSV,1,1,02,75,76,356,25,85,58,166,27,1*7A
$GAGSV,3,1,10,02,74,075,33,30,47,288,29,36,46,111,31,11,29,048,22,7*79
$GAGSV,3,2,10,07,26,278,27,25,22,096,27,34,20,166,24,08,15,225,23,7*7F
$GAGSV,3,3,10,29,11,330,19,10,11,028,21,7*79
$GAGSV,2,1,08,02,74,075,28,30,47,288,26,36,46,111,26,11,29,048,16,1*73
$GAGSV,2,2,08,07,26,278,23,25,22,096,18,34,20,166,18,29,11,330,17,1*73
$GBGSV,3,1,12,24,67,292,29,35,63,083,29,26,56,138,27,44,52,189,28,1*74
$GBGSV,3,2,12,12,28,200,20,25,13,305,19,29,11,044,19,41,04,312,16,1*73
$GBGSV,3,3,12,34,04,212,17,45,03,128,17,39,01,328,,32,01,001,,1*7D
$GBGSV,2,1,08,24,67,292,29,35,63,083,28,26,56,138,28,44,52,189,28,5*74
$GBGSV,2,2,08,25,13,305,19,29,11,044,16,34,04,212,17,41,04,312,15,5*7C
$GNGLL,4910.424922,N,12304.407234,W,233324.000,A,D*52
$GNRMC,233325.000,A,4910.424940,N,12304.407192,W,0.08,0.00,070125,,,D,V*1C
$GNGGA,233325.000,4910.424940,N,12304.407192,W,2,41,0.54,19.114,M,-16.816,M,,*76
$GNVTG,0.00,T,,M,0.08,N,0.15,K,D*2A
$GNGSA,A,3,19,24,17,06,12,14,11,,,,,,0.91,0.54,0.73,1*04
$GNGSA,A,3,75,85,,,,,,,,,,,0.91,0.54,0.73,2*00
$GNGSA,A,3,02,30,36,11,07,25,34,08,10,29,,,0.91,0.54,0.73,3*0F
$GNGSA,A,3,24,35,26,44,12,29,,,,,,,0.91,0.54,0.73,4*05
$GPGSV,4,1,13,19,80,089,35,24,56,273,33,17,48,059,33,06,37,147,29,1*6A
$GPGSV,4,2,13,44,33,171,28,12,29,285,32,14,23,100,28,11,12,175,24,1*62
$GPGSV,4,3,13,03,05,059,18,15,04,233,22,32,03,342,22,13,03,202,,1*66
$GPGSV,4,4,13,02,02,029,13,1*5F
$GPGSV,1,1,04,24,56,273,31,06,37,147,26,14,23,100,23,11,12,175,19,8*60
$GLGSV,1,1,03,75,76,356,25,85,58,166,26,86,07,194,,1*4F
$GAGSV,3,1,10,02,74,075,33,30,47,288,29,36,46,111,31,11,29,048,22,7*79
$GAGSV,3,2,10,07,26,278,26,25,22,096,27,34,20,166,24,08,15,225,23,7*7E
$GAGSV,3,3,10,10,11,028,21,29,11,330,19,7*79
$GAGSV,2,1,08,02,74,075,27,30,47,288,25,36,46,111,26,11,29,048,16,1*7F
$GAGSV,2,2,08,07,26,278,22,25,22,096,18,34,20,166,18,29,11,330,17,1*72
$GBGSV,3,1,12,24,67,292,29,35,63,083,28,26,56,138,27,44,52,189,27,1*7A
$GBGSV,3,2,12,12,28,200,19,25,13,305,19,29,11,044,,41,04,312,16,1*71
$GBGSV,3,3,12,34,04,212,17,45,03,128,,39,01,328,,32,01,001,,1*7B
$GBGSV,2,1,08,24,67,292,29,35,63,083,28,26,56,138,28,44,52,189,28,5*74
$GBGSV,2,2,08,25,13,305,19,29,11,044,15,34,04,212,17,41,04,312,15,5*7F
$GNGLL,4910.424940,N,12304.407192,W,233325.000,A,D*58
$GNRMC,233326.000,A,4910.424862,N,12304.407150,W,0.07,0.00,070125,,,D,V*1F
$GNGGA,233326.000,4910.424862,N,12304.407150,W,2,41,0.54,19.194,M,-16.817,M,,*73
$GNVTG,0.00,T,,M,0.07,N,0.13,K,D*23
$GNGSA,A,3,19,24,17,06,12,14,11,,,,,,0.91,0.54,0.73,1*04
$GNGSA,A,3,75,85,,,,,,,,,,,0.91,0.54,0.73,2*00
$GNGSA,A,3,02,30,36,11,07,25,34,08,29,10,,,0.91,0.54,0.73,3*0F
$GNGSA,A,3,24,35,26,44,12,29,,,,,,,0.91,0.54,0.73,4*05
$GPGSV,4,1,13,19,80,089,36,24,56,273,34,17,48,059,34,06,37,147,30,1*61
$GPGSV,4,2,13,44,33,171,28,12,29,285,33,14,23,100,28,11,12,175,25,1*62
$GPGSV,4,3,13,03,05,059,18,15,04,233,23,32,03,342,22,13,03,202,,1*67
$GPGSV,4,4,13,02,02,029,14,1*58
$GPGSV,1,1,04,24,56,273,31,06,37,147,26,14,23,100,23,11,12,175,19,8*60
$GLGSV,1,1,02,75,76,356,25,85,58,166,26,1*7B
$GAGSV,3,1,10,02,74,075,34,30,47,288,29,36,46,111,32,11,29,048,22,7*7D
$GAGSV,3,2,10,07,26,278,26,25,22,096,27,34,20,166,24,08,15,225,24,7*79
$GAGSV,3,3,10,29,11,330,19,10,11,028,21,7*79
$GAGSV,2,1,08,02,74,075,27,30,47,288,25,36,46,111,26,11,29,048,16,1*7F
$GAGSV,2,2,08,07,26,278,22,25,22,096,18,34,20,166,18,29,11,330,17,1*72
$GBGSV,3,1,12,24,67,292,28,35,63,083,27,26,56,138,27,44,52,189,27,1*74
$GBGSV,3,2,12,12,28,200,19,25,13,305,19,29,11,044,,41,04,312,15,1*72
$GBGSV,3,3,12,34,04,212,17,45,03,128,16,39,01,328,,32,01,001,,1*7C
$GBGSV,2,1,08,24,67,292,29,35,63,083,28,26,56,138,28,44,52,189,28,5*74
$GBGSV,2,2,08,25,13,305,19,29,11,044,15,34,04,212,17,41,04,312,14,5*7E
$GNGLL,4910.424862,N,12304.407150,W,233326.000,A,D*54
$GNRMC,233327.000,A,4910.424916,N,12304.406994,W,0.09,0.00,070125,,,D,V*13
$GNGGA,233327.000,4910.424916,N,12304.406994,W,2,42,0.54,18.910,M,-16.817,M,,*77
$GNVTG,0.00,T,,M,0.09,N,0.16,K,D*28
$GNGSA,A,3,19,24,17,06,12,14,11,,,,,,0.91,0.54,0.73,1*04
$GNGSA,A,3,75,85,,,,,,,,,,,0.91,0.54,0.73,2*00
$GNGSA,A,3,02,30,36,11,07,25,34,08,29,10,,,0.91,0.54,0.73,3*0F
$GNGSA,A,3,24,35,26,44,12,29,,,,,,,0.91,0.54,0.73,4*05
$GPGSV,4,1,13,19,80,089,36,24,56,273,34,17,48,059,34,06,37,147,30,1*61
$GPGSV,4,2,13,44,33,171,29,12,29,285,33,14,23,100,29,11,12,175,25,1*62
$GPGSV,4,3,13,03,05,059,18,15,04,233,24,32,03,342,22,13,03,202,,1*60
$GPGSV,4,4,13,02,02,029,14,1*58
$GPGSV,1,1,04,24,56,273,31,06,37,147,26,14,23,100,23,11,12,175,19,8*60
$GLGSV,1,1,02,75,76,356,26,85,58,166,26,1*78
$GAGSV,3,1,10,02,74,075,34,30,47,288,29,36,46,111,32,11,29,048,23,7*7C
$GAGSV,3,2,10,07,26,278,27,25,22,096,27,34,20,166,24,08,15,225,24,7*78
$GAGSV,3,3,10,29,11,330,19,10,11,028,21,7*79
$GAGSV,2,1,08,02,74,075,27,30,47,288,26,36,46,111,26,11,29,048,15,1*7F
$GAGSV,2,2,08,07,26,278,22,25,22,096,18,34,20,166,18,29,11,330,17,1*72
$GBGSV,3,1,11,24,67,292,29,35,63,083,28,26,56,138,27,44,52,189,27,1*79
$GBGSV,3,2,11,12,28,200,19,25,13,305,19,29,11,044,16,34,04,212,17,1*77
$GBGSV,3,3,11,41,04,312,14,45,03,128,16,32,01,001,,1*4D
$GBGSV,2,1,08,24,67,292,29,35,63,083,28,26,56,138,28,44,52,189,28,5*74
$GBGSV,2,2,08,25,13,305,19,29,11,044,15,34,04,212,17,41,04,312,14,5*7E
$GNGLL,4910.424916,N,12304.406994,W,233327.000,A,D*56
$GNRMC,233328.000,A,4910.424874,N,12304.407114,W,0.22,0.00,070125,,,D,V*11
$GNGGA,233328.000,4910.424874,N,12304.407114,W,2,42,0.54,19.159,M,-16.816,M,,*79
$GNVTG,0.00,T,,M,0.22,N,0.40,K,D*22
$GNGSA,A,3,19,24,17,06,12,14,11,,,,,,0.91,0.54,0.73,1*04
$GNGSA,A,3,75,85,,,,,,,,,,,0.91,0.54,0.73,2*00
$GNGSA,A,3,02,30,36,11,07,25,34,08,29,10,,,0.91,0.54,0.73,3*0F
$GNGSA,A,3,24,35,26,44,12,29,,,,,,,0.91,0.54,0.73,4*05
$GPGSV,4,1,13,19,80,089,36,24,56,273,34,17,48,059,34,06,37,147,30,1*61
$GPGSV,4,2,13,44,33,171,28,12,29,285,33,14,23,100,29,11,12,175,25,1*63
$GPGSV,4,3,13,03,05,059,18,15,04,233,24,32,03,342,22,13,03,202,,1*60
$GPGSV,4,4,13,02,02,029,14,1*58
$GPGSV,1,1,04,24,56,273,31,06,37,147,26,14,23,100,23,11,12,175,19,8*60
$GLGSV,1,1,02,75,76,356,26,85,58,166,26,1*78
$GAGSV,3,1,10,02,74,075,34,30,47,288,29,36,46,111,32,11,29,048,23,7*7C
$GAGSV,3,2,10,07,26,278,27,25,22,096,26,34,20,166,24,08,15,225,24,7*79
$GAGSV,3,3,10,29,11,330,19,10,11,028,21,7*79
$GAGSV,2,1,08,02,74,075,27,30,47,288,26,36,46,111,26,11,29,048,14,1*7E
$GAGSV,2,2,08,07,26,278,23,25,22,096,18,34,20,166,18,29,11,330,17,1*73
$GBGSV,3,1,11,24,67,292,29,35,63,083,28,26,56,138,27,44,52,189,27,1*79
$GBGSV,3,2,11,12,28,200,19,25,13,305,19,29,11,044,17,34,04,212,17,1*76
$GBGSV,3,3,11,41,04,312,13,45,03,128,16,32,01,001,,1*4A
$GBGSV,2,1,08,24,67,292,29,35,63,083,28,26,56,138,28,44,52,189,28,5*74
$GBGSV,2,2,08,25,13,305,19,29,11,044,16,34,04,212,17,41,04,312,14,5*7D
$GNGLL,4910.424874,N,12304.407114,W,233328.000,A,D*5D
$GNRMC,233329.000,A,4910.424886,N,12304.407012,W,0.19,0.00,070125,,,D,V*12
$GNGGA,233329.000,4910.424886,N,12304.407012,W,2,42,0.54,19.035,M,-16.817,M,,*78
$GNVTG,0.00,T,,M,0.19,N,0.35,K,D*28
$GNGSA,A,3,19,24,17,06,12,14,11,,,,,,0.91,0.54,0.73,1*04
$GNGSA,A,3,75,85,,,,,,,,,,,0.91,0.54,0.73,2*00
$GNGSA,A,3,02,30,36,11,07,25,34,08,29,10,,,0.91,0.54,0.73,3*0F
$GNGSA,A,3,24,35,26,44,12,29,,,,,,,0.91,0.54,0.73,4*05
$GPGSV,4,1,13,19,80,089,36,24,56,273,34,17,48,059,34,06,37,147,30,1*61
$GPGSV,4,2,13,44,33,171,29,12,29,285,33,14,23,100,29,11,12,175,25,1*62
$GPGSV,4,3,13,03,05,059,18,15,04,233,24,32,03,342,23,13,03,202,,1*61
$GPGSV,4,4,13,02,02,029,12,1*5E
$GPGSV,1,1,04,24,56,273,30,06,37,147,25,14,23,100,23,11,12,175,18,8*63
$GLGSV,1,1,02,75,76,356,27,85,58,166,26,1*79
$GAGSV,3,1,10,02,74,075,34,30,47,288,30,36,46,111,32,11,29,048,23,7*74
$GAGSV,3,2,10,07,26,278,27,25,22,096,26,34,20,166,24,08,15,225,24,7*79
$GAGSV,3,3,10,29,11,330,19,10,11,028,22,7*7A
$GAGSV,2,1,08,02,74,075,27,30,47,288,25,36,46,111,26,11,29,048,13,1*7A
$GAGSV,2,2,08,07,26,278,22,25,22,096,18,34,20,166,18,29,11,330,16,1*73
$GBGSV,3,1,10,24,67,292,30,35,63,083,29,26,56,138,28,44,52,189,28,1*71
$GBGSV,3,2,10,12,28,200,20,25,13,305,21,29,11,044,20,41,04,312,14,1*72
$GBGSV,3,3,10,34,04,212,18,45,03,128,19,1*7D
$GBGSV,2,1,08,24,67,292,28,35,63,083,27,26,56,138,27,44,52,189,27,5*7A
$GBGSV,2,2,08,25,13,305,19,29,11,044,16,34,04,212,17,41,04,312,13,5*7A
$GNGLL,4910.424886,N,12304.407012,W,233329.000,A,D*56
$GNRMC,233330.000,A,4910.424946,N,12304.406964,W,0.21,0.00,070125,,,D,V*15
$GNGGA,233330.000,4910.424946,N,12304.406964,W,2,41,0.54,18.991,M,-16.816,M,,*70
$GNVTG,0.00,T,,M,0.21,N,0.39,K,D*2F
$GNGSA,A,3,19,24,17,06,12,14,11,,,,,,0.91,0.54,0.73,1*04
$GNGSA,A,3,75,85,,,,,,,,,,,0.91,0.54,0.73,2*00
$GNGSA,A,3,02,30,36,11,07,25,34,08,29,10,,,0.91,0.54,0.73,3*0F
$GNGSA,A,3,24,35,26,44,12,29,,,,,,,0.91,0.54,0.73,4*05
$GPGSV,4,1,13,19,80,089,36,24,56,273,34,17,48,059,34,06,37,147,30,1*61
$GPGSV,4,2,13,44,33,171,29,12,29,285,33,14,23,100,29,11,12,175,25,1*62
$GPGSV,4,3,13,03,05,059,18,15,04,233,24,32,03,342,23,13,03,202,,1*61
$GPGSV,4,4,13,02,02,029,11,1*5D
$GPGSV,1,1,04,24,56,273,31,06,37,147,25,14,23,100,23,11,12,175,18,8*62
$GLGSV,1,1,02,75,76,356,27,85,58,166,27,1*78
$GAGSV,3,1,10,02,74,075,34,30,47,288,30,36,46,111,32,11,29,048,23,7*74
$GAGSV,3,2,10,07,26,278,27,25,22,096,26,34,20,166,24,08,15,225,24,7*79
$GAGSV,3,3,10,29,11,330,19,10,11,028,21,7*79
$GAGSV,2,1,08,02,74,075,28,30,47,288,25,36,46,111,26,11,29,048,13,1*75
$GAGSV,2,2,08,07,26,278,22,25,22,096,18,34,20,166,18,29,11,330,16,1*73
$GBGSV,3,1,10,24,67,292,31,35,63,083,30,26,56,138,29,44,52,189,30,1*70
$GBGSV,3,2,10,12,28,200,21,25,13,305,22,29,11,044,21,41,04,312,15,1*70
$GBGSV,3,3,10,34,04,212,19,45,03,128,19,1*7C
$GBGSV,2,1,08,24,67,292,28,35,63,083,27,26,56,138,28,44,52,189,27,5*75
$GBGSV,2,2,08,25,13,305,19,29,11,044,16,34,04,212,17,41,04,312,13,5*7A
$GNGLL,4910.424946,N,12304.406964,W,233330.000,A,D*5A
$GNRMC,233331.000,A,4910.424916,N,12304.406844,W,0.20,0.00,070125,,,D,V*13
$GNGGA,233331.000,4910.424916,N,12304.406844,W,2,41,0.54,18.836,M,-16.817,M,,*7A
$GNVTG,0.00,T,,M,0.20,N,0.37,K,D*20
$GNGSA,A,3,19,24,17,06,12,14,11,,,,,,0.91,0.54,0.73,1*04
$GNGSA,A,3,75,85,,,,,,,,,,,0.91,0.54,0.73,2*00
$GNGSA,A,3,02,30,36,11,07,25,34,08,29,10,,,0.91,0.54,0.73,3*0F
$GNGSA,A,3,24,35,26,44,12,29,,,,,,,0.91,0.54,0.73,4*05
$GPGSV,4,1,13,19,80,089,36,24,56,273,34,17,48,059,34,06,37,147,30,1*61
$GPGSV,4,2,13,44,33,171,29,12,29,285,33,14,23,100,29,11,12,175,26,1*61
$GPGSV,4,3,13,03,05,059,18,15,04,233,24,32,03,342,23,13,03,202,,1*61
$GPGSV,4,4,13,02,02,029,12,1*5E
$GPGSV,1,1,04,24,56,273,31,06,37,147,25,14,23,100,23,11,12,175,18,8*62
$GLGSV,1,1,02,75,76,356,27,85,58,166,27,1*78
$GAGSV,3,1,10,02,74,075,34,30,47,288,30,36,46,111,31,11,29,048,23,7*77
$GAGSV,3,2,10,07,26,278,27,25,22,096,26,34,20,166,24,08,15,225,24,7*79
$GAGSV,3,3,10,29,11,330,19,10,11,028,21,7*79
$GAGSV,2,1,07,02,74,075,28,30,47,288,25,36,46,111,26,07,26,278,22,1*71
$GAGSV,2,2,07,25,22,096,18,34,20,166,18,29,11,330,16,1*42
$GBGSV,3,1,10,24,67,292,31,35,63,083,30,26,56,138,29,44,52,189,30,1*70
$GBGSV,3,2,10,12,28,200,22,25,13,305,22,29,11,044,19,41,04,312,16,1*7B
$GBGSV,3,3,10,34,04,212,19,45,03,128,19,1*7C
$GBGSV,2,1,08,24,67,292,28,35,63,083,27,26,56,138,28,44,52,189,27,5*75
$GBGSV,2,2,08,25,13,305,19,29,11,044,16,34,04,212,17,41,04,312,13,5*7A
$GNGLL,4910.424916,N,12304.406844,W,233331.000,A,D*5D
$GNRMC,233332.000,A,4910.424874,N,12304.406838,W,0.16,0.00,070125,,,D,V*1B
$GNGGA,233332.000,4910.424874,N,12304.406838,W,2,41,0.54,18.895,M,-16.816,M,,*7F
$GNVTG,0.00,T,,M,0.16,N,0.30,K,D*22
$GNGSA,A,3,19,24,17,06,12,14,11,,,,,,0.91,0.54,0.73,1*04
$GNGSA,A,3,75,85,,,,,,,,,,,0.91,0.54,0.73,2*00
$GNGSA,A,3,02,30,36,11,07,25,34,08,29,10,,,0.91,0.54,0.73,3*0F
$GNGSA,A,3,24,35,26,44,12,29,,,,,,,0.91,0.54,0.73,4*05
$GPGSV,4,1,13,19,80,089,36,24,56,273,34,17,48,059,34,06,37,147,30,1*61
$GPGSV,4,2,13,44,33,171,29,12,29,285,33,14,23,100,29,11,12,175,26,1*61
$GPGSV,4,3,13,03,05,059,18,15,04,233,24,32,03,342,24,13,03,202,,1*66
$GPGSV,4,4,13,02,02,029,11,1*5D
$GPGSV,1,1,04,24,56,273,31,06,37,147,25,14,23,100,23,11,12,175,18,8*62
$GLGSV,1,1,02,75,76,356,26,85,58,166,26,1*78
$GAGSV,3,1,10,02,74,075,34,30,47,288,30,36,46,111,31,11,29,048,23,7*77
$GAGSV,3,2,10,07,26,278,27,25,22,096,26,34,20,166,24,08,15,225,24,7*79
$GAGSV,3,3,10,29,11,330,19,10,11,028,21,7*79
$GAGSV,2,1,07,02,74,075,28,30,47,288,25,36,46,111,26,07,26,278,22,1*71
$GAGSV,2,2,07,25,22,096,18,34,20,166,18,29,11,330,16,1*42
$GBGSV,3,1,10,24,67,292,32,35,63,083,30,26,56,138,30,44,52,189,31,1*7A
$GBGSV,3,2,10,12,28,200,23,25,13,305,22,29,11,044,21,41,04,312,17,1*70
$GBGSV,3,3,10,34,04,212,19,45,03,128,19,1*7C
$GBGSV,2,1,08,24,67,292,28,35,63,083,27,26,56,138,28,44,52,189,27,5*75
$GBGSV,2,2,08,25,13,305,19,29,11,044,16,34,04,212,17,41,04,312,13,5*7A
$GNGLL,4910.424874,N,12304.406838,W,233332.000,A,D*50
$GNRMC,233333.000,A,4910.424952,N,12304.406838,W,0.14,0.00,070125,,,D,V*1D
$GNGGA,233333.000,4910.424952,N,12304.406838,W,2,41,0.54,18.843,M,-16.816,M,,*70
$GNVTG,0.00,T,,M,0.14,N,0.25,K,D*24
$GNGSA,A,3,19,24,17,06,12,14,11,,,,,,0.91,0.54,0.73,1*04
$GNGSA,A,3,75,85,,,,,,,,,,,0.91,0.54,0.73,2*00
$GNGSA,A,3,02,30,36,11,07,25,34,08,10,29,,,0.91,0.54,0.73,3*0F
$GNGSA,A,3,24,35,26,44,12,29,,,,,,,0.91,0.54,0.73,4*05
$GPGSV,4,1,13,19,80,089,36,24,56,273,34,17,48,059,34,06,37,147,30,1*61
$GPGSV,4,2,13,44,33,171,29,12,29,285,33,14,23,100,29,11,12,175,26,1*61
$GPGSV,4,3,13,03,05,059,18,15,04,233,24,32,03,342,24,13,03,202,,1*66
$GPGSV,4,4,13,02,02,029,12,1*5E
$GPGSV,1,1,04,24,56,273,31,06,37,147,25,14,23,100,23,11,12,175,18,8*62
$GLGSV,1,1,03,75,77,001,26,85,58,166,26,84,53,050,,1*46
$GAGSV,3,1,10,02,74,075,34,30,47,288,30,36,46,111,31,11,29,048,23,7*77
$GAGSV,3,2,10,07,26,278,27,25,22,096,26,34,20,166,25,08,15,225,24,7*78
$GAGSV,3,3,10,10,11,028,21,29,11,330,19,7*79
$GAGSV,2,1,07,02,74,075,28,30,47,288,25,36,46,111,26,07,26,278,22,1*71
$GAGSV,2,2,07,25,22,096,18,34,20,166,18,29,11,330,16,1*42
$GBGSV,3,1,11,24,67,292,32,35,63,083,30,26,56,138,30,44,52,189,31,1*7B
$GBGSV,3,2,11,12,28,200,23,25,13,305,22,29,11,044,22,34,04,212,19,1*7F
$GBGSV,3,3,11,41,04,312,17,45,03,128,19,32,01,001,,1*41
$GBGSV,2,1,08,24,67,292,28,35,63,083,27,26,56,138,28,44,52,189,27,5*75
$GBGSV,2,2,08,25,13,305,19,29,11,044,15,34,04,212,17,41,04,312,13,5*79
$GNGLL,4910.424952,N,12304.406838,W,233333.000,A,D*54
$GNRMC,233334.000,A,4910.424982,N,12304.406826,W,0.13,0.00,070125,,,D,V*1F
$GNGGA,233334.000,4910.424982,N,12304.406826,W,2,41,0.54,18.791,M,-16.816,M,,*75
$GNVTG,0.00,T,,M,0.13,N,0.23,K,D*25
$GNGSA,A,3,19,24,17,06,12,14,11,,,,,,0.91,0.54,0.73,1*04
$GNGSA,A,3,75,85,,,,,,,,,,,0.91,0.54,0.73,2*00
$GNGSA,A,3,02,30,36,11,07,25,34,08,10,29,,,0.91,0.54,0.73,3*0F
$GNGSA,A,3,24,35,26,44,12,29,,,,,,,0.91,0.54,0.73,4*05
$GPGSV,4,1,13,19,80,089,37,24,56,273,34,17,48,059,34,06,37,147,31,1*61
$GPGSV,4,2,13,44,33,171,29,12,29,285,34,14,23,100,29,11,12,175,27,1*67
$GPGSV,4,3,13,03,05,059,18,15,04,233,25,32,03,342,24,13,03,202,,1*67
$GPGSV,4,4,13,02,02,029,12,1*5E
$GPGSV,1,1,04,24,56,273,31,06,37,147,26,14,23,100,23,11,12,175,18,8*61
$GLGSV,1,1,03,75,77,001,26,85,58,166,26,84,53,050,,1*46
$GAGSV,3,1,10,02,74,075,34,30,47,288,30,36,46,111,31,11,29,048,24,7*70
$GAGSV,3,2,10,07,26,278,27,25,22,096,26,34,20,166,25,08,15,225,24,7*78
$GAGSV,3,3,10,10,11,028,21,29,11,330,19,7*79
$GAGSV,2,1,07,02,74,075,28,30,47,288,25,36,46,111,26,07,26,278,22,1*71
$GAGSV,2,2,07,25,22,096,18,34,20,166,18,29,11,330,16,1*42
$GBGSV,3,1,11,24,67,292,32,35,63,083,30,26,56,138,30,44,52,189,31,1*7B
$GBGSV,3,2,11,12,28,200,23,25,13,305,22,29,11,044,19,34,04,212,19,1*77
$GBGSV,3,3,11,41,04,312,17,45,03,128,19,32,01,001,,1*41
$GBGSV,2,1,08,24,67,292,28,35,63,083,27,26,56,138,28,44,52,189,27,5*75
$GBGSV,2,2,08,25,13,305,19,29,11,044,16,34,04,212,17,41,04,312,13,5*7A
$GNGLL,4910.424982,N,12304.406826,W,233334.000,A,D*51
$GNRMC,233335.000,A,4910.425018,N,12304.406910,W,0.10,0.00,070125,,,D,V*12
$GNGGA,233335.000,4910.425018,N,12304.406910,W,2,41,0.54,18.859,M,-16.816,M,,*70
$GNVTG,0.00,T,,M,0.10,N,0.19,K,D*2F
$GNGSA,A,3,19,24,17,06,12,14,11,,,,,,0.91,0.54,0.73,1*04
$GNGSA,A,3,75,85,,,,,,,,,,,0.91,0.54,0.73,2*00
$GNGSA,A,3,02,30,36,11,07,25,34,08,10,29,,,0.91,0.54,0.73,3*0F
$GNGSA,A,3,24,35,26,44,12,29,,,,,,,0.91,0.54,0.73,4*05
$GPGSV,4,1,13,19,80,089,37,24,56,273,35,17,48,059,34,06,37,147,31,1*60
$GPGSV,4,2,13,44,33,171,30,12,29,285,34,14,23,100,29,11,12,175,28,1*60
$GPGSV,4,3,13,03,05,059,18,15,04,233,25,32,03,342,24,13,03,202,,1*67
$GPGSV,4,4,13,02,02,029,14,1*58
$GPGSV,1,1,04,24,56,273,31,06,37,147,26,14,23,100,23,11,12,175,19,8*60
$GLGSV,1,1,03,75,77,001,26,85,58,166,26,84,53,050,,1*46
$GAGSV,3,1,10,02,74,075,35,30,47,288,31,36,46,111,32,11,29,048,24,7*73
$GAGSV,3,2,10,07,26,278,28,25,22,096,27,34,20,166,25,08,15,225,24,7*76
$GAGSV,3,3,10,10,11,028,21,29,11,330,19,7*79
$GAGSV,2,1,07,02,74,075,29,30,47,288,25,36,46,111,26,07,26,278,22,1*70
$GAGSV,2,2,07,25,22,096,18,34,20,166,18,29,11,330,16,1*42
$GBGSV,3,1,11,24,67,292,32,35,63,083,30,26,56,138,30,44,52,189,31,1*7B
$GBGSV,3,2,11,12,28,200,23,25,13,305,22,29,11,044,20,34,04,212,19,1*7D
$GBGSV,3,3,11,41,04,312,17,45,03,128,19,39,01,328,,1*42
$GBGSV,2,1,08,24,67,292,28,35,63,083,27,26,56,138,28,44,52,189,28,5*7A
$GBGSV,2,2,08,25,13,305,20,29,11,044,16,34,04,212,17,41,04,312,13,5*70
$GNGLL,4910.425018,N,12304.406910,W,233335.000,A,D*5F
$GNRMC,233336.000,A,4910.425000,N,12304.406874,W,0.09,0.00,070125,,,D,V*13
$GNGGA,233336.000,4910.425000,N,12304.406874,W,2,41,0.54,18.648,M,-16.816,M,,*77
$GNVTG,0.00,T,,M,0.09,N,0.16,K,D*28
$GNGSA,A,3,19,24,17,06,12,14,11,,,,,,0.91,0.54,0.73,1*04
$GNGSA,A,3,75,85,,,,,,,,,,,0.91,0.54,0.73,2*00
$GNGSA,A,3,02,30,36,11,07,25,34,08,29,10,,,0.91,0.54,0.73,3*0F
$GNGSA,A,3,24,35,26,44,12,29,,,,,,,0.91,0.54,0.73,4*05
$GPGSV,4,1,13,19,80,089,37,24,56,273,35,17,48,059,34,06,37,147,31,1*60
$GPGSV,4,2,13,44,33,171,30,12,29,285,34,14,23,100,29,11,12,175,28,1*60
$GPGSV,4,3,13,03,05,059,18,15,04,233,25,32,03,342,23,13,03,202,,1*60
$GPGSV,4,4,13,02,02,029,13,1*5F
$GPGSV,1,1,04,24,56,273,31,06,37,147,26,14,23,100,23,11,12,175,19,8*60
$GLGSV,1,1,02,75,77,001,27,85,58,166,27,1*78
$GAGSV,3,1,10,02,74,075,34,30,47,288,31,36,46,111,32,11,29,048,24,7*72
$GAGSV,3,2,10,07,26,278,28,25,22,096,27,34,20,166,25,08,15,225,24,7*76
$GAGSV,3,3,10,29,11,330,19,10,11,028,21,7*79
$GAGSV,2,1,07,02,74,075,29,30,47,288,25,36,46,111,26,07,26,278,22,1*70
$GAGSV,2,2,07,25,22,096,18,34,20,166,18,29,11,330,16,1*42
$GBGSV,3,1,11,24,67,292,32,35,63,083,30,26,56,138,30,44,52,189,31,1*7B
$GBGSV,3,2,11,12,28,200,23,25,13,305,22,29,11,044,21,34,04,212,19,1*7C
$GBGSV,3,3,11,41,04,312,17,45,03,128,19,39,01,328,,1*42
$GBGSV,2,1,08,24,67,292,28,35,63,083,27,26,56,138,28,44,52,189,28,5*7A
$GBGSV,2,2,08,25,13,305,20,29,11,044,16,34,04,212,17,41,04,312,13,5*70
$GNGLL,4910.425000,N,12304.406874,W,233336.000,A,D*56
$GNRMC,233337.000,A,4910.425006,N,12304.406784,W,0.08,0.00,070125,,,D,V*15
$GNGGA,233337.000,4910.425006,N,12304.406784,W,2,41,0.54,18.696,M,-16.816,M,,*73
$GNVTG,0.00,T,,M,0.08,N,0.14,K,D*2B
$GNGSA,A,3,19,24,17,06,12,14,11,,,,,,0.91,0.54,0.73,1*04
$GNGSA,A,3,75,85,,,,,,,,,,,0.91,0.54,0.73,2*00
$GNGSA,A,3,02,30,36,11,07,25,34,08,29,10,,,0.91,0.54,0.73,3*0F
$GNGSA,A,3,24,35,26,44,12,29,,,,,,,0.91,0.54,0.73,4*05
$GPGSV,4,1,13,19,80,089,37,24,56,273,35,17,48,059,34,06,37,147,31,1*60
$GPGSV,4,2,13,44,33,171,30,12,29,285,34,14,23,100,30,11,12,175,28,1*68
$GPGSV,4,3,13,03,05,059,17,15,04,233,25,32,03,342,25,13,03,202,,1*69
$GPGSV,4,4,13,02,02,029,15,1*59
$GPGSV,1,1,04,24,56,273,31,06,37,147,26,14,23,100,23,11,12,175,19,8*60
$GLGSV,1,1,02,75,77,001,27,85,58,166,27,1*78
$GAGSV,3,1,10,02,74,075,35,30,47,288,31,36,46,111,32,11,29,048,24,7*73
$GAGSV,3,2,10,07,26,278,29,25,22,096,27,34,20,166,26,08,15,225,24,7*74
$GAGSV,3,3,10,29,11,330,19,10,11,028,22,7*7A
$GAGSV,2,1,07,02,74,075,29,30,47,288,26,36,46,111,26,07,26,278,22,1*73
$GAGSV,2,2,07,25,22,096,17,34,20,166,18,29,11,330,16,1*4D
$GBGSV,3,1,11,24,67,292,31,35,63,083,30,26,56,138,30,44,52,189,30,1*79
$GBGSV,3,2,11,12,28,200,22,25,13,305,22,29,11,044,20,34,04,212,19,1*7C
$GBGSV,3,3,11,41,04,312,17,45,03,128,19,39,01,328,,1*42
$GBGSV,2,1,08,24,67,292,28,35,63,083,28,26,56,138,28,44,52,189,28,5*75
$GBGSV,2,2,08,25,13,305,20,29,11,044,17,34,04,212,17,41,04,312,13,5*71
$GNGLL,4910.425006,N,12304.406784,W,233337.000,A,D*51
$GNRMC,233338.000,A,4910.425012,N,12304.406694,W,0.07,0.00,070125,,,D,V*10
$GNGGA,233338.000,4910.425012,N,12304.406694,W,2,41,0.54,18.668,M,-16.817,M,,*79
$GNVTG,0.00,T,,M,0.07,N,0.14,K,D*24
$GNGSA,A,3,19,24,17,06,12,14,11,,,,,,0.91,0.54,0.73,1*04
$GNGSA,A,3,75,85,,,,,,,,,,,0.91,0.54,0.73,2*00
$GNGSA,A,3,02,30,36,11,07,25,34,08,29,10,,,0.91,0.54,0.73,3*0F
$GNGSA,A,3,24,35,26,44,12,29,,,,,,,0.91,0.54,0.73,4*05
$GPGSV,4,1,13,19,80,089,37,24,56,273,35,17,48,059,34,06,37,147,31,1*60
$GPGSV,4,2,13,44,33,171,30,12,29,285,34,14,23,100,30,11,12,175,28,1*68
$GPGSV,4,3,13,03,05,059,17,15,04,233,25,32,03,342,24,13,03,202,,1*68
$GPGSV,4,4,13,02,02,029,13,1*5F
$GPGSV,1,1,04,24,56,273,31,06,37,147,26,14,23,100,23,11,12,175,19,8*60
$GLGSV,1,1,02,75,77,001,27,85,58,166,27,1*78
$GAGSV,3,1,10,02,74,075,35,30,47,288,31,36,46,111,32,11,29,048,24,7*73
$GAGSV,3,2,10,07,26,278,29,25,22,096,27,34,20,166,26,08,15,225,24,7*74
$GAGSV,3,3,10,29,11,330,19,10,11,028,22,7*7A
$GAGSV,2,1,07,02,74,075,29,30,47,288,26,36,46,111,26,07,26,278,22,1*73
$GAGSV,2,2,07,25,22,096,17,34,20,166,18,29,11,330,16,1*4D
$GBGSV,3,1,11,24,67,292,32,35,63,083,31,26,56,138,30,44,52,189,30,1*7B
$GBGSV,3,2,11,12,28,200,23,25,13,305,23,29,11,044,20,34,04,212,19,1*7C
$GBGSV,3,3,11,41,04,312,17,45,03,128,19,39,01,328,17,1*44
$GBGSV,2,1,08,24,67,292,28,35,63,083,28,26,56,138,28,44,52,189,28,5*75
$GBGSV,2,2,08,25,13,305,20,29,11,044,17,34,04,212,17,41,04,312,13,5*71
$GNGLL,4910.425012,N,12304.406694,W,233338.000,A,D*5B
$GNRMC,233339.000,A,4910.425018,N,12304.406676,W,0.07,0.00,070125,,,D,V*17
$GNGGA,233339.000,4910.425018,N,12304.406676,W,2,41,0.54,18.650,M,-16.816,M,,*74
$GNVTG,0.00,T,,M,0.07,N,0.13,K,D*23
$GNGSA,A,3,19,24,17,06,12,14,11,,,,,,0.91,0.54,0.73,1*04
$GNGSA,A,3,75,85,,,,,,,,,,,0.91,0.54,0.73,2*00
$GNGSA,A,3,02,30,36,11,07,25,34,08,29,10,,,0.91,0.54,0.73,3*0F
$GNGSA,A,3,24,35,26,44,12,29,,,,,,,0.91,0.54,0.73,4*05
$GPGSV,4,1,13,19,80,089,37,24,56,273,35,17,48,059,34,06,37,147,31,1*60
$GPGSV,4,2,13,44,33,171,30,12,29,285,34,14,23,100,30,11,12,175,28,1*68
$GPGSV,4,3,13,03,05,059,17,15,04,233,25,32,03,342,25,13,03,202,,1*69
$GPGSV,4,4,13,02,02,029,12,1*5E
$GPGSV,1,1,04,24,56,273,31,06,37,147,26,14,23,100,23,11,12,175,19,8*60
$GLGSV,1,1,02,75,77,001,27,85,58,166,27,1*78
$GAGSV,3,1,10,02,74,075,35,30,47,288,31,36,46,111,32,11,29,048,25,7*72
$GAGSV,3,2,10,07,26,278,29,25,22,096,27,34,20,166,26,08,15,225,24,7*74
$GAGSV,3,3,10,29,11,330,20,10,11,028,22,7*70
$GAGSV,2,1,07,02,74,075,29,30,47,288,26,36,46,111,26,07,26,278,22,1*73
$GAGSV,2,2,07,25,22,096,17,34,20,166,18,29,11,330,16,1*4D
$GBGSV,3,1,11,24,67,292,32,35,63,083,31,26,56,138,30,44,52,189,29,1*73
$GBGSV,3,2,11,12,28,200,23,25,13,305,23,29,11,044,20,34,04,212,19,1*7C
$GBGSV,3,3,11,41,04,312,17,45,03,128,19,39,01,328,17,1*44
$GBGSV,2,1,08,24,67,292,28,35,63,083,28,26,56,138,28,44,52,189,28,5*75
$GBGSV,2,2,08,25,13,305,20,29,11,044,17,34,04,212,17,41,04,312,13,5*71
$GNGLL,4910.425018,N,12304.406676,W,233339.000,A,D*5C
$GNRMC,233340.000,A,4910.425072,N,12304.406610,W,0.08,0.00,070125,,,D,V*1A
$GNGGA,233340.000,4910.425072,N,12304.406610,W,2,41,0.54,18.526,M,-16.817,M,,*75
$GNVTG,0.00,T,,M,0.08,N,0.14,K,D*2B
$GNGSA,A,3,19,24,17,06,12,14,11,,,,,,0.91,0.54,0.73,1*04
$GNGSA,A,3,75,85,,,,,,,,,,,0.91,0.54,0.73,2*00
$GNGSA,A,3,02,30,36,11,07,25,34,08,29,10,,,0.91,0.54,0.73,3*0F
$GNGSA,A,3,24,35,26,44,12,29,,,,,,,0.91,0.54,0.73,4*05
$GPGSV,4,1,13,19,80,089,37,24,56,273,35,17,48,059,34,06,37,147,32,1*63
$GPGSV,4,2,13,44,33,171,30,12,29,285,34,14,23,100,30,11,12,175,28,1*68
$GPGSV,4,3,13,03,05,059,17,15,04,233,25,32,03,342,25,13,03,202,,1*69
$GPGSV,4,4,13,02,02,029,15,1*59
$GPGSV,1,1,04,24,56,273,31,06,37,147,26,14,23,100,23,11,12,175,19,8*60
$GLGSV,1,1,02,75,77,001,27,85,58,166,27,1*78
$GAGSV,3,1,10,02,74,075,35,30,47,288,32,36,46,111,32,11,29,048,25,7*71
$GAGSV,3,2,10,07,26,278,29,25,22,096,27,34,20,166,27,08,15,225,24,7*75
$GAGSV,3,3,10,29,11,330,20,10,11,028,23,7*71
$GAGSV,2,1,07,02,74,075,29,30,47,288,26,36,46,111,26,07,26,278,22,1*73
$GAGSV,2,2,07,25,22,096,18,34,20,166,18,29,11,330,16,1*42
$GBGSV,3,1,11,24,67,292,32,35,63,083,31,26,56,138,30,44,52,189,29,1*73
$GBGSV,3,2,11,12,28,200,23,25,13,305,23,29,11,044,20,34,04,212,19,1*7C
$GBGSV,3,3,11,41,04,312,17,45,03,128,19,39,01,328,15,1*46
$GBGSV,2,1,08,24,67,292,28,35,63,083,28,26,56,138,28,44,52,189,28,5*75
$GBGSV,2,2,08,25,13,305,20,29,11,044,17,34,04,212,17,41,04,312,13,5*71
$GNGLL,4910.425072,N,12304.406610,W,233340.000,A,D*5E
$GNRMC,233341.000,A,4910.425072,N,12304.406574,W,0.08,0.00,070125,,,D,V*1A
$GNGGA,233341.000,4910.425072,N,12304.406574,W,2,41,0.54,18.504,M,-16.816,M,,*74
$GNVTG,0.00,T,,M,0.08,N,0.15,K,D*2A
$GNGSA,A,3,19,24,17,06,12,14,11,,,,,,0.91,0.54,0.73,1*04
$GNGSA,A,3,75,85,,,,,,,,,,,0.91,0.54,0.73,2*00
$GNGSA,A,3,02,30,36,11,07,25,34,08,29,10,,,0.91,0.54,0.73,3*0F
$GNGSA,A,3,24,35,26,44,12,29,,,,,,,0.91,0.54,0.73,4*05
$GPGSV,4,1,13,19,80,089,37,24,56,273,35,17,48,059,34,06,37,147,32,1*63
$GPGSV,4,2,13,44,33,171,30,12,29,285,34,14,23,100,30,11,12,175,28,1*68
$GPGSV,4,3,13,03,05,059,17,15,04,233,25,32,03,342,26,13,03,202,,1*6A
$GPGSV,4,4,13,02,02,029,14,1*58
$GPGSV,1,1,04,24,56,273,31,06,37,147,26,14,23,100,23,11,12,175,19,8*60
$GLGSV,1,1,02,75,77,001,26,85,58,166,26,1*78
$GAGSV,3,1,10,02,74,075,35,30,47,288,32,36,46,111,32,11,29,048,25,7*71
$GAGSV,3,2,10,07,26,278,29,25,22,096,27,34,20,166,27,08,15,225,24,7*75
$GAGSV,3,3,10,29,11,330,20,10,11,028,23,7*71
$GAGSV,2,1,07,02,74,075,29,30,47,288,26,36,46,111,26,07,26,278,22,1*73
$GAGSV,2,2,07,25,22,096,18,34,20,166,18,29,11,330,16,1*42
$GBGSV,3,1,11,24,67,292,32,35,63,083,31,26,56,138,30,44,52,189,29,1*73
$GBGSV,3,2,11,12,28,200,23,25,13,305,23,29,11,044,20,34,04,212,19,1*7C
$GBGSV,3,3,11,41,04,312,17,45,03,128,19,39,01,328,15,1*46
$GBGSV,2,1,08,24,67,292,28,35,63,083,28,26,56,138,28,44,52,189,28,5*75
$GBGSV,2,2,08,25,13,305,20,29,11,044,17,34,04,212,17,41,04,312,13,5*71
$GNGLL,4910.425072,N,12304.406574,W,233341.000,A,D*5E
$GNRMC,233342.000,A,4910.425096,N,12304.406700,W,0.08,0.00,070125,,,D,V*12
$GNGGA,233342.000,4910.425096,N,12304.406700,W,2,41,0.54,18.727,M,-16.817,M,,*7E
$GNVTG,0.00,T,,M,0.08,N,0.15,K,D*2A
$GNGSA,A,3,19,24,17,06,12,14,11,,,,,,0.91,0.54,0.73,1*04
$GNGSA,A,3,75,85,,,,,,,,,,,0.91,0.54,0.73,2*00
$GNGSA,A,3,02,30,36,11,07,25,34,08,29,10,,,0.91,0.54,0.73,3*0F
$GNGSA,A,3,24,35,26,44,12,29,,,,,,,0.91,0.54,0.73,4*05
$GPGSV,4,1,13,19,80,089,37,24,56,273,36,17,48,059,34,06,37,147,32,1*60
$GPGSV,4,2,13,44,33,171,31,12,29,285,34,14,23,100,30,11,12,175,29,1*68
$GPGSV,4,3,13,03,05,059,17,15,04,233,25,32,03,342,26,13,03,202,,1*6A
$GPGSV,4,4,13,02,02,029,13,1*5F
$GPGSV,1,1,04,24,56,273,31,06,37,147,26,14,23,100,23,11,12,175,19,8*60
$GLGSV,1,1,02,75,77,001,26,85,58,166,26,1*78
$GAGSV,3,1,10,02,74,075,35,30,47,288,32,36,46,111,32,11,29,048,26,7*72
$GAGSV,3,2,10,07,26,278,29,25,22,096,27,34,20,166,27,08,15,225,24,7*75
$GAGSV,3,3,10,29,11,330,20,10,11,028,23,7*71
$GAGSV,2,1,07,02,74,075,29,30,47,288,26,36,46,111,26,07,26,278,22,1*73
$GAGSV,2,2,07,25,22,096,18,34,20,166,18,29,11,330,16,1*42
$GBGSV,3,1,11,24,67,292,32,35,63,083,31,26,56,138,29,44,52,189,29,1*7B
$GBGSV,3,2,11,12,28,200,23,25,13,305,22,29,11,044,20,34,04,212,18,1*7C
$GBGSV,3,3,11,41,04,312,17,45,03,128,19,39,01,328,15,1*46
$GBGSV,2,1,08,24,67,292,28,35,63,083,28,26,56,138,28,44,52,189,28,5*75
$GBGSV,2,2,08,25,13,305,20,29,11,044,17,34,04,212,17,41,04,312,13,5*71
$GNGLL,4910.425096,N,12304.406700,W,233342.000,A,D*56
$GNRMC,233343.000,A,4910.425108,N,12304.406598,W,0.08,0.00,070125,,,D,V*16
$GNGGA,233343.000,4910.425108,N,12304.406598,W,2,41,0.54,18.810,M,-16.816,M,,*70
$GNVTG,0.00,T,,M,0.08,N,0.15,K,D*2A
$GNGSA,A,3,19,24,17,06,12,14,11,,,,,,0.91,0.54,0.73,1*04
$GNGSA,A,3,75,85,,,,,,,,,,,0.91,0.54,0.73,2*00
$GNGSA,A,3,02,30,36,11,07,25,34,08,29,10,,,0.91,0.54,0.73,3*0F
$GNGSA,A,3,24,35,26,44,12,29,,,,,,,0.91,0.54,0.73,4*05
$GPGSV,4,1,13,19,80,089,37,24,56,273,36,17,48,059,34,06,37,147,32,1*60
$GPGSV,4,2,13,44,33,171,31,12,29,285,34,14,23,100,30,11,12,175,29,1*68
$GPGSV,4,3,13,03,05,059,17,15,04,233,25,32,03,342,26,13,03,202,,1*6A
$GPGSV,4,4,13,02,02,029,15,1*59
$GPGSV,1,1,04,24,56,273,31,06,37,147,26,14,23,100,23,11,12,175,19,8*60
$GLGSV,1,1,02,75,77,001,26,85,59,166,26,1*79
$GAGSV,3,1,10,02,74,075,35,30,47,288,32,36,46,111,32,11,29,048,26,7*72
$GAGSV,3,2,10,07,26,278,29,25,22,096,27,34,20,166,27,08,15,225,24,7*75
$GAGSV,3,3,10,29,11,330,20,10,11,028,23,7*71
$GAGSV,2,1,07,02,74,075,28,30,47,288,26,36,46,111,26,07,26,278,22,1*72
$GAGSV,2,2,07,25,22,096,18,34,20,166,18,29,11,330,16,1*42
$GBGSV,3,1,11,24,67,292,32,35,63,083,30,26,56,138,29,44,52,189,29,1*7A
$GBGSV,3,2,11,12,28,200,23,25,13,305,22,29,11,044,20,34,04,212,18,1*7C
$GBGSV,3,3,11,41,04,312,17,45,03,128,18,39,01,328,15,1*47
$GBGSV,2,1,08,24,67,292,28,35,63,083,28,26,56,138,28,44,52,189,28,5*75
$GBGSV,2,2,08,25,13,305,20,29,11,044,17,34,04,212,17,41,04,312,13,5*71
$GNGLL,4910.425108,N,12304.406598,W,233343.000,A,D*52
$GNRMC,233344.000,A,4910.425102,N,12304.406508,W,0.08,0.00,070125,,,D,V*12
$GNGGA,233344.000,4910.425102,N,12304.406508,W,2,41,0.54,18.867,M,-16.817,M,,*75
$GNVTG,0.00,T,,M,0.08,N,0.15,K,D*2A
$GNGSA,A,3,19,24,17,06,12,14,11,,,,,,0.91,0.54,0.73,1*04
$GNGSA,A,3,75,85,,,,,,,,,,,0.91,0.54,0.73,2*00
$GNGSA,A,3,02,30,36,11,07,25,34,08,29,10,,,0.91,0.54,0.73,3*0F
$GNGSA,A,3,24,35,26,44,12,29,,,,,,,0.91,0.54,0.73,4*05
$GPGSV,4,1,13,19,80,089,37,24,56,273,36,17,48,059,34,06,37,147,32,1*60
$GPGSV,4,2,13,44,33,171,30,12,29,285,34,14,23,100,30,11,12,175,29,1*69
$GPGSV,4,3,13,03,05,059,17,15,04,233,25,32,03,342,26,13,03,202,,1*6A
$GPGSV,4,4,13,02,02,029,14,1*58
$GPGSV,1,1,04,24,56,273,31,06,37,147,26,14,23,100,22,11,12,175,19,8*61
$GLGSV,1,1,02,75,77,001,29,85,59,166,26,1*76
$GAGSV,3,1,10,02,74,075,35,30,47,288,32,36,46,111,32,11,29,048,26,7*72
$GAGSV,3,2,10,07,26,278,29,25,22,096,27,34,20,166,27,08,15,225,24,7*75
$GAGSV,3,3,10,29,11,330,20,10,11,028,23,7*71
$GAGSV,2,1,07,02,74,075,28,30,47,288,26,36,46,111,26,07,26,278,22,1*72
$GAGSV,2,2,07,25,22,096,18,34,20,166,18,29,11,330,16,1*42
$GBGSV,3,1,11,24,67,292,31,35,63,083,30,26,56,138,29,44,52,189,29,1*79
$GBGSV,3,2,11,12,28,200,22,25,13,305,22,29,11,044,20,34,04,212,18,1*7D
$GBGSV,3,3,11,41,04,312,17,45,03,128,18,39,01,328,15,1*47
$GBGSV,2,1,08,24,67,292,28,35,63,083,28,26,56,138,28,44,52,189,28,5*75
$GBGSV,2,2,08,25,13,305,20,29,11,044,17,34,04,212,17,41,04,312,13,5*71
$GNGLL,4910.425102,N,12304.406508,W,233344.000,A,D*56
$GNRMC,233345.000,A,4910.425126,N,12304.406382,W,0.08,0.00,070125,,,D,V*11
$GNGGA,233345.000,4910.425126,N,12304.406382,W,2,41,0.54,18.766,M,-16.816,M,,*79
$GNVTG,0.00,T,,M,0.08,N,0.15,K,D*2A
$GNGSA,A,3,19,24,17,06,12,14,11,,,,,,0.91,0.54,0.73,1*04
$GNGSA,A,3,75,85,,,,,,,,,,,0.91,0.54,0.73,2*00
$GNGSA,A,3,02,30,36,11,07,25,34,08,29,10,,,0.91,0.54,0.73,3*0F
$GNGSA,A,3,24,35,26,44,12,29,,,,,,,0.91,0.54,0.73,4*05
$GPGSV,4,1,13,19,80,089,37,24,56,273,36,17,48,059,34,06,37,147,32,1*60
$GPGSV,4,2,13,44,33,171,30,12,29,285,34,14,23,100,30,11,12,175,29,1*69
$GPGSV,4,3,13,03,05,059,17,15,04,233,25,32,03,342,26,13,03,202,,1*6A
$GPGSV,4,4,13,02,02,029,13,1*5F
$GPGSV,1,1,04,24,56,273,31,06,37,147,26,14,23,100,22,11,12,175,19,8*61
$GLGSV,1,1,02,75,77,001,26,85,59,166,26,1*79
$GAGSV,3,1,10,02,74,075,35,30,47,288,32,36,46,111,32,11,29,048,26,7*72
$GAGSV,3,2,10,07,26,278,29,25,22,096,27,34,20,166,27,08,15,225,24,7*75
$GAGSV,3,3,10,29,11,330,20,10,11,028,23,7*71
$GAGSV,2,1,07,02,74,075,28,30,47,288,26,36,46,111,26,07,26,278,22,1*72
$GAGSV,2,2,07,25,22,096,18,34,20,166,18,29,11,330,16,1*42
$GBGSV,3,1,11,24,67,292,31,35,63,083,30,26,56,138,28,44,52,189,28,1*79
$GBGSV,3,2,11,12,28,200,21,25,13,305,22,29,11,044,19,34,04,212,18,1*74
$GBGSV,3,3,11,41,04,312,17,45,03,128,18,39,01,328,15,1*47
$GBGSV,2,1,08,24,67,292,28,35,63,083,28,26,56,138,28,44,52,189,28,5*75
$GBGSV,2,2,08,25,13,305,20,29,11,044,17,34,04,212,17,41,04,312,13,5*71
$GNGLL,4910.425126,N,12304.406382,W,233345.000,A,D*55
$GNRMC,233346.000,A,4910.425114,N,12304.406382,W,0.09,0.00,070125,,,D,V*12
$GNGGA,233346.000,4910.425114,N,12304.406382,W,2,41,0.54,18.806,M,-16.816,M,,*72
$GNVTG,0.00,T,,M,0.09,N,0.16,K,D*28
$GNGSA,A,3,19,24,17,06,12,14,11,,,,,,0.91,0.54,0.73,1*04
$GNGSA,A,3,75,85,,,,,,,,,,,0.91,0.54,0.73,2*00
$GNGSA,A,3,02,30,36,11,07,25,34,08,29,10,,,0.91,0.54,0.73,3*0F
$GNGSA,A,3,24,35,26,44,12,29,,,,,,,0.91,0.54,0.73,4*05
$GPGSV,4,1,13,19,80,089,37,24,56,273,36,17,48,059,34,06,37,147,32,1*60
$GPGSV,4,2,13,44,33,171,30,12,29,285,34,14,23,100,30,11,12,175,29,1*69
$GPGSV,4,3,13,03,05,059,17,15,04,233,25,32,03,342,25,13,03,202,,1*69
$GPGSV,4,4,13,02,02,029,13,1*5F
$GPGSV,1,1,04,24,56,273,31,06,37,147,26,14,23,100,22,11,12,175,19,8*61
$GLGSV,1,1,02,75,77,001,27,85,59,166,25,1*7B
$GAGSV,3,1,10,02,74,075,34,30,47,288,32,36,46,111,32,11,29,048,25,7*70
$GAGSV,3,2,10,07,26,278,29,25,22,096,27,34,20,166,26,08,15,225,24,7*74
$GAGSV,3,3,10,29,11,330,20,10,11,028,23,7*71
$GAGSV,2,1,07,02,74,075,28,30,47,288,26,36,46,111,26,07,26,278,22,1*72
$GAGSV,2,2,07,25,22,096,18,34,20,166,18,29,11,330,16,1*42
$GBGSV,3,1,11,24,67,292,31,35,63,083,29,26,56,138,28,44,52,189,28,1*71
$GBGSV,3,2,11,12,28,200,21,25,13,305,21,29,11,044,19,34,04,212,18,1*77
$GBGSV,3,3,11,41,04,312,17,45,03,128,18,39,01,328,15,1*47
$GBGSV,2,1,08,24,67,292,28,35,63,083,28,26,56,138,28,44,52,189,28,5*75
$GBGSV,2,2,08,25,13,305,20,29,11,044,17,34,04,212,17,41,04,312,13,5*71
$GNGLL,4910.425114,N,12304.406382,W,233346.000,A,D*57
$GNRMC,233347.000,A,4910.425084,N,12304.406232,W,0.07,0.00,070125,,,D,V*1F
