09,78,120,29,31,63,116,28,06,53,121,26,05,44,299,26,7*77
$GAGSV,2,2,07,24,31,188,24,04,26,120,21,15,10,329,22,7*4A
$GBGSV,2,1,07,37,73,214,38,20,64,279,39,23,50,061,36,32,44,167,37,1*7B
$GBGSV,2,2,07,19,21,315,28,38,15,333,29,08,09,342,20,1*46
$GNRMC,192858.000,A,4910.424418,N,12304.402248,W,0.01,0.00,051224,,,D,V*1C
$GNVTG,0.00,T,,M,0.01,N,0.02,K,D*25
$GNGGA,192859.000,4910.424412,N,12304.402290,W,2,25,0.65,5.393,M,-16.817,M,,*41
$GNGLL,4910.424412,N,12304.402290,W,192859.000,A,D*5E
$GNGSA,A,3,09,07,04,16,30,20,27,08,26,,,,1.04,0.65,0.82,1*08
$GNGSA,A,3,69,79,68,,,,,,,,,,1.04,0.65,0.82,2*01
$GNGSA,A,3,09,31,06,05,24,04,15,,,,,,1.04,0.65,0.82,3*01
$GNGSA,A,3,37,20,23,32,19,38,,,,,,,1.04,0.65,0.82,4*0D
$GPGSV,3,1,12,09,79,140,35,07,65,266,34,04,48,123,28,16,35,054,28,1*68
$GPGSV,3,2,12,30,28,258,26,20,26,309,24,27,20,095,24,08,13,127,20,1*6F
$GPGSV,3,3,12,26,07,043,19,11,06,286,,05,04,332,18,03,01,173,,1*6C
$GLGSV,3,1,09,69,73,315,28,79,64,219,31,78,58,042,,68,51,146,29,1*77
$GLGSV,3,2,09,80,11,220,20,86,09,356,,70,09,323,,87,06,040,,1*7C
$GLGSV,3,3,09,67,03,144,,1*42
$GAGSV,2,1,08,09,78,120,29,31,63,116,28,06,53,121,26,05,44,299,26,7*78
$GAGSV,2,2,08,24,31,188,24,04,26,120,21,15,10,329,22,34,09,281,,7*70
$GBGSV,4,1,14,37,73,214,38,20,64,279,39,23,50,061,36,32,44,167,37,1*7F
$GBGSV,4,2,14,19,21,315,27,46,18,230,,38,15,333,29,08,09,342,20,1*77
$GBGSV,4,3,14,34,04,040,,12,03,014,,11,02,062,,13,01,346,,1*72
$GBGSV,4,4,14,43,01,082,,04,01,262,,1*7C
$GNRMC,192859.000,A,4910.424412,N,12304.402290,W,0.01,0.00,051224,,,D,V*12
$GNVTG,0.00,T,,M,0.01,N,0.01,K,D*26
$GNGGA,192900.000,4910.424424,N,12304.402320,W,2,25,0.65,5.441,M,-16.816,M,,*4A
$GNGLL,4910.424424,N,12304.402320,W,192900.000,A,D*5C
$GNGSA,A,3,09,07,04,16,30,20,27,08,26,,,,1.04,0.65,0.82,1*08
$GNGSA,A,3,69,79,68,,,,,,,,,,1.04,0.65,0.82,2*01
$GNGSA,A,3,09,31,06,05,24,04,15,,,,,,1.04,0.65,0.82,3*01
$GNGSA,A,3,37,20,23,32,19,38,,,,,,,1.04,0.65,0.82,4*0D
$GPGSV,4,1,13,09,79,140,35,07,65,266,33,04,48,123,28,16,35,054,28,1*69
$GPGSV,4,2,13,30,28,258,26,20,26,309,23,27,20,095,24,08,13,127,20,1*6E
$GPGSV,4,3,13,26,07,043,19,11,06,286,,05,04,332,18,03,01,173,,1*6A
$GPGSV,4,4,13,37,,,,1*62
$GLGSV,3,1,09,69,73,315,28,79,64,219,31,78,58,042,,68,51,146,29,1*77
$GLGSV,3,2,09,80,11,220,20,86,09,356,,70,09,323,,87,06,040,20,1*7E
$GLGSV,3,3,09,67,03,144,,1*42
$GAGSV,2,1,08,09,78,120,29,31,63,116,28,06,53,121,26,05,44,299,26,7*78
$GAGSV,2,2,08,24,31,188,24,04,26,120,20,15,10,329,22,34,09,281,,7*71
$GBGSV,4,1,14,37,73,214,38,20,64,279,39,23,50,061,36,32,44,167,37,1*7F
$GBGSV,4,2,14,19,21,315,27,46,18,230,,38,15,333,29,08,09,342,20,1*77
$GBGSV,4,3,14,34,04,040,,12,03,014,,11,02,062,,13,01,346,,1*72
$GBGSV,4,4,14,43,01,082,,04,01,262,,1*7C
$GNRMC,192900.000,A,4910.424424,N,12304.402320,W,0.01,0.00,051224,,,D,V*10
$GNVTG,0.00,T,,M,0.01,N,0.02,K,D*25
$GNGGA,192901.000,4910.424436,N,12304.402356,W,2,25,0.65,5.480,M,-16.816,M,,*44
$GNGLL,4910.424436,N,12304.402356,W,192901.000,A,D*5F
$GNGSA,A,3,09,07,04,16,30,20,27,08,26,,,,1.04,0.65,0.82,1*08
$GNGSA,A,3,69,79,68,,,,,,,,,,1.04,0.65,0.82,2*01
$GNGSA,A,3,09,31,06,05,24,04,15,,,,,,1.04,0.65,0.82,3*01
$GNGSA,A,3,37,20,23,32,19,38,,,,,,,1.04,0.65,0.82,4*0D
$GPGSV,3,1,11,09,79,140,35,07,65,266,33,04,48,123,28,16,35,054,28,1*6C
$GPGSV,3,2,11,30,28,258,26,20,26,309,24,27,20,095,24,08,13,127,20,1*6C
$GPGSV,3,3,11,26,07,043,19,05,04,332,18,37,,,,1*66
$GLGSV,2,1,08,69,73,315,28,79,64,219,30,78,58,042,,68,51,146,29,1*76
$GLGSV,2,2,08,80,11,220,20,86,09,356,,87,06,040,18,67,03,144,,1*7A
$GAGSV,2,1,07,09,78,120,29,31,63,116,28,06,53,121,26,05,44,299,26,7*77
$GAGSV,2,2,07,24,31,188,24,04,26,120,20,15,10,329,22,7*4B
$GBGSV,2,1,07,37,73,214,38,20,64,279,39,23,50,061,36,32,44,167,37,1*7B
$GBGSV,2,2,07,19,21,315,27,38,15,333,29,08,09,342,20,1*49
$GNRMC,192901.000,A,4910.424436,N,12304.402356,W,0.01,0.00,051224,,,D,V*13
$GNVTG,0.00,T,,M,0.01,N,0.01,K,D*26
$GNGGA,192902.000,4910.424442,N,12304.402362,W,2,25,0.65,5.525,M,-16.816,M,,*4D
$GNGLL,4910.424442,N,12304.402362,W,192902.000,A,D*58
$GNGSA,A,3,09,07,04,16,30,20,27,08,26,,,,1.04,0.65,0.82,1*08
$GNGSA,A,3,69,79,68,,,,,,,,,,1.04,0.65,0.82,2*01
$GNGSA,A,3,09,31,06,05,24,04,15,,,,,,1.04,0.65,0.82,3*01
$GNGSA,A,3,37,20,23,32,19,38,,,,,,,1.04,0.65,0.82,4*0D
$GPGSV,3,1,11,09,79,140,35,07,65,266,33,04,48,123,28,16,35,054,28,1*6C
$GPGSV,3,2,11,30,28,258,26,20,26,309,24,27,20,095,24,08,13,127,20,1*6C
$GPGSV,3,3,11,26,07,043,19,05,04,332,18,37,,,,1*66
$GLGSV,3,1,09,69,73,315,28,79,64,219,30,78,58,042,,68,51,146,29,1*76
$GLGSV,3,2,09,80,11,220,20,70,09,323,,86,09,356,,87,06,040,19,1*74
$GLGSV,3,3,09,67,03,144,,1*42
$GAGSV,2,1,07,09,78,120,29,31,63,116,28,06,53,121,26,05,44,299,26,7*77
$GAGSV,2,2,07,24,31,188,24,04,26,120,20,15,10,329,21,7*48
$GBGSV,2,1,07,37,73,214,38,20,64,279,39,23,50,061,36,32,44,167,37,1*7B
$GBGSV,2,2,07,19,21,315,27,38,15,333,29,08,09,342,20,1*49
$GNRMC,192902.000,A,4910.424442,N,12304.402362,W,0.01,0.00,051224,,,D,V*14
$GNVTG,0.00,T,,M,0.01,N,0.01,K,D*26
$GNGGA,192903.000,4910.424418,N,12304.402428,W,2,25,0.65,5.556,M,-16.816,M,,*4E
