$GNGGA,004438.000,4910.426998,N,12304.402686,W,2,31,0.51,-8.445,M,-16.816,M,,*65
$GNGLL,4910.426998,N,12304.402686,W,004438.000,A,D*55
$GNGSA,A,3,06,12,19,24,11,17,03,32,,,,,0.84,0.51,0.67,1*07
$GNGSA,A,3,84,74,75,85,73,66,,,,,,,0.84,0.51,0.67,2*0F
$GNGSA,A,3,21,13,15,27,26,04,06,09,,,,,0.84,0.51,0.67,3*05
$GNGSA,A,3,34,25,11,12,23,43,44,24,39,,,,0.84,0.51,0.67,4*04
$GPGSV,3,1,10,06,60,109,35,12,57,298,35,19,51,062,33,24,45,225,33,1*67
$GPGSV,3,2,10,11,42,168,31,25,42,301,,46,33,188,30,17,22,064,23,1*69
$GPGSV,3,3,10,03,10,032,23,32,09,318,27,1*60
$GLGSV,2,1,07,84,73,056,21,74,61,136,20,75,60,320,35,85,46,206,30,1*7D
$GLGSV,2,2,07,73,16,138,27,83,10,034,,66,09,324,20,1*40
$GAGSV,3,1,09,21,86,056,32,13,57,131,29,15,36,051,30,27,32,111,28,7*76
$GAGSV,3,2,09,26,21,185,25,04,15,289,23,06,13,314,23,09,08,336,18,7*78
$GAGSV,3,3,09,19,04,236,17,7*47
$GBGSV,3,1,12,34,80,119,33,25,69,189,33,11,65,203,30,12,54,059,29,1*7D
$GBGSV,3,2,12,23,46,300,31,43,41,219,29,44,29,055,27,24,19,146,23,1*77
$GBGSV,3,3,12,39,10,330,19,19,03,017,17,48,01,354,,16,01,334,,1*70
$GNRMC,004438.000,A,4910.426998,N,12304.402686,W,0.04,40.82,070125,,,D,V*23
$GNVTG,40.82,T,,M,0.04,N,0.08,K,D*14
$PAIRLOG,Full*51
$GNGGA,004439.000,4910.426998,N,12304.402716,W,2,31,0.51,-8.588,M,-16.816,M,,*6C
$GNGLL,4910.426998,N,12304.402716,W,004439.000,A,D*5C
$GNGSA,A,3,06,12,19,24,11,17,03,32,,,,,0.84,0.51,0.67,1*07
$GNGSA,A,3,84,74,75,85,73,66,,,,,,,0.84,0.51,0.67,2*0F
$GNGSA,A,3,21,13,15,27,26,04,06,09,,,,,0.84,0.51,0.67,3*05
$GNGSA,A,3,34,25,11,12,23,43,44,24,39,,,,0.84,0.51,0.67,4*04
$GPGSV,3,1,10,06,60,109,34,12,57,298,35,19,51,062,33,24,45,225,33,1*66
$GPGSV,3,2,10,11,42,168,30,25,42,301,,46,33,188,30,17,22,064,23,1*68
$GPGSV,3,3,10,03,10,032,22,32,09,318,25,1*63
$GLGSV,2,1,07,84,73,056,21,74,61,136,20,75,60,320,35,85,46,206,30,1*7D
$GLGSV,2,2,07,73,16,138,27,83,10,034,,66,09,324,20,1*40
$GAGSV,3,1,09,21,86,056,32,13,57,131,29,15,36,051,29,27,32,111,27,7*71
$GAGSV,3,2,09,26,21,185,25,04,15,289,23,06,13,314,23,09,08,336,18,7*78
$GAGSV,3,3,09,19,04,236,17,7*47
$GBGSV,3,1,12,34,80,119,33,25,67,187,33,11,65,203,30,12,54,059,29,1*7D
$GBGSV,3,2,12,23,46,300,31,43,41,219,29,44,29,055,27,24,19,146,24,1*70
$GBGSV,3,3,12,39,10,330,19,19,03,017,17,48,01,354,,16,01,334,,1*70
$GNRMC,004439.000,A,4910.426998,N,12304.402716,W,0.04,40.82,070125,,,D,V*2A
$GNVTG,40.82,T,,M,0.04,N,0.08,K,D*14
$PAIRLOG,Full*51
$PAIR010,0,1,2348,175497*3E
$GNGGA,004440.000,4910.427010,N,12304.402758,W,2,31,0.51,-8.705,M,-16.816,M,,*67
$GNGLL,4910.427010,N,12304.402758,W,004440.000,A,D*50
$GNGSA,A,3,06,12,19,24,11,17,03,32,,,,,0.84,0.51,0.67,1*07
$GNGSA,A,3,84,74,75,85,73,66,,,,,,,0.84,0.51,0.67,2*0F
$GNGSA,A,3,21,13,15,27,26,04,06,09,,,,,0.84,0.51,0.67,3*05
$GNGSA,A,3,34,25,11,12,23,43,44,24,39,,,,0.84,0.51,0.67,4*04
$GPGSV,3,1,10,06,60,109,34,12,57,298,35,19,51,062,33,24,45,225,33,1*66
$GPGSV,3,2,10,11,42,168,30,25,42,301,,46,33,188,30,17,22,064,23,1*68
$GPGSV,3,3,10,03,10,032,23,32,09,318,27,1*60
$GLGSV,2,1,07,84,73,056,21,74,61,136,20,75,60,320,35,85,46,206,30,1*7D
$GLGSV,2,2,07,73,16,138,27,83,10,034,,66,09,324,20,1*40
$GAGSV,3,1,09,21,86,056,32,13,57,131,29,15,36,051,30,27,32,111,27,7*79
$GAGSV,3,2,09,26,21,185,25,04,15,289,23,06,13,314,23,09,08,336,18,7*78
$GAGSV,3,3,09,19,04,236,17,7*47
$GBGSV,3,1,12,34,80,119,33,25,67,187,33,11,65,203,30,12,54,059,29,1*7D
$GBGSV,3,2,12,23,46,300,31,43,41,219,29,44,29,055,27,24,19,146,24,1*70
$GBGSV,3,3,12,39,10,330,19,19,03,017,17,48,01,354,,16,01,334,,1*70
$GNRMC,004440.000,A,4910.427010,N,12304.402758,W,0.04,40.82,070125,,,D,V*26
$GNVTG,40.82,T,,M,0.04,N,0.08,K,D*14
$PAIRLOG,Full*51
$GNGGA,004441.000,4910.426998,N,12304.402806,W,2,31,0.51,-8.805,M,-16.817,M,,*64
$GNGLL,4910.426998,N,12304.402806,W,004441.000,A,D*5D
$GNGSA,A,3,06,12,19,24,11,17,03,32,,,,,0.84,0.51,0.67,1*07
$GNGSA,A,3,84,74,75,85,73,66,,,,,,,0.84,0.51,0.67,2*0F
$GNGSA,A,3,21,13,15,27,26,04,06,09,,,,,0.84,0.51,0.67,3*05
$GNGSA,A,3,34,25,11,12,23,43,44,24,39,,,,0.84,0.51,0.67,4*04
$GPGSV,3,1,10,06,60,109,34,12,57,298,35,19,51,062,33,24,45,225,33,1*66
$GPGSV,3,2,10,11,42,168,30,25,42,301,,46,33,188,30,17,22,064,23,1*68
$GPGSV,3,3,10,03,10,032,24,32,09,318,28,1*68
$GLGSV,2,1,07,84,73,056,21,74,61,136,19,75,60,320,35,85,46,206,30,1*77
$GLGSV,2,2,07,73,16,138,27,83,10,034,,66,09,324,20,1*40
$GAGSV,3,1,09,21,86,056,32,13,57,131,29,15,36,051,30,27,32,111,28,7*76
$GAGSV,3,2,09,26,21,185,25,04,15,289,23,06,13,314,23,09,08,336,18,7*78
$GAGSV,3,3,09,19,04,236,17,7*47
$GBGSV,3,1,12,34,80,119,34,25,67,187,34,11,65,203,30,12,54,059,30,1*75
$GBGSV,3,2,12,23,46,300,31,43,41,219,29,44,29,055,27,24,19,146,24,1*70
$GBGSV,3,3,12,39,10,330,20,19,03,017,17,48,01,354,,16,01,334,,1*7A
$GNRMC,004441.000,A,4910.426998,N,12304.402806,W,0.05,40.82,070125,,,D,V*2A
$GNVTG,40.82,T,,M,0.05,N,0.09,K,D*14
$PAIRLOG,Full*51
$GNGGA,004442.000,4910.427010,N,12304.402806,W,2,31,0.51,-8.901,M,-16.817,M,,*6A
$GNGLL,4910.427010,N,12304.402806,W,004442.000,A,D*56
$GNGSA,A,3,06,12,19,24,11,17,03,32,,,,,0.84,0.51,0.67,1*07
$GNGSA,A,3,84,74,75,85,73,66,,,,,,,0.84,0.51,0.67,2*0F
$GNGSA,A,3,21,13,15,27,26,04,06,09,,,,,0.84,0.51,0.67,3*05
$GNGSA,A,3,34,25,11,12,23,43,44,24,39,,,,0.84,0.51,0.67,4*04
$GPGSV,3,1,10,06,60,109,35,12,57,298,35,19,51,062,34,24,45,225,34,1*67
$GPGSV,3,2,10,11,42,168,30,25,42,301,,46,33,188,30,17,22,064,23,1*68
$GPGSV,3,3,10,03,10,032,24,32,09,318,28,1*68
$GLGSV,2,1,07,84,73,056,21,74,61,136,19,75,60,320,35,85,46,206,30,1*77
$GLGSV,2,2,07,73,16,138,27,83,10,034,,66,09,324,19,1*4A
$GAGSV,3,1,09,21,86,056,32,13,57,131,29,15,36,051,30,27,32,111,28,7*76
$GAGSV,3,2,09,26,21,185,25,04,15,289,23,06,13,314,23,09,08,336,18,7*78
$GAGSV,3,3,09,19,04,236,17,7*47
$GBGSV,3,1,12,34,80,119,33,25,67,187,33,11,65,203,30,12,54,059,30,1*75
$GBGSV,3,2,12,23,46,300,31,43,41,219,29,44,29,055,27,24,19,146,24,1*70
$GBGSV,3,3,12,39,10,330,20,19,03,017,18,48,01,354,,16,01,334,,1*75
$GNRMC,004442.000,A,4910.427010,N,12304.402806,W,0.05,40.82,070125,,,D,V*21
$GNVTG,40.82,T,,M,0.05,N,0.09,K,D*14
$PAIRLOG,Full*51
$GNGGA,004443.000,4910.426992,N,12304.402794,W,2,31,0.51,-8.994,M,-16.816,M,,*60
$GNGLL,4910.426992,N,12304.402794,W,004443.000,A,D*51
$GNGSA,A,3,06,12,19,24,11,17,03,32,,,,,0.84,0.51,0.67,1*07
$GNGSA,A,3,84,74,75,85,73,66,,,,,,,0.84,0.51,0.67,2*0F
$GNGSA,A,3,21,13,15,27,26,04,06,09,,,,,0.84,0.51,0.67,3*05
$GNGSA,A,3,34,25,11,12,23,43,44,24,39,,,,0.84,0.51,0.67,4*04
$GPGSV,3,1,10,06,60,109,35,12,57,298,35,19,51,062,34,24,45,225,34,1*67
$GPGSV,3,2,10,11,42,168,30,25,42,301,,46,33,188,30,17,22,064,22,1*69
$GPGSV,3,3,10,03,10,032,24,32,09,318,28,1*68
$GLGSV,2,1,07,84,73,056,21,74,61,136,19,75,60,320,35,85,46,206,30,1*77
$GLGSV,2,2,07,73,16,138,27,83,10,034,,66,09,324,19,1*4A
$GAGSV,3,1,09,21,86,056,32,13,57,131,29,15,36,051,30,27,32,111,27,7*79
$GAGSV,3,2,09,26,21,185,25,04,15,289,23,06,13,314,23,09,08,336,18,7*78
$GAGSV,3,3,09,19,04,236,17,7*47
$GBGSV,3,1,12,34,80,119,33,25,67,187,33,11,65,203,30,12,54,059,30,1*75
$GBGSV,3,2,12,23,46,300,31,43,41,219,29,44,29,055,27,24,19,146,24,1*70
$GBGSV,3,3,12,39,10,330,20,19,03,017,18,48,01,354,,16,01,334,,1*75
$GNRMC,004443.000,A,4910.426992,N,12304.402794,W,0.05,40.82,070125,,,D,V*26
$GNVTG,40.82,T,,M,0.05,N,0.09,K,D*14
$PAIRLOG,Full*51
$GNGGA,004444.000,4910.427004,N,12304.402866,W,2,31,0.51,-9.063,M,-16.816,M,,*62
$GNGLL,4910.427004,N,12304.402866,W,004444.000,A,D*53
$GNGSA,A,3,06,12,19,24,11,17,03,32,,,,,0.84,0.51,0.67,1*07
$GNGSA,A,3,84,74,75,85,73,66,,,,,,,0.84,0.51,0.67,2*0F
$GNGSA,A,3,21,13,15,27,26,04,06,09,,,,,0.84,0.51,0.67,3*05
$GNGSA,A,3,34,25,11,12,23,43,44,24,39,,,,0.84,0.51,0.67,4*04
$GPGSV,3,1,10,06,60,109,35,12,57,298,35,19,51,062,34,24,45,225,34,1*67
$GPGSV,3,2,10,11,42,168,30,25,42,301,,46,33,188,30,17,22,064,22,1*69
$GPGSV,3,3,10,03,10,032,24,32,09,318,28,1*68
$GLGSV,2,1,06,84,73,056,21,74,61,136,19,75,60,320,35,85,46,206,30,1*76
$GLGSV,2,2,06,73,16,138,27,66,09,324,18,1*77
$GAGSV,3,1,09,21,86,056,32,13,57,131,29,15,36,051,30,27,32,111,27,7*79
$GAGSV,3,2,09,26,21,185,25,04,15,289,23,06,13,314,23,09,08,336,18,7*78
$GAGSV,3,3,09,19,04,236,17,7*47
$GBGSV,3,1,12,34,80,119,33,25,67,187,33,11,65,203,30,12,54,059,30,1*75
$GBGSV,3,2,12,23,46,300,31,43,41,219,29,44,29,055,27,24,19,146,24,1*70
$GBGSV,3,3,12,39,10,330,20,19,03,017,18,16,01,334,,48,01,354,,1*75
$GNRMC,004444.000,A,4910.427004,N,12304.402866,W,0.05,40.82,070125,,,D,V*24
$GNVTG,40.82,T,,M,0.05,N,0.09,K,D*14
$PAIRLOG,Full*51
$GNGGA,004445.000,4910.427010,N,12304.402908,W,2,31,0.51,-9.122,M,-16.816,M,,*6B
$GNGLL,4910.427010,N,12304.402908,W,004445.000,A,D*5E
$GNGSA,A,3,06,12,19,24,11,17,03,32,,,,,0.84,0.51,0.67,1*07
$GNGSA,A,3,84,74,75,85,73,66,,,,,,,0.84,0.51,0.67,2*0F
$GNGSA,A,3,21,13,15,27,26,04,06,09,,,,,0.84,0.51,0.67,3*05
$GNGSA,A,3,34,25,11,12,23,43,44,24,39,,,,0.84,0.51,0.67,4*04
$GPGSV,3,1,10,06,60,109,34,12,57,298,34,19,51,062,34,24,45,225,33,1*60
$GPGSV,3,2,10,11,42,168,29,25,42,301,,46,33,188,30,17,22,064,22,1*61
$GPGSV,3,3,10,03,10,032,23,32,09,318,27,1*60
$GLGSV,2,1,07,84,73,056,21,74,61,136,19,75,60,320,35,85,46,206,30,1*77
$GLGSV,2,2,07,73,16,138,27,83,10,034,,66,09,324,18,1*4B
$GAGSV,3,1,09,21,86,056,32,13,57,131,29,15,36,051,30,27,32,111,27,7*79
$GAGSV,3,2,09,26,21,185,24,04,15,289,23,06,13,314,23,09,08,336,18,7*79
$GAGSV,3,3,09,19,04,236,17,7*47
$GBGSV,3,1,12,34,80,119,32,25,67,187,32,11,65,203,29,12,54,059,29,1*75
$GBGSV,3,2,12,23,46,300,30,43,41,219,28,44,29,055,26,24,19,146,23,1*76
$GBGSV,3,3,12,39,10,330,20,19,03,017,18,48,01,354,,16,01,334,,1*75
$GNRMC,004445.000,A,4910.427010,N,12304.402908,W,0.05,40.82,070125,,,D,V*29
$GNVTG,40.82,T,,M,0.05,N,0.09,K,D*14
$PAIRLOG,Full*51
$GNGGA,004446.000,4910.426992,N,12304.402902,W,2,31,0.51,-9.189,M,-16.816,M,,*61
$GNGLL,4910.426992,N,12304.402902,W,004446.000,A,D*55
$GNGSA,A,3,06,12,19,24,11,17,03,32,,,,,0.84,0.51,0.67,1*07
$GNGSA,A,3,84,74,75,85,73,66,,,,,,,0.84,0.51,0.67,2*0F
$GNGSA,A,3,21,13,15,27,26,04,06,09,,,,,0.84,0.51,0.67,3*05
$GNGSA,A,3,34,25,11,12,23,43,44,24,39,,,,0.84,0.51,0.67,4*04
$GPGSV,3,1,10,06,60,109,34,12,57,298,34,19,51,062,34,24,45,225,33,1*60
$GPGSV,3,2,10,11,42,168,29,25,42,301,,46,33,188,30,17,22,064,21,1*62
$GPGSV,3,3,10,03,10,032,23,32,09,318,27,1*60
$GLGSV,2,1,07,84,73,056,21,74,61,136,19,75,60,320,35,85,46,206,29,1*7F
$GLGSV,2,2,07,73,16,138,27,83,10,034,,66,09,324,18,1*4B
$GAGSV,3,1,09,21,86,056,32,13,57,131,29,15,36,051,30,27,32,111,27,7*79
$GAGSV,3,2,09,26,21,185,24,04,15,289,23,06,13,314,23,09,08,336,18,7*79
$GAGSV,3,3,09,19,04,236,17,7*47
$GBGSV,3,1,12,34,80,119,32,25,67,187,32,11,65,203,29,12,54,059,29,1*75
$GBGSV,3,2,12,23,46,300,30,43,41,219,28,44,29,055,26,24,19,146,22,1*77
$GBGSV,3,3,12,39,10,330,20,19,03,017,17,48,01,354,,16,01,334,,1*7A
$GNRMC,004446.000,A,4910.426992,N,12304.402902,W,0.05,40.82,070125,,,D,V*22
$GNVTG,40.82,T,,M,0.05,N,0.09,K,D*14
$PAIRLOG,Full*51
$GNGGA,004447.000,4910.427016,N,12304.402944,W,2,31,0.51,-9.209,M,-16.816,M,,*6D
$GNGLL,4910.427016,N,12304.402944,W,004447.000,A,D*52
$GNGSA,A,3,06,12,19,24,11,17,03,32,,,,,0.84,0.51,0.67,1*07
$GNGSA,A,3,84,74,75,85,73,66,,,,,,,0.84,0.51,0.67,2*0F
$GNGSA,A,3,21,13,15,27,26,04,06,09,,,,,0.84,0.51,0.67,3*05
$GNGSA,A,3,34,25,11,12,23,43,44,24,39,,,,0.84,0.51,0.67,4*04
$GPGSV,3,1,10,06,60,109,34,12,57,298,35,19,51,062,34,24,45,225,33,1*61
$GPGSV,3,2,10,11,42,168,30,25,42,301,,46,33,188,30,17,22,064,21,1*6A
$GPGSV,3,3,10,03,10,032,23,32,09,318,27,1*60
$GLGSV,2,1,07,84,73,056,21,74,61,136,19,75,60,320,35,85,46,206,29,1*7F
$GLGSV,2,2,07,73,16,138,27,83,10,034,,66,09,324,17,1*44
$GAGSV,3,1,09,21,86,056,33,13,57,131,30,15,36,051,30,27,32,111,27,7*70
$GAGSV,3,2,09,26,21,185,24,04,15,289,23,06,13,314,23,09,08,336,18,7*79
$GAGSV,3,3,09,19,04,236,16,7*46
$GBGSV,3,1,12,34,80,119,32,25,67,187,32,11,65,203,29,12,54,059,29,1*75
$GBGSV,3,2,12,23,46,300,31,43,41,219,28,44,29,055,26,24,19,146,22,1*76
$GBGSV,3,3,12,39,10,330,20,19,03,017,17,48,01,354,,16,01,334,,1*7A
$GNRMC,004447.000,A,4910.427016,N,12304.402944,W,0.04,40.82,070125,,,D,V*24
$GNVTG,40.82,T,,M,0.04,N,0.08,K,D*14
$PAIRLOG,Full*51
$GNGGA,004448.000,4910.427046,N,12304.402962,W,2,31,0.51,-9.232,M,-16.817,M,,*6A
$GNGLL,4910.427046,N,12304.402962,W,004448.000,A,D*5C
$GNGSA,A,3,06,12,19,24,11,17,03,32,,,,,0.84,0.51,0.67,1*07
$GNGSA,A,3,84,74,75,85,73,66,,,,,,,0.84,0.51,0.67,2*0F
$GNGSA,A,3,21,13,15,27,26,04,06,09,,,,,0.84,0.51,0.67,3*05
$GNGSA,A,3,34,25,11,12,23,43,44,24,39,,,,0.84,0.51,0.67,4*04
$GPGSV,3,1,10,06,60,109,34,12,57,298,35,19,51,062,34,24,45,225,33,1*61
$GPGSV,3,2,10,11,42,168,30,25,42,301,,46,33,188,31,17,22,064,21,1*6B
$GPGSV,3,3,10,03,10,032,24,32,09,318,27,1*67
$GLGSV,2,1,07,84,73,056,21,74,61,136,19,75,60,320,36,85,46,206,29,1*7C
$GLGSV,2,2,07,73,16,138,27,83,10,034,,66,09,324,17,1*44
$GAGSV,3,1,09,21,86,056,33,13,57,131,30,15,36,051,30,27,32,111,27,7*70
$GAGSV,3,2,09,26,21,185,24,04,15,289,23,06,13,314,23,09,08,336,18,7*79
$GAGSV,3,3,09,19,04,236,16,7*46
$GBGSV,3,1,12,34,80,112,32,25,67,187,32,11,65,203,29,12,54,059,28,1*7F
$GBGSV,3,2,12,23,46,300,31,43,41,219,28,44,29,055,26,24,19,146,22,1*76
$GBGSV,3,3,12,39,10,330,20,19,03,017,17,48,01,354,,16,01,334,,1*7A
$GNRMC,004448.000,A,4910.427046,N,12304.402962,W,0.04,40.82,070125,,,D,V*2A
$GNVTG,40.82,T,,M,0.04,N,0.07,K,D*1B
$PAIRLOG,Full*51
$GNGGA,004449.000,4910.427064,N,12304.403004,W,2,31,0.51,-9.276,M,-16.816,M,,*62
$GNGLL,4910.427064,N,12304.403004,W,004449.000,A,D*55
$GNGSA,A,3,06,12,19,24,11,17,03,32,,,,,0.84,0.51,0.67,1*07
$GNGSA,A,3,84,74,75,85,73,66,,,,,,,0.84,0.51,0.67,2*0F
$GNGSA,A,3,21,13,15,27,26,04,06,09,,,,,0.84,0.51,0.67,3*05
$GNGSA,A,3,34,25,11,12,23,43,44,24,39,,,,0.84,0.51,0.67,4*04
$GPGSV,3,1,10,06,60,109,35,12,57,298,36,19,51,062,34,24,45,225,33,1*63
$GPGSV,3,2,10,11,42,168,30,25,42,301,,46,33,188,31,17,22,064,21,1*6B
$GPGSV,3,3,10,03,10,032,24,32,09,318,28,1*68
$GLGSV,2,1,07,84,73,056,21,74,61,136,19,75,60,320,36,85,46,206,29,1*7C
$GLGSV,2,2,07,73,16,138,27,83,10,034,,66,09,324,17,1*44
$GAGSV,3,1,09,21,86,056,33,13,57,131,30,15,36,051,30,27,32,111,27,7*70
$GAGSV,3,2,09,26,21,185,24,04,15,289,23,06,13,314,23,09,08,336,19,7*78
$GAGSV,3,3,09,19,04,236,16,7*46
$GBGSV,3,1,12,34,80,112,32,25,67,187,32,11,65,203,29,12,54,059,28,1*7F
$GBGSV,3,2,12,23,46,300,31,43,41,219,28,44,29,055,26,24,19,146,22,1*76
$GBGSV,3,3,12,39,10,330,20,19,03,017,17,48,01,354,,16,01,334,,1*7A
$GNRMC,004449.000,A,4910.427064,N,12304.403004,W,0.03,40.82,070125,,,D,V*24
$GNVTG,40.82,T,,M,0.03,N,0.06,K,D*1D
$PAIRLOG,Full*51
$GNGGA,004450.000,4910.427100,N,12304.403082,W,2,31,0.51,-9.277,M,-16.816,M,,*66
$GNGLL,4910.427100,N,12304.403082,W,004450.000,A,D*50
$GNGSA,A,3,06,12,19,24,11,17,03,32,,,,,0.84,0.51,0.67,1*07
$GNGSA,A,3,84,74,75,85,73,66,,,,,,,0.84,0.51,0.67,2*0F
$GNGSA,A,3,21,13,15,27,26,04,06,09,,,,,0.84,0.51,0.67,3*05
$GNGSA,A,3,34,25,11,12,23,43,44,24,39,,,,0.84,0.51,0.67,4*04
$GPGSV,3,1,10,06,60,109,35,12,57,298,36,19,51,062,34,24,45,225,33,1*63
$GPGSV,3,2,10,11,42,168,30,25,42,301,,46,33,188,31,17,22,064,21,1*6B
$GPGSV,3,3,10,03,10,032,25,32,09,318,28,1*69
$GLGSV,2,1,07,84,73,056,21,74,61,136,18,75,60,320,36,85,46,206,29,1*7D
$GLGSV,2,2,07,73,16,138,27,83,10,034,,66,09,324,14,1*47
$GAGSV,3,1,09,21,86,056,33,13,57,131,31,15,36,051,30,27,32,111,28,7*7E
$GAGSV,3,2,09,26,21,185,24,04,15,289,23,06,13,314,23,09,08,336,19,7*78
$GAGSV,3,3,09,19,04,236,17,7*47
$GBGSV,3,1,12,34,80,112,32,25,67,187,32,11,65,203,29,12,54,059,28,1*7F
$GBGSV,3,2,12,23,46,300,31,43,41,219,28,44,29,055,26,24,19,146,22,1*76
$GBGSV,3,3,12,39,10,330,20,19,03,017,17,48,01,354,,16,01,334,,1*7A
$GNRMC,004450.000,A,4910.427100,N,12304.403082,W,0.03,40.82,070125,,,D,V*21
$GNVTG,40.82,T,,M,0.03,N,0.06,K,D*1D
$PAIRLOG,Full*51
$GNGGA,004451.000,4910.427136,N,12304.403160,W,2,31,0.51,-9.312,M,-16.816,M,,*6D
$GNGLL,4910.427136,N,12304.403160,W,004451.000,A,D*59
$GNGSA,A,3,06,12,19,24,11,17,03,32,,,,,0.84,0.51,0.67,1*07
$GNGSA,A,3,84,74,75,85,73,66,,,,,,,0.84,0.51,0.67,2*0F
$GNGSA,A,3,21,13,15,27,26,04,06,09,,,,,0.84,0.51,0.67,3*05
$GNGSA,A,3,34,25,11,12,23,43,44,24,39,,,,0.84,0.51,0.67,4*04
$GPGSV,3,1,10,06,60,109,35,12,57,298,36,19,51,062,34,24,45,225,33,1*63
$GPGSV,3,2,10,11,42,168,30,25,42,301,,46,33,188,31,17,22,064,21,1*6B
$GPGSV,3,3,10,03,10,032,24,32,09,318,28,1*68
$GLGSV,2,1,07,84,73,056,21,74,61,136,18,75,60,320,36,85,46,206,28,1*7C
$GLGSV,2,2,07,73,16,138,27,83,10,034,,66,09,324,17,1*44
$GAGSV,3,1,09,21,86,056,33,13,57,131,31,15,36,051,30,27,32,111,28,7*7E
$GAGSV,3,2,09,26,21,185,24,04,15,289,22,06,13,314,23,09,08,336,19,7*79
$GAGSV,3,3,09,19,04,236,17,7*47
$GBGSV,3,1,12,34,80,112,32,25,67,187,32,11,65,203,29,12,54,059,29,1*7E
$GBGSV,3,2,12,23,46,300,31,43,41,219,28,44,29,055,26,24,19,146,22,1*76
$GBGSV,3,3,12,39,10,330,20,19,03,017,17,48,01,354,,16,01,334,,1*7A
$GNRMC,004451.000,A,4910.427136,N,12304.403160,W,0.04,40.82,070125,,,D,V*2F
$GNVTG,40.82,T,,M,0.04,N,0.07,K,D*1B
$PAIRLOG,Full*51
$GNGGA,004452.000,4910.427166,N,12304.403256,W,2,31,0.51,-9.236,M,-16.816,M,,*6A
$GNGLL,4910.427166,N,12304.403256,W,004452.000,A,D*59
$GNGSA,A,3,06,12,19,24,11,17,03,32,,,,,0.84,0.51,0.67,1*07
$GNGSA,A,3,84,74,75,85,73,66,,,,,,,0.84,0.51,0.67,2*0F
$GNGSA,A,3,21,13,15,27,26,04,06,09,,,,,0.84,0.51,0.67,3*05
$GNGSA,A,3,34,25,11,12,23,43,44,24,39,,,,0.84,0.51,0.67,4*04
$GPGSV,3,1,10,06,60,109,36,12,57,298,36,19,51,062,35,24,45,225,33,1*61
$GPGSV,3,2,10,11,42,168,31,25,42,301,,46,33,188,31,17,22,064,21,1*6A
$GPGSV,3,3,10,03,10,032,25,32,09,318,28,1*69
$GLGSV,2,1,07,84,73,056,21,74,61,136,18,75,60,320,36,85,46,206,28,1*7C
$GLGSV,2,2,07,73,16,138,27,83,10,034,,66,09,324,17,1*44
$GAGSV,3,1,09,21,86,056,34,13,57,131,31,15,36,051,30,27,32,111,29,7*78
$GAGSV,3,2,09,26,21,185,24,04,15,289,22,06,13,314,24,09,08,336,20,7*74
$GAGSV,3,3,09,19,04,236,17,7*47
$GBGSV,3,1,12,34,80,112,32,25,67,187,32,11,65,203,29,12,54,059,29,1*7E
$GBGSV,3,2,12,23,46,300,31,43,41,219,28,44,29,055,27,24,19,146,23,1*76
$GBGSV,3,3,12,39,10,330,20,19,03,017,17,48,01,354,,16,01,334,,1*7A
$GNRMC,004452.000,A,4910.427166,N,12304.403256,W,0.04,40.82,070125,,,D,V*2F
$GNVTG,40.82,T,,M,0.04,N,0.08,K,D*14
$PAIRLOG,Full*51
$GNGGA,004453.000,4910.427184,N,12304.403322,W,2,31,0.51,-9.265,M,-16.816,M,,*63
$GNGLL,4910.427184,N,12304.403322,W,004453.000,A,D*56
$GNGSA,A,3,06,12,19,24,11,17,03,32,,,,,0.84,0.51,0.67,1*07
$GNGSA,A,3,84,74,75,85,73,66,,,,,,,0.84,0.51,0.67,2*0F
$GNGSA,A,3,21,13,15,27,26,04,06,09,,,,,0.84,0.51,0.67,3*05
$GNGSA,A,3,34,25,11,12,23,43,44,24,39,,,,0.84,0.51,0.67,4*04
$GPGSV,3,1,10,06,60,109,36,12,57,298,36,19,51,062,35,24,45,225,33,1*61
$GPGSV,3,2,10,11,42,168,31,25,42,301,,46,33,188,31,17,22,064,21,1*6A
$GPGSV,3,3,10,03,10,032,25,32,09,318,28,1*69
$GLGSV,2,1,07,84,73,056,21,74,61,136,17,75,60,320,36,85,46,206,28,1*73
$GLGSV,2,2,07,73,16,138,27,83,10,034,,66,09,324,16,1*45
$GAGSV,3,1,09,21,86,056,34,13,57,131,31,15,36,051,30,27,32,111,29,7*78
$GAGSV,3,2,09,26,21,185,24,04,15,289,22,06,13,314,24,09,08,336,20,7*74
$GAGSV,3,3,09,19,04,236,17,7*47
$GBGSV,3,1,12,34,80,112,32,25,67,187,32,11,65,203,29,12,54,059,29,1*7E
$GBGSV,3,2,12,23,46,300,31,43,41,219,28,44,29,055,27,24,19,146,23,1*76
$GBGSV,3,3,12,39,11,330,20,19,03,017,17,48,01,354,,16,01,334,,1*7B
$GNRMC,004453.000,A,4910.427184,N,12304.403322,W,0.05,40.82,070125,,,D,V*21
$GNVTG,40.82,T,,M,0.05,N,0.09,K,D*14
$PAIRLOG,Full*51
$GNGGA,004454.000,4910.427184,N,12304.403382,W,2,31,0.51,-9.269,M,-16.817,M,,*63
$GNGLL,4910.427184,N,12304.403382,W,004454.000,A,D*5B
$GNGSA,A,3,06,12,19,24,11,17,03,32,,,,,0.84,0.51,0.67,1*07
$GNGSA,A,3,84,74,75,85,73,66,,,,,,,0.84,0.51,0.67,2*0F
$GNGSA,A,3,21,13,15,27,26,04,06,09,,,,,0.84,0.51,0.67,3*05
$GNGSA,A,3,34,25,11,12,23,43,44,24,39,,,,0.84,0.51,0.67,4*04
$GPGSV,3,1,10,06,60,109,36,12,57,298,36,19,51,062,35,24,45,225,33,1*61
$GPGSV,3,2,10,11,42,168,31,25,42,301,,46,33,188,31,17,22,064,21,1*6A
$GPGSV,3,3,10,03,10,032,24,32,09,318,28,1*68
$GLGSV,2,1,07,84,73,056,21,74,61,136,16,75,60,320,36,85,46,206,28,1*72
$GLGSV,2,2,07,73,16,138,27,83,10,034,,66,09,324,16,1*45
$GAGSV,3,1,09,21,86,056,34,13,57,131,31,15,36,051,30,27,32,111,28,7*79
$GAGSV,3,2,09,26,21,185,24,04,15,289,22,06,13,314,24,09,08,336,20,7*74
$GAGSV,3,3,09,19,04,236,17,7*47
$GBGSV,3,1,12,34,80,112,32,25,67,187,32,11,65,203,29,12,54,059,29,1*7E
$GBGSV,3,2,12,23,46,300,31,43,41,219,28,44,29,055,27,24,19,146,23,1*76
$GBGSV,3,3,12,39,11,330,20,19,03,017,17,48,01,354,,16,01,334,,1*7B
$GNRMC,004454.000,A,4910.427184,N,12304.403382,W,0.05,40.82,070125,,,D,V*2C
$GNVTG,40.82,T,,M,0.05,N,0.10,K,D*1C
$PAIRLOG,Full*51
$GNGGA,004455.000,4910.427190,N,12304.403400,W,2,31,0.51,-9.269,M,-16.816,M,,*6B
$GNGLL,4910.427190,N,12304.403400,W,004455.000,A,D*52
$GNGSA,A,3,06,12,19,24,11,17,03,32,,,,,0.84,0.51,0.67,1*07
$GNGSA,A,3,84,74,75,85,73,66,,,,,,,0.84,0.51,0.67,2*0F
$GNGSA,A,3,21,13,15,27,26,04,06,09,,,,,0.84,0.51,0.67,3*05
$GNGSA,A,3,34,25,11,12,23,43,44,24,39,,,,0.84,0.51,0.67,4*04
$GPGSV,3,1,10,06,60,109,35,12,57,298,36,19,51,062,35,24,45,225,33,1*62
$GPGSV,3,2,10,11,42,168,31,25,42,301,,46,33,188,31,17,22,064,20,1*6B
$GPGSV,3,3,10,03,10,032,23,32,09,318,28,1*6F
$GLGSV,2,1,07,84,73,056,20,74,61,136,16,75,60,320,36,85,46,206,28,1*73
$GLGSV,2,2,07,73,16,138,27,83,10,034,,66,09,324,17,1*44
$GAGSV,3,1,09,21,86,056,34,13,57,131,31,15,36,051,30,27,32,111,28,7*79
$GAGSV,3,2,09,26,21,185,24,04,15,289,22,06,13,314,24,09,08,336,20,7*74
$GAGSV,3,3,09,19,04,236,17,7*47
$GBGSV,3,1,12,34,80,112,32,25,67,187,32,11,65,203,29,12,54,059,29,1*7E
$GBGSV,3,2,12,23,46,300,31,43,41,219,28,44,29,055,26,24,19,146,22,1*76
$GBGSV,3,3,12,39,11,330,20,19,03,017,16,48,01,354,,16,01,334,,1*7A
$GNRMC,004455.000,A,4910.427190,N,12304.403400,W,0.06,40.82,070125,,,D,V*26
$GNVTG,40.82,T,,M,0.06,N,0.10,K,D*1F
$PAIRLOG,Full*51
$GNGGA,004456.000,4910.427232,N,12304.403424,W,2,31,0.51,-9.231,M,-16.817,M,,*69
$GNGLL,4910.427232,N,12304.403424,W,004456.000,A,D*5C
$GNGSA,A,3,06,12,19,24,11,17,03,32,,,,,0.84,0.51,0.67,1*07
$GNGSA,A,3,84,74,75,85,73,66,,,,,,,0.84,0.51,0.67,2*0F
$GNGSA,A,3,21,13,15,27,26,04,06,09,,,,,0.84,0.51,0.67,3*05
$GNGSA,A,3,34,25,11,12,23,43,44,24,39,,,,0.84,0.51,0.67,4*04
$GPGSV,3,1,10,06,60,109,35,12,57,298,36,19,51,062,35,24,45,225,33,1*62
$GPGSV,3,2,10,11,42,168,31,25,42,301,,46,33,188,31,17,22,064,21,1*6A
$GPGSV,3,3,10,03,10,032,23,32,09,318,28,1*6F
$GLGSV,2,1,07,84,73,056,20,74,61,136,16,75,60,320,36,85,46,206,28,1*73
$GLGSV,2,2,07,73,16,138,27,83,10,034,,66,09,324,16,1*45
$GAGSV,3,1,09,21,86,056,34,13,57,131,31,15,36,051,30,27,32,111,28,7*79
$GAGSV,3,2,09,26,21,185,24,04,15,289,22,06,13,314,24,09,08,336,20,7*74
$GAGSV,3,3,09,19,04,236,17,7*47
$GBGSV,3,1,12,34,80,112,32,25,67,187,32,11,65,203,29,12,54,059,29,1*7E
$GBGSV,3,2,12,23,46,300,31,43,41,219,28,44,29,055,26,24,19,146,22,1*76
$GBGSV,3,3,12,39,11,330,20,19,03,017,16,48,01,354,,16,01,334,,1*7A
$GNRMC,004456.000,A,4910.427232,N,12304.403424,W,0.06,40.82,070125,,,D,V*28
$GNVTG,40.82,T,,M,0.06,N,0.11,K,D*1E
$PAIRLOG,Full*51
$GNGGA,004457.000,4910.427208,N,12304.403490,W,2,31,0.51,-9.138,M,-16.817,M,,*64
$GNGLL,4910.427208,N,12304.403490,W,004457.000,A,D*5B
$GNGSA,A,3,06,12,19,24,11,17,03,32,,,,,0.84,0.51,0.67,1*07
$GNGSA,A,3,84,74,75,85,73,66,,,,,,,0.84,0.51,0.67,2*0F
$GNGSA,A,3,21,13,15,27,26,04,06,09,,,,,0.84,0.51,0.67,3*05
$GNGSA,A,3,34,25,11,12,23,43,44,24,39,,,,0.84,0.51,0.67,4*04
$GPGSV,3,1,10,06,60,109,35,12,57,298,35,19,51,062,34,24,45,225,32,1*61
$GPGSV,3,2,10,11,42,168,31,25,42,301,,46,33,188,31,17,22,064,21,1*6A
$GPGSV,3,3,10,03,10,032,23,32,09,318,27,1*60
$GLGSV,2,1,07,84,73,056,20,74,61,136,16,75,60,320,36,85,46,206,28,1*73
$GLGSV,2,2,07,73,16,138,27,83,10,034,,66,09,324,18,1*4B
$GAGSV,3,1,09,21,86,056,33,13,57,131,31,15,36,051,30,27,32,111,28,7*7E
$GAGSV,3,2,09,26,21,185,24,04,15,289,22,06,13,314,23,09,08,336,20,7*73
$GAGSV,3,3,09,19,04,236,16,7*46
$GBGSV,3,1,12,34,80,112,32,25,67,187,32,11,65,203,29,12,54,059,28,1*7F
$GBGSV,3,2,12,23,46,300,30,43,42,220,28,44,29,055,26,24,19,146,22,1*7E
$GBGSV,3,3,12,39,11,330,19,19,03,017,16,48,01,354,,16,01,334,,1*70
$GNRMC,004457.000,A,4910.427208,N,12304.403490,W,0.06,40.82,070125,,,D,V*2F
$GNVTG,40.82,T,,M,0.06,N,0.11,K,D*1E
$PAIRLOG,Full*51
$GNGGA,004458.000,4910.427232,N,12304.403478,W,2,31,0.51,-9.028,M,-16.817,M,,*64
$GNGLL,4910.427232,N,12304.403478,W,004458.000,A,D*5B
$GNGSA,A,3,06,12,19,24,11,17,03,32,,,,,0.84,0.51,0.67,1*07
$GNGSA,A,3,84,74,75,85,73,66,,,,,,,0.84,0.51,0.67,2*0F
$GNGSA,A,3,21,13,15,27,26,04,06,09,,,,,0.84,0.51,0.67,3*05
$GNGSA,A,3,34,25,11,12,23,43,44,24,39,,,,0.84,0.51,0.67,4*04
$GPGSV,3,1,10,06,60,109,35,12,57,298,35,19,51,062,34,24,45,225,32,1*61
$GPGSV,3,2,10,11,42,168,31,25,42,301,,46,33,188,31,17,22,064,20,1*6B
$GPGSV,3,3,10,03,10,032,23,32,09,318,26,1*61
$GLGSV,2,1,07,84,73,056,20,74,61,136,16,75,60,320,36,85,46,206,28,1*73
$GLGSV,2,2,07,73,16,138,27,83,10,034,,66,09,324,17,1*44
$GAGSV,3,1,09,21,86,056,33,13,57,131,31,15,36,051,30,27,32,111,28,7*7E
$GAGSV,3,2,09,26,21,185,24,04,15,289,22,06,13,314,23,09,08,336,20,7*73
$GAGSV,3,3,09,19,04,236,17,7*47
$GBGSV,3,1,12,34,80,112,32,25,67,187,32,11,65,203,29,12,54,059,28,1*7F
$GBGSV,3,2,12,23,46,300,30,43,42,220,28,44,28,055,26,24,19,146,22,1*7F
$GBGSV,3,3,12,39,11,330,19,19,03,017,16,48,01,354,,16,01,334,,1*70
$GNRMC,004458.000,A,4910.427232,N,12304.403478,W,0.06,40.82,070125,,,D,V*2F
$GNVTG,40.82,T,,M,0.06,N,0.10,K,D*1F
$PAIRLOG,Full*51
$GNGGA,004459.000,4910.427250,N,12304.403508,W,2,31,0.51,-8.886,M,-16.817,M,,*6A
$GNGLL,4910.427250,N,12304.403508,W,004459.000,A,D*58
$GNGSA,A,3,06,12,19,24,11,17,03,32,,,,,0.84,0.51,0.67,1*07
$GNGSA,A,3,84,74,75,85,73,66,,,,,,,0.84,0.51,0.67,2*0F
$GNGSA,A,3,21,13,15,27,26,04,06,09,,,,,0.84,0.51,0.67,3*05
$GNGSA,A,3,34,25,11,12,23,43,44,24,39,,,,0.84,0.51,0.67,4*04
$GPGSV,3,1,10,06,60,109,35,12,57,298,35,19,51,062,34,24,45,225,32,1*61
$GPGSV,3,2,10,11,42,168,31,25,42,301,,46,33,188,31,17,22,064,20,1*6B
$GPGSV,3,3,10,03,10,032,22,32,09,318,26,1*60
$GLGSV,2,1,07,84,73,056,20,74,61,136,16,75,60,320,36,85,46,206,28,1*73
$GLGSV,2,2,07,73,16,138,27,83,10,034,,66,09,324,17,1*44
$GAGSV,3,1,09,21,86,056,33,13,57,131,31,15,36,051,29,27,32,111,28,7*76
$GAGSV,3,2,09,26,21,185,24,04,15,289,22,06,13,314,23,09,08,336,20,7*73
$GAGSV,3,3,09,19,04,236,17,7*47
$GBGSV,3,1,12,34,80,112,31,25,67,187,31,11,65,203,29,12,54,059,28,1*7F
$GBGSV,3,2,12,23,46,300,30,43,42,220,28,44,28,055,26,24,19,146,21,1*7C
$GBGSV,3,3,12,39,11,330,19,19,03,017,16,48,01,354,,16,01,334,,1*70
$GNRMC,004459.000,A,4910.427250,N,12304.403508,W,0.05,40.82,070125,,,D,V*2F
$GNVTG,40.82,T,,M,0.05,N,0.10,K,D*1C
$PAIRLOG,Full*51
$GNGGA,004500.000,4910.427250,N,12304.403514,W,2,31,0.51,-8.786,M,-16.816,M,,*64
$GNGLL,4910.427250,N,12304.403514,W,004500.000,A,D*58
$GNGSA,A,3,06,12,19,24,11,17,03,32,,,,,0.84,0.51,0.67,1*07
$GNGSA,A,3,84,74,75,85,73,66,,,,,,,0.84,0.51,0.67,2*0F
$GNGSA,A,3,21,13,15,27,26,04,06,09,,,,,0.84,0.51,0.67,3*05
$GNGSA,A,3,34,25,11,12,23,43,44,24,39,,,,0.84,0.51,0.67,4*04
$GPGSV,3,1,10,06,60,109,35,12,57,298,35,19,51,062,34,24,45,225,32,1*61
$GPGSV,3,2,10,11,42,168,31,25,42,301,,46,33,188,31,17,22,064,20,1*6B
$GPGSV,3,3,10,03,10,032,22,32,09,318,26,1*60
$GLGSV,2,1,07,84,73,056,20,74,61,136,16,75,60,320,36,85,46,206,28,1*73
$GLGSV,2,2,07,73,16,138,27,83,10,034,,66,09,324,17,1*44
$GAGSV,3,1,09,21,86,056,33,13,57,131,31,15,36,051,29,27,32,111,28,7*76
$GAGSV,3,2,09,26,21,185,23,04,15,289,22,06,13,314,23,09,08,336,20,7*74
$GAGSV,3,3,09,19,04,236,17,7*47
$GBGSV,3,1,12,34,80,112,31,25,67,187,31,11,65,203,29,12,54,059,28,1*7F
$GBGSV,3,2,12,23,46,300,30,43,42,220,27,44,28,055,26,24,19,146,21,1*73
$GBGSV,3,3,12,39,11,330,19,19,03,017,16,48,01,354,,16,01,334,,1*70
$GNRMC,004500.000,A,4910.427250,N,12304.403514,W,0.05,40.82,070125,,,D,V*2F
$GNVTG,40.82,T,,M,0.05,N,0.09,K,D*14
$PAIRLOG,Full*51
$GNGGA,004501.000,4910.427214,N,12304.403532,W,2,30,0.52,-8.636,M,-16.816,M,,*69
$GNGLL,4910.427214,N,12304.403532,W,004501.000,A,D*5D
$GNGSA,A,3,06,12,19,24,11,17,03,32,,,,,0.87,0.52,0.70,1*01
$GNGSA,A,3,74,75,85,73,66,,,,,,,,0.87,0.52,0.70,2*05
$GNGSA,A,3,21,13,15,27,26,04,06,09,,,,,0.87,0.52,0.70,3*03
$GNGSA,A,3,34,25,11,12,23,43,44,24,39,,,,0.87,0.52,0.70,4*02
$GPGSV,3,1,10,06,60,109,35,12,57,298,35,19,51,062,34,24,45,225,32,1*61
$GPGSV,3,2,10,11,42,168,31,25,42,301,,46,33,188,31,17,22,064,20,1*6B
$GPGSV,3,3,10,03,10,032,22,32,09,318,26,1*60
$GLGSV,2,1,07,84,73,056,21,74,61,136,16,75,60,320,36,85,46,206,28,1*72
$GLGSV,2,2,07,73,16,138,27,83,10,034,,66,09,324,18,1*4B
$GAGSV,3,1,09,21,86,056,33,13,57,131,31,15,36,051,29,27,32,111,28,7*76
$GAGSV,3,2,09,26,21,185,23,04,15,289,22,06,13,314,24,09,08,336,20,7*73
$GAGSV,3,3,09,19,04,236,17,7*47
$GBGSV,3,1,12,34,80,112,32,25,67,187,31,11,65,203,29,12,54,059,28,1*7C
$GBGSV,3,2,12,23,46,300,30,43,42,220,27,44,28,055,26,24,19,146,21,1*73
$GBGSV,3,3,12,39,11,330,19,19,03,017,16,48,01,354,,16,01,334,,1*70
$GNRMC,004501.000,A,4910.427214,N,12304.403532,W,0.04,40.82,070125,,,D,V*2B
$GNVTG,40.82,T,,M,0.04,N,0.08,K,D*14
$PAIRLOG,Full*51
$GNGGA,004502.000,4910.427220,N,12304.403580,W,2,30,0.52,-8.496,M,-16.816,M,,*6C
$GNGLL,4910.427220,N,12304.403580,W,004502.000,A,D*50
$GNGSA,A,3,06,12,19,24,11,17,03,32,,,,,0.87,0.52,0.70,1*01
$GNGSA,A,3,74,75,85,73,66,,,,,,,,0.87,0.52,0.70,2*05
$GNGSA,A,3,21,13,15,27,26,04,06,09,,,,,0.87,0.52,0.70,3*03
$GNGSA,A,3,34,25,11,12,23,43,44,24,39,,,,0.87,0.52,0.70,4*02
$GPGSV,3,1,10,06,60,109,35,12,57,298,35,19,51,062,34,24,45,225,32,1*61
$GPGSV,3,2,10,11,42,168,31,25,42,301,,46,33,188,31,17,22,064,20,1*6B
$GPGSV,3,3,10,03,10,032,22,32,09,318,26,1*60
$GLGSV,2,1,07,84,73,056,21,74,61,136,16,75,60,320,36,85,46,206,28,1*72
$GLGSV,2,2,07,73,16,138,27,83,10,034,,66,09,324,18,1*4B
$GAGSV,3,1,09,21,86,056,33,13,57,131,31,15,36,051,29,27,32,111,28,7*76
$GAGSV,3,2,09,26,21,185,23,04,15,289,21,06,13,314,24,09,08,336,20,7*70
$GAGSV,3,3,09,19,04,236,17,7*47
$GBGSV,3,1,12,34,80,112,32,25,67,187,31,11,65,203,29,12,54,059,28,1*7C
$GBGSV,3,2,12,23,46,300,30,43,42,220,27,44,28,055,27,24,19,146,21,1*72
$GBGSV,3,3,12,39,11,330,19,19,03,017,16,48,01,353,,16,01,334,,1*77
$GNRMC,004502.000,A,4910.427220,N,12304.403580,W,0.04,40.82,070125,,,D,V*26
$GNVTG,40.82,T,,M,0.04,N,0.08,K,D*14
$PAIRLOG,Full*51
$GNGGA,004503.000,4910.427226,N,12304.403688,W,2,30,0.52,-8.378,M,-16.817,M,,*66
$GNGLL,4910.427226,N,12304.403688,W,004503.000,A,D*5C
$GNGSA,A,3,06,12,19,24,11,17,03,32,,,,,0.87,0.52,0.70,1*01
$GNGSA,A,3,74,75,85,73,66,,,,,,,,0.87,0.52,0.70,2*05
$GNGSA,A,3,21,13,15,27,26,04,06,09,,,,,0.87,0.52,0.70,3*03
$GNGSA,A,3,34,25,11,12,23,43,44,24,39,,,,0.87,0.52,0.70,4*02
$GPGSV,3,1,10,06,60,109,35,12,57,298,35,19,51,062,35,24,45,225,32,1*60
$GPGSV,3,2,10,11,42,168,31,25,42,301,,46,33,188,31,17,22,064,21,1*6A
$GPGSV,3,3,10,03,10,032,22,32,09,318,26,1*60
$GLGSV,2,1,07,84,73,056,21,74,61,136,16,75,60,320,36,85,46,206,28,1*72
$GLGSV,2,2,07,73,16,138,27,83,10,034,,66,09,324,18,1*4B
$GAGSV,3,1,09,21,86,056,33,13,57,131,31,15,36,051,29,27,32,111,28,7*76
$GAGSV,3,2,09,26,21,185,23,04,15,289,21,06,13,314,24,09,08,336,20,7*70
$GAGSV,3,3,09,19,04,236,17,7*47
$GBGSV,3,1,12,34,80,112,31,25,67,187,32,11,65,203,29,12,54,059,28,1*7C
$GBGSV,3,2,12,23,46,300,30,43,42,220,27,44,28,055,27,24,19,146,21,1*72
$GBGSV,3,3,12,39,11,330,20,19,03,017,16,48,01,353,,16,01,334,,1*7D
$GNRMC,004503.000,A,4910.427226,N,12304.403688,W,0.04,40.82,070125,,,D,V*2A
$GNVTG,40.82,T,,M,0.04,N,0.08,K,D*14
$PAIRLOG,Full*51
$GNGGA,004504.000,4910.427232,N,12304.403748,W,2,30,0.52,-8.256,M,-16.817,M,,*64
$GNGLL,4910.427232,N,12304.403748,W,004504.000,A,D*53
$GNGSA,A,3,06,12,19,24,11,17,03,32,,,,,0.87,0.52,0.70,1*01
$GNGSA,A,3,74,75,85,73,66,,,,,,,,0.87,0.52,0.70,2*05
$GNGSA,A,3,21,13,15,27,26,04,06,09,,,,,0.87,0.52,0.70,3*03
$GNGSA,A,3,34,25,11,12,23,43,44,24,39,,,,0.87,0.52,0.70,4*02
$GPGSV,3,1,10,06,60,109,35,12,57,298,35,19,51,062,35,24,45,225,32,1*60
$GPGSV,3,2,10,11,42,168,31,25,42,301,,46,33,188,31,17,22,064,22,1*69
$GPGSV,3,3,10,03,10,032,22,32,09,318,26,1*60
$GLGSV,2,1,07,84,73,056,20,74,61,136,16,75,60,320,36,85,46,206,28,1*73
$GLGSV,2,2,07,73,16,138,27,83,10,034,,66,09,324,18,1*4B
$GAGSV,3,1,09,21,86,056,33,13,57,131,31,15,36,051,29,27,32,111,28,7*76
$GAGSV,3,2,09,26,21,185,23,04,15,289,22,06,13,314,24,09,08,336,20,7*73
$GAGSV,3,3,09,19,04,236,17,7*47
$GBGSV,3,1,12,34,80,112,31,25,67,187,32,11,65,203,29,12,54,059,28,1*7C
$GBGSV,3,2,12,23,46,300,30,43,42,220,27,44,28,055,27,24,19,146,21,1*72
$GBGSV,3,3,12,39,11,330,20,19,03,017,16,48,01,353,,16,01,334,,1*7D
$GNRMC,004504.000,A,4910.427232,N,12304.403748,W,0.05,40.82,070125,,,D,V*24
$GNVTG,40.82,T,,M,0.05,N,0.09,K,D*14
$PAIRLOG,Full*51
$GNGGA,004505.000,4910.427202,N,12304.403796,W,2,30,0.52,-8.179,M,-16.816,M,,*6A
$GNGLL,4910.427202,N,12304.403796,W,004505.000,A,D*52
$GNGSA,A,3,06,12,19,24,11,17,03,32,,,,,0.87,0.52,0.70,1*01
$GNGSA,A,3,74,75,85,73,66,,,,,,,,0.87,0.52,0.70,2*05
$GNGSA,A,3,21,13,15,27,26,04,06,09,,,,,0.87,0.52,0.70,3*03
$GNGSA,A,3,34,25,11,12,23,43,44,24,39,,,,0.87,0.52,0.70,4*02
$GPGSV,3,1,10,06,60,109,35,12,57,298,35,19,51,062,35,24,45,225,32,1*60
$GPGSV,3,2,10,11,42,168,31,25,42,301,,46,33,188,31,17,22,064,22,1*69
$GPGSV,3,3,10,03,10,032,22,32,09,318,26,1*60
$GLGSV,2,1,07,84,73,056,20,74,61,136,16,75,60,320,36,85,46,206,28,1*73
$GLGSV,2,2,07,73,16,138,27,83,10,034,,66,09,324,18,1*4B
$GAGSV,3,1,09,21,86,056,33,13,57,131,31,15,36,051,29,27,32,111,28,7*76
$GAGSV,3,2,09,26,21,185,23,04,15,289,22,06,13,314,24,09,08,336,20,7*73
$GAGSV,3,3,09,19,04,236,17,7*47
$GBGSV,3,1,12,34,80,112,32,25,67,187,32,11,65,203,29,12,54,059,28,1*7F
$GBGSV,3,2,12,23,46,300,30,43,42,220,27,44,28,055,27,24,19,146,21,1*72
$GBGSV,3,3,12,39,11,330,20,19,03,017,16,48,01,353,,16,01,334,,1*7D
$GNRMC,004505.000,A,4910.427202,N,12304.403796,W,0.05,40.82,070125,,,D,V*25
$GNVTG,40.82,T,,M,0.05,N,0.09,K,D*14
$PAIRLOG,Full*51
$GNGGA,004506.000,4910.427184,N,12304.403802,W,2,30,0.52,-8.121,M,-16.816,M,,*6B
$GNGLL,4910.427184,N,12304.403802,W,004506.000,A,D*5E
$GNGSA,A,3,06,12,19,24,11,17,03,32,,,,,0.87,0.52,0.70,1*01
$GNGSA,A,3,74,75,85,73,66,,,,,,,,0.87,0.52,0.70,2*05
$GNGSA,A,3,21,13,15,27,26,04,06,09,,,,,0.87,0.52,0.70,3*03
$GNGSA,A,3,34,25,11,12,23,43,44,24,39,,,,0.87,0.52,0.70,4*02
$GPGSV,3,1,10,06,60,109,35,12,57,298,35,19,51,062,35,24,45,225,32,1*60
$GPGSV,3,2,10,11,42,168,31,25,42,301,,46,33,188,31,17,22,064,22,1*69
$GPGSV,3,3,10,03,10,032,22,32,09,318,25,1*63
$GLGSV,2,1,07,84,73,056,21,74,61,136,16,75,60,320,36,85,46,206,27,1*7D
$GLGSV,2,2,07,73,16,138,27,83,10,034,,66,09,324,17,1*44
$GAGSV,3,1,09,21,86,056,33,13,57,131,31,15,36,051,29,27,32,111,28,7*76
$GAGSV,3,2,09,26,21,185,22,04,15,289,22,06,13,314,24,09,08,336,20,7*72
$GAGSV,3,3,09,19,04,236,17,7*47
$GBGSV,3,1,12,34,80,112,32,25,67,187,32,11,65,203,29,12,54,059,28,1*7F
$GBGSV,3,2,12,23,46,300,30,43,42,220,28,44,28,055,27,24,19,146,21,1*7D
$GBGSV,3,3,12,39,11,330,20,19,03,017,16,48,01,353,,16,01,334,,1*7D
$GNRMC,004506.000,A,4910.427184,N,12304.403802,W,0.05,40.82,070125,,,D,V*29
$GNVTG,40.82,T,,M,0.05,N,0.09,K,D*14
$PAIRLOG,Full*51
$GNGGA,004507.000,4910.427160,N,12304.403766,W,2,30,0.52,-8.073,M,-16.816,M,,*6B
$GNGLL,4910.427160,N,12304.403766,W,004507.000,A,D*58
$GNGSA,A,3,06,12,19,24,11,17,03,32,,,,,0.87,0.52,0.70,1*01
$GNGSA,A,3,74,75,85,73,66,,,,,,,,0.87,0.52,0.70,2*05
$GNGSA,A,3,21,13,15,27,26,04,06,09,,,,,0.87,0.52,0.70,3*03
$GNGSA,A,3,34,25,11,12,23,43,44,24,39,,,,0.87,0.52,0.70,4*02
$GPGSV,3,1,10,06,60,109,34,12,57,298,35,19,51,062,35,24,45,225,31,1*62
$GPGSV,3,2,10,11,42,168,31,25,42,301,,46,33,188,31,17,22,064,21,1*6A
$GPGSV,3,3,10,03,10,032,22,32,09,318,25,1*63
$GLGSV,2,1,07,84,73,056,21,74,61,136,16,75,60,320,36,85,46,206,27,1*7D
$GLGSV,2,2,07,73,16,138,28,83,10,034,,66,09,324,17,1*4B
