$GNRMC,003700.000,A,4910.425276,N,12304.399722,W,0.13,198.02,080125,,,D,V*1B
$GNGGA,003700.000,4910.425276,N,12304.399722,W,2,44,0.58,13.070,M,-16.817,M,,*77
$GNVTG,198.02,T,,M,0.13,N,0.24,K,D*20
$GNGSA,A,3,06,12,19,24,11,17,25,03,32,,,,1.02,0.58,0.84,1*0B
$GNGSA,A,3,85,75,67,,,,,,,,,,1.02,0.58,0.84,2*0E
$GNGSA,A,3,30,02,36,34,27,11,29,07,,,,,1.02,0.58,0.84,3*0B
$GNGSA,A,3,44,24,12,35,25,34,26,39,,,,,1.02,0.58,0.84,4*0B
$GPGSV,3,1,10,06,59,113,33,12,55,297,34,19,53,061,31,24,47,227,30,1*6C
$GPGSV,3,2,10,11,40,169,31,44,33,171,28,17,23,064,21,25,16,297,24,1*6D
$GPGSV,3,3,10,03,10,033,26,32,09,319,21,1*63
$GPGSV,2,1,05,06,59,113,29,24,47,227,27,11,40,169,24,25,16,297,18,8*67
$GPGSV,2,2,05,32,09,319,18,8*52
$GLGSV,2,1,05,85,76,060,25,75,63,133,30,86,41,203,19,84,22,035,,1*7E
$GLGSV,2,2,05,67,09,326,16,1*45
$GAGSV,3,1,11,30,68,300,32,02,55,107,29,36,52,075,28,34,44,162,29,7*72
$GAGSV,3,2,11,27,16,294,22,11,14,035,18,29,14,310,22,07,12,259,20,7*71
$GAGSV,3,3,11,25,04,112,14,15,03,193,19,19,02,351,,7*4E
$GAGSV,1,1,04,30,68,300,23,02,55,107,27,36,52,075,26,34,44,162,25,1*7E
$GBGSV,3,1,09,44,80,161,35,24,73,206,35,12,57,209,29,35,42,058,30,1*7A
$GBGSV,3,2,09,25,37,305,31,34,29,222,29,26,29,150,27,39,10,330,23,1*78
$GBGSV,3,3,09,11,06,221,18,1*41
$GBGSV,2,1,07,44,80,161,25,24,73,206,27,35,42,058,23,25,37,305,23,5*74
$GBGSV,2,2,07,26,29,150,19,34,29,222,19,39,10,330,14,5*4E
$GNGLL,4910.425276,N,12304.399722,W,003700.000,A,D*58
$GNRMC,003701.000,A,4910.425174,N,12304.399596,W,0.14,198.02,080125,,,D,V*11
$GNGGA,003701.000,4910.425174,N,12304.399596,W,2,44,0.58,13.151,M,-16.817,M,,*78
$GNVTG,198.02,T,,M,0.14,N,0.26,K,D*25
$GNGSA,A,3,06,12,19,24,11,17,25,03,32,,,,1.02,0.58,0.84,1*0B
$GNGSA,A,3,85,75,67,,,,,,,,,,1.02,0.58,0.84,2*0E
$GNGSA,A,3,30,02,36,34,27,11,29,07,,,,,1.02,0.58,0.84,3*0B
$GNGSA,A,3,44,24,12,35,25,34,26,39,,,,,1.02,0.58,0.84,4*0B
$GPGSV,3,1,10,06,60,111,33,12,55,297,34,19,53,061,30,24,47,227,30,1*65
$GPGSV,3,2,10,11,40,169,30,44,33,171,28,17,23,064,20,25,16,297,23,1*6A
$GPGSV,3,3,10,03,10,033,26,32,09,319,20,1*62
$GPGSV,2,1,05,06,60,111,29,24,47,227,27,11,40,169,24,25,16,297,18,8*6F
$GPGSV,2,2,05,32,09,319,18,8*52
$GLGSV,2,1,05,85,76,060,25,75,63,133,30,86,41,203,19,84,22,035,,1*7E
$GLGSV,2,2,05,67,09,326,16,1*45
$GAGSV,3,1,11,30,68,300,31,02,55,107,28,36,52,075,27,34,44,162,28,7*7E
$GAGSV,3,2,11,27,16,294,21,11,14,035,18,29,14,310,22,07,12,259,20,7*72
$GAGSV,3,3,11,25,04,112,13,15,03,193,19,19,02,351,,7*49
$GAGSV,1,1,04,30,68,300,23,02,55,107,27,36,52,075,26,34,44,162,25,1*7E
$GBGSV,3,1,10,44,80,161,35,24,73,206,34,12,57,209,29,35,42,058,30,1*73
$GBGSV,3,2,10,25,37,305,31,34,29,222,28,26,29,150,27,39,10,330,23,1*71
$GBGSV,3,3,10,11,06,221,17,20,02,028,,1*7C
$GBGSV,2,1,07,44,80,161,25,24,73,206,27,35,42,058,23,25,37,305,23,5*74
$GBGSV,2,2,07,26,29,150,19,34,29,222,19,39,10,330,14,5*4E
$GNGLL,4910.425174,N,12304.399596,W,003701.000,A,D*55
$GNRMC,003702.000,A,4910.425036,N,12304.399620,W,0.15,198.02,080125,,,D,V*1A
$GNGGA,003702.000,4910.425036,N,12304.399620,W,2,44,0.58,13.157,M,-16.816,M,,*75
$GNVTG,198.02,T,,M,0.15,N,0.27,K,D*25
$GNGSA,A,3,06,12,19,24,11,17,25,03,32,,,,1.02,0.58,0.84,1*0B
$GNGSA,A,3,85,75,67,,,,,,,,,,1.02,0.58,0.84,2*0E
$GNGSA,A,3,30,02,36,34,27,29,11,07,,,,,1.02,0.58,0.84,3*0B
$GNGSA,A,3,44,24,12,35,25,26,34,39,,,,,1.02,0.58,0.84,4*0B
$GPGSV,3,1,10,06,60,111,33,12,55,297,34,19,53,061,30,24,47,227,30,1*65
$GPGSV,3,2,10,11,40,169,30,44,33,171,28,17,23,064,20,25,16,297,26,1*6F
$GPGSV,3,3,10,03,10,033,26,32,09,319,20,1*62
$GPGSV,2,1,05,06,60,111,28,24,47,227,27,11,40,169,24,25,16,297,18,8*6E
$GPGSV,2,2,05,32,09,319,18,8*52
$GLGSV,1,1,04,85,76,060,25,75,63,133,30,86,41,203,19,67,09,326,16,1*7E
$GAGSV,3,1,11,30,68,300,31,02,55,107,29,36,52,075,27,34,44,162,28,7*7F
$GAGSV,3,2,11,27,16,294,21,29,14,310,23,11,14,035,18,07,12,259,20,7*73
$GAGSV,3,3,11,25,04,112,12,15,03,193,19,19,02,351,,7*48
$GAGSV,1,1,04,30,68,300,23,02,55,107,27,36,52,075,26,34,44,162,25,1*7E
$GBGSV,3,1,11,44,80,161,34,24,73,206,33,12,57,209,28,35,42,058,29,1*7D
$GBGSV,3,2,11,25,37,305,30,26,29,150,26,34,29,222,28,39,10,330,22,1*71
$GBGSV,3,3,11,11,06,221,17,20,02,028,,16,01,334,,1*4F
$GBGSV,2,1,07,44,80,161,25,24,73,206,27,35,42,058,23,25,37,305,23,5*74
$GBGSV,2,2,07,26,29,150,18,34,29,222,19,39,10,330,14,5*4F
$GNGLL,4910.425036,N,12304.399620,W,003702.000,A,D*5F
$GNRMC,003703.000,A,4910.425036,N,12304.399608,W,0.16,198.02,080125,,,D,V*12
$GNGGA,003703.000,4910.425036,N,12304.399608,W,2,44,0.58,13.123,M,-16.816,M,,*7D
$GNVTG,198.02,T,,M,0.16,N,0.29,K,D*28
$GNGSA,A,3,06,12,19,24,11,17,25,03,32,,,,1.02,0.58,0.84,1*0B
$GNGSA,A,3,85,75,67,,,,,,,,,,1.02,0.58,0.84,2*0E
$GNGSA,A,3,30,02,36,34,27,29,11,07,,,,,1.02,0.58,0.84,3*0B
$GNGSA,A,3,44,24,12,35,25,26,34,39,,,,,1.02,0.58,0.84,4*0B
$GPGSV,3,1,10,06,60,111,33,12,55,297,34,19,53,061,30,24,47,227,29,1*6D
$GPGSV,3,2,10,11,40,169,30,44,33,171,28,17,23,064,20,25,16,297,23,1*6A
$GPGSV,3,3,10,03,10,033,25,32,09,319,20,1*61
$GPGSV,2,1,05,06,60,111,28,24,47,227,26,11,40,169,23,25,16,297,18,8*68
$GPGSV,2,2,05,32,09,319,18,8*52
$GLGSV,1,1,04,85,76,060,25,75,63,133,30,86,41,203,19,67,09,326,17,1*7F
$GAGSV,3,1,11,30,68,300,31,02,55,107,29,36,52,075,26,34,44,162,28,7*7E
$GAGSV,3,2,11,27,16,294,20,29,14,310,22,11,14,035,18,07,12,259,19,7*79
$GAGSV,3,3,11,25,04,112,12,15,03,193,19,19,02,351,,7*48
$GAGSV,1,1,04,30,68,300,22,02,55,107,26,36,52,075,25,34,44,162,24,1*7C
$GBGSV,3,1,11,44,80,161,33,24,73,206,32,12,57,209,27,35,42,058,27,1*7A
$GBGSV,3,2,11,25,37,305,28,26,29,150,25,34,29,222,27,39,10,330,21,1*77
$GBGSV,3,3,11,11,06,221,17,20,02,028,,16,01,334,,1*4F
$GBGSV,2,1,07,44,80,161,24,24,73,206,26,35,42,058,22,25,37,305,22,5*74
$GBGSV,2,2,07,26,29,150,18,34,29,222,18,39,10,330,14,5*4E
$GNGLL,4910.425036,N,12304.399608,W,003703.000,A,D*54
$GNRMC,003704.000,A,4910.425036,N,12304.399500,W,0.16,198.02,080125,,,D,V*1E
$GNGGA,003704.000,4910.425036,N,12304.399500,W,2,44,0.58,13.223,M,-16.816,M,,*72
$GNVTG,198.02,T,,M,0.16,N,0.29,K,D*28
$GNGSA,A,3,06,12,19,24,11,17,25,03,32,,,,1.02,0.58,0.84,1*0B
$GNGSA,A,3,85,75,67,,,,,,,,,,1.02,0.58,0.84,2*0E
$GNGSA,A,3,30,02,36,34,27,29,11,07,,,,,1.02,0.58,0.84,3*0B
$GNGSA,A,3,44,24,12,35,25,26,34,39,,,,,1.02,0.58,0.84,4*0B
$GPGSV,3,1,10,06,60,111,33,12,55,297,33,19,53,061,29,24,47,227,28,1*63
$GPGSV,3,2,10,11,40,169,30,44,33,171,27,17,23,064,19,25,16,297,23,1*6F
$GPGSV,3,3,10,03,10,033,24,32,09,319,20,1*60
$GPGSV,2,1,05,06,60,111,27,24,47,227,25,11,40,169,22,25,16,297,18,8*65
$GPGSV,2,2,05,32,09,319,17,8*5D
$GLGSV,1,1,04,85,76,060,24,75,63,133,29,86,41,203,19,67,09,326,15,1*74
$GAGSV,3,1,11,30,68,300,31,02,55,107,28,36,52,075,25,34,44,162,27,7*73
$GAGSV,3,2,11,27,16,294,19,29,14,310,22,11,14,035,17,07,12,259,19,7*7C
$GAGSV,3,3,11,25,04,112,12,15,03,193,18,19,02,351,,7*49
$GAGSV,1,1,04,30,68,300,21,02,55,107,25,36,52,075,24,34,44,162,23,1*7A
$GBGSV,3,1,11,44,80,161,33,24,73,206,32,12,57,209,27,35,42,058,27,1*7A
$GBGSV,3,2,11,25,37,305,28,26,29,150,25,34,29,222,27,39,10,330,21,1*77
$GBGSV,3,3,11,11,06,221,17,20,02,028,,16,01,334,,1*4F
$GBGSV,2,1,07,44,80,161,24,24,73,206,26,35,42,058,21,25,37,305,21,5*74
$GBGSV,2,2,07,26,29,150,17,34,29,222,18,39,10,330,14,5*41
$GNGLL,4910.425036,N,12304.399500,W,003704.000,A,D*58
$GNRMC,003705.000,A,4910.424934,N,12304.399578,W,0.16,198.02,080125,,,D,V*1A
$GNGGA,003705.000,4910.424934,N,12304.399578,W,2,44,0.58,12.748,M,-16.816,M,,*7F
$GNVTG,198.02,T,,M,0.16,N,0.29,K,D*28
$GNGSA,A,3,06,12,19,24,11,17,25,03,32,,,,1.02,0.58,0.84,1*0B
$GNGSA,A,3,85,75,67,,,,,,,,,,1.02,0.58,0.84,2*0E
$GNGSA,A,3,30,02,36,34,27,29,11,07,,,,,1.02,0.58,0.84,3*0B
$GNGSA,A,3,44,24,12,35,25,26,34,39,,,,,1.02,0.58,0.84,4*0B
$GPGSV,3,1,10,06,60,111,33,12,55,297,33,19,53,061,29,24,47,227,28,1*63
$GPGSV,3,2,10,11,40,169,30,44,33,171,27,17,23,064,19,25,16,297,23,1*6F
$GPGSV,3,3,10,03,10,033,24,32,09,319,20,1*60
$GPGSV,2,1,05,06,60,111,26,24,47,227,24,11,40,169,21,25,16,297,17,8*69
$GPGSV,2,2,05,32,09,319,16,8*5C
$GLGSV,1,1,04,85,76,060,24,75,63,133,29,86,41,203,19,67,09,326,14,1*75
$GAGSV,3,1,10,30,68,300,31,02,55,107,28,36,52,075,25,34,44,162,26,7*73
$GAGSV,3,2,10,27,16,294,19,29,14,310,22,11,14,035,17,07,12,259,19,7*7D
$GAGSV,3,3,10,25,04,112,11,15,03,193,18,7*76
$GAGSV,1,1,04,30,68,300,21,02,55,107,25,36,52,075,24,34,44,162,22,1*7B
$GBGSV,3,1,11,44,80,161,33,24,73,206,32,12,57,209,27,35,42,058,27,1*7A
$GBGSV,3,2,11,25,37,305,28,26,29,150,25,34,29,222,27,39,10,330,21,1*77
$GBGSV,3,3,11,11,06,221,17,20,02,028,,16,01,334,,1*4F
$GBGSV,2,1,07,44,80,161,23,24,73,206,25,35,42,058,21,25,37,305,20,5*71
$GBGSV,2,2,07,26,29,150,17,34,29,222,18,39,10,330,13,5*46
$GNGLL,4910.424934,N,12304.399578,W,003705.000,A,D*5C
$GNRMC,003706.000,A,4910.424898,N,12304.399548,W,0.15,198.02,080125,,,D,V*1E
$GNGGA,003706.000,4910.424898,N,12304.399548,W,2,44,0.58,12.554,M,-16.817,M,,*76
$GNVTG,198.02,T,,M,0.15,N,0.28,K,D*2A
$GNGSA,A,3,06,12,19,24,11,17,25,03,32,,,,1.02,0.58,0.84,1*0B
$GNGSA,A,3,85,75,67,,,,,,,,,,1.02,0.58,0.84,2*0E
$GNGSA,A,3,30,02,36,34,27,11,29,07,,,,,1.02,0.58,0.84,3*0B
$GNGSA,A,3,44,24,12,35,25,34,26,39,,,,,1.02,0.58,0.84,4*0B
$GPGSV,3,1,10,06,60,111,33,12,55,297,33,19,53,061,29,24,47,227,28,1*63
$GPGSV,3,2,10,11,41,168,30,44,33,171,27,17,23,064,19,25,16,297,25,1*69
$GPGSV,3,3,10,03,10,033,23,32,09,319,19,1*6D
$GPGSV,2,1,05,06,60,111,26,24,47,227,24,11,41,168,21,25,16,297,17,8*69
$GPGSV,2,2,05,32,09,319,16,8*5C
$GLGSV,2,1,05,85,76,060,25,75,63,133,29,86,41,203,20,84,22,035,,1*7C
$GLGSV,2,2,05,67,09,326,14,1*47
$GAGSV,3,1,11,30,68,300,31,02,55,107,28,36,52,075,25,34,44,162,26,7*72
$GAGSV,3,2,11,27,16,294,19,11,14,035,17,29,14,310,22,07,12,259,19,7*7C
$GAGSV,3,3,11,25,04,112,11,15,03,193,18,19,02,351,,7*4A
$GAGSV,1,1,04,30,68,300,21,02,55,107,25,36,52,075,24,34,44,162,21,1*78
$GBGSV,3,1,11,44,80,161,32,24,73,206,32,12,57,209,27,35,42,058,27,1*7B
$GBGSV,3,2,11,25,37,305,28,34,29,222,27,26,29,150,25,39,10,330,22,1*74
$GBGSV,3,3,11,11,06,221,17,20,02,028,,16,01,334,,1*4F
$GBGSV,2,1,07,44,80,161,23,24,73,206,25,35,42,058,21,25,37,305,20,5*71
$GBGSV,2,2,07,26,29,150,17,34,29,222,18,39,10,330,13,5*46
$GNGLL,4910.424898,N,12304.399548,W,003706.000,A,D*5B
$GNRMC,003707.000,A,4910.424898,N,12304.399560,W,0.34,198.02,080125,,,D,V*16
$GNGGA,003707.000,4910.424898,N,12304.399560,W,2,44,0.58,12.774,M,-16.816,M,,*7C
$GNVTG,198.02,T,,M,0.34,N,0.64,K,D*21
$GNGSA,A,3,06,12,19,24,11,17,25,03,32,,,,1.02,0.58,0.84,1*0B
$GNGSA,A,3,85,75,67,,,,,,,,,,1.02,0.58,0.84,2*0E
$GNGSA,A,3,30,02,36,34,27,11,29,07,,,,,1.02,0.58,0.84,3*0B
$GNGSA,A,3,44,24,12,35,25,34,26,39,,,,,1.02,0.58,0.84,4*0B
$GPGSV,3,1,10,06,60,111,33,12,56,298,33,19,53,061,29,24,47,227,28,1*6F
$GPGSV,3,2,10,11,41,168,30,44,33,171,27,17,23,064,20,25,16,297,24,1*62
$GPGSV,3,3,10,03,10,033,23,32,09,319,19,1*6D
$GPGSV,2,1,05,06,60,111,26,24,47,227,24,11,41,168,21,25,16,297,16,8*68
$GPGSV,2,2,05,32,09,319,16,8*5C
$GLGSV,2,1,05,85,76,060,26,75,63,133,29,86,41,203,20,84,22,035,,1*7F
$GLGSV,2,2,05,67,09,326,16,1*45
$GAGSV,3,1,11,30,68,300,31,02,55,107,28,36,52,075,25,34,44,162,26,7*72
$GAGSV,3,2,11,27,16,294,19,11,14,035,17,29,14,310,22,07,12,259,19,7*7C
$GAGSV,3,3,11,25,04,112,11,15,03,193,18,19,02,351,,7*4A
$GAGSV,1,1,04,30,68,300,20,02,55,107,25,36,52,075,23,34,44,162,21,1*7E
$GBGSV,3,1,11,44,80,161,32,24,73,206,32,12,57,209,27,35,42,058,27,1*7B
$GBGSV,3,2,11,25,37,305,28,34,29,222,27,26,29,150,25,39,10,330,22,1*74
$GBGSV,3,3,11,11,06,221,17,20,02,028,,16,01,334,,1*4F
$GBGSV,2,1,07,44,80,161,23,24,73,206,24,35,42,058,21,25,37,305,20,5*70
$GBGSV,2,2,07,26,29,150,17,34,29,222,18,39,10,330,13,5*46
$GNGLL,4910.424898,N,12304.399560,W,003707.000,A,D*50
$GNRMC,003708.000,A,4910.424844,N,12304.399476,W,0.29,198.02,080125,,,D,V*12
$GNGGA,003708.000,4910.424844,N,12304.399476,W,2,44,0.58,12.699,M,-16.816,M,,*76
$GNVTG,198.02,T,,M,0.29,N,0.53,K,D*29
$GNGSA,A,3,06,12,19,24,11,17,25,03,32,,,,1.02,0.58,0.84,1*0B
$GNGSA,A,3,85,75,67,,,,,,,,,,1.02,0.58,0.84,2*0E
$GNGSA,A,3,30,02,36,34,27,29,11,07,,,,,1.02,0.58,0.84,3*0B
$GNGSA,A,3,44,24,12,35,25,26,34,39,,,,,1.02,0.58,0.84,4*0B
$GPGSV,3,1,10,06,60,111,33,12,56,298,33,19,53,061,29,24,47,227,28,1*6F
$GPGSV,3,2,10,11,41,168,30,44,33,171,27,17,23,064,21,25,16,297,24,1*63
$GPGSV,3,3,10,03,10,033,22,32,09,319,19,1*6C
$GPGSV,2,1,05,06,60,111,26,24,47,227,24,11,41,168,21,25,16,297,16,8*68
$GPGSV,2,2,05,32,09,319,16,8*5C
$GLGSV,1,1,04,85,76,060,26,75,63,133,29,86,41,203,20,67,09,326,16,1*7F
$GAGSV,3,1,11,30,68,300,31,02,55,107,28,36,52,075,25,34,44,162,26,7*72
$GAGSV,3,2,11,27,16,294,19,29,14,310,22,11,14,035,17,07,12,259,19,7*7C
$GAGSV,3,3,11,25,04,112,11,15,03,193,18,19,02,351,,7*4A
$GAGSV,1,1,04,30,68,300,20,02,55,107,25,36,52,075,23,34,44,162,21,1*7E
$GBGSV,3,1,10,44,80,161,32,24,73,206,31,12,57,209,27,35,42,058,27,1*79
$GBGSV,3,2,10,25,37,305,28,26,29,150,25,34,29,222,27,39,10,330,22,1*75
$GBGSV,3,3,10,11,06,221,17,20,02,028,,1*7C
$GBGSV,2,1,07,44,80,161,23,24,73,206,24,35,42,058,20,25,37,305,20,5*71
$GBGSV,2,2,07,26,29,150,17,34,29,222,18,39,10,330,13,5*46
$GNGLL,4910.424844,N,12304.399476,W,003708.000,A,D*58
$GNRMC,003709.000,A,4910.424874,N,12304.399464,W,0.13,198.02,080125,,,D,V*1A
$GNGGA,003709.000,4910.424874,N,12304.399464,W,2,44,0.58,12.778,M,-16.817,M,,*78
$GNVTG,198.02,T,,M,0.13,N,0.24,K,D*20
$GNGSA,A,3,06,12,19,24,11,17,25,03,32,,,,1.02,0.58,0.84,1*0B
$GNGSA,A,3,85,75,67,,,,,,,,,,1.02,0.58,0.84,2*0E
$GNGSA,A,3,30,02,36,34,27,29,11,07,,,,,1.02,0.58,0.84,3*0B
$GNGSA,A,3,44,24,12,35,25,26,34,39,,,,,1.02,0.58,0.84,4*0B
$GPGSV,3,1,10,06,60,111,33,12,56,298,33,19,53,061,29,24,47,227,28,1*6F
$GPGSV,3,2,10,11,41,168,30,44,33,171,27,17,23,064,21,25,16,297,24,1*63
$GPGSV,3,3,10,03,10,033,22,32,09,319,19,1*6C
$GPGSV,2,1,05,06,60,111,27,24,47,227,25,11,41,168,22,25,16,297,16,8*6B
$GPGSV,2,2,05,32,09,319,17,8*5D
$GLGSV,1,1,04,85,76,060,26,75,63,133,29,86,41,203,20,67,09,326,16,1*7F
$GAGSV,3,1,11,30,68,300,31,02,55,107,28,36,52,075,25,34,44,162,27,7*73
$GAGSV,3,2,11,27,16,294,19,29,14,310,22,11,14,035,17,07,12,259,19,7*7C
$GAGSV,3,3,11,25,04,112,11,15,03,193,18,19,02,351,,7*4A
$GAGSV,1,1,04,30,68,300,21,02,55,107,25,36,52,075,24,34,44,162,22,1*7B
$GBGSV,3,1,09,44,80,161,32,24,73,206,31,12,57,209,27,35,42,058,27,1*71
$GBGSV,3,2,09,25,37,305,28,26,29,150,25,34,29,222,27,39,10,330,22,1*7D
$GBGSV,3,3,09,11,06,221,17,1*4E
$GBGSV,2,1,07,44,80,161,24,24,73,206,25,35,42,058,21,25,37,305,20,5*76
$GBGSV,2,2,07,26,29,150,17,34,29,222,18,39,10,330,13,5*46
$GNGLL,4910.424874,N,12304.399464,W,003709.000,A,D*59
$GNRMC,003710.000,A,4910.424856,N,12304.399452,W,0.09,198.02,080125,,,D,V*1C
