$GNGGA,003700.000,4910.426212,N,12304.398852,W,2,29,0.55,6.814,M,-16.817,M,,*47
$GNGLL,4910.426212,N,12304.398852,W,003700.000,A,D*50
$GNGSA,A,3,06,12,19,24,11,17,25,03,32,,,,0.97,0.55,0.80,1*0F
$GNGSA,A,3,85,75,76,84,67,,,,,,,,0.97,0.55,0.80,2*07
$GNGSA,A,3,30,02,36,34,27,11,29,07,,,,,0.97,0.55,0.80,3*0F
$GNGSA,A,3,44,24,12,35,25,26,34,,,,,,0.97,0.55,0.80,4*05
$GPGSV,3,1,10,06,59,113,29,12,55,297,27,19,53,061,30,24,47,227,25,1*60
$GPGSV,3,2,10,11,40,169,27,48,33,182,,17,23,064,19,25,16,297,21,1*6E
$GPGSV,3,3,10,03,10,034,18,32,09,319,21,1*69
$GLGSV,3,1,09,85,76,060,33,75,63,133,35,76,51,319,33,86,41,203,,1*7D
$GLGSV,3,2,09,84,22,035,21,74,11,136,,67,09,326,18,68,08,011,21,1*7D
$GLGSV,3,3,09,77,06,317,,1*42
$GAGSV,3,1,09,30,68,300,26,02,54,107,22,36,52,075,22,34,44,162,24,7*73
$GAGSV,3,2,09,27,16,294,19,11,14,035,16,29,14,310,17,07,12,259,18,7*73
$GAGSV,3,3,09,25,04,112,09,7*42
$GBGSV,3,1,11,44,80,161,38,24,73,206,38,12,57,209,33,35,42,058,33,1*7B
$GBGSV,3,2,11,25,37,305,34,26,29,150,29,34,29,222,31,39,10,330,,1*72
$GBGSV,3,3,11,11,06,222,,20,02,028,,16,01,334,,1*4A
$GNRMC,003700.000,A,4910.426212,N,12304.398852,W,0.06,68.45,080125,,,D,V*2A
$GNVTG,68.45,T,,M,0.06,N,0.12,K,D*1C
$PAIRLOG,Full*51
$GNGGA,003701.000,4910.425468,N,12304.397910,W,2,30,0.55,4.407,M,-16.816,M,,*43
$GNGLL,4910.425468,N,12304.397910,W,003701.000,A,D*51
$GNGSA,A,3,06,12,19,24,11,17,25,03,32,,,,0.97,0.55,0.80,1*0F
$GNGSA,A,3,85,75,76,84,67,,,,,,,,0.97,0.55,0.80,2*07
$GNGSA,A,3,30,02,36,34,27,29,11,07,,,,,0.97,0.55,0.80,3*0F
$GNGSA,A,3,44,24,12,35,25,34,26,39,,,,,0.97,0.55,0.80,4*0F
$GPGSV,3,1,10,06,59,113,31,12,55,297,28,19,53,061,31,24,47,227,26,1*64
$GPGSV,3,2,10,11,40,169,27,48,33,182,,17,23,064,19,25,16,297,21,1*6E
$GPGSV,3,3,10,03,10,034,18,32,09,319,21,1*69
$GLGSV,2,1,08,85,76,060,33,75,63,133,35,76,51,319,33,86,41,203,,1*7D
$GLGSV,2,2,08,84,22,035,21,74,11,136,,67,09,326,19,68,,,20,1*45
$GAGSV,3,1,11,30,68,300,27,02,54,107,24,36,52,075,23,34,44,162,25,7*7D
$GAGSV,3,2,11,27,16,294,19,29,14,310,18,11,14,035,16,07,12,259,18,7*75
$GAGSV,3,3,11,15,04,193,,25,04,112,08,19,02,351,,7*4C
$GBGSV,3,1,11,44,80,161,38,24,73,206,38,12,57,209,33,35,42,058,33,1*7B
$GBGSV,3,2,11,25,37,305,34,34,29,222,31,26,29,150,29,39,10,330,24,1*74
$GBGSV,3,3,11,11,06,222,,20,02,028,,16,01,334,,1*4A
$GNRMC,003701.000,A,4910.425468,N,12304.397910,W,0.06,68.45,080125,,,D,V*2B
$GNVTG,68.45,T,,M,0.06,N,0.12,K,D*1C
$PAIRLOG,Full*51
$GNGGA,003702.000,4910.425390,N,12304.397898,W,2,30,0.55,4.293,M,-16.816,M,,*4A
$GNGLL,4910.425390,N,12304.397898,W,003702.000,A,D*53
$GNGSA,A,3,06,12,19,24,11,17,25,03,32,,,,0.97,0.55,0.80,1*0F
$GNGSA,A,3,85,75,76,84,67,,,,,,,,0.97,0.55,0.80,2*07
$GNGSA,A,3,30,02,36,34,27,11,29,07,,,,,0.97,0.55,0.80,3*0F
$GNGSA,A,3,44,24,12,35,25,26,34,39,,,,,0.97,0.55,0.80,4*0F
$GPGSV,3,1,10,06,59,113,31,12,55,297,29,19,53,061,31,24,47,227,27,1*64
$GPGSV,3,2,10,11,40,169,28,48,33,182,,17,23,064,19,25,16,297,22,1*62
$GPGSV,3,3,10,03,10,034,19,32,09,319,21,1*68
$GLGSV,2,1,07,85,76,060,33,75,63,133,35,76,51,319,33,86,41,203,,1*72
$GLGSV,2,2,07,84,22,035,21,74,11,136,,67,09,326,19,1*46
$GAGSV,3,1,11,30,68,300,28,02,54,107,25,36,52,075,24,34,44,162,25,7*74
$GAGSV,3,2,11,27,16,294,19,11,14,035,16,29,14,310,19,07,12,259,18,7*74
$GAGSV,3,3,11,15,04,193,,25,04,112,09,19,02,351,,7*4D
$GBGSV,3,1,11,44,80,161,38,24,73,206,38,12,57,209,33,35,42,058,32,1*7A
$GBGSV,3,2,11,25,37,305,34,26,29,150,29,34,29,222,31,39,10,330,24,1*74
$GBGSV,3,3,11,11,06,222,,20,02,028,,16,01,334,,1*4A
$GNRMC,003702.000,A,4910.425390,N,12304.397898,W,0.05,68.45,080125,,,D,V*2A
$GNVTG,68.45,T,,M,0.05,N,0.09,K,D*15
$PAIRLOG,Full*51
$PAIR010,0,1,2348,261440*32
$GNGGA,003703.000,4910.425252,N,12304.398114,W,2,28,0.57,3.836,M,-16.816,M,,*4F
$GNGLL,4910.425252,N,12304.398114,W,003703.000,A,D*5F
$GNGSA,A,3,06,12,19,24,11,17,25,03,32,,,,0.99,0.57,0.81,1*02
$GNGSA,A,3,85,75,76,84,67,,,,,,,,0.99,0.57,0.81,2*0A
$GNGSA,A,3,30,02,36,34,27,11,29,07,,,,,0.99,0.57,0.81,3*02
$GNGSA,A,3,44,24,12,25,34,26,,,,,,,0.99,0.57,0.81,4*0E
$GPGSV,3,1,09,06,59,113,30,12,55,297,28,19,53,061,30,24,47,227,25,1*6F
$GPGSV,3,2,09,11,40,169,27,17,23,064,19,25,16,297,22,03,10,034,19,1*6F
$GPGSV,3,3,09,32,09,319,20,1*5C
$GLGSV,2,1,07,85,76,060,33,75,63,133,35,76,51,319,33,86,41,203,,1*72
$GLGSV,2,2,07,84,22,035,21,74,11,136,,67,09,326,19,1*46
$GAGSV,3,1,09,30,68,300,27,02,54,107,25,36,52,075,23,34,44,162,24,7*74
$GAGSV,3,2,09,27,16,294,19,11,14,035,16,29,14,310,19,07,12,259,18,7*7D
$GAGSV,3,3,09,25,04,112,09,7*42
$GBGSV,2,1,06,44,80,161,37,24,73,206,37,12,57,209,32,25,37,305,33,1*75
$GBGSV,2,2,06,34,29,222,31,26,29,150,29,1*7C
$GNRMC,003703.000,A,4910.425252,N,12304.398114,W,0.04,68.45,080125,,,D,V*27
$GNVTG,68.45,T,,M,0.04,N,0.08,K,D*15
$PAIRLOG,Full*51
$GNGGA,003704.000,4910.425240,N,12304.398168,W,2,28,0.57,3.803,M,-16.816,M,,*46
$GNGLL,4910.425240,N,12304.398168,W,003704.000,A,D*50
$GNGSA,A,3,06,12,19,24,11,17,25,03,32,,,,0.99,0.57,0.81,1*02
$GNGSA,A,3,85,75,76,84,67,,,,,,,,0.99,0.57,0.81,2*0A
$GNGSA,A,3,30,02,36,34,27,11,29,07,,,,,0.99,0.57,0.81,3*02
$GNGSA,A,3,44,24,12,25,34,26,,,,,,,0.99,0.57,0.81,4*0E
$GPGSV,3,1,10,06,59,113,29,12,55,297,28,19,53,061,29,24,47,227,26,1*64
$GPGSV,3,2,10,11,40,169,26,48,33,182,,17,23,064,19,25,16,297,21,1*6F
$GPGSV,3,3,10,03,10,034,18,32,09,319,19,1*62
$GLGSV,3,1,09,85,76,060,32,75,63,133,35,76,51,319,33,86,41,203,,1*7C
$GLGSV,3,2,09,84,22,035,21,74,11,136,,67,09,326,19,68,08,011,,1*7F
$GLGSV,3,3,09,77,06,317,,1*42
$GAGSV,3,1,09,30,68,300,26,02,54,107,24,36,52,075,23,34,44,162,23,7*73
$GAGSV,3,2,09,27,16,294,19,11,14,035,17,29,14,310,19,07,12,259,17,7*73
$GAGSV,3,3,09,25,04,112,08,7*43
$GBGSV,2,1,06,44,80,161,36,24,73,206,37,12,57,209,31,25,37,305,32,1*76
$GBGSV,2,2,06,34,29,222,30,26,29,150,28,1*7C
$GNRMC,003704.000,A,4910.425240,N,12304.398168,W,0.03,68.45,080125,,,D,V*2F
$GNVTG,68.45,T,,M,0.03,N,0.06,K,D*1C
$PAIRLOG,Full*51
$GNGGA,003705.000,4910.425222,N,12304.398210,W,2,28,0.57,3.761,M,-16.816,M,,*44
$GNGLL,4910.425222,N,12304.398210,W,003705.000,A,D*59
$GNGSA,A,3,06,12,19,24,11,17,25,03,32,,,,0.99,0.57,0.81,1*02
$GNGSA,A,3,85,75,76,84,67,,,,,,,,0.99,0.57,0.81,2*0A
$GNGSA,A,3,30,02,36,34,27,11,29,07,,,,,0.99,0.57,0.81,3*02
$GNGSA,A,3,44,24,12,25,34,26,,,,,,,0.99,0.57,0.81,4*0E
$GPGSV,3,1,09,06,59,113,28,12,55,297,28,19,53,061,28,24,47,227,24,1*6E
$GPGSV,3,2,09,11,40,169,26,17,23,064,19,25,16,297,22,03,10,034,18,1*6F
$GPGSV,3,3,09,32,09,319,19,1*56
$GLGSV,3,1,09,85,76,060,32,75,63,133,35,76,51,319,33,86,41,203,,1*7C
$GLGSV,3,2,09,84,22,035,20,74,11,136,,67,09,326,19,68,08,011,,1*7E
$GLGSV,3,3,09,77,06,317,,1*42
$GAGSV,3,1,09,30,68,300,26,02,54,107,23,36,52,075,23,34,44,162,23,7*74
$GAGSV,3,2,09,27,16,294,19,11,14,035,16,29,14,310,18,07,12,259,17,7*73
$GAGSV,3,3,09,25,04,112,07,7*4C
$GBGSV,2,1,06,44,80,161,36,24,73,206,36,12,57,209,31,25,37,305,32,1*77
$GBGSV,2,2,06,34,29,222,30,26,29,150,28,1*7C
$GNRMC,003705.000,A,4910.425222,N,12304.398210,W,0.02,68.45,080125,,,D,V*27
$GNVTG,68.45,T,,M,0.02,N,0.04,K,D*1F
$PAIRLOG,Full*51
$GNGGA,003706.000,4910.425222,N,12304.398258,W,2,28,0.57,3.754,M,-16.817,M,,*4C
$GNGLL,4910.425222,N,12304.398258,W,003706.000,A,D*56
$GNGSA,A,3,06,12,19,24,11,17,25,03,32,,,,0.99,0.57,0.81,1*02
$GNGSA,A,3,85,75,76,84,67,,,,,,,,0.99,0.57,0.81,2*0A
$GNGSA,A,3,30,02,36,34,27,11,29,07,,,,,0.99,0.57,0.81,3*02
$GNGSA,A,3,44,24,12,25,26,34,,,,,,,0.99,0.57,0.81,4*0E
$GPGSV,3,1,10,06,59,113,28,12,55,297,27,19,53,061,28,24,47,227,25,1*68
$GPGSV,3,2,10,11,40,169,26,44,33,171,,17,23,064,20,25,16,297,22,1*66
$GPGSV,3,3,10,03,10,034,18,32,09,319,19,1*62
$GLGSV,3,1,09,85,76,060,32,75,63,133,34,76,51,319,33,86,41,203,,1*7D
$GLGSV,3,2,09,84,22,035,20,74,11,136,,67,09,326,18,68,08,011,,1*7F
$GLGSV,3,3,09,77,06,317,,1*42
$GAGSV,3,1,11,30,68,300,26,02,54,107,23,36,52,075,23,34,44,162,23,7*7D
$GAGSV,3,2,11,27,16,294,19,11,14,035,17,29,14,310,17,07,12,259,17,7*74
$GAGSV,3,3,11,15,04,193,,25,04,112,06,19,02,351,,7*42
$GBGSV,3,1,11,44,80,161,36,24,73,206,36,12,57,209,31,35,42,058,,1*79
$GBGSV,3,2,11,25,37,305,32,26,29,150,27,34,29,222,29,39,10,330,,1*73
$GBGSV,3,3,11,11,06,222,,20,02,028,,16,01,334,,1*4A
$GNRMC,003706.000,A,4910.425222,N,12304.398258,W,0.01,68.45,080125,,,D,V*2B
$GNVTG,68.45,T,,M,0.01,N,0.02,K,D*1A
$PAIRLOG,Full*51
$GNGGA,003707.000,4910.425228,N,12304.398294,W,2,29,0.55,3.732,M,-16.816,M,,*45
$GNGLL,4910.425228,N,12304.398294,W,003707.000,A,D*5D
$GNGSA,A,3,06,12,19,24,11,17,25,03,32,,,,0.97,0.55,0.80,1*0F
$GNGSA,A,3,85,75,76,84,67,,,,,,,,0.97,0.55,0.80,2*07
$GNGSA,A,3,30,02,36,34,27,11,29,07,,,,,0.97,0.55,0.80,3*0F
$GNGSA,A,3,44,24,12,35,25,26,34,,,,,,0.97,0.55,0.80,4*05
$GPGSV,3,1,10,06,59,113,27,12,55,297,27,19,53,061,28,24,47,227,25,1*67
$GPGSV,3,2,10,11,40,169,26,44,33,171,,17,23,064,20,25,16,297,22,1*66
$GPGSV,3,3,10,03,10,034,18,32,09,319,19,1*62
$GLGSV,3,1,09,85,76,060,32,75,63,133,34,76,51,319,33,86,41,203,,1*7D
$GLGSV,3,2,09,84,22,035,20,74,11,136,,67,09,326,18,68,08,011,,1*7F
$GLGSV,3,3,09,77,06,317,,1*42
$GAGSV,3,1,11,30,68,300,26,02,54,107,22,36,52,075,23,34,44,162,23,7*7C
$GAGSV,3,2,11,27,16,294,19,11,14,035,17,29,14,310,17,07,12,259,17,7*74
$GAGSV,3,3,11,15,04,193,,25,04,112,06,19,02,351,,7*42
$GBGSV,3,1,11,44,80,161,36,24,73,206,36,12,57,209,31,35,42,058,31,1*7B
$GBGSV,3,2,11,25,37,305,32,26,29,150,27,34,29,222,29,39,10,330,,1*73
$GBGSV,3,3,11,11,06,222,,20,02,028,,16,01,334,,1*4A
$GNRMC,003707.000,A,4910.425228,N,12304.398294,W,0.01,68.45,080125,,,D,V*20
$GNVTG,68.45,T,,M,0.01,N,0.01,K,D*19
$PAIRLOG,Full*51
$GNGGA,003708.000,4910.425228,N,12304.398288,W,2,28,0.57,3.695,M,-16.816,M,,*48
$GNGLL,4910.425228,N,12304.398288,W,003708.000,A,D*5F
$GNGSA,A,3,06,12,19,24,11,17,25,03,32,,,,0.98,0.57,0.80,1*02
$GNGSA,A,3,85,75,76,84,67,,,,,,,,0.98,0.57,0.80,2*0A
$GNGSA,A,3,30,02,36,34,27,11,29,07,,,,,0.98,0.57,0.80,3*02
$GNGSA,A,3,44,24,12,25,34,26,,,,,,,0.98,0.57,0.80,4*0E
$GPGSV,3,1,10,06,59,113,27,12,55,297,26,19,53,061,28,24,47,227,25,1*66
$GPGSV,3,2,10,11,40,169,26,44,33,171,,17,23,064,20,25,16,297,21,1*65
$GPGSV,3,3,10,03,10,033,18,32,09,319,19,1*65
$GLGSV,3,1,09,85,76,060,32,75,63,133,34,76,51,319,33,86,41,203,,1*7D
$GLGSV,3,2,09,84,22,035,20,74,11,136,,67,09,326,18,68,08,011,,1*7F
$GLGSV,3,3,09,77,06,317,19,1*4A
$GAGSV,3,1,09,30,68,300,26,02,54,107,21,36,52,075,23,34,44,162,23,7*76
$GAGSV,3,2,09,27,16,294,19,11,14,035,16,29,14,310,17,07,12,259,16,7*7D
$GAGSV,3,3,09,25,04,112,06,7*4D
$GBGSV,2,1,06,44,80,161,36,24,73,206,36,12,57,209,31,25,37,305,32,1*77
$GBGSV,2,2,06,34,29,222,29,26,29,150,27,1*7B
$GNRMC,003708.000,A,4910.425228,N,12304.398288,W,0.00,68.45,080125,,,D,V*23
$GNVTG,68.45,T,,M,0.00,N,0.00,K,D*19
$PAIRLOG,Full*51
$GNGGA,003709.000,4910.425204,N,12304.398300,W,2,28,0.57,3.662,M,-16.816,M,,*4E
$GNGLL,4910.425204,N,12304.398300,W,003709.000,A,D*51
$GNGSA,A,3,06,12,19,24,11,17,25,03,32,,,,0.99,0.57,0.81,1*02
$GNGSA,A,3,85,75,76,84,67,,,,,,,,0.99,0.57,0.81,2*0A
$GNGSA,A,3,30,02,36,34,27,11,29,07,,,,,0.99,0.57,0.81,3*02
$GNGSA,A,3,44,24,12,25,34,26,,,,,,,0.99,0.57,0.81,4*0E
$GPGSV,3,1,10,06,59,113,28,12,55,297,27,19,53,061,29,24,47,227,26,1*6A
$GPGSV,3,2,10,11,40,169,29,44,33,171,,17,23,064,21,25,16,297,22,1*68
$GPGSV,3,3,10,03,10,033,18,32,09,319,19,1*65
$GLGSV,3,1,09,85,76,060,32,75,63,133,34,76,51,319,33,86,41,203,,1*7D
$GLGSV,3,2,09,84,22,035,20,74,11,136,,67,09,326,19,68,08,011,,1*7E
$GLGSV,3,3,09,77,06,317,20,1*40
$GAGSV,3,1,09,30,68,300,26,02,54,107,22,36,52,075,23,34,44,162,24,7*72
$GAGSV,3,2,09,27,16,294,19,11,14,035,16,29,14,310,17,07,12,259,17,7*7C
$GAGSV,3,3,09,25,04,112,06,7*4D
$GBGSV,2,1,06,44,80,161,36,24,73,206,36,12,57,209,31,25,37,305,32,1*77
$GBGSV,2,2,06,34,29,222,29,26,29,150,27,1*7B
$GNRMC,003709.000,A,4910.425204,N,12304.398300,W,0.00,68.45,080125,,,D,V*2D
$GNVTG,68.45,T,,M,0.00,N,0.00,K,D*19
$PAIRLOG,Full*51
$GNGGA,003710.000,4910.425180,N,12304.398336,W,2,28,0.57,3.600,M,-16.816,M,,*48
