,66,,,,,,,,0.88,0.52,0.71,2*04
$GNGSA,A,3,21,13,15,27,26,04,06,,,,,,0.88,0.52,0.71,3*04
$GNGSA,A,3,34,25,11,12,23,43,44,24,39,,,,0.88,0.52,0.71,4*0C
$GPGSV,3,1,10,06,59,114,35,12,55,297,37,19,54,061,34,24,47,227,32,1*6E
$GPGSV,3,2,10,11,40,169,33,25,39,301,,46,33,188,31,17,23,064,24,1*63
$GPGSV,3,3,10,03,10,034,24,32,09,320,26,1*6B
$GLGSV,2,1,07,84,76,067,18,74,65,133,17,75,56,320,28,85,43,205,22,1*79
$GLGSV,2,2,07,73,19,137,26,83,13,033,,66,10,327,17,1*4A
$GAGSV,3,1,09,21,87,019,33,13,55,134,31,15,38,053,28,27,34,109,28,7*79
$GAGSV,3,2,09,26,18,185,21,04,16,291,25,06,13,316,25,09,07,338,23,7*77
$GAGSV,3,3,09,19,06,237,11,7*42
$GBGSV,3,1,12,34,80,130,33,25,70,191,32,11,62,203,30,12,56,061,29,1*78
$GBGSV,3,2,12,23,43,302,30,43,39,219,29,44,31,055,28,24,22,145,25,1*75
$GBGSV,3,3,12,39,10,330,25,19,02,019,,16,01,334,,48,01,355,,1*77
$GNRMC,003803.000,A,4910.426284,N,12304.404492,W,0.03,40.82,070125,,,D,V*20
$GNVTG,40.82,T,,M,0.03,N,0.05,K,D*1E
$PAIRLOG,Full*51
$GNGGA,003804.000,4910.426146,N,12304.404618,W,2,29,0.52,1.772,M,-16.816,M,,*42
$GNGLL,4910.426146,N,12304.404618,W,003804.000,A,D*5B
$GNGSA,A,3,06,12,19,24,11,17,03,32,,,,,0.88,0.52,0.71,1*0F
$GNGSA,A,3,84,75,85,73,66,,,,,,,,0.88,0.52,0.71,2*04
$GNGSA,A,3,21,13,15,27,26,04,06,,,,,,0.88,0.52,0.71,3*04
$GNGSA,A,3,34,25,11,12,23,43,44,24,39,,,,0.88,0.52,0.71,4*0C
$GPGSV,3,1,10,06,59,114,35,12,55,297,37,19,54,061,34,24,47,227,32,1*6E
$GPGSV,3,2,10,11,40,169,33,25,39,301,,46,33,188,31,17,23,064,23,1*64
$GPGSV,3,3,10,03,10,034,24,32,09,320,26,1*6B
$GLGSV,2,1,07,84,76,067,18,74,65,133,17,75,56,320,28,85,43,205,22,1*79
$GLGSV,2,2,07,73,19,137,26,83,13,033,,66,10,327,15,1*48
$GAGSV,3,1,09,21,87,019,33,13,55,134,31,15,38,053,28,27,34,109,28,7*79
$GAGSV,3,2,09,26,18,185,20,04,16,291,25,06,13,316,25,09,07,338,23,7*76
$GAGSV,3,3,09,19,06,237,11,7*42
$GBGSV,3,1,12,34,80,130,33,25,70,191,32,11,62,203,30,12,56,061,29,1*78
$GBGSV,3,2,12,23,43,302,30,43,39,219,29,44,31,055,28,24,22,145,25,1*75
$GBGSV,3,3,12,39,10,330,25,19,02,019,,16,01,334,,48,01,355,,1*77
$GNRMC,003804.000,A,4910.426146,N,12304.404618,W,0.03,40.82,070125,,,D,V*2A
$GNVTG,40.82,T,,M,0.03,N,0.05,K,D*1E
$PAIRLOG,Full*51
$GNGGA,003805.000,4910.426056,N,12304.404786,W,2,29,0.52,1.750,M,-16.817,M,,*44
$GNGLL,4910.426056,N,12304.404786,W,003805.000,A,D*5C
$GNGSA,A,3,06,12,19,24,11,17,03,32,,,,,0.88,0.52,0.71,1*0F
$GNGSA,A,3,84,75,85,73,66,,,,,,,,0.88,0.52,0.71,2*04
$GNGSA,A,3,21,13,15,27,26,04,06,,,,,,0.88,0.52,0.71,3*04
$GNGSA,A,3,34,25,11,12,23,43,44,24,39,,,,0.88,0.52,0.71,4*0C
$GPGSV,3,1,10,06,59,114,35,12,55,297,37,19,54,061,34,24,47,227,32,1*6E
$GPGSV,3,2,10,11,40,169,33,25,39,301,,46,33,188,31,17,23,064,22,1*65
$GPGSV,3,3,10,03,10,034,24,32,09,320,26,1*6B
$GLGSV,2,1,07,84,76,067,18,74,65,133,17,75,56,320,28,85,43,205,22,1*79
$GLGSV,2,2,07,73,19,137,26,83,13,033,,66,10,327,15,1*48
$GAGSV,3,1,09,21,87,019,33,13,55,134,31,15,38,053,28,27,34,109,28,7*79
$GAGSV,3,2,09,26,18,185,20,04,16,291,25,06,13,316,25,09,07,338,23,7*76
$GAGSV,3,3,09,19,06,237,11,7*42
$GBGSV,3,1,12,34,80,130,33,25,70,191,32,11,62,203,30,12,56,061,29,1*78
$GBGSV,3,2,12,23,43,302,30,43,39,219,29,44,31,055,29,24,22,145,25,1*74
$GBGSV,3,3,12,39,10,330,25,19,02,019,,16,01,334,,48,01,355,,1*77
$GNRMC,003805.000,A,4910.426056,N,12304.404786,W,0.03,40.82,070125,,,D,V*2D
$GNVTG,40.82,T,,M,0.03,N,0.06,K,D*1D
$PAIRLOG,Full*51
$GNGGA,003806.000,4910.426080,N,12304.404822,W,2,29,0.52,1.783,M,-16.816,M,,*42
$GNGLL,4910.426080,N,12304.404822,W,003806.000,A,D*55
$GNGSA,A,3,06,12,19,24,11,17,03,32,,,,,0.88,0.52,0.71,1*0F
$GNGSA,A,3,84,75,85,73,66,,,,,,,,0.88,0.52,0.71,2*04
$GNGSA,A,3,21,13,15,27,26,04,06,,,,,,0.88,0.52,0.71,3*04
$GNGSA,A,3,34,25,11,12,23,43,44,24,39,,,,0.88,0.52,0.71,4*0C
$GPGSV,3,1,10,06,59,114,34,12,55,297,36,19,54,061,33,24,47,227,32,1*69
$GPGSV,3,2,10,11,40,169,33,25,39,301,,46,33,188,31,17,23,064,21,1*66
$GPGSV,3,3,10,03,10,034,24,32,09,320,25,1*68
$GLGSV,2,1,07,84,76,067,18,74,65,133,17,75,56,320,29,85,43,205,22,1*78
$GLGSV,2,2,07,73,19,137,27,83,13,033,,66,10,327,16,1*4A
$GAGSV,3,1,09,21,87,019,33,13,55,134,31,15,38,053,28,27,34,109,27,7*76
$GAGSV,3,2,09,26,18,185,20,04,16,291,24,06,13,316,25,09,07,338,23,7*77
$GAGSV,3,3,09,19,06,237,11,7*42
$GBGSV,3,1,12,34,80,130,33,25,70,191,32,11,62,203,31,12,56,061,30,1*71
$GBGSV,3,2,12,23,43,302,30,43,39,219,29,44,31,055,29,24,22,145,25,1*74
$GBGSV,3,3,12,39,10,330,25,19,02,019,,16,01,334,,48,01,355,,1*77
$GNRMC,003806.000,A,4910.426080,N,12304.404822,W,0.03,40.82,070125,,,D,V*24
$GNVTG,40.82,T,,M,0.03,N,0.06,K,D*1D
$PAIRLOG,Full*51
$GNGGA,003807.000,4910.426062,N,12304.404798,W,2,29,0.52,1.790,M,-16.817,M,,*42
$GNGLL,4910.426062,N,12304.404798,W,003807.000,A,D*56
$GNGSA,A,3,06,12,19,24,11,17,03,32,,,,,0.88,0.52,0.71,1*0F
$GNGSA,A,3,84,75,85,73,66,,,,,,,,0.88,0.52,0.71,2*04
$GNGSA,A,3,21,13,15,27,26,04,06,,,,,,0.88,0.52,0.71,3*04
$GNGSA,A,3,34,25,11,12,23,43,44,24,39,,,,0.88,0.52,0.71,4*0C
$GPGSV,3,1,10,06,59,114,33,12,55,297,36,19,54,061,33,24,47,227,32,1*6E
$GPGSV,3,2,10,11,40,169,33,25,39,301,,46,33,188,31,17,23,064,20,1*67
$GPGSV,3,3,10,03,10,034,24,32,09,320,25,1*68
$GLGSV,2,1,07,84,76,067,19,74,65,133,17,75,56,320,30,85,43,205,22,1*71
$GLGSV,2,2,07,73,19,137,27,83,13,033,,66,10,327,16,1*4A
$GAGSV,3,1,09,21,87,019,33,13,55,134,31,15,38,053,28,27,34,109,27,7*76
$GAGSV,3,2,09,26,18,185,20,04,16,291,24,06,13,316,24,09,07,338,23,7*76
$GAGSV,3,3,09,19,06,237,11,7*42
$GBGSV,3,1,12,34,80,130,33,25,70,191,32,11,62,203,31,12,56,061,30,1*71
$GBGSV,3,2,12,23,43,302,30,43,39,219,29,44,31,055,29,24,22,145,25,1*74
$GBGSV,3,3,12,39,10,330,25,19,02,019,,16,01,334,,48,01,355,,1*77
$GNRMC,003807.000,A,4910.426062,N,12304.404798,W,0.03,40.82,070125,,,D,V*27
$GNVTG,40.82,T,,M,0.03,N,0.06,K,D*1D
$PAIRLOG,Full*51
$GNGGA,003808.000,4910.426080,N,12304.404846,W,2,29,0.52,1.823,M,-16.817,M,,*4A
$GNGLL,4910.426080,N,12304.404846,W,003808.000,A,D*59
$GNGSA,A,3,06,12,19,24,11,17,03,32,,,,,0.88,0.52,0.71,1*0F
$GNGSA,A,3,84,75,85,73,66,,,,,,,,0.88,0.52,0.71,2*04
$GNGSA,A,3,21,13,15,27,26,04,06,,,,,,0.88,0.52,0.71,3*04
$GNGSA,A,3,34,25,11,12,23,43,44,24,39,,,,0.88,0.52,0.71,4*0C
$GPGSV,3,1,10,06,59,114,33,12,55,297,35,19,54,061,32,24,47,227,32,1*6C
$GPGSV,3,2,10,11,40,169,33,25,39,301,,46,33,188,30,17,23,064,19,1*6C
$GPGSV,3,3,10,03,10,034,24,32,09,320,25,1*68
$GLGSV,2,1,07,84,76,067,19,74,65,133,18,75,56,320,30,85,43,205,22,1*7E
$GLGSV,2,2,07,73,19,137,27,83,13,033,,66,10,327,17,1*4B
$GAGSV,3,1,09,21,87,019,32,13,55,134,31,15,38,053,27,27,34,109,26,7*79
$GAGSV,3,2,09,26,18,185,19,04,16,291,24,06,13,316,24,09,07,338,23,7*7C
$GAGSV,3,3,09,19,06,237,11,7*42
$GBGSV,3,1,12,34,80,130,33,25,70,191,32,11,62,203,31,12,56,061,30,1*71
$GBGSV,3,2,12,23,43,302,30,43,39,219,29,44,31,055,29,24,22,145,25,1*74
$GBGSV,3,3,12,39,10,330,25,19,02,019,,16,01,334,,48,01,355,,1*77
$GNRMC,003808.000,A,4910.426080,N,12304.404846,W,0.03,40.82,070125,,,D,V*28
$GNVTG,40.82,T,,M,0.03,N,0.05,K,D*1E
$PAIRLOG,Full*51
$GNGGA,003809.000,4910.426086,N,12304.404762,W,2,29,0.52,1.790,M,-16.816,M,,*42
$GNGLL,4910.426086,N,12304.404762,W,003809.000,A,D*57
$GNGSA,A,3,06,12,19,24,11,17,03,32,,,,,0.88,0.52,0.71,1*0F
$GNGSA,A,3,84,75,85,73,66,,,,,,,,0.88,0.52,0.71,2*04
$GNGSA,A,3,21,13,15,27,26,04,06,,,,,,0.88,0.52,0.71,3*04
$GNGSA,A,3,34,25,11,12,23,43,44,24,39,,,,0.88,0.52,0.71,4*0C
$GPGSV,3,1,10,06,59,114,33,12,55,297,35,19,54,061,32,24,47,227,32,1*6C
$GPGSV,3,2,10,11,40,169,33,25,39,301,,46,33,188,30,17,23,064,19,1*6C
$GPGSV,3,3,10,03,10,034,24,32,09,320,25,1*68
$GLGSV,2,1,07,84,76,067,20,74,65,133,18,75,56,320,30,85,43,205,22,1*74
$GLGSV,2,2,07,73,19,137,27,83,13,033,,66,10,327,17,1*4B
$GAGSV,3,1,09,21,87,019,32,13,55,134,31,15,38,053,27,27,34,109,26,7*79
$GAGSV,3,2,09,26,18,185,19,04,16,291,24,06,13,316,24,09,07,338,23,7*7C
$GAGSV,3,3,09,19,06,237,11,7*42
$GBGSV,3,1,12,34,80,130,33,25,70,191,32,11,62,203,31,12,56,061,30,1*71
$GBGSV,3,2,12,23,43,302,30,43,39,219,29,44,31,055,29,24,22,145,25,1*74
$GBGSV,3,3,12,39,10,330,25,19,02,019,,16,01,334,,48,01,355,,1*77
$GNRMC,003809.000,A,4910.426086,N,12304.404762,W,0.02,40.82,070125,,,D,V*27
$GNVTG,40.82,T,,M,0.02,N,0.04,K,D*1E
$PAIRLOG,Full*51
$GNGGA,003810.000,4910.426020,N,12304.404816,W,2,29,0.52,1.756,M,-16.816,M,,*40
$GNGLL,4910.426020,N,12304.404816,W,003810.000,A,D*5F
$GNGSA,A,3,06,12,19,24,11,17,03,32,,,,,0.88,0.52,0.71,1*0F
$GNGSA,A,3,84,75,85,73,66,,,,,,,,0.88,0.52,0.71,2*04
$GNGSA,A,3,21,13,15,27,26,04,06,,,,,,0.88,0.52,0.71,3*04
$GNGSA,A,3,34,25,11,12,23,43,44,24,39,,,,0.88,0.52,0.71,4*0C
$GPGSV,3,1,10,06,59,114,33,12,55,297,35,19,54,061,32,24,47,227,32,1*6C
$GPGSV,3,2,10,11,40,169,33,25,39,301,,46,33,188,30,17,23,064,19,1*6C
$GPGSV,3,3,10,03,10,034,24,32,09,320,25,1*68
$GLGSV,2,1,07,84,76,067,20,74,65,133,18,75,56,320,30,85,43,205,22,1*74
$GLGSV,2,2,07,73,19,137,27,83,13,033,,66,10,327,18,1*44
$GAGSV,3,1,09,21,87,019,32,13,55,134,31,15,38,053,27,27,34,109,27,7*78
$GAGSV,3,2,09,26,18,185,19,04,16,291,24,06,13,316,24,09,07,338,23,7*7C
$GAGSV,3,3,09,19,06,237,10,7*43
$GBGSV,3,1,12,34,80,130,33,25,70,191,32,11,62,203,31,12,56,061,30,1*71
$GBGSV,3,2,12,23,43,302,31,43,39,219,29,44,31,055,29,24,22,145,26,1*76
$GBGSV,3,3,12,39,10,330,25,19,02,019,,16,01,334,,48,01,355,,1*77
$GNRMC,003810.000,A,4910.426020,N,12304.404816,W,0.02,40.82,070125,,,D,V*2F
$GNVTG,40.82,T,,M,0.02,N,0.04,K,D*1E
$PAIRLOG,Full*51
$GNGGA,003811.000,4910.425966,N,12304.404804,W,2,29,0.52,1.808,M,-16.817,M,,*4F
$GNGLL,4910.425966,N,12304.404804,W,003811.000,A,D*55
$GNGSA,A,3,06,12,19,24,11,17,03,32,,,,,0.88,0.52,0.71,1*0F
$GNGSA,A,3,84,75,85,73,66,,,,,,,,0.88,0.52,0.71,2*04
$GNGSA,A,3,21,13,15,27,26,04,06,,,,,,0.88,0.52,0.71,3*04
$GNGSA,A,3,34,25,11,12,23,43,44,24,39,,,,0.88,0.52,0.71,4*0C
$GPGSV,3,1,10,06,59,114,33,12,55,297,35,19,54,061,32,24,47,227,32,1*6C
$GPGSV,3,2,10,11,40,169,32,25,39,301,,46,33,188,30,17,23,064,19,1*6D
$GPGSV,3,3,10,03,10,034,24,32,09,320,25,1*68
$GLGSV,2,1,07,84,76,067,20,74,65,133,18,75,56,320,30,85,43,205,22,1*74
$GLGSV,2,2,07,73,19,137,27,83,13,033,,66,10,327,18,1*44
$GAGSV,3,1,09,21,87,019,32,13,55,134,31,15,38,053,27,27,34,109,27,7*78
$GAGSV,3,2,09,26,18,185,19,04,16,291,24,06,13,316,24,09,07,338,23,7*7C
$GAGSV,3,3,09,19,06,237,10,7*43
$GBGSV,3,1,12,34,80,130,33,25,70,191,32,11,62,203,31,12,56,061,30,1*71
$GBGSV,3,2,12,23,43,302,31,43,39,219,29,44,31,055,29,24,22,145,26,1*76
$GBGSV,3,3,12,39,10,330,25,19,02,019,,16,01,334,,48,01,355,,1*77
$GNRMC,003811.000,A,4910.425966,N,12304.404804,W,0.02,40.82,070125,,,D,V*25
$GNVTG,40.82,T,,M,0.02,N,0.04,K,D*1E
$PAIRLOG,Full*51
$GNGGA,003812.000,4910.425924,N,12304.404840,W,2,29,0.52,1.804,M,-16.817,M,,*46
$GNGLL,4910.425924,N,12304.404840,W,003812.000,A,D*50
$GNGSA,A,3,06,12,19,24,11,17,03,32,,,,,0.88,0.52,0.71,1*0F
$GNGSA,A,3,84,75,85,73,66,,,,,,,,0.88,0.52,0.71,2*04
$GNGSA,A,3,21,13,15,27,26,04,06,,,,,,0.88,0.52,0.71,3*04
$GNGSA,A,3,34,25,11,12,23,43,44,24,39,,,,0.88,0.52,0.71,4*0C
$GPGSV,3,1,10,06,59,113,33,12,55,297,35,19,53,061,32,24,47,227,32,1*6C
$GPGSV,3,2,10,11,40,169,32,25,39,301,,46,33,188,30,17,23,064,19,1*6D
$GPGSV,3,3,10,03,10,034,24,32,09,320,25,1*68
$GLGSV,2,1,07,84,76,066,20,74,64,133,18,75,56,320,29,85,43,205,22,1*7C
$GLGSV,2,2,07,73,19,137,27,83,13,033,,66,10,326,18,1*45
$GAGSV,3,1,09,21,87,022,32,13,55,134,31,15,37,053,27,27,34,110,27,7*77
$GAGSV,3,2,09,26,18,185,19,04,16,291,24,06,13,316,24,09,07,337,23,7*73
$GAGSV,3,3,09,19,06,237,10,7*43
$GBGSV,3,1,12,34,80,128,33,25,70,191,32,11,62,203,31,12,56,060,30,1*79
$GBGSV,3,2,12,23,44,301,31,43,40,219,30,44,31,055,29,24,21,146,26,1*74
$GBGSV,3,3,12,39,10,330,25,19,02,019,,16,01,334,,48,01,355,,1*77
$GNRMC,003812.000,A,4910.425924,N,12304.404840,W,0.02,40.82,070125,,,D,V*20
$GNVTG,40.82,T,,M,0.02,N,0.03,K,D*19
$PAIRLOG,Full*51
$GNGGA,003813.000,4910.425918,N,12304.404792,W,2,29,0.52,1.881,M,-16.817,M,,*45
$GNGLL,4910.425918,N,12304.404792,W,003813.000,A,D*5E
$GNGSA,A,3,06,12,19,24,11,17,03,32,,,,,0.88,0.52,0.71,1*0F
$GNGSA,A,3,84,75,85,73,66,,,,,,,,0.88,0.52,0.71,2*04
$GNGSA,A,3,21,13,15,27,26,04,06,,,,,,0.88,0.52,0.71,3*04
$GNGSA,A,3,34,25,11,12,23,43,44,24,39,,,,0.88,0.52,0.71,4*0C
$GPGSV,3,1,10,06,59,113,33,12,55,297,35,19,53,061,32,24,47,227,32,1*6C
$GPGSV,3,2,10,11,40,169,31,25,39,301,,46,33,188,30,17,23,064,19,1*6E
$GPGSV,3,3,10,03,10,034,24,32,09,320,24,1*69
$GLGSV,2,1,07,84,76,066,20,74,64,133,18,75,56,320,29,85,43,205,22,1*7C
$GLGSV,2,2,07,73,19,137,26,83,13,033,,66,10,326,18,1*44
$GAGSV,3,1,09,21,87,022,32,13,55,134,31,15,37,053,27,27,34,110,27,7*77
$GAGSV,3,2,09,26,18,185,19,04,16,291,23,06,13,316,24,09,07,337,23,7*74
$GAGSV,3,3,09,19,06,237,10,7*43
$GBGSV,3,1,12,34,80,128,33,25,70,191,32,11,62,203,31,12,56,060,30,1*79
$GBGSV,3,2,12,23,44,301,31,43,40,219,30,44,31,055,29,24,21,146,26,1*74
$GBGSV,3,3,12,39,10,330,25,19,02,019,,16,01,334,,48,01,355,,1*77
$GNRMC,003813.000,A,4910.425918,N,12304.404792,W,0.01,40.82,070125,,,D,V*2D
$GNVTG,40.82,T,,M,0.01,N,0.03,K,D*1A
$PAIRLOG,Full*51
$GNGGA,003814.000,4910.425918,N,12304.404822,W,2,29,0.52,1.963,M,-16.816,M,,*4A
$GNGLL,4910.425918,N,12304.404822,W,003814.000,A,D*5D
$GNGSA,A,3,06,12,19,24,11,17,03,32,,,,,0.88,0.52,0.71,1*0F
$GNGSA,A,3,84,75,85,73,66,,,,,,,,0.88,0.52,0.71,2*04
$GNGSA,A,3,21,13,15,27,26,04,06,,,,,,0.88,0.52,0.71,3*04
$GNGSA,A,3,34,25,11,12,23,43,44,24,39,,,,0.88,0.52,0.71,4*0C
$GPGSV,3,1,10,06,59,113,33,12,55,297,35,19,53,061,32,24,47,227,32,1*6C
$GPGSV,3,2,10,11,40,169,31,25,39,301,,46,33,188,30,17,23,064,19,1*6E
$GPGSV,3,3,10,03,10,034,24,32,09,320,24,1*69
$GLGSV,2,1,07,84,76,066,20,74,64,133,18,75,56,320,29,85,43,205,22,1*7C
$GLGSV,2,2,07,73,19,137,26,83,13,033,,66,10,326,17,1*4B
$GAGSV,3,1,09,21,87,022,32,13,55,134,31,15,37,053,27,27,34,110,27,7*77
$GAGSV,3,2,09,26,18,185,19,04,16,291,23,06,13,316,24,09,07,337,23,7*74
$GAGSV,3,3,09,19,06,237,11,7*42
$GBGSV,3,1,12,34,80,128,33,25,70,191,32,11,62,203,31,12,56,060,30,1*79
$GBGSV,3,2,12,23,44,301,31,43,40,219,30,44,31,055,29,24,21,146,26,1*74
$GBGSV,3,3,12,39,10,330,25,19,02,019,,16,01,334,,48,01,355,,1*77
$GNRMC,003814.000,A,4910.425918,N,12304.404822,W,0.02,40.82,070125,,,D,V*2D
$GNVTG,40.82,T,,M,0.02,N,0.03,K,D*19
$PAIRLOG,Full*51
$GNGGA,003815.000,4910.425918,N,12304.404774,W,2,29,0.52,2.083,M,-16.816,M,,*43
$GNGLL,4910.425918,N,12304.404774,W,003815.000,A,D*50
$GNGSA,A,3,06,12,19,24,11,17,03,32,,,,,0.88,0.52,0.71,1*0F
$GNGSA,A,3,84,75,85,73,66,,,,,,,,0.88,0.52,0.71,2*04
$GNGSA,A,3,21,13,15,27,26,04,06,,,,,,0.88,0.52,0.71,3*04
$GNGSA,A,3,34,25,11,12,23,43,44,24,39,,,,0.88,0.52,0.71,4*0C
$GPGSV,3,1,10,06,59,113,33,12,55,297,35,19,53,061,32,24,47,227,32,1*6C
$GPGSV,3,2,10,11,40,169,31,25,39,301,,46,33,188,30,17,23,064,19,1*6E
$GPGSV,3,3,10,03,10,034,24,32,09,320,24,1*69
$GLGSV,2,1,07,84,76,066,20,74,64,133,18,75,56,320,29,85,43,205,23,1*7D
$GLGSV,2,2,07,73,19,137,26,83,13,033,,66,10,326,17,1*4B
$GAGSV,3,1,09,21,87,022,32,13,55,134,31,15,37,053,27,27,34,110,27,7*77
$GAGSV,3,2,09,26,18,185,19,04,16,291,23,06,13,316,24,09,07,337,23,7*74
$GAGSV,3,3,09,19,06,237,11,7*42
$GBGSV,3,1,12,34,80,128,34,25,70,191,33,11,62,203,31,12,56,060,30,1*7F
$GBGSV,3,2,12,23,44,301,31,43,40,219,30,44,31,055,29,24,21,146,26,1*74
$GBGSV,3,3,12,39,10,330,25,19,02,019,,16,01,334,,48,01,355,,1*77
$GNRMC,003815.000,A,4910.425918,N,12304.404774,W,0.02,40.82,070125,,,D,V*20
$GNVTG,40.82,T,,M,0.02,N,0.03,K,D*19
$PAIRLOG,Full*51
$GNGGA,003816.000,4910.425936,N,12304.404678,W,2,29,0.52,2.202,M,-16.816,M,,*4A
$GNGLL,4910.425936,N,12304.404678,W,003816.000,A,D*52
$GNGSA,A,3,06,12,19,24,11,17,03,32,,,,,0.88,0.52,0.71,1*0F
$GNGSA,A,3,84,75,85,73,66,,,,,,,,0.88,0.52,0.71,2*04
$GNGSA,A,3,21,13,15,27,26,04,06,,,,,,0.88,0.52,0.71,3*04
$GNGSA,A,3,34,25,11,12,23,43,44,24,39,,,,0.88,0.52,0.71,4*0C
$GPGSV,3,1,10,06,59,113,33,12,55,297,35,19,53,061,32,24,47,227,32,1*6C
$GPGSV,3,2,10,11,40,169,31,25,39,301,,46,33,188,30,17,23,064,20,1*64
$GPGSV,3,3,10,03,10,034,24,32,09,320,24,1*69
$GLGSV,2,1,07,84,76,066,20,74,64,133,19,75,56,320,30,85,43,205,25,1*72
$GLGSV,2,2,07,73,19,137,26,83,13,033,,66,10,326,17,1*4B
$GAGSV,3,1,09,21,87,022,33,13,55,134,31,15,37,053,28,27,34,110,27,7*79
$GAGSV,3,2,09,26,18,185,19,04,16,291,23,06,13,316,24,09,07,337,23,7*74
$GAGSV,3,3,09,19,06,237,11,7*42
$GBGSV,3,1,12,34,80,128,34,25,70,191,33,11,62,203,31,12,56,060,30,1*7F
$GBGSV,3,2,12,23,44,301,31,43,40,219,30,44,31,055,29,24,21,146,27,1*75
$GBGSV,3,3,12,39,10,330,26,19,02,019,,16,01,334,,48,01,355,,1*74
$GNRMC,003816.000,A,4910.425936,N,12304.404678,W,0.02,40.82,070125,,,D,V*22
$GNVTG,40.82,T,,M,0.02,N,0.04,K,D*1E
$PAIRLOG,Full*51
$GNGGA,003817.000,4910.425990,N,12304.404684,W,2,29,0.52,2.261,M,-16.816,M,,*41
$GNGLL,4910.425990,N,12304.404684,W,003817.000,A,D*5C
$GNGSA,A,3,06,12,19,24,11,17,03,32,,,,,0.88,0.52,0.71,1*0F
$GNGSA,A,3,84,75,85,73,66,,,,,,,,0.88,0.52,0.71,2*04
$GNGSA,A,3,21,13,15,27,26,04,06,,,,,,0.88,0.52,0.71,3*04
$GNGSA,A,3,34,25,11,12,23,43,44,24,39,,,,0.88,0.52,0.71,4*0C
$GPGSV,3,1,10,06,59,113,34,12,55,297,36,19,53,061,33,24,47,227,33,1*68
$GPGSV,3,2,10,11,40,169,32,25,39,301,,46,33,188,31,17,23,064,21,1*67
$GPGSV,3,3,10,03,10,034,25,32,09,320,24,1*68
$GLGSV,2,1,07,84,76,066,20,74,64,133,20,75,56,320,30,85,43,205,25,1*78
$GLGSV,2,2,07,73,19,137,26,83,13,033,,66,10,326,17,1*4B
$GAGSV,3,1,09,21,87,022,33,13,55,134,32,15,37,053,29,27,34,110,28,7*74
$GAGSV,3,2,09,26,18,185,19,04,16,291,24,06,13,316,24,09,07,337,24,7*74
$GAGSV,3,3,09,19,06,237,11,7*42
$GBGSV,3,1,12,34,80,128,34,25,70,191,33,11,62,203,31,12,56,060,30,1*7F
$GBGSV,3,2,12,23,44,301,31,43,40,219,30,44,31,055,29,24,21,146,27,1*75
$GBGSV,3,3,12,39,10,330,26,19,02,019,,16,01,334,,48,01,355,,1*74
$GNRMC,003817.000,A,4910.425990,N,12304.404684,W,0.02,40.82,070125,,,D,V*2C
$GNVTG,40.82,T,,M,0.02,N,0.04,K,D*1E
$PAIRLOG,Full*51
$GNGGA,003818.000,4910.426014,N,12304.404606,W,2,29,0.52,2.217,M,-16.817,M,,*42
$GNGLL,4910.426014,N,12304.404606,W,003818.000,A,D*5F
$GNGSA,A,3,06,12,19,24,11,17,03,32,,,,,0.88,0.52,0.71,1*0F
$GNGSA,A,3,84,75,85,73,66,,,,,,,,0.88,0.52,0.71,2*04
$GNGSA,A,3,21,13,15,27,26,04,06,,,,,,0.88,0.52,0.71,3*04
$GNGSA,A,3,34,25,11,12,23,43,44,24,39,,,,0.88,0.52,0.71,4*0C
$GPGSV,3,1,10,06,59,113,34,12,55,297,36,19,53,061,33,24,47,227,33,1*68
$GPGSV,3,2,10,11,40,169,32,25,39,301,,46,33,188,31,17,23,064,21,1*67
$GPGSV,3,3,10,03,10,034,25,32,09,320,24,1*68
$GLGSV,2,1,07,84,76,066,20,74,64,133,21,75,56,320,30,85,43,205,25,1*79
$GLGSV,2,2,07,73,19,137,27,83,13,033,,66,10,326,17,1*4A
$GAGSV,3,1,09,21,87,022,33,13,55,134,32,15,37,053,29,27,34,110,28,7*74
$GAGSV,3,2,09,26,18,185,19,04,16,291,24,06,13,316,24,09,07,337,24,7*74
$GAGSV,3,3,09,19,06,237,12,7*41
$GBGSV,3,1,12,34,80,128,34,25,70,191,33,11,62,203,31,12,56,060,30,1*7F
$GBGSV,3,2,12,23,44,301,31,43,40,219,30,44,31,055,29,24,21,146,27,1*75
$GBGSV,3,3,12,39,10,330,26,19,02,019,,16,01,334,,48,01,355,,1*74
$GNRMC,003818.000,A,4910.426014,N,12304.404606,W,0.03,40.82,070125,,,D,V*2E
$GNVTG,40.82,T,,M,0.03,N,0.05,K,D*1E
$PAIRLOG,Full*51
$GNGGA,003819.000,4910.426098,N,12304.404516,W,2,29,0.52,2.223,M,-16.816,M,,*43
$GNGLL,4910.426098,N,12304.404516,W,003819.000,A,D*58
$GNGSA,A,3,06,12,19,24,11,17,03,32,,,,,0.88,0.52,0.71,1*0F
$GNGSA,A,3,84,75,85,73,66,,,,,,,,0.88,0.52,0.71,2*04
$GNGSA,A,3,21,13,15,27,26,04,06,,,,,,0.88,0.52,0.71,3*04
$GNGSA,A,3,34,25,11,12,23,43,44,24,39,,,,0.88,0.52,0.71,4*0C
$GPGSV,3,1,10,06,59,113,34,12,55,297,36,19,53,061,33,24,47,227,33,1*68
$GPGSV,3,2,10,11,40,169,32,25,39,301,,46,33,188,31,17,23,064,21,1*67
$GPGSV,3,3,10,03,10,034,25,32,09,320,24,1*68
$GLGSV,2,1,07,84,76,066,20,74,64,133,22,75,56,320,30,85,43,205,25,1*7A
$GLGSV,2,2,07,73,19,137,27,83,13,033,,66,10,326,17,1*4A
$GAGSV,3,1,09,21,87,022,33,13,55,134,32,15,37,053,29,27,34,110,28,7*74
$GAGSV,3,2,09,26,18,185,19,04,16,291,24,06,13,316,24,09,07,337,24,7*74
$GAGSV,3,3,09,19,06,237,12,7*41
$GBGSV,3,1,12,34,80,128,34,25,70,191,33,11,62,203,31,12,56,060,30,1*7F
$GBGSV,3,2,12,23,44,301,31,43,40,219,30,44,31,055,29,24,21,146,28,1*7A
$GBGSV,3,3,12,39,10,330,26,19,02,019,,16,01,334,,48,01,355,,1*74
$GNRMC,003819.000,A,4910.426098,N,12304.404516,W,0.03,40.82,070125,,,D,V*29
$GNVTG,40.82,T,,M,0.03,N,0.05,K,D*1E
$PAIRLOG,Full*51
$GNGGA,003820.000,4910.426182,N,12304.404510,W,2,29,0.52,2.162,M,-16.817,M,,*42
$GNGLL,4910.426182,N,12304.404510,W,003820.000,A,D*5E
$GNGSA,A,3,06,12,19,24,11,17,03,32,,,,,0.88,0.52,0.71,1*0F
$GNGSA,A,3,84,75,85,73,66,,,,,,,,0.88,0.52,0.71,2*04
$GNGSA,A,3,21,13,15,27,26,04,06,,,,,,0.88,0.52,0.71,3*04
$GNGSA,A,3,34,25,11,12,23,43,44,24,39,,,,0.88,0.52,0.71,4*0C
$GPGSV,3,1,10,06,59,113,34,12,55,297,36,19,53,061,33,24,47,227,33,1*68
$GPGSV,3,2,10,11,40,169,32,25,39,301,,46,33,188,31,17,23,064,22,1*64
$GPGSV,3,3,10,03,10,034,26,32,09,320,24,1*6B
$GLGSV,2,1,07,84,76,066,19,74,64,133,23,75,56,320,30,85,43,205,25,1*71
$GLGSV,2,2,07,73,19,137,27,83,13,033,,66,10,326,17,1*4A
$GAGSV,3,1,09,21,87,022,33,13,55,134,32,15,37,053,29,27,34,110,29,7*75
$GAGSV,3,2,09,26,18,185,19,04,16,291,24,06,13,316,25,09,07,337,24,7*75
$GAGSV,3,3,09,19,06,237,12,7*41
$GBGSV,3,1,12,34,80,128,34,25,70,191,34,11,62,203,31,12,56,060,31,1*79
$GBGSV,3,2,12,23,44,301,31,43,40,219,30,44,31,055,30,24,21,146,28,1*72
$GBGSV,3,3,12,39,10,330,26,19,02,019,,16,01,334,,48,01,355,,1*74
$GNRMC,003820.000,A,4910.426182,N,12304.404510,W,0.03,40.82,070125,,,D,V*2F
$GNVTG,40.82,T,,M,0.03,N,0.06,K,D*1D
$PAIRLOG,Full*51
$GNGGA,003821.000,4910.426266,N,12304.404510,W,2,29,0.52,2.134,M,-16.817,M,,*49
$GNGLL,4910.426266,N,12304.404510,W,003821.000,A,D*56
$GNGSA,A,3,06,12,19,24,11,17,03,32,,,,,0.88,0.52,0.71,1*0F
$GNGSA,A,3,84,75,85,73,66,,,,,,,,0.88,0.52,0.71,2*04
$GNGSA,A,3,21,13,15,27,26,04,06,,,,,,0.88,0.52,0.71,3*04
$GNGSA,A,3,34,25,11,12,23,43,44,24,39,,,,0.88,0.52,0.71,4*0C
$GPGSV,3,1,10,06,59,113,34,12,55,297,36,19,53,061,33,24,47,227,33,1*68
$GPGSV,3,2,10,11,40,169,32,25,39,301,,46,33,188,31,17,23,064,23,1*65
$GPGSV,3,3,10,03,10,034,26,32,09,320,24,1*6B
$GLGSV,2,1,07,84,76,066,19,74,64,133,23,75,56,320,30,85,43,205,26,1*72
$GLGSV,2,2,07,73,19,137,27,83,13,033,,66,10,326,17,1*4A
$GAGSV,3,1,09,21,87,022,33,13,55,134,32,15,37,053,29,27,34,110,29,7*75
$GAGSV,3,2,09,26,18,185,20,04,16,291,24,06,13,316,25,09,07,337,24,7*7F
$GAGSV,3,3,09,19,06,237,12,7*41
$GBGSV,3,1,12,34,80,128,34,25,70,191,34,11,62,203,31,12,56,060,31,1*79
$GBGSV,3,2,12,23,44,301,31,43,40,219,30,44,31,055,30,24,21,146,28,1*72
$GBGSV,3,3,12,39,10,330,25,19,02,019,,16,01,334,,48,01,355,,1*77
$GNRMC,003821.000,A,4910.426266,N,12304.404510,W,0.03,40.82,070125,,,D,V*27
$GNVTG,40.82,T,,M,0.03,N,0.05,K,D*1E
$PAIRLOG,Full*51
$GNGGA,003822.000,4910.426326,N,12304.404540,W,2,29,0.52,1.969,M,-16.816,M,,*48
$GNGLL,4910.426326,N,12304.404540,W,003822.000,A,D*55
$GNGSA,A,3,06,12,19,24,11,17,03,32,,,,,0.88,0.52,0.71,1*0F
$GNGSA,A,3,84,75,85,73,66,,,,,,,,0.88,0.52,0.71,2*04
$GNGSA,A,3,21,13,15,27,26,04,06,,,,,,0.88,0.52,0.71,3*04
$GNGSA,A,3,34,25,11,12,23,43,44,24,39,,,,0.88,0.52,0.71,4*0C
$GPGSV,3,1,10,06,59,113,35,12,55,297,37,19,53,061,34,24,47,227,34,1*68
$GPGSV,3,2,10,11,40,169,33,25,39,301,,46,33,188,32,17,23,064,24,1*60
$GPGSV,3,3,10,03,10,034,27,32,09,320,24,1*6A
$GLGSV,2,1,07,84,76,066,19,74,64,133,23,75,56,320,31,85,43,205,27,1*72
$GLGSV,2,2,07,73,19,137,27,83,13,033,,66,10,326,17,1*4A
$GAGSV,3,1,09,21,87,022,34,13,55,134,33,15,37,053,30,27,34,110,29,7*7B
$GAGSV,3,2,09,26,18,185,21,04,16,291,24,06,13,316,26,09,07,337,25,7*7C
$GAGSV,3,3,09,19,06,237,12,7*41
$GBGSV,3,1,12,34,80,128,34,25,70,191,34,11,62,203,31,12,56,060,31,1*79
$GBGSV,3,2,12,23,44,301,31,43,40,219,30,44,31,055,30,24,21,146,28,1*72
$GBGSV,3,3,12,39,10,330,25,19,02,019,,16,01,334,,48,01,355,,1*77
$GNRMC,003822.000,A,4910.426326,N,12304.404540,W,0.03,40.82,070125,,,D,V*24
$GNVTG,40.82,T,,M,0.03,N,0.06,K,D*1D
$PAIRLOG,Full*51
$GNGGA,003823.000,4910.426272,N,12304.404672,W,2,29,0.52,1.723,M,-16.817,M,,*4A
$GNGLL,4910.426272,N,12304.404672,W,003823.000,A,D*56
$GNGSA,A,3,06,12,19,24,11,17,03,32,,,,,0.88,0.52,0.71,1*0F
$GNGSA,A,3,84,75,85,73,66,,,,,,,,0.88,0.52,0.71,2*04
$GNGSA,A,3,21,13,15,27,26,04,06,,,,,,0.88,0.52,0.71,3*04
$GNGSA,A,3,34,25,11,12,23,43,44,24,39,,,,0.88,0.52,0.71,4*0C
$GPGSV,3,1,10,06,59,113,36,12,55,297,37,19,53,061,35,24,47,227,34,1*6A
$GPGSV,3,2,10,11,40,169,34,25,39,301,,46,33,188,32,17,23,064,25,1*66
$GPGSV,3,3,10,03,10,034,28,32,09,320,25,1*64
$GLGSV,2,1,07,84,76,066,19,74,64,133,24,75,56,320,32,85,43,205,27,1*76
$GLGSV,2,2,07,73,19,137,27,83,13,033,,66,10,326,17,1*4A
$GAGSV,3,1,09,21,87,022,35,13,55,134,33,15,37,053,30,27,34,110,29,7*7A
$GAGSV,3,2,09,26,18,185,21,04,16,291,25,06,13,316,26,09,07,337,25,7*7D
$GAGSV,3,3,09,19,06,237,11,7*42
$GBGSV,3,1,12,34,80,128,34,25,70,191,33,11,62,203,31,12,56,060,31,1*7E
$GBGSV,3,2,12,23,44,301,30,43,40,219,30,44,31,055,30,24,21,146,28,1*73
$GBGSV,3,3,12,39,10,330,25,19,02,019,,16,01,334,,48,01,355,,1*77
$GNRMC,003823.000,A,4910.426272,N,12304.404672,W,0.02,40.82,070125,,,D,V*26
$GNVTG,40.82,T,,M,0.02,N,0.04,K,D*1E
$PAIRLOG,Full*51
$GNGGA,003824.000,4910.426290,N,12304.404726,W,2,29,0.52,1.562,M,-16.817,M,,*46
$GNGLL,4910.426290,N,12304.404726,W,003824.000,A,D*5D
$GNGSA,A,3,06,12,19,24,11,17,03,32,,,,,0.88,0.52,0.71,1*0F
$GNGSA,A,3,84,75,85,73,66,,,,,,,,0.88,0.52,0.71,2*04
$GNGSA,A,3,21,13,15,27,26,04,06,,,,,,0.88,0.52,0.71,3*04
$GNGSA,A,3,34,25,11,12,23,43,44,24,39,,,,0.88,0.52,0.71,4*0C
$GPGSV,3,1,09,06,59,113,36,12,55,297,37,19,53,061,35,24,47,227,35,1*63
$GPGSV,3,2,09,11,40,169,34,46,33,188,33,17,23,064,26,03,10,034,29,1*6D
$GPGSV,3,3,09,32,09,320,26,1*50
$GLGSV,2,1,07,84,76,066,20,74,64,133,24,75,56,320,32,85,43,205,28,1*73
$GLGSV,2,2,07,73,19,137,27,83,13,033,,66,10,326,17,1*4A
$GAGSV,3,1,09,21,87,022,35,13,55,134,34,15,37,053,30,27,34,110,30,7*75
$GAGSV,3,2,09,26,18,185,21,04,16,291,26,06,13,316,26,09,07,337,26,7*7D
$GAGSV,3,3,09,19,06,237,10,7*43
$GBGSV,3,1,12,34,80,128,33,25,70,191,32,11,62,203,30,12,56,060,30,1*78
$GBGSV,3,2,12,23,44,301,29,43,40,219,29,44,31,055,29,24,21,146,28,1*7B
$GBGSV,3,3,12,39,10,330,25,19,02,019,,16,01,334,,48,01,355,,1*77
$GNRMC,003824.000,A,4910.426290,N,12304.404726,W,0.02,40.82,070125,,,D,V*2D
$GNVTG,40.82,T,,M,0.02,N,0.03,K,D*19
$PAIRLOG,Full*51
$GNGGA,003825.000,4910.426296,N,12304.404684,W,2,29,0.52,1.454,M,-16.816,M,,*4D
$GNGLL,4910.426296,N,12304.404684,W,003825.000,A,D*53
$GNGSA,A,3,06,12,19,24,11,17,03,32,,,,,0.88,0.52,0.71,1*0F
$GNGSA,A,3,84,75,85,73,66,,,,,,,,0.88,0.52,0.71,2*04
$GNGSA,A,3,21,13,15,27,26,04,06,,,,,,0.88,0.52,0.71,3*04
$GNGSA,A,3,34,25,11,12,23,43,44,24,39,,,,0.88,0.52,0.71,4*0C
$GPGSV,3,1,10,06,59,113,36,12,55,297,37,19,53,061,35,24,47,227,35,1*6B
$GPGSV,3,2,10,11,40,169,34,25,39,301,,46,33,188,33,17,23,064,26,1*64
$GPGSV,3,3,10,03,10,034,29,32,09,320,26,1*66
$GLGSV,2,1,07,84,76,066,20,74,64,133,24,75,56,320,32,85,43,205,28,1*73
$GLGSV,2,2,07,73,19,137,27,83,13,033,,66,10,326,17,1*4A
$GAGSV,3,1,09,21,87,022,35,13,55,134,34,15,37,053,30,27,34,110,30,7*75
$GAGSV,3,2,09,26,18,185,21,04,16,291,26,06,13,316,26,09,07,337,26,7*7D
$GAGSV,3,3,09,19,06,237,09,7*4B
$GBGSV,3,1,12,34,80,128,33,25,70,191,32,11,62,203,30,12,56,060,30,1*78
$GBGSV,3,2,12,23,44,301,29,43,40,219,29,44,31,055,29,24,21,146,28,1*7B
$GBGSV,3,3,12,39,10,330,25,19,02,019,,16,01,334,,48,01,355,,1*77
$GNRMC,003825.000,A,4910.426296,N,12304.404684,W,0.02,40.82,070125,,,D,V*23
$GNVTG,40.82,T,,M,0.02,N,0.03,K,D*19
$PAIRLOG,Full*51
$GNGGA,003826.000,4910.426230,N,12304.404738,W,2,29,0.52,1.300,M,-16.817,M,,*43
$GNGLL,4910.426230,N,12304.404738,W,003826.000,A,D*5A
$GNGSA,A,3,06,12,19,24,11,17,03,32,,,,,0.88,0.52,0.71,1*0F
$GNGSA,A,3,84,75,85,73,66,,,,,,,,0.88,0.52,0.71,2*04
$GNGSA,A,3,21,13,15,27,26,04,06,,,,,,0.88,0.52,0.71,3*04
$GNGSA,A,3,34,25,11,12,23,43,44,24,39,,,,0.88,0.52,0.71,4*0C
$GPGSV,3,1,10,06,59,113,36,12,55,297,37,19,53,061,35,24,47,227,35,1*6B
$GPGSV,3,2,10,11,40,169,34,25,39,301,,46,33,188,33,17,23,064,26,1*64
$GPGSV,3,3,10,03,10,034,29,32,09,320,26,1*66
$GLGSV,2,1,07,84,76,066,20,74,64,133,24,75,56,320,32,85,43,205,28,1*73
$GLGSV,2,2,07,73,19,137,27,83,13,033,,66,10,326,16,1*4B
$GAGSV,3,1,09,21,87,022,35,13,55,134,34,15,37,053,30,27,34,110,30,7*75
$GAGSV,3,2,09,26,18,185,21,04,16,291,26,06,13,316,26,09,07,337,26,7*7D
$GAGSV,3,3,09,19,06,237,07,7*45
$GBGSV,3,1,12,34,80,128,34,25,70,191,33,11,62,203,31,12,56,060,31,1*7E
$GBGSV,3,2,12,23,44,301,30,43,40,219,29,44,31,055,29,24,21,146,28,1*73
$GBGSV,3,3,12,39,10,330,25,19,02,019,,16,01,334,,48,01,355,,1*77
$GNRMC,003826.000,A,4910.426230,N,12304.404738,W,0.01,40.82,070125,,,D,V*29
$GNVTG,40.82,T,,M,0.01,N,0.02,K,D*1B
$PAIRLOG,Full*51
$GNGGA,003827.000,4910.426224,N,12304.404780,W,2,29,0.52,1.005,M,-16.816,M,,*43
$GNGLL,4910.426224,N,12304.404780,W,003827.000,A,D*5D
$GNGSA,A,3,06,12,19,24,11,17,03,32,,,,,0.88,0.52,0.71,1*0F
$GNGSA,A,3,84,75,85,73,66,,,,,,,,0.88,0.52,0.71,2*04
$GNGSA,A,3,21,13,15,27,26,04,06,,,,,,0.88,0.52,0.71,3*04
$GNGSA,A,3,34,25,11,12,23,43,44,24,39,,,,0.88,0.52,0.71,4*0C
$GPGSV,3,1,10,06,59,113,36,12,55,297,37,19,53,061,35,24,47,227,35,1*6B
$GPGSV,3,2,10,11,40,169,34,25,39,301,,46,33,188,33,17,23,064,26,1*64
$GPGSV,3,3,10,03,10,034,28,32,09,320,26,1*67
$GLGSV,2,1,07,84,76,066,19,74,64,133,24,75,56,320,32,85,43,205,28,1*79
$GLGSV,2,2,07,73,19,137,27,83,13,033,,66,10,326,16,1*4B
$GAGSV,3,1,09,21,87,022,35,13,55,134,34,15,37,053,30,27,34,110,30,7*75
$GAGSV,3,2,09,26,18,185,21,04,16,291,26,06,13,316,26,09,07,337,26,7*7D
$GAGSV,3,3,09,19,06,237,07,7*45
$GBGSV,3,1,12,34,80,128,34,25,70,191,32,11,62,203,31,12,56,060,30,1*7E
$GBGSV,3,2,12,23,44,301,29,43,40,219,29,44,31,055,29,24,21,146,28,1*7B
$GBGSV,3,3,12,39,10,330,24,19,02,019,,16,01,334,,48,01,355,,1*76
$GNRMC,003827.000,A,4910.426224,N,12304.404780,W,0.01,40.82,070125,,,D,V*2E
$GNVTG,40.82,T,,M,0.01,N,0.01,K,D*18
$PAIRLOG,Full*51
$GNGGA,003828.000,4910.426272,N,12304.404708,W,2,29,0.52,0.792,M,-16.817,M,,*46
$GNGLL,4910.426272,N,12304.404708,W,003828.000,A,D*51
$GNGSA,A,3,06,12,19,24,11,17,03,32,,,,,0.88,0.52,0.71,1*0F
$GNGSA,A,3,84,75,85,73,66,,,,,,,,0.88,0.52,0.71,2*04
$GNGSA,A,3,21,13,15,27,26,04,06,,,,,,0.88,0.52,0.71,3*04
$GNGSA,A,3,34,25,11,12,23,43,44,24,39,,,,0.88,0.52,0.71,4*0C
$GPGSV,3,1,10,06,59,113,36,12,55,297,37,19,53,061,35,24,47,227,35,1*6B
$GPGSV,3,2,10,11,40,169,34,25,39,301,,46,33,188,33,17,23,064,27,1*65
$GPGSV,3,3,10,03,10,034,28,32,09,320,26,1*67
$GLGSV,2,1,07,84,76,066,19,74,64,133,24,75,56,320,32,85,43,205,28,1*79
$GLGSV,2,2,07,73,19,137,28,83,13,033,,66,10,326,16,1*44
$GAGSV,3,1,09,21,87,022,35,13,55,134,33,15,37,053,30,27,34,110,30,7*72
$GAGSV,3,2,09,26,18,185,21,04,16,291,26,06,13,316,26,09,07,337,26,7*7D
$GAGSV,3,3,09,19,06,237,07,7*45
$GBGSV,3,1,12,34,80,128,34,25,70,191,32,11,62,203,31,12,56,060,30,1*7E
$GBGSV,3,2,12,23,44,301,30,43,40,219,29,44,31,055,29,24,21,146,28,1*73
$GBGSV,3,3,12,39,10,330,24,19,02,019,,16,01,334,,48,01,355,,1*76
$GNRMC,003828.000,A,4910.426272,N,12304.404708,W,0.01,40.82,070125,,,D,V*22
$GNVTG,40.82,T,,M,0.01,N,0.03,K,D*1A
$PAIRLOG,Full*51
$GNGGA,003829.000,4910.426224,N,12304.404642,W,2,29,0.52,0.655,M,-16.816,M,,*40
$GNGLL,4910.426224,N,12304.404642,W,003829.000,A,D*5C
$GNGSA,A,3,06,12,19,24,11,17,03,32,,,,,0.88,0.52,0.71,1*0F
$GNGSA,A,3,84,75,85,73,66,,,,,,,,0.88,0.52,0.71,2*04
$GNGSA,A,3,21,13,15,27,26,04,06,,,,,,0.88,0.52,0.71,3*04
$GNGSA,A,3,34,25,11,12,23,43,44,24,39,,,,0.88,0.52,0.71,4*0C
$GPGSV,3,1,10,06,59,113,36,12,55,297,37,19,53,061,35,24,47,227,35,1*6B
$GPGSV,3,2,10,11,40,169,34,25,39,301,,46,33,188,33,17,23,064,27,1*65
$GPGSV,3,3,10,03,10,034,28,32,09,320,26,1*67
$GLGSV,2,1,07,84,76,066,19,74,64,133,23,75,56,320,32,85,43,205,28,1*7E
$GLGSV,2,2,07,73,19,137,28,83,13,033,,66,10,326,16,1*44
$GAGSV,3,1,09,21,87,022,35,13,55,134,33,15,37,053,30,27,34,110,30,7*72
$GAGSV,3,2,09,26,18,185,21,04,16,291,26,06,13,316,26,09,07,337,26,7*7D
$GAGSV,3,3,09,19,06,237,07,7*45
$GBGSV,3,1,12,34,80,128,34,25,70,191,32,11,62,203,31,12,56,060,30,1*7E
$GBGSV,3,2,12,23,44,301,30,43,40,219,29,44,31,055,29,24,21,146,28,1*73
$GBGSV,3,3,12,39,10,330,24,19,02,019,,16,01,334,,48,01,355,,1*76
$GNRMC,003829.000,A,4910.426224,N,12304.404642,W,0.02,40.82,070125,,,D,V*2C
$GNVTG,40.82,T,,M,0.02,N,0.03,K,D*19
$PAIRLOG,Full*51
$GNGGA,003830.000,4910.426218,N,12304.404642,W,2,29,0.52,0.499,M,-16.816,M,,*45
$GNGLL,4910.426218,N,12304.404642,W,003830.000,A,D*5B
$GNGSA,A,3,06,12,19,24,11,17,03,32,,,,,0.88,0.52,0.71,1*0F
$GNGSA,A,3,84,75,85,73,66,,,,,,,,0.88,0.52,0.71,2*04
$GNGSA,A,3,21,13,15,27,26,04,06,,,,,,0.88,0.52,0.71,3*04
$GNGSA,A,3,34,25,11,12,23,43,44,24,39,,,,0.88,0.52,0.71,4*0C
$GPGSV,3,1,10,06,59,113,36,12,55,297,37,19,53,061,35,24,47,227,35,1*6B
$GPGSV,3,2,10,11,40,169,34,25,39,301,,46,33,188,33,17,23,064,27,1*65
$GPGSV,3,3,10,03,10,034,27,32,09,320,26,1*68
$GLGSV,2,1,07,84,76,066,19,74,64,133,22,75,56,320,31,85,43,205,27,1*73
$GLGSV,2,2,07,73,19,137,28,83,13,033,,66,10,326,16,1*44
$GAGSV,3,1,09,21,87,022,35,13,55,134,33,15,37,053,30,27,34,110,30,7*72
$GAGSV,3,2,09,26,18,185,21,04,16,291,25,06,13,316,26,09,07,337,25,7*7D
$GAGSV,3,3,09,19,06,237,07,7*45
$GBGSV,3,1,12,34,80,128,34,25,70,191,32,11,62,203,31,12,56,060,30,1*7E
$GBGSV,3,2,12,23,44,301,30,43,40,219,29,44,31,055,29,24,21,146,28,1*73
$GBGSV,3,3,12,39,10,330,24,19,02,019,,16,01,334,,48,01,355,,1*76
$GNRMC,003830.000,A,4910.426218,N,12304.404642,W,0.02,40.82,070125,,,D,V*2B
$GNVTG,40.82,T,,M,0.02,N,0.03,K,D*19
$PAIRLOG,Full*51
$GNGGA,003831.000,4910.426224,N,12304.404606,W,2,29,0.52,0.379,M,-16.817,M,,*43
$GNGLL,4910.426224,N,12304.404606,W,003831.000,A,D*55
$GNGSA,A,3,06,12,19,24,11,17,03,32,,,,,0.88,0.52,0.71,1*0F
$GNGSA,A,3,84,75,85,73,66,,,,,,,,0.88,0.52,0.71,2*04
$GNGSA,A,3,21,13,15,27,26,04,06,,,,,,0.88,0.52,0.71,3*04
$GNGSA,A,3,34,25,11,12,23,43,44,24,39,,,,0.88,0.52,0.71,4*0C
$GPGSV,3,1,10,06,59,113,37,12,55,297,38,19,53,061,35,24,47,227,35,1*65
$GPGSV,3,2,10,11,40,169,34,25,39,301,,46,33,188,33,17,23,064,28,1*6A
$GPGSV,3,3,10,03,10,034,27,32,09,320,27,1*69
$GLGSV,2,1,07,84,76,066,19,74,64,133,22,75,56,320,30,85,43,205,27,1*72
$GLGSV,2,2,07,73,19,137,27,83,13,033,,66,10,326,15,1*48
$GAGSV,3,1,09,21,87,022,36,13,55,134,33,15,37,053,30,27,34,110,30,7*71
$GAGSV,3,2,09,26,18,185,22,04,16,291,26,06,13,316,27,09,07,337,26,7*7F
$GAGSV,3,3,09,19,06,237,07,7*45
$GBGSV,3,1,12,34,80,128,34,25,70,191,33,11,62,203,31,12,56,060,31,1*7E
$GBGSV,3,2,12,23,44,301,31,43,40,219,30,44,31,055,30,24,21,146,29,1*73
$GBGSV,3,3,12,39,10,330,24,19,02,019,,16,01,334,,48,01,355,,1*76
$GNRMC,003831.000,A,4910.426224,N,12304.404606,W,0.02,40.82,070125,,,D,V*25
$GNVTG,40.82,T,,M,0.02,N,0.03,K,D*19
$PAIRLOG,Full*51
$GNGGA,003832.000,4910.426314,N,12304.404612,W,2,29,0.52,0.186,M,-16.816,M,,*44
$GNGLL,4910.426314,N,12304.404612,W,003832.000,A,D*51
$GNGSA,A,3,06,12,19,24,11,17,03,32,,,,,0.88,0.52,0.71,1*0F
$GNGSA,A,3,84,75,85,73,66,,,,,,,,0.88,0.52,0.71,2*04
$GNGSA,A,3,21,13,15,27,26,04,06,,,,,,0.88,0.52,0.71,3*04
$GNGSA,A,3,34,25,11,12,23,43,44,24,39,,,,0.88,0.52,0.71,4*0C
$GPGSV,3,1,10,06,59,113,38,12,55,297,38,19,53,061,36,24,47,227,36,1*6A
$GPGSV,3,2,10,11,40,169,35,25,39,301,,46,33,188,34,17,23,064,29,1*6D
$GPGSV,3,3,10,03,10,034,28,32,09,320,28,1*69
$GLGSV,2,1,07,84,76,066,18,74,64,133,22,75,56,320,31,85,43,205,27,1*72
$GLGSV,2,2,07,73,19,137,27,83,13,033,,66,10,326,16,1*4B
$GAGSV,3,1,09,21,87,022,36,13,55,134,34,15,37,053,31,27,34,110,31,7*76
$GAGSV,3,2,09,26,18,185,22,04,16,291,27,06,13,316,27,09,07,337,27,7*7F
$GAGSV,3,3,09,19,06,237,07,7*45
$GBGSV,3,1,12,34,80,128,34,25,70,191,33,11,62,203,31,12,56,060,30,1*7F
$GBGSV,3,2,12,23,44,301,30,43,40,219,29,44,31,055,30,24,21,146,28,1*7B
$GBGSV,3,3,12,39,10,330,23,19,02,019,,16,01,334,,48,01,355,,1*71
$GNRMC,003832.000,A,4910.426314,N,12304.404612,W,0.02,40.82,070125,,,D,V*21
$GNVTG,40.82,T,,M,0.02,N,0.03,K,D*19
$PAIRLOG,Full*51
$GNGGA,003833.000,4910.426272,N,12304.404546,W,2,29,0.52,0.026,M,-16.817,M,,*4C
