$GNGGA,194541.000,4910.426908,N,12304.395594,W,2,28,0.55,0.973,M,-16.816,M,,*43
$GNGLL,4910.426908,N,12304.395594,W,194541.000,A,D*52
$GNGSA,A,3,09,07,04,30,16,20,27,08,05,,,,0.95,0.55,0.77,1*09
$GNGSA,A,3,69,79,78,68,80,87,86,,,,,,0.95,0.55,0.77,2*07
$GNGSA,A,3,09,31,05,06,24,,,,,,,,0.95,0.55,0.77,3*01
$GNGSA,A,3,37,20,23,32,19,38,34,,,,,,0.95,0.55,0.77,4*0A
$GPGSV,3,1,10,09,71,142,34,07,71,276,32,04,41,127,28,30,34,262,26,1*62
$GPGSV,3,2,10,16,29,049,27,20,28,302,28,27,24,088,24,08,18,122,24,1*60
$GPGSV,3,3,10,05,10,329,24,50,,,,1*5A
$GLGSV,2,1,08,69,81,289,39,79,73,230,38,78,49,042,27,68,42,152,31,1*71
$GLGSV,2,2,08,80,18,225,22,70,17,324,,87,09,033,22,86,08,348,22,1*7F
$GAGSV,2,1,06,09,72,129,29,31,65,102,28,05,50,300,27,06,47,126,25,7*72
$GAGSV,2,2,06,24,38,189,26,15,09,324,19,7*7C
$GBGSV,3,1,09,37,80,213,34,20,66,263,35,23,43,061,31,32,36,168,29,1*76
$GBGSV,3,2,09,19,26,314,26,38,17,332,23,08,11,341,14,34,05,034,18,1*79
$GBGSV,3,3,09,12,03,009,16,1*41
$GNRMC,194541.000,A,4910.426908,N,12304.395594,W,0.18,296.02,051224,,,D,V*19
$GNVTG,296.02,T,,M,0.18,N,0.34,K,D*27
$PAIRLOG,Full*51
$GNGGA,194542.000,4910.426914,N,12304.395618,W,2,28,0.55,0.954,M,-16.816,M,,*4F
$GNGLL,4910.426914,N,12304.395618,W,194542.000,A,D*5B
$GNGSA,A,3,07,09,04,30,16,20,27,08,05,,,,0.95,0.55,0.77,1*09
$GNGSA,A,3,69,79,78,68,80,87,86,,,,,,0.95,0.55,0.77,2*07
$GNGSA,A,3,09,31,05,06,24,,,,,,,,0.95,0.55,0.77,3*01
$GNGSA,A,3,37,20,23,32,19,38,34,,,,,,0.95,0.55,0.77,4*0A
$GPGSV,3,1,11,07,71,276,32,09,71,142,35,04,41,127,29,30,34,262,27,1*62
$GPGSV,3,2,11,16,29,049,28,20,28,302,29,27,24,088,27,08,18,122,25,1*6D
$GPGSV,3,3,11,05,10,329,25,11,02,280,,50,,,,1*62
$GLGSV,2,1,08,69,81,289,39,79,73,230,38,78,49,042,27,68,42,152,31,1*71
$GLGSV,2,2,08,80,18,225,23,70,17,324,,87,09,033,22,86,08,348,22,1*7E
$GAGSV,3,1,09,09,72,129,30,31,65,102,29,05,50,300,27,06,47,126,26,7*76
$GAGSV,3,2,09,24,38,189,26,04,21,124,,15,09,324,19,34,05,276,,7*73
$GAGSV,3,3,09,03,01,303,,7*48
$GBGSV,4,1,15,37,80,213,34,20,66,263,35,58,62,248,,23,43,061,31,1*7B
$GBGSV,4,2,15,32,36,168,29,19,26,314,25,46,24,234,,38,17,332,23,1*76
$GBGSV,4,3,15,08,11,341,14,31,09,336,,43,05,077,,11,05,057,,1*76
$GBGSV,4,4,15,34,05,034,18,12,03,009,16,13,03,346,,1*40
$GNRMC,194542.000,A,4910.426914,N,12304.395618,W,0.18,295.09,051224,,,D,V*18
$GNVTG,295.09,T,,M,0.18,N,0.33,K,D*28
$PAIRLOG,Full*51
$GNGGA,194543.000,4910.426908,N,12304.395648,W,2,29,0.53,0.934,M,-16.817,M,,*46
$GNGLL,4910.426908,N,12304.395648,W,194543.000,A,D*52
$GNGSA,A,3,09,07,04,30,16,20,27,08,05,,,,0.91,0.53,0.74,1*08
$GNGSA,A,3,69,79,78,68,80,87,86,,,,,,0.91,0.53,0.74,2*06
$GNGSA,A,3,09,31,05,06,24,04,,,,,,,0.91,0.53,0.74,3*04
$GNGSA,A,3,37,20,23,32,19,38,34,,,,,,0.91,0.53,0.74,4*0B
$GPGSV,3,1,12,09,71,142,35,07,71,276,32,04,41,127,29,30,34,262,26,1*60
$GPGSV,3,2,12,16,29,049,28,20,28,302,29,27,24,088,26,08,18,122,24,1*6E
$GPGSV,3,3,12,05,10,329,25,11,02,280,,26,01,043,,50,,,,1*53
$GLGSV,2,1,08,69,81,289,39,79,73,230,38,78,49,042,27,68,42,152,32,1*72
$GLGSV,2,2,08,80,18,225,23,70,17,324,,87,09,033,22,86,08,348,22,1*7E
$GAGSV,3,1,09,09,72,129,30,31,65,102,29,05,50,300,27,06,47,126,26,7*76
$GAGSV,3,2,09,24,38,189,26,04,21,124,20,15,09,324,19,34,05,276,,7*71
$GAGSV,3,3,09,03,01,303,,7*48
$GBGSV,4,1,14,37,80,213,34,20,66,263,35,58,62,248,,23,43,061,31,1*7A
$GBGSV,4,2,14,32,36,168,29,19,26,314,25,46,24,234,,38,17,332,23,1*77
$GBGSV,4,3,14,08,11,341,14,31,09,336,,11,05,057,,34,05,034,18,1*79
$GBGSV,4,4,14,13,03,346,,12,03,009,16,1*7D
$GNRMC,194543.000,A,4910.426908,N,12304.395648,W,0.17,293.91,051224,,,D,V*19
$GNVTG,293.91,T,,M,0.17,N,0.32,K,D*21
$PAIRLOG,Full*51
$GNGGA,194544.000,4910.426902,N,12304.395696,W,2,29,0.53,0.918,M,-16.816,M,,*47
$GNGLL,4910.426902,N,12304.395696,W,194544.000,A,D*5C
$GNGSA,A,3,07,09,04,30,16,20,27,08,05,,,,0.91,0.53,0.74,1*08
$GNGSA,A,3,69,79,78,68,80,87,86,,,,,,0.91,0.53,0.74,2*06
$GNGSA,A,3,09,31,05,06,24,04,,,,,,,0.91,0.53,0.74,3*04
$GNGSA,A,3,37,20,23,32,19,38,34,,,,,,0.91,0.53,0.74,4*0B
$GPGSV,3,1,11,07,71,276,32,09,71,142,35,04,41,127,29,30,34,262,26,1*63
$GPGSV,3,2,11,16,29,049,28,20,28,302,29,27,24,088,26,08,18,122,24,1*6D
$GPGSV,3,3,11,05,10,329,25,11,02,280,,26,01,043,,1*55
$GLGSV,2,1,08,69,81,289,39,79,73,230,38,78,49,042,27,68,42,152,32,1*72
$GLGSV,2,2,08,80,18,225,23,70,17,324,,87,09,033,22,86,08,348,22,1*7E
$GAGSV,2,1,08,09,72,129,30,31,65,102,29,05,50,300,27,06,47,126,26,7*76
$GAGSV,2,2,08,24,38,189,26,04,21,124,19,15,09,324,19,03,01,303,,7*78
$GBGSV,4,1,15,37,80,213,34,20,66,263,35,58,62,248,,23,43,061,31,1*7B
$GBGSV,4,2,15,32,36,168,29,19,26,314,26,46,24,234,,38,17,332,23,1*75
$GBGSV,4,3,15,08,11,341,14,31,09,336,,43,05,077,,34,05,034,18,1*7D
$GBGSV,4,4,15,11,05,057,,13,03,346,,12,03,009,16,1*4B
$GNRMC,194544.000,A,4910.426902,N,12304.395696,W,0.17,292.38,051224,,,D,V*15
$GNVTG,292.38,T,,M,0.17,N,0.31,K,D*20
$PAIRLOG,Full*51
$GNGGA,194545.000,4910.426902,N,12304.395702,W,2,28,0.55,0.886,M,-16.817,M,,*4A
$GNGLL,4910.426902,N,12304.395702,W,194545.000,A,D*51
$GNGSA,A,3,07,09,04,30,16,20,27,08,05,,,,0.95,0.55,0.77,1*09
$GNGSA,A,3,69,79,78,68,80,87,86,,,,,,0.95,0.55,0.77,2*07
$GNGSA,A,3,09,31,05,06,24,,,,,,,,0.95,0.55,0.77,3*01
$GNGSA,A,3,37,20,23,32,19,38,34,,,,,,0.95,0.55,0.77,4*0A
$GPGSV,3,1,11,07,71,276,32,09,71,142,34,04,41,127,28,30,34,262,26,1*63
$GPGSV,3,2,11,16,29,049,27,20,28,302,28,27,24,088,26,08,18,122,24,1*63
$GPGSV,3,3,11,05,10,329,22,11,02,280,,38,,,,1*6B
$GLGSV,2,1,08,69,81,289,39,79,73,230,38,78,49,042,27,68,42,152,33,1*73
$GLGSV,2,2,08,80,18,225,22,70,17,324,,87,09,033,23,86,08,348,22,1*7E
$GAGSV,3,1,09,09,72,129,30,31,65,102,28,05,50,300,27,06,47,126,26,7*77
$GAGSV,3,2,09,24,38,189,26,04,21,124,,15,09,324,18,34,05,276,,7*72
$GAGSV,3,3,09,03,01,303,,7*48
$GBGSV,4,1,15,37,80,213,34,20,66,263,35,58,63,249,,23,43,061,31,1*7B
$GBGSV,4,2,15,32,36,168,29,19,26,314,26,46,24,234,,38,17,332,23,1*75
$GBGSV,4,3,15,08,11,341,13,31,09,336,,43,05,077,,11,05,057,,1*71
$GBGSV,4,4,15,34,05,034,19,12,03,009,16,13,03,346,,1*41
$GNRMC,194545.000,A,4910.426902,N,12304.395702,W,0.17,290.84,051224,,,D,V*1D
$GNVTG,290.84,T,,M,0.17,N,0.31,K,D*25
$PAIRLOG,Full*51
$GNGGA,194546.000,4910.426914,N,12304.395744,W,2,28,0.55,0.851,M,-16.816,M,,*47
$GNGLL,4910.426914,N,12304.395744,W,194546.000,A,D*57
$GNGSA,A,3,07,09,04,30,16,20,27,08,05,,,,0.95,0.55,0.77,1*09
$GNGSA,A,3,69,79,78,68,80,87,86,,,,,,0.95,0.55,0.77,2*07
$GNGSA,A,3,09,31,05,06,24,,,,,,,,0.95,0.55,0.77,3*01
$GNGSA,A,3,37,20,23,32,19,38,34,,,,,,0.95,0.55,0.77,4*0A
$GPGSV,3,1,11,07,71,276,32,09,71,142,34,04,41,127,28,30,34,262,26,1*63
$GPGSV,3,2,11,16,29,049,27,20,28,302,28,27,24,088,26,08,18,122,24,1*63
$GPGSV,3,3,11,05,10,329,24,11,02,280,,38,,,,1*6D
$GLGSV,2,1,08,69,81,289,38,79,73,230,38,78,49,042,27,68,42,152,33,1*72
$GLGSV,2,2,08,80,18,225,22,70,17,324,,87,09,033,23,86,08,348,22,1*7E
$GAGSV,3,1,09,09,72,129,30,31,65,102,28,05,50,300,26,06,47,126,25,7*75
$GAGSV,3,2,09,24,38,189,26,04,21,124,,15,09,324,18,34,05,276,,7*72
$GAGSV,3,3,09,03,01,303,,7*48
$GBGSV,4,1,15,37,80,213,35,20,66,263,35,58,63,249,,23,43,061,31,1*7A
$GBGSV,4,2,15,32,36,168,29,19,26,314,26,46,24,234,,38,17,332,24,1*72
$GBGSV,4,3,15,08,11,341,12,31,09,336,,43,05,077,,11,05,057,,1*70
$GBGSV,4,4,15,34,05,034,19,12,03,009,16,13,03,346,,1*41
$GNRMC,194546.000,A,4910.426914,N,12304.395744,W,0.17,290.84,051224,,,D,V*1B
$GNVTG,290.84,T,,M,0.17,N,0.31,K,D*25
$PAIRLOG,Full*51
$GNGGA,194547.000,4910.426890,N,12304.395792,W,2,28,0.55,0.811,M,-16.816,M,,*44
$GNGLL,4910.426890,N,12304.395792,W,194547.000,A,D*50
$GNGSA,A,3,09,07,04,30,16,20,27,08,05,,,,0.95,0.55,0.77,1*09
$GNGSA,A,3,69,79,78,68,80,87,86,,,,,,0.95,0.55,0.77,2*07
$GNGSA,A,3,09,31,05,06,24,,,,,,,,0.95,0.55,0.77,3*01
$GNGSA,A,3,37,20,23,32,19,38,34,,,,,,0.95,0.55,0.77,4*0A
$GPGSV,3,1,10,09,71,142,34,07,71,276,32,04,41,127,28,30,34,262,26,1*62
$GPGSV,3,2,10,16,29,049,27,20,28,302,28,27,24,088,26,08,18,122,24,1*62
$GPGSV,3,3,10,05,10,329,24,38,,,,1*54
$GLGSV,2,1,08,69,81,289,38,79,73,230,38,78,49,042,27,68,42,152,33,1*72
$GLGSV,2,2,08,80,18,225,22,70,17,324,,87,09,033,23,86,08,348,22,1*7E
$GAGSV,2,1,06,09,72,129,30,31,65,102,28,05,50,300,27,06,47,126,25,7*7A
$GAGSV,2,2,06,24,38,189,26,15,09,324,18,7*7D
$GBGSV,3,1,09,37,80,213,34,20,66,263,35,23,43,061,31,32,36,168,29,1*76
$GBGSV,3,2,09,19,26,314,26,38,17,332,24,08,11,341,12,34,05,034,19,1*79
$GBGSV,3,3,09,12,03,009,16,1*41
$GNRMC,194547.000,A,4910.426890,N,12304.395792,W,0.17,290.84,051224,,,D,V*1C
$GNVTG,290.84,T,,M,0.17,N,0.31,K,D*25
$PAIRLOG,Full*51
$GNGGA,194548.000,4910.426896,N,12304.395792,W,2,28,0.55,0.769,M,-16.816,M,,*4D
$GNGLL,4910.426896,N,12304.395792,W,194548.000,A,D*59
$GNGSA,A,3,09,07,04,30,16,20,27,08,05,,,,0.95,0.55,0.77,1*09
$GNGSA,A,3,69,79,78,68,80,87,86,,,,,,0.95,0.55,0.77,2*07
$GNGSA,A,3,09,31,05,06,24,,,,,,,,0.95,0.55,0.77,3*01
$GNGSA,A,3,37,20,23,32,19,38,34,,,,,,0.95,0.55,0.77,4*0A
$GPGSV,3,1,10,09,71,142,34,07,71,276,32,04,41,127,28,30,34,262,26,1*62
$GPGSV,3,2,10,16,29,049,26,20,28,302,28,27,24,088,25,08,18,122,24,1*60
$GPGSV,3,3,10,05,10,329,23,38,,,,1*53
$GLGSV,2,1,08,69,81,289,38,79,73,230,38,78,49,042,26,68,42,152,33,1*73
$GLGSV,2,2,08,80,18,225,22,70,17,324,,87,09,033,24,86,08,348,21,1*7A
$GAGSV,2,1,06,09,72,129,29,31,65,102,27,05,50,300,26,06,47,126,25,7*7C
$GAGSV,2,2,06,24,38,189,25,15,09,324,18,7*7E
$GBGSV,3,1,09,37,80,213,34,20,66,263,35,23,43,061,31,32,36,168,29,1*76
$GBGSV,3,2,09,19,26,314,26,38,17,332,24,08,11,341,12,34,05,034,19,1*79
$GBGSV,3,3,09,12,03,009,16,1*41
$GNRMC,194548.000,A,4910.426896,N,12304.395792,W,0.17,290.84,051224,,,D,V*15
$GNVTG,290.84,T,,M,0.17,N,0.31,K,D*25
$PAIRLOG,Full*51
$GNGGA,194549.000,4910.426884,N,12304.395810,W,2,28,0.55,0.713,M,-16.817,M,,*46
$GNGLL,4910.426884,N,12304.395810,W,194549.000,A,D*5E
$GNGSA,A,3,09,07,04,30,16,20,27,08,05,,,,0.95,0.55,0.77,1*09
$GNGSA,A,3,69,79,78,68,80,87,86,,,,,,0.95,0.55,0.77,2*07
$GNGSA,A,3,09,31,05,06,24,,,,,,,,0.95,0.55,0.77,3*01
$GNGSA,A,3,37,20,23,32,19,38,34,,,,,,0.95,0.55,0.77,4*0A
$GPGSV,3,1,10,09,71,142,34,07,71,276,32,04,41,127,28,30,34,262,26,1*62
$GPGSV,3,2,10,16,29,049,26,20,28,302,28,27,24,088,25,08,18,122,24,1*60
$GPGSV,3,3,10,05,10,329,23,38,,,,1*53
$GLGSV,2,1,08,69,81,289,38,79,73,230,38,78,49,042,26,68,42,152,33,1*73
$GLGSV,2,2,08,80,18,225,22,70,17,324,,87,09,033,24,86,08,348,21,1*7A
$GAGSV,2,1,06,09,72,129,29,31,65,102,27,05,50,300,26,06,47,126,25,7*7C
$GAGSV,2,2,06,24,38,189,25,15,09,324,18,7*7E
$GBGSV,3,1,09,37,80,213,34,20,66,263,35,23,43,061,31,32,36,168,29,1*76
$GBGSV,3,2,09,19,26,314,26,38,17,332,24,08,11,341,13,34,05,034,19,1*78
$GBGSV,3,3,09,12,03,009,16,1*41
$GNRMC,194549.000,A,4910.426884,N,12304.395810,W,0.17,290.84,051224,,,D,V*12
$GNVTG,290.84,T,,M,0.17,N,0.31,K,D*25
$PAIRLOG,Full*51
$GNGGA,194550.000,4910.426914,N,12304.395834,W,2,28,0.55,0.671,M,-16.816,M,,*44
$GNGLL,4910.426914,N,12304.395834,W,194550.000,A,D*58
$GNGSA,A,3,07,09,04,30,16,20,27,08,05,,,,0.95,0.55,0.77,1*09
$GNGSA,A,3,69,79,78,68,80,87,86,,,,,,0.95,0.55,0.77,2*07
$GNGSA,A,3,09,31,05,06,24,,,,,,,,0.95,0.55,0.77,3*01
$GNGSA,A,3,37,20,23,32,19,38,34,,,,,,0.95,0.55,0.77,4*0A
$GPGSV,3,1,11,07,71,276,32,09,71,142,34,04,41,127,27,30,34,262,26,1*6C
$GPGSV,3,2,11,16,29,049,26,20,28,302,28,27,24,088,25,08,18,122,24,1*61
$GPGSV,3,3,11,05,10,329,23,11,02,280,,38,,,,1*6A
$GLGSV,2,1,08,69,81,289,38,79,73,230,38,78,49,042,26,68,42,152,33,1*73
$GLGSV,2,2,08,80,18,225,22,70,17,324,,87,09,033,24,86,08,348,21,1*7A
$GAGSV,3,1,09,09,72,129,29,31,65,102,27,05,50,300,26,06,47,126,25,7*72
$GAGSV,3,2,09,24,38,189,25,04,21,124,,15,09,324,17,34,05,276,,7*7E
$GAGSV,3,3,09,03,01,303,,7*48
$GBGSV,4,1,15,37,80,213,34,20,66,263,35,58,63,249,,23,43,061,31,1*7B
$GBGSV,4,2,15,32,36,168,29,19,26,314,26,46,24,234,,38,17,332,23,1*75
$GBGSV,4,3,15,08,11,341,13,31,09,336,,43,05,077,,11,05,057,,1*71
$GBGSV,4,4,15,34,05,034,19,12,03,009,16,13,03,346,,1*41
$GNRMC,194550.000,A,4910.426914,N,12304.395834,W,0.16,290.84,051224,,,D,V*15
$GNVTG,290.84,T,,M,0.16,N,0.30,K,D*25
$PAIRLOG,Full*51
$GNGGA,194551.000,4910.426932,N,12304.395900,W,2,28,0.55,0.603,M,-16.817,M,,*43
$GNGLL,4910.426932,N,12304.395900,W,194551.000,A,D*5B
$GNGSA,A,3,07,09,04,30,16,20,27,08,05,,,,0.95,0.55,0.77,1*09
$GNGSA,A,3,69,79,78,68,80,87,86,,,,,,0.95,0.55,0.77,2*07
$GNGSA,A,3,09,31,05,06,24,,,,,,,,0.95,0.55,0.77,3*01
$GNGSA,A,3,37,20,23,32,19,38,34,,,,,,0.95,0.55,0.77,4*0A
$GPGSV,3,1,10,07,71,276,32,09,71,142,34,04,41,127,27,30,34,262,26,1*6D
$GPGSV,3,2,10,16,29,049,26,20,28,302,28,27,24,088,25,08,18,122,24,1*60
$GPGSV,3,3,10,05,10,329,24,11,02,280,,1*67
$GLGSV,2,1,08,69,81,289,38,79,73,230,38,78,49,042,26,68,42,152,33,1*73
$GLGSV,2,2,08,80,18,225,22,70,17,324,,87,09,033,24,86,08,348,21,1*7A
$GAGSV,3,1,09,09,72,129,29,31,65,102,27,05,50,300,26,06,47,126,25,7*72
$GAGSV,3,2,09,24,38,189,25,04,21,124,,15,09,324,17,34,05,276,,7*7E
$GAGSV,3,3,09,03,01,303,,7*48
$GBGSV,4,1,15,37,80,213,34,20,66,263,35,58,63,249,,23,43,061,31,1*7B
$GBGSV,4,2,15,32,36,168,29,19,26,314,26,46,24,234,,38,17,332,22,1*74
$GBGSV,4,3,15,08,11,341,13,31,09,336,,11,05,057,,34,05,034,19,1*7E
$GBGSV,4,4,15,43,05,077,,12,03,009,16,13,03,346,,1*4E
$GNRMC,194551.000,A,4910.426932,N,12304.395900,W,0.16,290.84,051224,,,D,V*16
$GNVTG,290.84,T,,M,0.16,N,0.30,K,D*25
$PAIRLOG,Full*51
$GNGGA,194552.000,4910.426914,N,12304.395948,W,2,28,0.55,0.533,M,-16.816,M,,*49
$GNGLL,4910.426914,N,12304.395948,W,194552.000,A,D*50
$GNGSA,A,3,07,09,04,30,16,20,27,08,05,,,,0.95,0.55,0.77,1*09
$GNGSA,A,3,69,79,78,68,80,87,86,,,,,,0.95,0.55,0.77,2*07
$GNGSA,A,3,09,31,05,06,24,,,,,,,,0.95,0.55,0.77,3*01
$GNGSA,A,3,37,20,23,32,19,38,34,,,,,,0.95,0.55,0.77,4*0A
$GPGSV,3,1,10,07,71,276,32,09,71,142,34,04,41,127,27,30,34,262,26,1*6D
$GPGSV,3,2,10,16,29,049,26,20,28,302,28,27,24,088,26,08,18,122,24,1*63
$GPGSV,3,3,10,05,10,329,24,11,02,280,,1*67
$GLGSV,2,1,08,69,81,289,38,79,73,230,38,78,49,042,26,68,42,152,33,1*73
$GLGSV,2,2,08,80,18,225,22,70,17,324,,87,09,033,24,86,08,348,21,1*7A
$GAGSV,3,1,09,09,72,129,29,31,65,102,27,05,50,300,26,06,47,126,25,7*72
$GAGSV,3,2,09,24,38,189,25,04,21,124,,15,09,324,17,34,05,276,,7*7E
$GAGSV,3,3,09,03,01,303,,7*48
$GBGSV,4,1,15,37,80,213,34,20,66,263,35,58,63,249,,23,43,061,31,1*7B
$GBGSV,4,2,15,32,36,168,29,19,26,314,26,46,24,234,,38,17,332,22,1*74
$GBGSV,4,3,15,08,11,341,13,31,09,336,,11,05,057,,34,05,034,19,1*7E
$GBGSV,4,4,15,43,05,077,,12,03,009,15,13,03,346,,1*4D
$GNRMC,194552.000,A,4910.426914,N,12304.395948,W,0.16,290.84,051224,,,D,V*1D
$GNVTG,290.84,T,,M,0.16,N,0.30,K,D*25
$PAIRLOG,Full*51
$GNGGA,194553.000,4910.426920,N,12304.396026,W,2,28,0.55,0.474,M,-16.816,M,,*4F
$GNGLL,4910.426920,N,12304.396026,W,194553.000,A,D*54
$GNGSA,A,3,09,07,04,30,16,20,27,08,05,,,,0.95,0.55,0.77,1*09
$GNGSA,A,3,69,79,78,68,80,87,86,,,,,,0.95,0.55,0.77,2*07
$GNGSA,A,3,09,31,05,06,24,,,,,,,,0.95,0.55,0.77,3*01
$GNGSA,A,3,37,20,23,32,19,38,34,,,,,,0.95,0.55,0.77,4*0A
$GPGSV,3,1,10,09,71,142,34,07,71,276,32,04,41,127,27,30,34,262,26,1*6D
$GPGSV,3,2,10,16,29,049,26,20,28,302,28,27,24,088,25,08,18,122,24,1*60
$GPGSV,3,3,10,05,10,329,22,45,,,,1*58
$GLGSV,2,1,08,69,81,289,38,79,73,230,38,78,49,042,26,68,42,152,33,1*73
$GLGSV,2,2,08,80,18,225,21,70,17,324,,87,09,033,24,86,08,348,21,1*79
$GAGSV,2,1,06,09,72,129,29,31,65,102,27,05,50,300,26,06,47,126,25,7*7C
$GAGSV,2,2,06,24,38,189,25,15,09,324,17,7*71
$GBGSV,3,1,09,37,80,213,34,20,66,263,35,23,43,061,31,32,36,168,29,1*76
$GBGSV,3,2,09,19,26,314,26,38,17,332,23,08,11,341,12,34,05,034,19,1*7E
$GBGSV,3,3,09,12,03,009,15,1*42
$GNRMC,194553.000,A,4910.426920,N,12304.396026,W,0.16,290.84,051224,,,D,V*19
$GNVTG,290.84,T,,M,0.16,N,0.30,K,D*25
$PAIRLOG,Full*51
$GNGGA,194554.000,4910.426932,N,12304.396026,W,2,28,0.55,0.402,M,-16.816,M,,*4A
$GNGLL,4910.426932,N,12304.396026,W,194554.000,A,D*50
$GNGSA,A,3,09,07,04,30,16,20,27,08,05,,,,0.95,0.55,0.77,1*09
$GNGSA,A,3,69,79,78,68,80,87,86,,,,,,0.95,0.55,0.77,2*07
$GNGSA,A,3,09,31,05,06,24,,,,,,,,0.95,0.55,0.77,3*01
$GNGSA,A,3,37,20,23,32,19,38,34,,,,,,0.95,0.55,0.77,4*0A
$GPGSV,3,1,10,09,71,142,34,07,71,276,32,04,41,127,27,30,34,262,26,1*6D
$GPGSV,3,2,10,16,29,049,26,20,28,302,28,27,24,088,25,08,18,122,24,1*60
$GPGSV,3,3,10,05,10,329,23,45,,,,1*59
$GLGSV,2,1,08,69,81,289,38,79,73,230,38,78,49,042,25,68,42,152,33,1*70
$GLGSV,2,2,08,80,18,225,21,70,17,324,,87,09,033,24,86,08,348,21,1*79
$GAGSV,2,1,06,09,72,129,29,31,65,102,28,05,50,300,27,06,47,126,26,7*71
$GAGSV,2,2,06,24,38,189,25,15,09,324,17,7*71
$GBGSV,3,1,09,37,80,213,34,20,66,263,35,23,43,061,31,32,36,168,29,1*76
$GBGSV,3,2,09,19,26,314,26,38,17,332,22,08,11,341,12,34,05,034,19,1*7F
$GBGSV,3,3,09,12,03,009,15,1*42
$GNRMC,194554.000,A,4910.426932,N,12304.396026,W,0.16,290.84,051224,,,D,V*1D
$GNVTG,290.84,T,,M,0.16,N,0.30,K,D*25
$PAIRLOG,Full*51
$GNGGA,194555.000,4910.426938,N,12304.396080,W,2,28,0.55,0.322,M,-16.817,M,,*49
$GNGLL,4910.426938,N,12304.396080,W,194555.000,A,D*57
$GNGSA,A,3,07,09,04,30,16,20,27,08,05,,,,0.95,0.55,0.77,1*09
$GNGSA,A,3,69,79,78,68,80,87,86,,,,,,0.95,0.55,0.77,2*07
$GNGSA,A,3,09,31,05,06,24,,,,,,,,0.95,0.55,0.77,3*01
$GNGSA,A,3,37,20,23,32,19,38,34,,,,,,0.95,0.55,0.77,4*0A
$GPGSV,3,1,11,07,71,276,32,09,71,142,34,04,41,127,27,30,34,262,26,1*6C
$GPGSV,3,2,11,16,29,049,26,20,28,302,28,27,24,088,24,08,18,122,23,1*67
$GPGSV,3,3,11,05,10,329,23,11,02,280,,45,,,,1*60
$GLGSV,2,1,08,69,81,289,38,79,73,230,38,78,49,042,25,68,42,152,33,1*70
$GLGSV,2,2,08,80,18,225,21,70,17,324,,87,09,033,24,86,08,348,21,1*79
$GAGSV,3,1,09,09,72,129,29,31,65,102,28,05,50,300,26,06,47,126,26,7*7E
$GAGSV,3,2,09,24,38,189,25,04,21,124,,15,09,324,17,34,05,276,,7*7E
$GAGSV,3,3,09,03,01,303,,7*48
$GBGSV,4,1,15,37,80,213,34,20,66,263,35,58,63,249,,23,43,061,30,1*7A
$GBGSV,4,2,15,32,36,168,29,19,26,314,26,46,24,234,,38,17,332,22,1*74
$GBGSV,4,3,15,08,11,341,12,31,09,336,,43,05,077,,11,05,057,,1*70
$GBGSV,4,4,15,34,05,034,19,12,03,009,16,13,03,346,,1*41
$GNRMC,194555.000,A,4910.426938,N,12304.396080,W,0.17,290.84,051224,,,D,V*1B
$GNVTG,290.84,T,,M,0.17,N,0.31,K,D*25
$PAIRLOG,Full*51
$GNGGA,194556.000,4910.426950,N,12304.396134,W,2,28,0.55,0.270,M,-16.816,M,,*4D
$GNGLL,4910.426950,N,12304.396134,W,194556.000,A,D*54
$GNGSA,A,3,07,09,04,30,16,20,27,08,05,,,,0.95,0.55,0.77,1*09
$GNGSA,A,3,69,79,78,68,80,87,86,,,,,,0.95,0.55,0.77,2*07
$GNGSA,A,3,09,31,05,06,24,,,,,,,,0.95,0.55,0.77,3*01
$GNGSA,A,3,37,20,23,32,19,38,34,,,,,,0.95,0.55,0.77,4*0A
$GPGSV,3,1,11,07,71,276,31,09,71,142,33,04,41,127,27,30,34,262,25,1*6B
$GPGSV,3,2,11,16,29,049,26,20,28,302,27,27,24,088,23,08,18,122,23,1*6F
$GPGSV,3,3,11,05,10,329,22,11,02,280,,45,,,,1*61
$GLGSV,2,1,08,69,81,289,38,79,73,230,38,78,49,042,25,68,42,152,33,1*70
$GLGSV,2,2,08,80,18,225,21,70,17,324,,87,09,033,24,86,08,348,21,1*79
$GAGSV,3,1,09,09,72,129,28,31,65,102,28,05,50,300,26,06,47,126,26,7*7F
$GAGSV,3,2,09,24,38,189,25,04,21,124,,15,09,324,17,34,05,276,,7*7E
$GAGSV,3,3,09,03,01,303,,7*48
$GBGSV,4,1,15,37,80,213,34,20,66,263,35,58,63,249,,23,43,061,30,1*7A
$GBGSV,4,2,15,32,36,168,30,19,26,314,26,46,24,234,,38,17,332,22,1*7C
$GBGSV,4,3,15,08,11,341,13,31,09,336,,43,05,077,,11,05,057,,1*71
$GBGSV,4,4,15,34,05,034,19,12,03,009,16,13,03,346,,1*41
$GNRMC,194556.000,A,4910.426950,N,12304.396134,W,0.17,290.84,051224,,,D,V*18
$GNVTG,290.84,T,,M,0.17,N,0.31,K,D*25
$PAIRLOG,Full*51
$GNGGA,194557.000,4910.426938,N,12304.396188,W,2,29,0.53,0.210,M,-16.816,M,,*44
$GNGLL,4910.426938,N,12304.396188,W,194557.000,A,D*5C
$GNGSA,A,3,07,09,04,30,16,20,27,08,05,,,,0.91,0.53,0.74,1*08
$GNGSA,A,3,69,79,78,68,80,87,86,,,,,,0.91,0.53,0.74,2*06
$GNGSA,A,3,09,31,05,06,24,04,,,,,,,0.91,0.53,0.74,3*04
$GNGSA,A,3,37,20,23,32,19,38,34,,,,,,0.91,0.53,0.74,4*0B
$GPGSV,3,1,10,07,71,276,31,09,71,142,32,04,41,127,27,30,34,262,25,1*6B
$GPGSV,3,2,10,16,29,049,25,20,28,302,26,27,24,088,22,08,18,122,21,1*6F
$GPGSV,3,3,10,05,10,329,22,11,02,280,,1*61
$GLGSV,2,1,08,69,81,289,38,79,73,230,38,78,49,042,25,68,42,152,33,1*70
$GLGSV,2,2,08,80,18,225,22,70,17,324,,87,09,033,24,86,08,348,22,1*79
$GAGSV,2,1,08,09,72,129,28,31,65,102,28,05,50,300,25,06,47,126,25,7*7F
$GAGSV,2,2,08,24,38,189,25,04,21,124,17,15,09,324,17,34,05,276,,7*78
$GBGSV,4,1,15,37,80,213,35,20,66,263,35,58,63,249,,23,43,061,30,1*7B
$GBGSV,4,2,15,32,36,168,30,19,26,314,26,46,24,234,,38,17,332,23,1*7D
$GBGSV,4,3,15,08,11,341,13,31,09,336,,34,05,034,19,11,05,057,,1*7E
$GBGSV,4,4,15,43,05,077,,12,03,009,16,13,03,346,,1*4E
$GNRMC,194557.000,A,4910.426938,N,12304.396188,W,0.17,290.84,051224,,,D,V*10
$GNVTG,290.84,T,,M,0.17,N,0.31,K,D*25
$PAIRLOG,Full*51
$GNGGA,194558.000,4910.426872,N,12304.396230,W,2,28,0.55,0.158,M,-16.816,M,,*4C
$GNGLL,4910.426872,N,12304.396230,W,194558.000,A,D*5C
$GNGSA,A,3,07,09,04,30,16,20,27,08,05,,,,0.95,0.55,0.77,1*09
$GNGSA,A,3,69,79,78,68,80,87,86,,,,,,0.95,0.55,0.77,2*07
$GNGSA,A,3,09,31,05,06,24,,,,,,,,0.95,0.55,0.77,3*01
$GNGSA,A,3,37,20,23,32,19,38,34,,,,,,0.95,0.55,0.77,4*0A
$GPGSV,3,1,11,07,71,276,31,09,71,142,32,04,41,127,27,30,34,262,24,1*6B
$GPGSV,3,2,11,16,29,049,25,20,28,302,26,27,24,088,24,08,18,122,21,1*68
$GPGSV,3,3,11,05,10,329,22,11,02,280,,41,,,,1*65
$GLGSV,2,1,08,69,81,289,38,79,73,230,38,78,49,042,25,68,42,152,33,1*70
$GLGSV,2,2,08,80,18,225,22,70,17,324,,87,09,033,24,86,08,348,23,1*78
$GAGSV,3,1,09,09,72,129,28,31,65,102,27,05,50,300,25,06,47,126,25,7*70
$GAGSV,3,2,09,24,38,189,24,04,21,124,,15,09,324,17,34,05,276,,7*7F
$GAGSV,3,3,09,03,01,303,,7*48
$GBGSV,4,1,15,37,80,213,35,20,66,263,35,58,63,249,,23,43,061,30,1*7B
$GBGSV,4,2,15,32,36,168,30,19,26,314,26,46,24,234,,38,17,332,23,1*7D
$GBGSV,4,3,15,08,11,341,13,31,09,336,,43,05,077,,11,05,057,,1*71
$GBGSV,4,4,15,34,05,034,19,12,03,009,16,13,03,346,,1*41
$GNRMC,194558.000,A,4910.426872,N,12304.396230,W,0.17,290.84,051224,,,D,V*10
$GNVTG,290.84,T,,M,0.17,N,0.31,K,D*25
$PAIRLOG,Full*51
$GNGGA,194559.000,4910.426848,N,12304.396224,W,2,28,0.55,0.098,M,-16.816,M,,*4C
$GNGLL,4910.426848,N,12304.396224,W,194559.000,A,D*51
$GNGSA,A,3,07,09,04,30,16,20,27,08,05,,,,0.95,0.55,0.77,1*09
$GNGSA,A,3,69,79,78,68,80,87,86,,,,,,0.95,0.55,0.77,2*07
$GNGSA,A,3,09,31,05,06,24,,,,,,,,0.95,0.55,0.77,3*01
$GNGSA,A,3,37,20,23,32,19,38,34,,,,,,0.95,0.55,0.77,4*0A
$GPGSV,3,1,11,07,71,276,31,09,71,142,32,04,39,128,27,30,34,262,24,1*6B
$GPGSV,3,2,11,16,29,049,23,20,28,302,26,27,24,088,23,08,18,122,23,1*6B
$GPGSV,3,3,11,05,10,329,23,11,02,280,,41,,,,1*64
$GLGSV,2,1,08,69,81,289,38,79,73,230,38,78,49,042,25,68,42,152,33,1*70
$GLGSV,2,2,08,80,18,225,22,70,17,324,,87,09,033,24,86,08,348,24,1*7F
$GAGSV,3,1,09,09,72,129,28,31,65,102,26,05,50,300,25,06,47,126,25,7*71
$GAGSV,3,2,09,24,38,189,23,04,21,124,,15,09,324,17,34,05,276,,7*78
$GAGSV,3,3,09,03,01,303,,7*48
$GBGSV,4,1,15,37,80,213,35,20,66,263,35,58,63,249,,23,43,061,30,1*7B
$GBGSV,4,2,15,32,36,168,30,19,26,314,26,46,24,234,,38,17,332,23,1*7D
$GBGSV,4,3,15,08,11,341,13,31,09,336,,43,05,077,,11,05,057,,1*71
$GBGSV,4,4,15,34,05,034,19,12,03,009,16,13,03,346,,1*41
$GNRMC,194559.000,A,4910.426848,N,12304.396224,W,0.17,290.84,051224,,,D,V*1D
$GNVTG,290.84,T,,M,0.17,N,0.31,K,D*25
$PAIRLOG,Full*51
$GNGGA,194600.000,4910.426872,N,12304.396290,W,2,28,0.55,0.048,M,-16.816,M,,*48
$GNGLL,4910.426872,N,12304.396290,W,194600.000,A,D*58
$GNGSA,A,3,09,07,04,30,16,20,27,08,05,,,,0.95,0.55,0.77,1*09
$GNGSA,A,3,69,79,78,68,80,87,86,,,,,,0.95,0.55,0.77,2*07
$GNGSA,A,3,09,31,05,06,24,,,,,,,,0.95,0.55,0.77,3*01
$GNGSA,A,3,37,20,23,32,19,38,34,,,,,,0.95,0.55,0.77,4*0A
$GPGSV,3,1,10,09,71,142,32,07,71,276,31,04,39,128,27,30,34,262,25,1*6B
$GPGSV,3,2,10,16,29,049,23,20,28,302,26,27,24,088,22,08,18,122,22,1*6A
$GPGSV,3,3,10,05,10,329,21,41,,,,1*5F
$GLGSV,2,1,08,69,81,289,38,79,73,230,38,78,49,042,25,68,42,152,33,1*70
$GLGSV,2,2,08,80,18,225,22,70,17,324,,87,09,033,24,86,08,348,24,1*7F
$GAGSV,2,1,06,09,72,129,28,31,65,102,26,05,50,300,25,06,47,126,25,7*7F
$GAGSV,2,2,06,24,38,189,23,15,09,324,17,7*77
$GBGSV,3,1,09,37,80,213,35,20,66,263,35,23,43,061,31,32,36,168,30,1*7F
$GBGSV,3,2,09,19,26,314,26,38,17,332,24,08,11,341,13,34,05,034,19,1*78
$GBGSV,3,3,09,12,03,009,16,1*41
$GNRMC,194600.000,A,4910.426872,N,12304.396290,W,0.17,290.84,051224,,,D,V*14
$GNVTG,290.84,T,,M,0.17,N,0.31,K,D*25
$PAIRLOG,Full*51
$GNGGA,194601.000,4910.426830,N,12304.396368,W,2,28,0.55,0.007,M,-16.816,M,,*42
$GNGLL,4910.426830,N,12304.396368,W,194601.000,A,D*59
$GNGSA,A,3,09,07,04,30,16,20,27,08,05,,,,0.95,0.55,0.77,1*09
$GNGSA,A,3,69,79,78,68,80,87,86,,,,,,0.95,0.55,0.77,2*07
$GNGSA,A,3,09,31,05,06,24,,,,,,,,0.95,0.55,0.77,3*01
$GNGSA,A,3,37,20,23,32,19,38,34,,,,,,0.95,0.55,0.77,4*0A
$GPGSV,3,1,10,09,71,142,31,07,71,276,30,04,39,128,27,30,34,262,24,1*68
$GPGSV,3,2,10,16,29,049,22,20,28,302,25,27,24,088,22,08,18,122,22,1*68
$GPGSV,3,3,10,05,10,329,20,41,,,,1*5E
$GLGSV,2,1,08,69,81,289,38,79,73,230,38,78,49,042,26,68,42,152,33,1*73
$GLGSV,2,2,08,80,18,225,22,70,17,324,,87,09,033,23,86,08,348,24,1*78
$GAGSV,2,1,06,09,72,129,27,31,65,102,25,05,50,300,24,06,47,126,24,7*73
$GAGSV,2,2,06,24,38,189,22,15,09,324,16,7*77
$GBGSV,3,1,09,37,80,213,35,20,66,263,35,23,43,061,31,32,36,168,30,1*7F
$GBGSV,3,2,09,19,26,314,27,38,17,332,24,08,11,341,13,34,05,034,19,1*79
$GBGSV,3,3,09,12,03,009,16,1*41
$GNRMC,194601.000,A,4910.426830,N,12304.396368,W,0.17,290.84,051224,,,D,V*15
$GNVTG,290.84,T,,M,0.17,N,0.31,K,D*25
$PAIRLOG,Full*51
$GNGGA,194602.000,4910.426776,N,12304.396434,W,2,28,0.55,-0.023,M,-16.816,M,,*69
$GNGLL,4910.426776,N,12304.396434,W,194602.000,A,D*59
$GNGSA,A,3,07,09,04,30,16,20,27,08,05,,,,0.95,0.55,0.77,1*09
$GNGSA,A,3,69,79,78,68,80,87,86,,,,,,0.95,0.55,0.77,2*07
$GNGSA,A,3,09,31,05,06,24,,,,,,,,0.95,0.55,0.77,3*01
$GNGSA,A,3,37,20,23,32,19,38,34,,,,,,0.95,0.55,0.77,4*0A
$GPGSV,3,1,10,07,72,278,29,09,71,142,31,04,39,128,27,30,34,262,24,1*6D
$GPGSV,3,2,10,16,29,049,20,20,28,302,24,27,24,088,22,08,18,122,21,1*68
$GPGSV,3,3,10,05,10,329,20,41,,,,1*5E
$GLGSV,2,1,08,69,81,289,38,79,73,230,38,78,49,042,27,68,42,152,33,1*72
$GLGSV,2,2,08,80,18,225,22,70,17,324,,87,09,033,23,86,08,348,24,1*78
$GAGSV,2,1,06,09,72,129,26,31,65,102,25,05,50,300,24,06,47,126,24,7*72
$GAGSV,2,2,06,24,38,189,22,15,09,324,16,7*77
$GBGSV,3,1,09,37,80,213,35,20,66,263,35,23,43,061,31,32,36,168,30,1*7F
$GBGSV,3,2,09,19,26,314,27,38,17,332,24,08,11,341,13,34,05,034,19,1*79
$GBGSV,3,3,09,12,03,009,16,1*41
$GNRMC,194602.000,A,4910.426776,N,12304.396434,W,0.17,290.84,051224,,,D,V*15
$GNVTG,290.84,T,,M,0.17,N,0.32,K,D*26
$PAIRLOG,Full*51
$GNGGA,194603.000,4910.426710,N,12304.396458,W,2,28,0.55,-0.062,M,-16.816,M,,*67
$GNGLL,4910.426710,N,12304.396458,W,194603.000,A,D*52
$GNGSA,A,3,07,09,04,30,16,20,27,08,05,,,,0.95,0.55,0.77,1*09
$GNGSA,A,3,69,79,78,68,80,87,86,,,,,,0.95,0.55,0.77,2*07
$GNGSA,A,3,09,31,05,06,24,,,,,,,,0.95,0.55,0.77,3*01
$GNGSA,A,3,37,20,23,32,19,38,34,,,,,,0.95,0.55,0.77,4*0A
$GPGSV,3,1,11,07,72,278,29,09,71,142,31,04,39,128,26,30,34,262,24,1*6D
$GPGSV,3,2,11,16,29,049,20,20,28,302,24,27,24,088,22,08,19,121,21,1*6B
$GPGSV,3,3,11,05,10,329,20,11,02,280,,41,,,,1*67
$GLGSV,2,1,08,69,81,289,38,79,73,230,38,78,49,042,27,68,42,152,33,1*72
$GLGSV,2,2,08,80,18,225,22,70,17,324,,87,09,033,23,86,08,348,25,1*79
$GAGSV,3,1,09,09,72,129,26,31,65,102,25,05,50,300,24,06,47,126,24,7*7C
$GAGSV,3,2,09,24,38,189,22,04,21,124,,15,09,324,15,34,05,276,,7*7B
$GAGSV,3,3,09,03,01,303,,7*48
$GBGSV,4,1,15,37,80,213,35,20,66,263,35,58,63,249,,23,43,061,31,1*7A
$GBGSV,4,2,15,32,36,168,30,19,26,314,27,46,24,234,,38,17,332,24,1*7B
$GBGSV,4,3,15,08,11,341,13,31,09,336,,43,05,077,,11,05,057,,1*71
$GBGSV,4,4,15,34,05,034,18,12,03,009,16,13,03,346,,1*40
$GNRMC,194603.000,A,4910.426710,N,12304.396458,W,0.17,290.84,051224,,,D,V*1E
$GNVTG,290.84,T,,M,0.17,N,0.32,K,D*26
$PAIRLOG,Full*51
$GNGGA,194604.000,4910.426596,N,12304.396476,W,2,29,0.53,-0.099,M,-16.817,M,,*62
$GNGLL,4910.426596,N,12304.396476,W,194604.000,A,D*55
$GNGSA,A,3,07,09,04,30,16,20,27,08,05,,,,0.91,0.53,0.74,1*08
$GNGSA,A,3,69,79,78,68,80,87,86,,,,,,0.91,0.53,0.74,2*06
$GNGSA,A,3,09,31,05,06,24,04,,,,,,,0.91,0.53,0.74,3*04
$GNGSA,A,3,37,20,23,32,19,38,34,,,,,,0.91,0.53,0.74,4*0B
$GPGSV,3,1,10,07,72,278,29,09,69,143,31,04,39,128,26,30,34,262,24,1*64
$GPGSV,3,2,10,16,29,049,21,20,28,302,24,27,24,088,22,08,19,121,21,1*6B
$GPGSV,3,3,10,05,10,329,21,11,02,280,,1*62
$GLGSV,2,1,08,69,81,289,39,79,73,230,38,78,49,042,27,68,42,152,33,1*73
$GLGSV,2,2,08,80,18,225,22,70,17,324,,87,09,033,22,86,08,348,25,1*78
$GAGSV,3,1,09,09,72,129,26,31,65,102,25,05,50,300,24,06,47,126,24,7*7C
$GAGSV,3,2,09,24,38,189,22,04,21,124,21,15,09,324,15,34,05,276,,7*78
$GAGSV,3,3,09,03,01,303,,7*48
$GBGSV,4,1,15,37,80,213,35,20,66,263,35,58,63,249,,23,43,061,31,1*7A
$GBGSV,4,2,15,32,36,168,30,19,26,314,27,46,24,234,,38,17,332,24,1*7B
$GBGSV,4,3,15,08,11,341,13,31,09,336,,11,05,057,,34,05,034,18,1*7F
$GBGSV,4,4,15,43,05,077,,12,03,009,16,13,03,346,,1*4E
$GNRMC,194604.000,A,4910.426596,N,12304.396476,W,0.17,290.84,051224,,,D,V*19
$GNVTG,290.84,T,,M,0.17,N,0.32,K,D*26
$PAIRLOG,Full*51
$GNGGA,194605.000,4910.426452,N,12304.396434,W,2,28,0.55,-0.154,M,-16.817,M,,*6B
$GNGLL,4910.426452,N,12304.396434,W,194605.000,A,D*5B
$GNGSA,A,3,07,09,04,30,16,20,27,08,05,,,,0.95,0.55,0.77,1*09
$GNGSA,A,3,69,79,78,68,80,87,86,,,,,,0.95,0.55,0.77,2*07
$GNGSA,A,3,09,31,05,06,24,,,,,,,,0.95,0.55,0.77,3*01
$GNGSA,A,3,37,20,23,32,19,38,34,,,,,,0.95,0.55,0.77,4*0A
$GPGSV,3,1,11,07,72,278,29,09,69,143,31,04,39,128,27,30,34,262,24,1*64
$GPGSV,3,2,11,16,29,049,22,20,28,302,24,27,24,088,23,08,19,121,21,1*68
$GPGSV,3,3,11,05,10,329,21,11,02,280,,36,,,,1*66
$GLGSV,2,1,08,69,81,289,39,79,73,230,38,78,49,042,27,68,42,152,33,1*73
$GLGSV,2,2,08,80,18,225,22,70,17,324,,87,09,033,22,86,08,348,25,1*78
$GAGSV,3,1,09,09,72,129,26,31,65,102,25,05,50,300,24,06,47,126,24,7*7C
$GAGSV,3,2,09,24,38,189,22,04,21,124,,15,09,324,15,34,05,276,,7*7B
$GAGSV,3,3,09,03,01,303,,7*48
$GBGSV,4,1,15,37,80,213,35,20,66,263,35,58,63,249,,23,43,061,31,1*7A
$GBGSV,4,2,15,32,36,168,30,19,26,314,27,46,24,234,,38,17,332,24,1*7B
$GBGSV,4,3,15,08,11,341,13,31,09,336,,43,05,077,,11,05,057,,1*71
$GBGSV,4,4,15,34,05,034,18,12,03,009,16,13,03,346,,1*40
$GNRMC,194605.000,A,4910.426452,N,12304.396434,W,0.16,290.84,051224,,,D,V*16
$GNVTG,290.84,T,,M,0.16,N,0.30,K,D*25
$PAIRLOG,Full*51
$GNGGA,194606.000,4910.426596,N,12304.396482,W,2,28,0.55,-0.106,M,-16.816,M,,*6A
$GNGLL,4910.426596,N,12304.396482,W,194606.000,A,D*5C
$GNGSA,A,3,07,09,04,30,16,20,27,08,05,,,,0.95,0.55,0.77,1*09
$GNGSA,A,3,69,79,78,68,80,87,86,,,,,,0.95,0.55,0.77,2*07
$GNGSA,A,3,09,31,05,06,24,,,,,,,,0.95,0.55,0.77,3*01
$GNGSA,A,3,37,20,23,32,19,38,34,,,,,,0.95,0.55,0.77,4*0A
$GPGSV,3,1,10,07,72,278,29,09,69,143,31,04,39,128,27,30,34,262,24,1*65
$GPGSV,3,2,10,16,29,049,22,20,28,302,24,27,24,088,24,08,19,121,21,1*6E
$GPGSV,3,3,10,05,10,329,21,36,,,,1*5F
$GLGSV,2,1,08,69,81,289,39,79,73,230,38,78,49,042,27,68,42,152,32,1*72
$GLGSV,2,2,08,80,18,225,22,70,17,324,,87,09,033,22,86,08,348,25,1*78
$GAGSV,2,1,06,09,72,129,26,31,65,102,25,05,50,300,24,06,47,126,24,7*72
$GAGSV,2,2,06,24,38,189,22,15,09,324,14,7*75
$GBGSV,3,1,09,37,80,213,35,20,66,263,35,23,43,061,31,32,36,168,30,1*7F
$GBGSV,3,2,09,19,26,314,27,38,17,332,24,08,11,341,13,34,05,034,18,1*78
$GBGSV,3,3,09,12,03,009,16,1*41
$GNRMC,194606.000,A,4910.426596,N,12304.396482,W,0.15,290.84,051224,,,D,V*12
$GNVTG,290.84,T,,M,0.15,N,0.28,K,D*2F
$PAIRLOG,Full*51
$GNGGA,194607.000,4910.426470,N,12304.396446,W,2,28,0.55,-0.149,M,-16.816,M,,*61
$GNGLL,4910.426470,N,12304.396446,W,194607.000,A,D*5C
$GNGSA,A,3,07,09,04,30,16,20,27,08,05,,,,0.95,0.55,0.77,1*09
$GNGSA,A,3,69,79,78,68,80,87,86,,,,,,0.95,0.55,0.77,2*07
$GNGSA,A,3,09,31,05,06,24,,,,,,,,0.95,0.55,0.77,3*01
$GNGSA,A,3,37,20,23,32,19,38,34,,,,,,0.95,0.55,0.77,4*0A
$GPGSV,3,1,10,07,72,278,29,09,69,143,31,04,39,128,27,30,34,262,24,1*65
$GPGSV,3,2,10,16,29,049,22,20,28,302,24,27,24,088,24,08,19,121,21,1*6E
$GPGSV,3,3,10,05,10,329,21,36,,,,1*5F
$GLGSV,2,1,08,69,81,289,39,79,73,230,38,78,49,042,27,68,42,152,32,1*72
$GLGSV,2,2,08,80,18,225,22,70,17,324,,87,09,033,22,86,08,348,25,1*78
$GAGSV,2,1,06,09,72,129,26,31,65,102,25,05,50,300,24,06,47,126,23,7*75
$GAGSV,2,2,06,24,38,189,22,15,09,324,14,7*75
$GBGSV,3,1,09,37,80,213,35,20,66,263,35,23,43,061,31,32,36,168,30,1*7F
$GBGSV,3,2,09,19,26,314,27,38,17,332,24,08,11,341,12,34,05,034,18,1*79
$GBGSV,3,3,09,12,03,009,16,1*41
$GNRMC,194607.000,A,4910.426470,N,12304.396446,W,0.23,290.84,051224,,,D,V*17
$GNVTG,290.84,T,,M,0.23,N,0.42,K,D*26
$PAIRLOG,Full*51
$GNGGA,194608.000,4910.426452,N,12304.396434,W,2,28,0.55,-0.154,M,-16.816,M,,*67
$GNGLL,4910.426452,N,12304.396434,W,194608.000,A,D*56
$GNGSA,A,3,07,09,04,30,16,20,27,08,05,,,,0.95,0.55,0.77,1*09
$GNGSA,A,3,69,79,78,68,80,87,86,,,,,,0.95,0.55,0.77,2*07
$GNGSA,A,3,09,31,05,06,24,,,,,,,,0.95,0.55,0.77,3*01
$GNGSA,A,3,37,20,23,32,19,38,34,,,,,,0.95,0.55,0.77,4*0A
$GPGSV,3,1,10,07,72,278,29,09,69,143,31,04,39,128,27,30,34,262,24,1*65
$GPGSV,3,2,10,16,29,049,22,20,28,302,25,27,24,088,23,08,19,121,21,1*68
$GPGSV,3,3,10,05,10,329,21,36,,,,1*5F
$GLGSV,2,1,08,69,81,289,39,79,73,230,37,78,49,042,27,68,42,152,32,1*7D
$GLGSV,2,2,08,80,18,225,23,70,17,324,,87,09,033,22,86,08,348,25,1*79
$GAGSV,2,1,06,09,72,129,26,31,65,102,25,05,50,300,23,06,47,126,23,7*72
$GAGSV,2,2,06,24,38,189,22,15,09,324,14,7*75
$GBGSV,3,1,09,37,80,213,35,20,66,263,35,23,43,061,31,32,36,168,30,1*7F
$GBGSV,3,2,09,19,26,314,27,38,17,332,24,08,11,341,12,34,05,034,18,1*79
$GBGSV,3,3,09,12,03,009,16,1*41
$GNRMC,194608.000,A,4910.426452,N,12304.396434,W,0.26,290.84,051224,,,D,V*18
$GNVTG,290.84,T,,M,0.26,N,0.48,K,D*29
$PAIRLOG,Full*51
$GNGGA,194609.000,4910.426458,N,12304.396416,W,2,28,0.55,-0.177,M,-16.816,M,,*6D
$GNGLL,4910.426458,N,12304.396416,W,194609.000,A,D*5D
$GNGSA,A,3,07,09,04,30,16,20,27,08,05,,,,0.95,0.55,0.77,1*09
$GNGSA,A,3,69,79,78,68,80,87,86,,,,,,0.95,0.55,0.77,2*07
$GNGSA,A,3,09,31,05,06,24,,,,,,,,0.95,0.55,0.77,3*01
$GNGSA,A,3,37,20,23,32,19,38,34,,,,,,0.95,0.55,0.77,4*0A
$GPGSV,3,1,11,07,72,278,29,09,69,143,31,04,39,128,26,30,34,262,24,1*65
$GPGSV,3,2,11,16,29,049,22,20,28,302,23,27,24,088,23,08,19,121,21,1*6F
$GPGSV,3,3,11,05,10,329,21,11,02,279,,36,,,,1*60
$GLGSV,2,1,08,69,81,289,38,79,73,230,37,78,49,042,26,68,42,152,31,1*7E
$GLGSV,2,2,08,80,18,225,23,70,17,324,,87,09,033,22,86,08,348,25,1*79
$GAGSV,3,1,09,09,72,129,25,31,65,102,25,05,50,300,23,06,47,126,23,7*7F
$GAGSV,3,2,09,24,38,189,22,04,21,124,,15,09,324,14,34,05,276,,7*7A
$GAGSV,3,3,09,03,01,303,,7*48
$GBGSV,4,1,15,37,80,213,34,20,66,263,35,58,63,249,,23,43,061,31,1*7B
$GBGSV,4,2,15,32,36,168,29,19,26,314,26,46,24,234,,38,17,332,24,1*72
$GBGSV,4,3,15,08,11,341,12,31,09,336,,43,05,077,,11,05,057,,1*70
$GBGSV,4,4,15,34,05,034,18,12,03,009,16,13,03,346,,1*40
$GNRMC,194609.000,A,4910.426458,N,12304.396416,W,0.26,290.84,051224,,,D,V*13
$GNVTG,290.84,T,,M,0.26,N,0.48,K,D*29
$PAIRLOG,Full*51
$GNGGA,194610.000,4910.426428,N,12304.396434,W,2,29,0.53,-0.197,M,-16.816,M,,*6B
$GNGLL,4910.426428,N,12304.396434,W,194610.000,A,D*52
$GNGSA,A,3,07,09,04,30,16,20,27,08,05,,,,0.91,0.53,0.74,1*08
$GNGSA,A,3,69,79,78,68,80,87,86,,,,,,0.91,0.53,0.74,2*06
$GNGSA,A,3,09,31,05,06,24,04,,,,,,,0.91,0.53,0.74,3*04
$GNGSA,A,3,37,20,23,32,19,38,34,,,,,,0.91,0.53,0.74,4*0B
$GPGSV,3,1,10,07,72,278,29,09,69,143,31,04,39,128,28,30,34,262,25,1*6B
$GPGSV,3,2,10,16,29,049,23,20,28,302,24,27,24,088,25,08,19,121,20,1*6F
$GPGSV,3,3,10,05,10,329,20,11,02,279,,1*65
$GLGSV,2,1,07,69,81,289,38,79,73,230,37,78,49,042,27,68,42,152,31,1*70
$GLGSV,2,2,07,80,18,225,23,87,09,033,22,86,08,348,25,1*42
$GAGSV,3,1,09,09,72,129,25,31,65,102,25,05,50,300,23,06,47,126,23,7*7F
$GAGSV,3,2,09,24,38,189,22,04,21,124,18,15,09,324,14,34,05,276,,7*73
$GAGSV,3,3,09,03,01,303,,7*48
$GBGSV,4,1,15,37,80,213,34,20,66,263,35,58,63,249,,23,43,061,31,1*7B
$GBGSV,4,2,15,32,36,168,29,19,26,314,26,46,24,234,,38,17,332,24,1*72
$GBGSV,4,3,15,08,11,341,,31,09,336,,43,05,077,,11,05,057,,1*73
$GBGSV,4,4,15,34,05,034,18,12,03,009,15,13,03,346,,1*43
$GNRMC,194610.000,A,4910.426428,N,12304.396434,W,0.27,290.84,051224,,,D,V*1D
$GNVTG,290.84,T,,M,0.27,N,0.49,K,D*29
$PAIRLOG,Full*51
$GNGGA,194611.000,4910.426398,N,12304.396338,W,2,28,0.55,-0.207,M,-16.816,M,,*60
