$GNGGA,194541.000,4910.426584,N,12304.401888,W,2,28,0.57,6.171,M,-16.817,M,,*4E
$GNGLL,4910.426584,N,12304.401888,W,194541.000,A,D*50
$GNGSA,A,3,07,09,04,30,16,20,27,08,05,,,,0.94,0.57,0.75,1*08
$GNGSA,A,3,69,79,68,80,,,,,,,,,0.94,0.57,0.75,2*08
$GNGSA,A,3,09,31,05,06,24,04,15,,,,,,0.94,0.57,0.75,3*00
$GNGSA,A,3,37,20,23,32,19,38,08,34,,,,,0.94,0.57,0.75,4*03
$GPGSV,3,1,12,07,72,277,33,09,70,143,34,04,40,128,30,30,35,263,27,1*65
$GPGSV,3,2,12,44,33,171,28,16,28,049,28,20,28,301,28,27,24,087,29,1*66
$GPGSV,3,3,12,08,19,122,16,05,10,329,24,11,02,279,,14,01,210,12,1*61
$GLGSV,2,1,07,69,81,287,27,79,74,231,29,78,48,042,,68,41,152,26,1*78
$GLGSV,2,2,07,80,19,225,17,70,17,324,,87,09,032,14,1*4A
$GAGSV,3,1,09,09,72,129,30,31,65,101,30,05,50,300,27,06,46,126,26,7*7C
$GAGSV,3,2,09,24,38,189,25,04,21,124,20,15,09,324,20,34,05,276,,7*78
$GAGSV,3,3,09,03,01,303,,7*48
$GBGSV,4,1,14,37,80,213,39,20,66,262,39,23,43,061,35,32,36,168,34,1*75
$GBGSV,4,2,14,19,27,314,33,46,24,234,,38,17,332,28,08,11,341,20,1*76
$GBGSV,4,3,14,34,05,034,20,11,05,057,17,43,05,077,18,13,03,346,19,1*71
$GBGSV,4,4,14,12,03,008,18,04,01,262,,1*71
$GNRMC,194541.000,A,4910.426584,N,12304.401888,W,0.02,0.00,051224,,,D,V*1F
$GNVTG,0.00,T,,M,0.02,N,0.04,K,D*20
$GNGGA,194542.000,4910.426608,N,12304.401816,W,2,28,0.57,6.189,M,-16.817,M,,*4A
$GNGLL,4910.426608,N,12304.401816,W,194542.000,A,D*53
$GNGSA,A,3,07,09,04,30,16,20,27,08,05,,,,0.94,0.57,0.75,1*08
$GNGSA,A,3,69,79,68,80,,,,,,,,,0.94,0.57,0.75,2*08
$GNGSA,A,3,09,31,05,06,24,04,15,,,,,,0.94,0.57,0.75,3*00
$GNGSA,A,3,37,20,23,32,19,38,08,34,,,,,0.94,0.57,0.75,4*03
$GPGSV,3,1,12,07,72,277,32,09,70,143,34,04,40,128,30,30,35,263,27,1*64
$GPGSV,3,2,12,44,33,171,28,16,28,049,28,20,28,301,27,27,24,087,29,1*69
$GPGSV,3,3,12,08,19,122,17,05,10,329,24,11,02,279,,14,01,210,11,1*63
$GLGSV,2,1,07,69,81,287,27,79,74,231,29,78,48,042,,68,41,152,26,1*78
$GLGSV,2,2,07,80,19,225,17,70,17,324,,87,09,032,14,1*4A
$GAGSV,3,1,09,09,72,129,29,31,65,101,29,05,50,300,27,06,46,126,26,7*7C
$GAGSV,3,2,09,24,38,189,25,04,21,124,20,15,09,324,19,34,05,276,,7*72
$GAGSV,3,3,09,03,01,303,,7*48
$GBGSV,4,1,14,37,80,213,39,20,66,262,39,23,43,061,35,32,36,168,34,1*75
$GBGSV,4,2,14,19,27,314,33,46,24,234,,38,17,332,28,08,11,341,20,1*76
$GBGSV,4,3,14,34,05,034,21,11,05,057,17,43,05,077,18,13,03,346,19,1*70
$GBGSV,4,4,14,12,03,008,18,04,01,262,,1*71
$GNRMC,194542.000,A,4910.426608,N,12304.401816,W,0.02,0.00,051224,,,D,V*1C
$GNVTG,0.00,T,,M,0.02,N,0.04,K,D*20
$GNGGA,194543.000,4910.426620,N,12304.401732,W,2,28,0.57,6.267,M,-16.816,M,,*4A
$GNGLL,4910.426620,N,12304.401732,W,194543.000,A,D*51
$GNGSA,A,3,07,09,04,30,16,20,27,08,05,,,,0.94,0.57,0.75,1*08
$GNGSA,A,3,69,79,68,80,,,,,,,,,0.94,0.57,0.75,2*08
$GNGSA,A,3,09,31,05,06,24,04,15,,,,,,0.94,0.57,0.75,3*00
$GNGSA,A,3,37,20,23,32,19,38,08,34,,,,,0.94,0.57,0.75,4*03
$GPGSV,3,1,12,07,72,277,32,09,70,143,34,04,40,128,30,30,35,263,27,1*64
$GPGSV,3,2,12,44,33,171,28,16,28,049,28,20,28,301,27,27,24,087,29,1*69
$GPGSV,3,3,12,08,19,122,17,05,10,329,24,11,02,279,,14,01,210,12,1*60
$GLGSV,2,1,07,69,81,287,27,79,74,231,29,78,48,042,,68,41,152,26,1*78
$GLGSV,2,2,07,80,19,225,18,70,17,324,,87,09,032,15,1*44
$GAGSV,3,1,09,09,72,129,29,31,65,101,29,05,50,300,27,06,46,126,26,7*7C
$GAGSV,3,2,09,24,38,189,25,04,21,124,19,15,09,324,19,34,05,276,,7*78
$GAGSV,3,3,09,03,01,303,,7*48
$GBGSV,4,1,14,37,80,213,39,20,66,262,39,23,43,061,35,32,36,168,34,1*75
$GBGSV,4,2,14,19,27,314,33,46,24,234,,38,17,332,28,08,11,341,20,1*76
$GBGSV,4,3,14,34,05,034,21,11,05,057,17,43,05,077,18,13,03,346,19,1*70
$GBGSV,4,4,14,12,03,008,18,04,01,262,,1*71
$GNRMC,194543.000,A,4910.426620,N,12304.401732,W,0.02,0.00,051224,,,D,V*1E
$GNVTG,0.00,T,,M,0.02,N,0.04,K,D*20
$GNGGA,194544.000,4910.426620,N,12304.401738,W,2,28,0.57,6.248,M,-16.816,M,,*4A
$GNGLL,4910.426620,N,12304.401738,W,194544.000,A,D*5C
$GNGSA,A,3,07,09,04,30,16,20,27,08,05,,,,0.94,0.57,0.75,1*08
$GNGSA,A,3,69,79,68,80,,,,,,,,,0.94,0.57,0.75,2*08
$GNGSA,A,3,09,31,05,06,24,04,15,,,,,,0.94,0.57,0.75,3*00
$GNGSA,A,3,37,20,23,32,19,38,08,34,,,,,0.94,0.57,0.75,4*03
$GPGSV,3,1,12,07,72,277,32,09,70,143,34,04,40,128,30,30,35,263,27,1*64
$GPGSV,3,2,12,44,33,171,28,16,28,049,28,20,28,301,27,27,24,087,29,1*69
$GPGSV,3,3,12,08,19,122,17,05,10,329,23,11,02,279,,14,01,210,13,1*66
$GLGSV,2,1,07,69,81,287,27,79,74,231,29,78,48,042,,68,41,152,26,1*78
$GLGSV,2,2,07,80,19,225,18,70,17,324,,87,09,032,15,1*44
$GAGSV,3,1,09,09,72,129,29,31,65,101,29,05,50,300,26,06,46,126,26,7*7D
$GAGSV,3,2,09,24,38,189,25,04,21,124,19,15,09,324,19,34,05,276,,7*78
$GAGSV,3,3,09,03,01,303,,7*48
$GBGSV,4,1,14,37,80,213,39,20,66,262,39,23,43,061,35,32,36,168,34,1*75
$GBGSV,4,2,14,19,27,314,33,46,24,234,,38,17,332,28,08,11,341,20,1*76
$GBGSV,4,3,14,34,05,034,22,11,05,057,18,43,05,077,18,13,03,346,19,1*7C
$GBGSV,4,4,14,12,03,008,18,04,01,262,,1*71
$GNRMC,194544.000,A,4910.426620,N,12304.401738,W,0.02,0.00,051224,,,D,V*13
$GNVTG,0.00,T,,M,0.02,N,0.04,K,D*20
$GNGGA,194545.000,4910.426602,N,12304.401780,W,2,28,0.57,6.151,M,-16.817,M,,*42
$GNGLL,4910.426602,N,12304.401780,W,194545.000,A,D*5E
$GNGSA,A,3,07,09,04,30,16,20,27,08,05,,,,0.94,0.57,0.75,1*08
$GNGSA,A,3,69,79,68,80,,,,,,,,,0.94,0.57,0.75,2*08
$GNGSA,A,3,09,31,05,06,24,04,15,,,,,,0.94,0.57,0.75,3*00
$GNGSA,A,3,37,20,23,32,19,38,08,34,,,,,0.94,0.57,0.75,4*03
$GPGSV,3,1,12,07,72,277,32,09,70,143,34,04,40,128,30,30,35,263,27,1*64
$GPGSV,3,2,12,44,33,171,28,16,28,049,28,20,28,301,27,27,24,087,29,1*69
$GPGSV,3,3,12,08,19,122,17,05,10,329,23,11,02,279,,14,01,210,15,1*60
$GLGSV,2,1,07,69,81,287,27,79,74,231,29,78,48,042,,68,41,152,26,1*78
$GLGSV,2,2,07,80,19,225,18,70,17,324,,87,09,032,15,1*44
$GAGSV,3,1,09,09,72,129,29,31,65,101,29,05,50,300,26,06,46,126,26,7*7D
$GAGSV,3,2,09,24,38,189,25,04,21,124,19,15,09,324,19,34,05,276,,7*78
$GAGSV,3,3,09,03,01,303,,7*48
$GBGSV,4,1,14,37,80,213,39,20,66,262,39,23,43,061,35,32,36,168,34,1*75
$GBGSV,4,2,14,19,27,314,33,46,24,234,,38,17,332,28,08,11,341,20,1*76
$GBGSV,4,3,14,34,05,034,22,11,05,057,18,43,05,077,18,13,03,346,19,1*7C
$GBGSV,4,4,14,12,03,008,18,04,01,262,,1*71
$GNRMC,194545.000,A,4910.426602,N,12304.401780,W,0.02,0.00,051224,,,D,V*11
$GNVTG,0.00,T,,M,0.02,N,0.03,K,D*27
$GNGGA,194546.000,4910.426560,N,12304.401792,W,2,28,0.57,6.029,M,-16.816,M,,*4A
$GNGLL,4910.426560,N,12304.401792,W,194546.000,A,D*59
$GNGSA,A,3,07,09,04,30,16,20,27,08,05,,,,0.94,0.57,0.75,1*08
$GNGSA,A,3,69,79,68,80,,,,,,,,,0.94,0.57,0.75,2*08
$GNGSA,A,3,09,31,05,06,24,04,15,,,,,,0.94,0.57,0.75,3*00
$GNGSA,A,3,37,20,23,32,19,38,08,34,,,,,0.94,0.57,0.75,4*03
$GPGSV,3,1,12,07,72,277,32,09,70,143,33,04,40,128,30,30,35,263,27,1*63
$GPGSV,3,2,12,44,33,171,28,16,28,049,28,20,28,301,27,27,24,087,29,1*69
$GPGSV,3,3,12,08,19,122,16,05,10,329,23,11,02,279,,14,01,210,16,1*62
$GLGSV,2,1,07,69,81,287,27,79,74,231,30,78,48,042,,68,41,152,26,1*70
$GLGSV,2,2,07,80,19,225,17,70,17,324,,87,09,032,16,1*48
$GAGSV,3,1,09,09,72,129,29,31,65,101,29,05,50,300,26,06,46,126,26,7*7D
$GAGSV,3,2,09,24,38,189,25,04,21,124,19,15,09,324,19,34,05,276,,7*78
$GAGSV,3,3,09,03,01,303,,7*48
$GBGSV,4,1,14,37,80,213,39,20,66,262,39,23,43,061,36,32,36,168,34,1*76
$GBGSV,4,2,14,19,27,314,33,46,24,234,,38,17,332,28,08,11,341,20,1*76
$GBGSV,4,3,14,34,05,034,22,11,05,057,19,43,05,077,19,13,03,346,19,1*7C
$GBGSV,4,4,14,12,03,008,18,04,01,262,,1*71
$GNRMC,194546.000,A,4910.426560,N,12304.401792,W,0.02,0.00,051224,,,D,V*16
$GNVTG,0.00,T,,M,0.02,N,0.03,K,D*27
$GNGGA,194547.000,4910.426530,N,12304.401864,W,2,28,0.57,5.986,M,-16.817,M,,*46
$GNGLL,4910.426530,N,12304.401864,W,194547.000,A,D*5B
$GNGSA,A,3,07,09,04,30,16,20,27,08,05,,,,0.94,0.57,0.75,1*08
$GNGSA,A,3,69,79,68,80,,,,,,,,,0.94,0.57,0.75,2*08
$GNGSA,A,3,09,31,05,06,24,04,15,,,,,,0.94,0.57,0.75,3*00
$GNGSA,A,3,37,20,23,32,19,38,08,34,,,,,0.94,0.57,0.75,4*03
$GPGSV,3,1,12,07,72,277,32,09,70,143,33,04,40,128,30,30,35,263,27,1*63
$GPGSV,3,2,12,44,33,171,28,16,28,049,28,20,28,301,27,27,24,087,29,1*69
$GPGSV,3,3,12,08,19,122,17,05,10,329,23,11,02,279,,14,01,210,16,1*63
$GLGSV,2,1,07,69,81,287,27,79,74,231,30,78,48,042,,68,41,152,26,1*70
$GLGSV,2,2,07,80,19,225,17,70,17,324,,87,09,032,16,1*48
$GAGSV,3,1,09,09,72,129,29,31,65,101,29,05,50,300,27,06,46,126,26,7*7C
$GAGSV,3,2,09,24,38,189,25,04,21,124,19,15,09,324,19,34,05,276,,7*78
$GAGSV,3,3,09,03,01,303,,7*48
$GBGSV,4,1,14,37,80,213,39,20,66,262,39,23,43,061,36,32,36,168,34,1*76
$GBGSV,4,2,14,19,27,314,33,46,24,234,,38,17,332,28,08,11,341,20,1*76
$GBGSV,4,3,14,34,05,034,22,11,05,057,19,43,05,077,19,13,03,346,19,1*7C
$GBGSV,4,4,14,12,03,008,18,04,01,262,,1*71
$GNRMC,194547.000,A,4910.426530,N,12304.401864,W,0.02,0.00,051224,,,D,V*14
$GNVTG,0.00,T,,M,0.02,N,0.03,K,D*27
$GNGGA,194548.000,4910.426458,N,12304.401888,W,2,28,0.57,5.976,M,-16.816,M,,*4A
$GNGLL,4910.426458,N,12304.401888,W,194548.000,A,D*59
$GNGSA,A,3,07,09,04,30,16,20,27,08,05,,,,0.94,0.57,0.75,1*08
$GNGSA,A,3,69,79,68,80,,,,,,,,,0.94,0.57,0.75,2*08
$GNGSA,A,3,09,31,05,06,24,04,15,,,,,,0.94,0.57,0.75,3*00
$GNGSA,A,3,37,20,23,32,19,38,08,34,,,,,0.94,0.57,0.75,4*03
$GPGSV,3,1,12,07,72,277,31,09,70,143,33,04,40,128,29,30,35,263,26,1*69
$GPGSV,3,2,12,44,33,171,27,16,28,049,27,20,28,301,26,27,24,087,28,1*69
$GPGSV,3,3,12,08,19,122,16,05,10,329,23,11,02,279,,14,01,210,15,1*61
$GLGSV,2,1,07,69,81,287,27,79,74,231,30,78,48,042,,68,41,152,26,1*70
$GLGSV,2,2,07,80,19,225,17,70,17,324,,87,09,032,16,1*48
$GAGSV,3,1,09,09,72,129,29,31,65,101,29,05,50,300,26,06,46,126,26,7*7D
$GAGSV,3,2,09,24,38,189,25,04,21,124,19,15,09,324,19,34,05,276,,7*78
$GAGSV,3,3,09,03,01,303,,7*48
$GBGSV,4,1,14,37,80,213,39,20,66,262,39,23,43,061,36,32,36,168,34,1*76
$GBGSV,4,2,14,19,27,314,33,46,24,234,,38,17,332,28,08,11,341,20,1*76
$GBGSV,4,3,14,34,05,034,22,11,05,057,19,43,05,077,19,13,03,346,19,1*7C
$GBGSV,4,4,14,12,03,008,18,04,01,262,,1*71
$GNRMC,194548.000,A,4910.426458,N,12304.401888,W,0.02,0.00,051224,,,D,V*16
$GNVTG,0.00,T,,M,0.02,N,0.03,K,D*27
$GNGGA,194549.000,4910.426392,N,12304.401924,W,2,28,0.57,6.000,M,-16.816,M,,*46
$GNGLL,4910.426392,N,12304.401924,W,194549.000,A,D*5E
$GNGSA,A,3,07,09,04,30,16,20,27,08,05,,,,0.94,0.57,0.75,1*08
$GNGSA,A,3,69,79,68,80,,,,,,,,,0.94,0.57,0.75,2*08
$GNGSA,A,3,09,31,05,06,24,04,15,,,,,,0.94,0.57,0.75,3*00
$GNGSA,A,3,37,20,23,32,19,38,08,34,,,,,0.94,0.57,0.75,4*03
$GPGSV,3,1,12,07,72,277,32,09,70,143,33,04,40,128,29,30,35,263,26,1*6A
$GPGSV,3,2,12,44,33,171,27,16,28,049,27,20,28,301,26,27,24,087,28,1*69
$GPGSV,3,3,12,08,19,122,17,05,10,329,23,11,02,279,,14,01,210,14,1*61
$GLGSV,2,1,07,69,81,287,27,79,74,231,30,78,48,042,,68,41,152,26,1*70
$GLGSV,2,2,07,80,19,225,17,70,17,324,,87,09,032,16,1*48
$GAGSV,3,1,09,09,72,129,29,31,65,101,29,05,50,300,26,06,46,126,26,7*7D
$GAGSV,3,2,09,24,38,189,25,04,21,124,19,15,09,324,19,34,05,276,,7*78
$GAGSV,3,3,09,03,01,303,,7*48
$GBGSV,4,1,14,37,80,213,39,20,66,262,39,23,43,061,36,32,36,168,34,1*76
$GBGSV,4,2,14,19,27,314,32,46,24,234,,38,17,332,28,08,11,341,20,1*77
$GBGSV,4,3,14,34,05,034,22,11,05,057,19,43,05,077,19,13,03,346,19,1*7C
$GBGSV,4,4,14,12,03,008,18,04,01,262,,1*71
$GNRMC,194549.000,A,4910.426392,N,12304.401924,W,0.02,0.00,051224,,,D,V*11
$GNVTG,0.00,T,,M,0.02,N,0.04,K,D*20
$GNGGA,194550.000,4910.426284,N,12304.401846,W,2,27,0.57,6.040,M,-16.816,M,,*46
$GNGLL,4910.426284,N,12304.401846,W,194550.000,A,D*55
$GNGSA,A,3,07,09,04,30,16,20,27,05,,,,,0.97,0.57,0.78,1*0E
$GNGSA,A,3,69,79,68,80,,,,,,,,,0.97,0.57,0.78,2*06
$GNGSA,A,3,09,31,05,06,24,04,15,,,,,,0.97,0.57,0.78,3*0E
$GNGSA,A,3,37,20,23,32,19,38,08,34,,,,,0.97,0.57,0.78,4*0D
$GPGSV,3,1,12,07,72,277,32,09,70,143,33,04,40,128,29,30,35,263,27,1*6B
$GPGSV,3,2,12,44,33,171,27,16,28,049,27,20,28,301,26,27,24,087,28,1*69
$GPGSV,3,3,12,08,19,122,,05,10,329,23,11,02,279,,14,01,210,13,1*60
$GLGSV,2,1,06,69,81,287,27,79,74,231,30,68,41,152,26,80,19,225,18,1*78
$GLGSV,2,2,06,70,17,324,,87,09,032,16,1*7A
$GAGSV,3,1,09,09,72,129,29,31,65,101,29,05,50,300,26,06,46,126,26,7*7D
$GAGSV,3,2,09,24,38,189,25,04,21,124,19,15,09,324,19,34,05,276,,7*78
$GAGSV,3,3,09,03,01,303,,7*48
$GBGSV,4,1,14,37,80,213,39,20,66,262,39,23,43,061,36,32,36,168,34,1*76
$GBGSV,4,2,14,19,27,314,32,46,24,234,,38,17,332,28,08,11,341,19,1*7D
$GBGSV,4,3,14,43,05,077,19,34,05,034,22,11,05,057,19,13,03,346,19,1*7C
$GBGSV,4,4,14,12,03,008,18,04,01,262,,1*71
$GNRMC,194550.000,A,4910.426284,N,12304.401846,W,0.03,0.00,051224,,,D,V*1B
$GNVTG,0.00,T,,M,0.03,N,0.06,K,D*23
$GNGGA,194551.000,4910.426206,N,12304.401828,W,2,27,0.57,6.143,M,-16.816,M,,*47
$GNGLL,4910.426206,N,12304.401828,W,194551.000,A,D*56
$GNGSA,A,3,07,09,04,30,16,20,27,05,,,,,0.97,0.57,0.78,1*0E
$GNGSA,A,3,69,79,68,80,,,,,,,,,0.97,0.57,0.78,2*06
$GNGSA,A,3,09,31,05,06,24,04,15,,,,,,0.97,0.57,0.78,3*0E
$GNGSA,A,3,37,20,23,32,19,38,08,34,,,,,0.97,0.57,0.78,4*0D
$GPGSV,3,1,12,07,72,278,32,09,70,143,34,04,39,128,29,30,35,263,26,1*6C
$GPGSV,3,2,12,44,33,171,27,16,28,049,27,20,28,301,26,27,24,086,28,1*68
$GPGSV,3,3,12,08,19,121,,05,10,329,23,11,02,279,,14,01,210,14,1*64
$GLGSV,2,1,07,69,82,285,27,79,74,231,30,78,48,042,,68,41,152,27,1*70
$GLGSV,2,2,07,80,19,225,18,70,17,324,,87,09,032,16,1*47
$GAGSV,3,1,09,09,72,129,29,31,65,101,29,05,51,300,26,06,46,126,26,7*7C
$GAGSV,3,2,09,24,39,189,25,04,21,124,19,15,09,323,19,34,05,276,,7*7E
$GAGSV,3,3,09,03,01,303,,7*48
$GBGSV,4,1,14,37,80,213,39,20,66,262,39,23,43,061,36,32,36,168,34,1*76
$GBGSV,4,2,14,19,27,314,32,46,24,234,,38,17,332,28,08,12,341,19,1*7E
$GBGSV,4,3,14,34,06,034,22,11,05,056,19,43,05,077,19,13,03,346,19,1*7E
$GBGSV,4,4,14,12,03,008,18,04,01,262,,1*71
$GNRMC,194551.000,A,4910.426206,N,12304.401828,W,0.03,0.00,051224,,,D,V*18
$GNVTG,0.00,T,,M,0.03,N,0.06,K,D*23
$GNGGA,194552.000,4910.426152,N,12304.401840,W,2,28,0.57,6.185,M,-16.816,M,,*4D
$GNGLL,4910.426152,N,12304.401840,W,194552.000,A,D*59
$GNGSA,A,3,07,09,04,30,16,20,27,08,05,,,,0.94,0.57,0.75,1*08
$GNGSA,A,3,69,79,68,80,,,,,,,,,0.94,0.57,0.75,2*08
$GNGSA,A,3,09,31,05,06,24,04,15,,,,,,0.94,0.57,0.75,3*00
$GNGSA,A,3,37,20,23,32,19,38,08,34,,,,,0.94,0.57,0.75,4*03
$GPGSV,3,1,12,07,72,278,32,09,70,143,34,04,39,128,29,30,35,263,25,1*6F
$GPGSV,3,2,12,44,33,171,27,16,28,049,27,20,28,301,26,27,24,086,28,1*68
$GPGSV,3,3,12,08,19,121,17,05,10,329,23,11,02,279,,14,01,210,13,1*65
$GLGSV,2,1,07,69,82,285,27,79,74,231,30,78,48,042,,68,41,152,27,1*70
$GLGSV,2,2,07,80,19,225,18,70,17,324,,87,09,032,17,1*46
$GAGSV,3,1,09,09,72,129,29,31,65,101,29,05,51,300,27,06,46,126,26,7*7D
$GAGSV,3,2,09,24,39,189,25,04,21,124,19,15,09,323,19,34,05,276,,7*7E
$GAGSV,3,3,09,03,01,303,,7*48
$GBGSV,4,1,14,37,80,213,39,20,66,262,39,23,43,061,36,32,36,168,33,1*71
$GBGSV,4,2,14,19,27,314,32,46,24,234,,38,17,332,28,08,12,341,19,1*7E
$GBGSV,4,3,14,34,06,034,22,11,05,056,20,43,05,077,19,13,03,346,19,1*74
$GBGSV,4,4,14,12,03,008,18,04,01,262,,1*71
$GNRMC,194552.000,A,4910.426152,N,12304.401840,W,0.03,0.00,051224,,,D,V*17
$GNVTG,0.00,T,,M,0.03,N,0.05,K,D*20
$GNGGA,194553.000,4910.426134,N,12304.401876,W,2,28,0.57,6.247,M,-16.816,M,,*44
$GNGLL,4910.426134,N,12304.401876,W,194553.000,A,D*5D
$GNGSA,A,3,07,09,04,30,16,20,27,08,05,,,,0.94,0.57,0.75,1*08
$GNGSA,A,3,69,79,68,80,,,,,,,,,0.94,0.57,0.75,2*08
$GNGSA,A,3,09,31,05,06,24,04,15,,,,,,0.94,0.57,0.75,3*00
$GNGSA,A,3,37,20,23,32,19,38,08,34,,,,,0.94,0.57,0.75,4*03
$GPGSV,3,1,12,07,72,278,32,09,70,143,34,04,39,128,29,30,35,263,27,1*6D
$GPGSV,3,2,12,44,33,171,27,16,28,049,27,20,28,301,26,27,24,086,28,1*68
$GPGSV,3,3,12,08,19,121,17,05,10,329,22,11,02,279,,14,01,210,13,1*64
$GLGSV,2,1,07,69,82,285,27,79,74,231,30,78,48,042,,68,41,152,26,1*71
$GLGSV,2,2,07,80,19,225,18,70,17,324,,87,09,032,17,1*46
$GAGSV,3,1,09,09,72,129,29,31,65,101,29,05,51,300,27,06,46,126,26,7*7D
$GAGSV,3,2,09,24,39,189,25,04,21,124,19,15,09,323,19,34,05,276,,7*7E
$GAGSV,3,3,09,03,01,303,,7*48
$GBGSV,4,1,14,37,80,213,39,20,66,262,39,23,43,061,36,32,36,168,33,1*71
$GBGSV,4,2,14,19,27,314,32,46,24,234,,38,17,332,28,08,12,341,19,1*7E
$GBGSV,4,3,14,34,06,034,22,11,05,056,20,43,05,077,19,13,03,346,19,1*74
$GBGSV,4,4,14,12,03,008,18,04,01,262,,1*71
$GNRMC,194553.000,A,4910.426134,N,12304.401876,W,0.02,0.00,051224,,,D,V*12
$GNVTG,0.00,T,,M,0.02,N,0.04,K,D*20
$GNGGA,194554.000,4910.426104,N,12304.401888,W,2,28,0.57,6.282,M,-16.816,M,,*48
$GNGLL,4910.426104,N,12304.401888,W,194554.000,A,D*58
$GNGSA,A,3,07,09,04,30,16,20,27,08,05,,,,0.94,0.57,0.75,1*08
$GNGSA,A,3,69,79,68,80,,,,,,,,,0.94,0.57,0.75,2*08
$GNGSA,A,3,09,31,05,06,24,04,15,,,,,,0.94,0.57,0.75,3*00
$GNGSA,A,3,37,20,23,32,19,38,08,34,,,,,0.94,0.57,0.75,4*03
$GPGSV,3,1,12,07,72,278,32,09,70,143,34,04,39,128,29,30,35,263,26,1*6C
$GPGSV,3,2,12,44,33,171,27,16,28,049,27,20,28,301,26,27,24,086,28,1*68
$GPGSV,3,3,12,08,19,121,17,05,10,329,22,11,02,279,,14,01,210,13,1*64
$GLGSV,2,1,06,69,82,285,27,79,74,231,30,68,41,152,26,80,19,225,18,1*79
$GLGSV,2,2,06,70,17,324,,87,09,032,17,1*7B
$GAGSV,3,1,09,09,72,129,29,31,65,101,29,05,51,300,27,06,46,126,26,7*7D
$GAGSV,3,2,09,24,39,189,25,04,21,124,19,15,09,323,19,34,05,276,,7*7E
$GAGSV,3,3,09,03,01,303,,7*48
$GBGSV,4,1,14,37,80,213,39,20,66,262,39,23,43,061,36,32,36,168,33,1*71
$GBGSV,4,2,14,19,27,314,32,46,24,234,,38,17,332,28,08,12,341,19,1*7E
$GBGSV,4,3,14,34,06,034,22,43,05,077,19,11,05,056,20,13,03,346,19,1*74
$GBGSV,4,4,14,12,03,008,18,04,01,262,,1*71
$GNRMC,194554.000,A,4910.426104,N,12304.401888,W,0.02,0.00,051224,,,D,V*17
$GNVTG,0.00,T,,M,0.02,N,0.03,K,D*27
$GNGGA,194555.000,4910.426074,N,12304.401888,W,2,28,0.57,6.330,M,-16.816,M,,*47
$GNGLL,4910.426074,N,12304.401888,W,194555.000,A,D*5F
$GNGSA,A,3,07,09,04,30,16,20,27,08,05,,,,0.94,0.57,0.75,1*08
$GNGSA,A,3,69,79,68,80,,,,,,,,,0.94,0.57,0.75,2*08
$GNGSA,A,3,09,31,05,06,24,04,15,,,,,,0.94,0.57,0.75,3*00
$GNGSA,A,3,37,20,23,32,19,38,08,34,,,,,0.94,0.57,0.75,4*03
$GPGSV,3,1,12,07,72,278,32,09,70,143,34,04,39,128,28,30,35,263,26,1*6D
$GPGSV,3,2,12,44,33,171,27,16,28,049,27,20,28,301,26,27,24,086,27,1*67
$GPGSV,3,3,12,08,19,121,17,05,10,329,21,11,02,279,,14,01,210,13,1*67
$GLGSV,2,1,07,69,82,285,27,79,74,231,30,78,48,042,,68,41,152,26,1*71
$GLGSV,2,2,07,80,19,225,18,70,17,324,,87,09,032,17,1*46
$GAGSV,3,1,09,09,72,129,29,31,65,101,29,05,51,300,27,06,46,126,25,7*7E
$GAGSV,3,2,09,24,39,189,25,04,21,124,19,15,09,323,18,34,05,276,,7*7F
$GAGSV,3,3,09,03,01,303,,7*48
$GBGSV,4,1,14,37,80,213,39,20,66,262,39,23,43,061,36,32,36,168,33,1*71
$GBGSV,4,2,14,19,27,314,32,46,24,234,,38,17,332,28,08,12,341,19,1*7E
$GBGSV,4,3,14,34,06,034,22,11,05,056,21,43,05,077,19,13,03,346,19,1*75
$GBGSV,4,4,14,12,03,008,18,04,01,262,,1*71
$GNRMC,194555.000,A,4910.426074,N,12304.401888,W,0.01,0.00,051224,,,D,V*13
$GNVTG,0.00,T,,M,0.01,N,0.02,K,D*25
$GNGGA,194556.000,4910.426086,N,12304.401954,W,2,28,0.57,6.419,M,-16.816,M,,*45
$GNGLL,4910.426086,N,12304.401954,W,194556.000,A,D*51
$GNGSA,A,3,07,09,04,30,16,20,27,08,05,,,,0.94,0.57,0.75,1*08
$GNGSA,A,3,69,79,68,80,,,,,,,,,0.94,0.57,0.75,2*08
$GNGSA,A,3,09,31,05,06,24,04,15,,,,,,0.94,0.57,0.75,3*00
$GNGSA,A,3,37,20,23,32,19,38,08,34,,,,,0.94,0.57,0.75,4*03
$GPGSV,3,1,12,07,72,278,32,09,70,143,33,04,39,128,28,30,35,263,26,1*6A
$GPGSV,3,2,12,44,33,171,27,16,28,049,27,20,28,301,26,27,24,086,26,1*66
$GPGSV,3,3,12,08,19,121,17,05,10,329,21,11,02,279,,14,01,210,14,1*60
$GLGSV,2,1,07,69,82,285,28,79,74,231,30,78,48,042,,68,41,152,26,1*7E
$GLGSV,2,2,07,80,19,225,18,70,17,324,,87,09,032,18,1*49
$GAGSV,3,1,09,09,72,129,29,31,65,101,29,05,51,300,26,06,46,126,25,7*7F
$GAGSV,3,2,09,24,39,189,25,04,21,124,19,15,09,323,18,34,05,276,,7*7F
$GAGSV,3,3,09,03,01,303,,7*48
$GBGSV,4,1,14,37,80,213,39,20,66,262,39,23,43,061,36,32,36,168,33,1*71
$GBGSV,4,2,14,19,27,314,32,46,24,234,,38,17,332,28,08,12,341,19,1*7E
$GBGSV,4,3,14,34,06,034,21,11,05,056,21,43,05,077,19,13,03,346,19,1*76
$GBGSV,4,4,14,12,03,008,18,04,01,262,,1*71
$GNRMC,194556.000,A,4910.426086,N,12304.401954,W,0.01,0.00,051224,,,D,V*1D
$GNVTG,0.00,T,,M,0.01,N,0.03,K,D*24
$GNGGA,194557.000,4910.426086,N,12304.401960,W,2,28,0.57,6.535,M,-16.816,M,,*4C
$GNGLL,4910.426086,N,12304.401960,W,194557.000,A,D*57
$GNGSA,A,3,07,09,04,30,16,20,27,08,05,,,,0.94,0.57,0.75,1*08
$GNGSA,A,3,69,79,68,80,,,,,,,,,0.94,0.57,0.75,2*08
$GNGSA,A,3,09,31,05,06,24,04,15,,,,,,0.94,0.57,0.75,3*00
$GNGSA,A,3,37,20,23,32,19,38,08,34,,,,,0.94,0.57,0.75,4*03
$GPGSV,3,1,12,07,72,278,31,09,70,143,33,04,39,128,28,30,35,263,25,1*6A
$GPGSV,3,2,12,44,33,171,27,16,28,049,26,20,28,301,26,27,24,086,26,1*67
$GPGSV,3,3,12,08,19,121,17,05,10,329,21,11,02,279,,14,01,210,13,1*67
$GLGSV,2,1,07,69,82,285,27,79,74,231,30,78,48,042,,68,41,152,26,1*71
$GLGSV,2,2,07,80,19,225,18,70,17,324,,87,09,032,18,1*49
$GAGSV,3,1,09,09,72,129,28,31,65,101,28,05,51,300,26,06,46,126,25,7*7F
$GAGSV,3,2,09,24,39,189,25,04,21,124,19,15,09,323,18,34,05,276,,7*7F
$GAGSV,3,3,09,03,01,303,,7*48
$GBGSV,4,1,14,37,80,213,39,20,66,262,39,23,43,061,36,32,36,168,33,1*71
$GBGSV,4,2,14,19,27,314,32,46,24,234,,38,17,332,28,08,12,341,19,1*7E
$GBGSV,4,3,14,34,06,034,21,11,05,056,21,43,05,077,19,13,03,346,19,1*76
$GBGSV,4,4,14,12,03,008,18,04,01,262,,1*71
$GNRMC,194557.000,A,4910.426086,N,12304.401960,W,0.01,0.00,051224,,,D,V*1B
$GNVTG,0.00,T,,M,0.01,N,0.02,K,D*25
$GNGGA,194558.000,4910.426032,N,12304.401960,W,2,28,0.57,6.672,M,-16.817,M,,*4D
$GNGLL,4910.426032,N,12304.401960,W,194558.000,A,D*57
$GNGSA,A,3,07,09,04,30,16,20,27,08,05,,,,0.94,0.57,0.75,1*08
$GNGSA,A,3,69,79,68,80,,,,,,,,,0.94,0.57,0.75,2*08
$GNGSA,A,3,09,31,05,06,24,04,15,,,,,,0.94,0.57,0.75,3*00
$GNGSA,A,3,37,20,23,32,19,38,08,34,,,,,0.94,0.57,0.75,4*03
$GPGSV,3,1,12,07,72,278,31,09,70,143,33,04,39,128,28,30,35,263,25,1*6A
$GPGSV,3,2,12,44,33,171,27,16,28,049,26,20,28,301,26,27,24,086,26,1*67
$GPGSV,3,3,12,08,19,121,18,05,10,329,21,11,02,279,,14,01,210,13,1*68
$GLGSV,2,1,07,69,82,285,27,79,74,231,30,78,48,042,,68,41,152,27,1*70
$GLGSV,2,2,07,80,19,225,18,70,17,324,,87,09,032,18,1*49
$GAGSV,3,1,09,09,72,129,28,31,65,101,28,05,51,300,26,06,46,126,25,7*7F
$GAGSV,3,2,09,24,39,189,25,04,21,124,19,15,09,323,18,34,05,276,,7*7F
$GAGSV,3,3,09,03,01,303,,7*48
$GBGSV,4,1,14,37,80,213,39,20,66,262,39,23,43,061,36,32,36,168,33,1*71
$GBGSV,4,2,14,19,27,314,32,46,24,234,,38,17,332,28,08,12,341,19,1*7E
$GBGSV,4,3,14,34,06,034,21,11,05,056,21,43,05,077,19,13,03,346,19,1*76
$GBGSV,4,4,14,12,03,008,18,04,01,262,,1*71
$GNRMC,194558.000,A,4910.426032,N,12304.401960,W,0.01,0.00,051224,,,D,V*1B
$GNVTG,0.00,T,,M,0.01,N,0.03,K,D*24
$GNGGA,194559.000,4910.426032,N,12304.401966,W,2,28,0.57,6.810,M,-16.816,M,,*41
$GNGLL,4910.426032,N,12304.401966,W,194559.000,A,D*50
$GNGSA,A,3,07,09,04,30,16,20,27,08,05,,,,0.94,0.57,0.75,1*08
$GNGSA,A,3,69,79,68,80,,,,,,,,,0.94,0.57,0.75,2*08
$GNGSA,A,3,09,31,05,06,24,04,15,,,,,,0.94,0.57,0.75,3*00
$GNGSA,A,3,37,20,23,32,19,38,08,34,,,,,0.94,0.57,0.75,4*03
$GPGSV,3,1,12,07,72,278,31,09,70,143,33,04,39,128,28,30,35,263,25,1*6A
$GPGSV,3,2,12,44,33,171,27,16,28,049,26,20,28,301,25,27,24,086,26,1*64
$GPGSV,3,3,12,08,19,121,18,05,10,329,21,11,02,279,,14,01,210,11,1*6A
$GLGSV,2,1,07,69,82,285,27,79,74,231,30,78,48,042,,68,41,152,27,1*70
$GLGSV,2,2,07,80,19,225,18,70,17,324,,87,09,032,18,1*49
$GAGSV,3,1,09,09,72,129,28,31,65,101,28,05,51,300,26,06,46,126,25,7*7F
$GAGSV,3,2,09,24,39,189,24,04,21,124,19,15,09,323,18,34,05,276,,7*7E
$GAGSV,3,3,09,03,01,303,,7*48
$GBGSV,4,1,14,37,80,213,39,20,66,262,39,23,43,061,36,32,36,168,33,1*71
$GBGSV,4,2,14,19,27,314,32,46,24,234,,38,17,332,28,08,12,341,19,1*7E
$GBGSV,4,3,14,34,06,034,22,11,05,056,21,43,05,077,19,13,03,346,19,1*75
$GBGSV,4,4,14,12,03,008,18,04,01,262,,1*71
$GNRMC,194559.000,A,4910.426032,N,12304.401966,W,0.01,0.00,051224,,,D,V*1C
$GNVTG,0.00,T,,M,0.01,N,0.03,K,D*24
$GNGGA,194600.000,4910.426002,N,12304.402020,W,2,28,0.57,6.921,M,-16.817,M,,*47
$GNGLL,4910.426002,N,12304.402020,W,194600.000,A,D*54
$GNGSA,A,3,07,09,04,30,16,20,27,08,05,,,,0.94,0.57,0.75,1*08
$GNGSA,A,3,69,79,68,80,,,,,,,,,0.94,0.57,0.75,2*08
$GNGSA,A,3,09,31,05,06,24,04,15,,,,,,0.94,0.57,0.75,3*00
$GNGSA,A,3,37,20,23,32,19,38,08,34,,,,,0.94,0.57,0.75,4*03
$GPGSV,3,1,12,07,72,278,31,09,69,143,33,04,39,128,28,30,35,263,25,1*62
$GPGSV,3,2,12,44,33,171,27,16,28,049,26,20,28,301,25,27,24,086,26,1*64
$GPGSV,3,3,12,08,19,121,19,05,10,329,21,11,02,279,,14,01,210,13,1*69
$GLGSV,2,1,07,69,82,285,27,79,74,231,30,78,48,042,,68,41,152,27,1*70
$GLGSV,2,2,07,80,19,225,18,70,17,324,,87,09,032,18,1*49
$GAGSV,3,1,09,09,72,129,28,31,65,101,28,05,51,300,26,06,46,126,25,7*7F
$GAGSV,3,2,09,24,39,189,24,04,21,124,19,15,09,323,18,34,05,276,,7*7E
$GAGSV,3,3,09,03,01,303,,7*48
$GBGSV,4,1,14,37,80,213,39,20,66,262,39,23,43,061,36,32,36,168,33,1*71
$GBGSV,4,2,14,19,27,314,32,46,24,234,,38,17,332,28,08,12,341,19,1*7E
$GBGSV,4,3,14,34,06,034,22,11,05,056,21,43,05,077,19,13,03,346,19,1*75
$GBGSV,4,4,14,12,03,008,18,04,01,262,,1*71
$GNRMC,194600.000,A,4910.426002,N,12304.402020,W,0.01,0.00,051224,,,D,V*18
$GNVTG,0.00,T,,M,0.01,N,0.02,K,D*25
$GNGGA,194601.000,4910.426008,N,12304.402098,W,2,28,0.57,7.044,M,-16.816,M,,*45
$GNGLL,4910.426008,N,12304.402098,W,194601.000,A,D*5C
$GNGSA,A,3,07,09,04,30,16,20,27,08,05,,,,0.94,0.57,0.75,1*08
$GNGSA,A,3,69,79,68,80,,,,,,,,,0.94,0.57,0.75,2*08
$GNGSA,A,3,09,31,05,06,24,04,15,,,,,,0.94,0.57,0.75,3*00
$GNGSA,A,3,37,20,23,32,19,38,08,34,,,,,0.94,0.57,0.75,4*03
$GPGSV,3,1,12,07,72,278,31,09,69,143,33,04,39,128,28,30,35,263,25,1*62
$GPGSV,3,2,12,44,33,171,27,16,28,049,26,20,28,301,26,27,24,086,26,1*67
$GPGSV,3,3,12,08,19,121,19,05,10,329,21,11,02,279,,14,01,210,12,1*68
$GLGSV,2,1,07,69,82,285,27,79,74,231,29,78,48,042,,68,41,152,27,1*78
$GLGSV,2,2,07,80,19,225,18,70,17,324,,87,09,032,18,1*49
$GAGSV,3,1,09,09,72,129,28,31,65,101,28,05,51,300,26,06,46,126,25,7*7F
$GAGSV,3,2,09,24,39,189,24,04,21,124,19,15,09,323,18,34,05,276,,7*7E
$GAGSV,3,3,09,03,01,303,,7*48
$GBGSV,4,1,14,37,80,213,39,20,66,262,39,23,43,061,36,32,36,168,33,1*71
$GBGSV,4,2,14,19,27,314,32,46,24,234,,38,17,332,28,08,12,341,19,1*7E
$GBGSV,4,3,14,34,06,034,22,11,05,056,21,43,05,077,20,13,03,346,19,1*7F
$GBGSV,4,4,14,12,03,008,18,04,01,262,,1*71
$GNRMC,194601.000,A,4910.426008,N,12304.402098,W,0.02,0.00,051224,,,D,V*13
$GNVTG,0.00,T,,M,0.02,N,0.03,K,D*27
$GNGGA,194602.000,4910.425996,N,12304.402152,W,2,28,0.57,7.117,M,-16.816,M,,*4B
$GNGLL,4910.425996,N,12304.402152,W,194602.000,A,D*55
$GNGSA,A,3,07,09,04,30,16,20,27,08,05,,,,0.94,0.57,0.75,1*08
$GNGSA,A,3,69,79,68,80,,,,,,,,,0.94,0.57,0.75,2*08
$GNGSA,A,3,09,31,05,06,24,04,15,,,,,,0.94,0.57,0.75,3*00
$GNGSA,A,3,37,20,23,32,19,38,08,34,,,,,0.94,0.57,0.75,4*03
$GPGSV,3,1,12,07,72,278,31,09,69,143,33,04,39,128,28,30,35,263,26,1*61
$GPGSV,3,2,12,44,33,171,27,16,28,049,26,20,28,301,26,27,24,086,26,1*67
$GPGSV,3,3,12,08,19,121,19,05,10,329,21,11,02,279,,14,01,210,14,1*6E
$GLGSV,2,1,07,69,82,285,27,79,74,231,29,78,48,042,,68,41,152,27,1*78
$GLGSV,2,2,07,80,19,225,17,70,17,324,,87,09,032,18,1*46
$GAGSV,3,1,09,09,72,129,28,31,65,101,28,05,51,300,26,06,46,126,25,7*7F
$GAGSV,3,2,09,24,39,189,25,04,21,124,19,15,09,323,18,34,05,276,,7*7F
$GAGSV,3,3,09,03,01,303,,7*48
$GBGSV,4,1,14,37,80,213,39,20,66,262,39,23,43,061,36,32,36,168,33,1*71
$GBGSV,4,2,14,19,27,314,32,46,24,234,,38,17,332,28,08,12,341,19,1*7E
$GBGSV,4,3,14,34,06,034,22,11,05,056,21,43,05,077,20,13,03,346,19,1*7F
$GBGSV,4,4,14,12,03,008,18,04,01,262,,1*71
$GNRMC,194602.000,A,4910.425996,N,12304.402152,W,0.02,0.00,051224,,,D,V*1A
$GNVTG,0.00,T,,M,0.02,N,0.03,K,D*27
$GNGGA,194603.000,4910.425972,N,12304.402152,W,2,28,0.57,7.242,M,-16.816,M,,*43
$GNGLL,4910.425972,N,12304.402152,W,194603.000,A,D*5E
$GNGSA,A,3,07,09,04,30,16,20,27,08,05,,,,0.94,0.57,0.75,1*08
$GNGSA,A,3,69,79,68,80,,,,,,,,,0.94,0.57,0.75,2*08
$GNGSA,A,3,09,31,05,06,24,04,15,,,,,,0.94,0.57,0.75,3*00
$GNGSA,A,3,37,20,23,32,19,38,08,34,,,,,0.94,0.57,0.75,4*03
$GPGSV,3,1,12,07,72,278,31,09,69,143,33,04,39,128,28,30,35,263,26,1*61
$GPGSV,3,2,12,44,33,171,27,16,28,049,26,20,28,301,27,27,24,086,25,1*65
$GPGSV,3,3,12,08,19,121,19,05,10,329,21,11,02,279,,14,01,210,12,1*68
$GLGSV,2,1,07,69,82,285,27,79,74,231,29,78,48,042,,68,41,152,27,1*78
$GLGSV,2,2,07,80,19,225,17,70,17,324,,87,09,032,18,1*46
$GAGSV,3,1,09,09,72,129,28,31,65,101,28,05,51,300,26,06,46,126,25,7*7F
$GAGSV,3,2,09,24,39,189,25,04,21,124,19,15,09,323,18,34,05,276,,7*7F
$GAGSV,3,3,09,03,01,303,,7*48
$GBGSV,4,1,14,37,80,213,39,20,66,262,39,23,43,061,36,32,36,168,33,1*71
$GBGSV,4,2,14,19,27,314,32,46,24,234,,38,17,332,28,08,12,341,19,1*7E
$GBGSV,4,3,14,34,06,034,22,11,05,056,21,43,05,077,20,13,03,346,19,1*7F
$GBGSV,4,4,14,12,03,008,18,04,01,262,,1*71
$GNRMC,194603.000,A,4910.425972,N,12304.402152,W,0.02,0.00,051224,,,D,V*11
$GNVTG,0.00,T,,M,0.02,N,0.03,K,D*27
$GNGGA,194604.000,4910.425978,N,12304.402146,W,2,28,0.57,7.425,M,-16.816,M,,*4C
$GNGLL,4910.425978,N,12304.402146,W,194604.000,A,D*56
$GNGSA,A,3,07,09,04,30,16,20,27,08,05,,,,0.94,0.57,0.75,1*08
$GNGSA,A,3,69,79,68,80,,,,,,,,,0.94,0.57,0.75,2*08
$GNGSA,A,3,09,31,05,06,24,04,15,,,,,,0.94,0.57,0.75,3*00
$GNGSA,A,3,37,20,23,32,19,38,08,34,,,,,0.94,0.57,0.75,4*03
$GPGSV,3,1,12,07,72,278,31,09,69,143,33,04,39,128,28,30,35,263,25,1*62
$GPGSV,3,2,12,44,33,171,27,16,28,049,26,20,28,301,25,27,24,086,25,1*67
$GPGSV,3,3,12,08,19,121,19,05,10,329,21,11,02,279,,14,01,210,12,1*68
$GLGSV,2,1,07,69,82,285,27,79,74,231,29,78,48,042,,68,41,152,26,1*79
$GLGSV,2,2,07,80,19,225,17,70,17,324,,87,09,032,18,1*46
$GAGSV,3,1,09,09,72,129,29,31,65,101,28,05,51,300,26,06,46,126,25,7*7E
$GAGSV,3,2,09,24,39,189,25,04,21,124,19,15,09,323,18,34,05,276,,7*7F
$GAGSV,3,3,09,03,01,303,,7*48
$GBGSV,4,1,14,37,80,213,39,20,66,262,39,23,43,061,36,32,36,168,33,1*71
$GBGSV,4,2,14,19,27,314,32,46,24,234,,38,17,332,28,08,12,341,19,1*7E
$GBGSV,4,3,14,34,06,034,22,11,05,056,21,43,05,077,20,13,03,346,19,1*7F
$GBGSV,4,4,14,12,03,008,18,04,01,262,,1*71
$GNRMC,194604.000,A,4910.425978,N,12304.402146,W,0.02,0.00,051224,,,D,V*19
$GNVTG,0.00,T,,M,0.02,N,0.03,K,D*27
$GNGGA,194605.000,4910.425984,N,12304.402140,W,2,28,0.57,7.613,M,-16.816,M,,*4F
$GNGLL,4910.425984,N,12304.402140,W,194605.000,A,D*52
$GNGSA,A,3,07,09,04,30,16,20,27,08,05,,,,0.94,0.57,0.75,1*08
$GNGSA,A,3,69,79,68,80,,,,,,,,,0.94,0.57,0.75,2*08
$GNGSA,A,3,09,31,05,06,24,04,15,,,,,,0.94,0.57,0.75,3*00
$GNGSA,A,3,37,20,23,32,19,38,08,34,,,,,0.94,0.57,0.75,4*03
$GPGSV,3,1,12,07,72,278,31,09,69,143,33,04,39,128,28,30,35,263,25,1*62
$GPGSV,3,2,12,44,33,171,27,16,28,049,26,20,28,301,25,27,24,086,25,1*67
$GPGSV,3,3,12,08,19,121,19,05,10,329,21,11,02,279,,14,01,210,14,1*6E
$GLGSV,2,1,07,69,82,285,27,79,74,231,29,78,48,042,,68,41,152,26,1*79
$GLGSV,2,2,07,80,19,225,17,70,17,324,,87,09,032,18,1*46
$GAGSV,3,1,09,09,72,129,29,31,65,101,27,05,51,300,26,06,46,126,25,7*71
$GAGSV,3,2,09,24,39,189,25,04,21,124,19,15,09,323,18,34,05,276,,7*7F
$GAGSV,3,3,09,03,01,303,,7*48
$GBGSV,4,1,14,37,80,213,39,20,66,262,39,23,43,061,36,32,36,168,33,1*71
$GBGSV,4,2,14,19,27,314,32,46,24,234,,38,17,332,28,08,12,341,19,1*7E
$GBGSV,4,3,14,34,06,034,22,11,05,056,20,43,05,077,20,13,03,346,19,1*7E
$GBGSV,4,4,14,12,03,008,18,04,01,262,,1*71
$GNRMC,194605.000,A,4910.425984,N,12304.402140,W,0.01,0.00,051224,,,D,V*1E
$GNVTG,0.00,T,,M,0.01,N,0.03,K,D*24
$GNGGA,194606.000,4910.426008,N,12304.402116,W,2,28,0.57,7.778,M,-16.816,M,,*4D
$GNGLL,4910.426008,N,12304.402116,W,194606.000,A,D*5C
$GNGSA,A,3,07,09,04,30,16,20,27,08,05,,,,0.94,0.57,0.75,1*08
$GNGSA,A,3,69,79,68,80,,,,,,,,,0.94,0.57,0.75,2*08
$GNGSA,A,3,09,31,05,06,24,04,15,,,,,,0.94,0.57,0.75,3*00
$GNGSA,A,3,37,20,23,32,19,38,08,34,,,,,0.94,0.57,0.75,4*03
$GPGSV,3,1,12,07,72,278,31,09,69,143,33,04,39,128,28,30,35,263,25,1*62
$GPGSV,3,2,12,44,33,171,27,16,28,049,26,20,28,301,26,27,24,086,24,1*65
$GPGSV,3,3,12,08,19,121,19,05,10,329,20,11,02,279,,14,01,210,11,1*6A
$GLGSV,2,1,07,69,82,285,27,79,74,231,29,78,48,042,,68,41,152,27,1*78
$GLGSV,2,2,07,80,19,225,17,70,17,324,,87,09,032,18,1*46
$GAGSV,3,1,09,09,72,129,29,31,65,101,27,05,51,300,26,06,46,126,25,7*71
$GAGSV,3,2,09,24,39,189,25,04,21,124,19,15,09,323,18,34,05,276,,7*7F
$GAGSV,3,3,09,03,01,303,,7*48
$GBGSV,4,1,14,37,80,213,39,20,66,262,39,23,43,061,36,32,36,168,33,1*71
$GBGSV,4,2,14,19,27,314,32,46,24,234,,38,17,332,28,08,12,341,19,1*7E
$GBGSV,4,3,14,34,06,034,21,11,05,056,21,43,05,077,20,13,03,346,19,1*7C
$GBGSV,4,4,14,12,03,008,18,04,01,262,,1*71
$GNRMC,194606.000,A,4910.426008,N,12304.402116,W,0.01,0.00,051224,,,D,V*10
$GNVTG,0.00,T,,M,0.01,N,0.02,K,D*25
$GNGGA,194607.000,4910.426080,N,12304.402110,W,2,28,0.57,7.905,M,-16.816,M,,*4E
$GNGLL,4910.426080,N,12304.402110,W,194607.000,A,D*5B
$GNGSA,A,3,07,09,04,30,16,20,27,08,05,,,,0.94,0.57,0.75,1*08
$GNGSA,A,3,69,79,68,80,,,,,,,,,0.94,0.57,0.75,2*08
$GNGSA,A,3,09,31,05,06,24,04,15,,,,,,0.94,0.57,0.75,3*00
$GNGSA,A,3,37,20,23,32,19,38,08,34,,,,,0.94,0.57,0.75,4*03
$GPGSV,3,1,12,07,72,278,31,09,69,143,33,04,39,128,28,30,35,263,25,1*62
$GPGSV,3,2,12,44,33,171,27,16,28,049,26,20,28,301,25,27,24,086,23,1*61
$GPGSV,3,3,12,08,19,121,19,05,10,329,20,11,02,279,,14,01,210,13,1*68
$GLGSV,2,1,07,69,82,285,27,79,74,231,29,78,48,042,,68,41,152,27,1*78
$GLGSV,2,2,07,80,19,225,17,70,17,324,,87,09,032,18,1*46
$GAGSV,3,1,09,09,72,129,28,31,65,101,27,05,51,300,26,06,46,126,25,7*70
$GAGSV,3,2,09,24,39,189,25,04,21,124,19,15,09,323,18,34,05,276,,7*7F
$GAGSV,3,3,09,03,01,303,,7*48
$GBGSV,4,1,14,37,80,213,39,20,66,262,39,23,43,061,36,32,36,168,33,1*71
$GBGSV,4,2,14,19,27,314,31,46,24,234,,38,17,332,27,08,12,341,19,1*72
$GBGSV,4,3,14,34,06,034,21,11,05,056,21,43,05,077,20,13,03,346,19,1*7C
$GBGSV,4,4,14,12,03,008,17,04,01,262,,1*7E
$GNRMC,194607.000,A,4910.426080,N,12304.402110,W,0.02,0.00,051224,,,D,V*14
$GNVTG,0.00,T,,M,0.02,N,0.03,K,D*27
$GNGGA,194608.000,4910.426110,N,12304.402038,W,2,28,0.57,8.125,M,-16.816,M,,*47
$GNGLL,4910.426110,N,12304.402038,W,194608.000,A,D*57
$GNGSA,A,3,07,09,04,30,16,20,27,08,05,,,,0.94,0.57,0.75,1*08
$GNGSA,A,3,69,79,68,80,,,,,,,,,0.94,0.57,0.75,2*08
$GNGSA,A,3,09,31,05,06,24,04,15,,,,,,0.94,0.57,0.75,3*00
$GNGSA,A,3,37,20,23,32,19,38,08,34,,,,,0.94,0.57,0.75,4*03
$GPGSV,3,1,12,07,72,278,31,09,69,143,33,04,39,128,28,30,35,263,25,1*62
$GPGSV,3,2,12,44,33,171,27,16,28,049,26,20,28,301,26,27,24,086,23,1*62
$GPGSV,3,3,12,08,19,121,20,05,10,329,20,11,02,279,,14,01,210,14,1*65
$GLGSV,2,1,07,69,82,285,28,79,74,231,29,78,48,042,,68,41,152,27,1*77
$GLGSV,2,2,07,80,19,225,17,70,17,324,,87,09,032,18,1*46
$GAGSV,3,1,09,09,72,129,28,31,65,101,27,05,51,300,26,06,46,126,25,7*70
$GAGSV,3,2,09,24,39,189,25,04,21,124,19,15,09,323,18,34,05,276,,7*7F
$GAGSV,3,3,09,03,01,303,,7*48
$GBGSV,4,1,14,37,80,213,39,20,66,262,39,23,43,061,36,32,36,168,33,1*71
$GBGSV,4,2,14,19,27,314,31,46,24,234,,38,17,332,27,08,12,341,19,1*72
$GBGSV,4,3,14,34,06,034,21,11,05,056,21,43,05,077,20,13,03,346,19,1*7C
$GBGSV,4,4,14,12,03,008,17,04,01,262,,1*7E
$GNRMC,194608.000,A,4910.426110,N,12304.402038,W,0.02,0.00,051224,,,D,V*18
$GNVTG,0.00,T,,M,0.02,N,0.03,K,D*27
$GNGGA,194609.000,4910.426200,N,12304.402032,W,2,28,0.57,8.341,M,-16.816,M,,*4E
$GNGLL,4910.426200,N,12304.402032,W,194609.000,A,D*5E
$GNGSA,A,3,07,09,04,30,16,20,27,08,05,,,,0.94,0.57,0.75,1*08
$GNGSA,A,3,69,79,68,80,,,,,,,,,0.94,0.57,0.75,2*08
$GNGSA,A,3,09,31,05,06,24,04,15,,,,,,0.94,0.57,0.75,3*00
$GNGSA,A,3,37,20,23,32,19,38,08,34,,,,,0.94,0.57,0.75,4*03
$GPGSV,3,1,12,07,72,278,31,09,69,143,33,04,39,128,28,30,35,263,25,1*62
$GPGSV,3,2,12,44,33,171,27,16,28,049,26,20,28,301,26,27,24,086,23,1*62
$GPGSV,3,3,12,08,19,121,20,05,10,329,20,11,02,279,,14,01,210,14,1*65
$GLGSV,2,1,07,69,82,285,28,79,74,231,29,78,48,042,,68,41,152,26,1*76
$GLGSV,2,2,07,80,19,225,17,70,17,324,,87,09,032,18,1*46
$GAGSV,3,1,09,09,72,129,28,31,65,101,27,05,51,300,26,06,46,126,25,7*70
$GAGSV,3,2,09,24,39,189,25,04,21,124,19,15,09,323,18,34,05,276,,7*7F
$GAGSV,3,3,09,03,01,303,,7*48
$GBGSV,4,1,14,37,80,213,39,20,66,262,38,23,43,061,35,32,36,168,32,1*72
$GBGSV,4,2,14,19,27,314,31,46,24,234,,38,17,332,27,08,12,341,19,1*72
$GBGSV,4,3,14,34,06,034,21,11,05,056,21,43,05,077,20,13,03,346,19,1*7C
$GBGSV,4,4,14,12,03,008,17,04,01,262,,1*7E
$GNRMC,194609.000,A,4910.426200,N,12304.402032,W,0.02,0.00,051224,,,D,V*11
$GNVTG,0.00,T,,M,0.02,N,0.04,K,D*20
$GNGGA,194610.000,4910.426254,N,12304.401978,W,2,28,0.57,8.571,M,-16.816,M,,*46
$GNGLL,4910.426254,N,12304.401978,W,194610.000,A,D*53
$GNGSA,A,3,07,09,04,30,16,20,27,08,05,,,,0.94,0.57,0.75,1*08
$GNGSA,A,3,69,79,68,80,,,,,,,,,0.94,0.57,0.75,2*08
$GNGSA,A,3,09,31,05,06,24,04,15,,,,,,0.94,0.57,0.75,3*00
$GNGSA,A,3,37,20,23,32,19,38,08,34,,,,,0.94,0.57,0.75,4*03
$GPGSV,3,1,12,07,72,278,31,09,69,143,33,04,39,128,28,30,35,263,25,1*62
$GPGSV,3,2,12,44,33,171,27,16,28,049,26,20,28,301,26,27,24,086,24,1*65
$GPGSV,3,3,12,08,19,121,20,05,10,329,20,11,02,279,,14,01,210,16,1*67
$GLGSV,2,1,07,69,82,285,28,79,74,231,29,78,48,042,,68,41,152,26,1*76
$GLGSV,2,2,07,80,19,225,17,70,17,324,,87,09,032,18,1*46
$GAGSV,3,1,09,09,72,129,28,31,65,101,27,05,51,300,26,06,46,126,25,7*70
$GAGSV,3,2,09,24,39,189,25,04,21,124,19,15,09,323,18,34,05,276,,7*7F
$GAGSV,3,3,09,03,01,303,,7*48
$GBGSV,4,1,14,37,80,213,39,20,66,262,38,23,43,061,35,32,36,168,32,1*72
$GBGSV,4,2,14,19,27,314,31,46,24,234,,38,17,332,27,08,12,341,19,1*72
$GBGSV,4,3,14,34,06,034,21,11,05,056,21,43,05,077,19,13,03,346,19,1*76
$GBGSV,4,4,14,12,03,008,17,04,01,262,,1*7E
$GNRMC,194610.000,A,4910.426254,N,12304.401978,W,0.02,0.00,051224,,,D,V*1C
$GNVTG,0.00,T,,M,0.02,N,0.04,K,D*20
$GNGGA,194611.000,4910.426362,N,12304.401966,W,2,28,0.57,8.841,M,-16.816,M,,*42
