$GNGGA,224221.000,4910.426506,N,12304.400814,W,2,35,0.43,6.012,M,-16.816,M,,*45
$GNGLL,4910.426506,N,12304.400814,W,224221.000,A,D*57
$GNGSA,A,3,30,14,13,22,07,08,17,15,05,21,02,,0.80,0.43,0.67,1*02
$GNGSA,A,3,72,75,65,73,83,82,71,,,,,,0.80,0.43,0.67,2*0B
$GNGSA,A,3,31,06,09,04,21,,,,,,,,0.80,0.43,0.67,3*07
$GNGSA,A,3,37,23,20,43,11,19,08,38,32,13,28,34,0.80,0.43,0.67,4*0F
$GPGSV,3,1,12,30,81,095,30,14,67,237,30,13,46,300,30,22,45,235,26,1*60
$GPGSV,3,2,12,07,44,106,30,46,33,188,27,08,28,049,22,17,18,177,19,1*6A
$GPGSV,3,3,12,15,17,317,17,05,13,267,17,21,11,086,21,02,07,103,14,1*68
$GLGSV,2,1,07,72,47,227,32,75,38,273,37,65,38,313,33,73,32,064,30,1*7A
$GLGSV,2,2,07,83,27,053,23,82,12,012,21,71,10,188,24,1*4F
$GAGSV,3,1,09,31,67,234,29,06,62,210,28,09,62,268,27,04,43,177,24,7*7E
$GAGSV,3,2,09,05,20,316,21,24,15,237,16,13,10,040,16,21,06,058,16,7*77
$GAGSV,3,3,09,26,05,089,15,7*4E
$GBGSV,4,1,14,37,74,289,34,58,66,299,,23,48,078,31,20,39,259,32,1*7D
$GBGSV,4,2,14,43,31,081,29,11,25,057,27,19,24,315,26,08,21,323,22,1*76
$GBGSV,4,3,14,46,19,269,,38,18,311,25,32,17,201,26,13,16,333,23,1*72
$GBGSV,4,4,14,28,15,145,25,34,13,035,26,1*7D
$GNRMC,224221.000,A,4910.426506,N,12304.400814,W,0.01,196.10,291124,,,D,V*19
$GNVTG,196.10,T,,M,0.01,N,0.03,K,D*2B
$PAIRLOG,Full*51
$GNGGA,224222.000,4910.426602,N,12304.400862,W,2,35,0.43,6.088,M,-16.817,M,,*42
$GNGLL,4910.426602,N,12304.400862,W,224222.000,A,D*52
$GNGSA,A,3,30,14,13,22,07,08,17,15,05,21,02,,0.80,0.43,0.67,1*02
$GNGSA,A,3,72,75,65,73,83,82,71,,,,,,0.80,0.43,0.67,2*0B
$GNGSA,A,3,31,06,09,04,21,,,,,,,,0.80,0.43,0.67,3*07
$GNGSA,A,3,37,23,20,43,11,19,08,38,32,13,28,34,0.80,0.43,0.67,4*0F
$GPGSV,3,1,12,30,81,095,30,14,67,237,30,13,46,300,30,22,45,235,26,1*60
$GPGSV,3,2,12,07,44,106,30,46,33,188,27,08,28,049,22,17,18,177,19,1*6A
$GPGSV,3,3,12,15,17,317,17,05,13,267,17,21,11,086,21,02,07,103,14,1*68
$GLGSV,2,1,07,72,47,227,32,75,38,273,37,65,38,313,33,73,32,064,30,1*7A
$GLGSV,2,2,07,83,27,053,23,82,12,012,21,71,10,188,24,1*4F
$GAGSV,3,1,09,31,67,234,29,06,62,210,28,09,62,268,27,04,43,177,24,7*7E
$GAGSV,3,2,09,05,20,316,21,24,15,237,16,13,10,040,16,21,06,058,16,7*77
$GAGSV,3,3,09,26,05,089,16,7*4D
$GBGSV,4,1,14,37,74,289,34,58,66,299,,23,48,078,31,20,39,259,32,1*7D
$GBGSV,4,2,14,43,31,081,28,11,25,057,27,19,24,315,26,08,21,323,22,1*77
$GBGSV,4,3,14,46,19,269,,38,18,311,25,32,17,201,26,13,16,333,23,1*72
$GBGSV,4,4,14,28,15,145,25,34,13,035,26,1*7D
$GNRMC,224222.000,A,4910.426602,N,12304.400862,W,0.01,196.10,291124,,,D,V*1C
$GNVTG,196.10,T,,M,0.01,N,0.03,K,D*2B
$PAIRLOG,Full*51
$GNGGA,224223.000,4910.426680,N,12304.401006,W,2,35,0.43,6.140,M,-16.817,M,,*47
$GNGLL,4910.426680,N,12304.401006,W,224223.000,A,D*52
$GNGSA,A,3,30,14,13,22,07,08,17,15,05,21,02,,0.80,0.43,0.67,1*02
$GNGSA,A,3,72,75,65,73,83,82,71,,,,,,0.80,0.43,0.67,2*0B
$GNGSA,A,3,31,06,09,04,21,,,,,,,,0.80,0.43,0.67,3*07
$GNGSA,A,3,37,23,20,43,11,19,08,38,32,13,28,34,0.80,0.43,0.67,4*0F
$GPGSV,3,1,12,30,81,095,31,14,67,237,30,13,46,300,30,22,45,235,26,1*61
$GPGSV,3,2,12,07,44,106,29,46,33,188,27,08,28,049,22,17,18,177,19,1*62
$GPGSV,3,3,12,15,17,317,17,05,13,267,17,21,11,086,21,02,07,103,13,1*6F
$GLGSV,2,1,07,72,47,227,32,75,38,273,37,65,38,313,33,73,32,064,30,1*7A
$GLGSV,2,2,07,83,27,053,23,82,12,012,21,71,10,188,24,1*4F
$GAGSV,3,1,09,31,67,234,29,06,62,210,28,09,62,268,27,04,43,177,24,7*7E
$GAGSV,3,2,09,05,20,316,21,24,15,237,16,13,10,040,16,21,06,058,16,7*77
$GAGSV,3,3,09,26,05,089,15,7*4E
$GBGSV,4,1,14,37,74,289,34,58,66,299,,23,48,078,31,20,39,259,32,1*7D
$GBGSV,4,2,14,43,31,081,28,11,25,057,27,19,24,315,26,08,21,323,22,1*77
$GBGSV,4,3,14,46,19,269,,38,18,311,25,32,17,201,26,13,16,333,23,1*72
$GBGSV,4,4,14,28,15,145,25,34,13,035,26,1*7D
$GNRMC,224223.000,A,4910.426680,N,12304.401006,W,0.02,196.10,291124,,,D,V*1F
$GNVTG,196.10,T,,M,0.02,N,0.03,K,D*28
$PAIRLOG,Full*51
$GNGGA,224224.000,4910.426752,N,12304.401114,W,2,35,0.43,6.204,M,-16.817,M,,*4F
$GNGLL,4910.426752,N,12304.401114,W,224224.000,A,D*59
$GNGSA,A,3,30,14,13,22,07,08,17,15,05,21,02,,0.80,0.43,0.67,1*02
$GNGSA,A,3,72,75,65,73,83,82,71,,,,,,0.80,0.43,0.67,2*0B
$GNGSA,A,3,31,06,09,04,21,,,,,,,,0.80,0.43,0.67,3*07
$GNGSA,A,3,37,23,20,43,11,19,08,38,32,13,28,34,0.80,0.43,0.67,4*0F
$GPGSV,3,1,12,30,81,095,31,14,67,237,30,13,46,300,30,22,45,235,26,1*61
$GPGSV,3,2,12,07,44,106,28,46,33,188,27,08,28,049,22,17,18,177,19,1*63
$GPGSV,3,3,12,15,17,317,17,05,13,267,17,21,11,086,21,02,07,103,15,1*69
$GLGSV,2,1,07,72,47,227,32,75,38,274,37,65,38,313,33,73,32,064,30,1*7D
$GLGSV,2,2,07,83,27,053,23,82,12,012,21,71,10,188,24,1*4F
$GAGSV,3,1,09,31,67,234,29,06,62,210,28,09,62,268,27,04,43,177,24,7*7E
$GAGSV,3,2,09,05,20,316,21,24,15,237,16,13,10,040,16,21,06,058,16,7*77
$GAGSV,3,3,09,26,05,089,15,7*4E
