$GNGGA,182820.000,4910.425467,N,12304.401018,W,1,13,0.92,6.790,M,-16.817,M,,*46
$GNRMC,182820.000,A,4910.425467,N,12304.401018,W,0.008,102.00,171024,,,A,V*21
$GNGLL,4910.425467,N,12304.401018,W,182820.000,A,A*56
$GNVTG,102.00,T,,M,0.008,N,0.014,K,A*2D
$GNGSA,A,3,02,03,21,28,31,,,,,,,,1.67,0.92,1.39,1*0B
$GNGSA,A,3,,,,,,,,,,,,,1.67,0.92,1.39,2*02
$GNGSA,A,3,,,,,,,,,,,,,1.67,0.92,1.39,3*03
$GNGSA,A,3,14,24,25,27,30,32,33,41,,,,,1.67,0.92,1.39,4*02
$GNGSA,A,3,,,,,,,,,,,,,1.67,0.92,1.39,5*05
$GPGSV,2,1,08,02,46,230,24,03,49,301,23,10,,,17,12,,,17,1*67
$GPGSV,2,2,08,21,37,208,23,28,56,082,26,31,54,152,29,32,,,23,1*59
$GPGSV,1,1,03,03,49,301,22,28,56,082,23,32,,,19,8*69
$GLGSV,1,1,00,1*78
$GAGSV,1,1,00,7*73
$GAGSV,1,1,00,1*75
$GBGSV,2,1,08,14,14,092,31,24,32,064,35,25,36,131,37,27,25,241,36,1*72
$GBGSV,2,2,08,30,24,295,33,32,27,282,33,33,40,088,37,41,80,335,41,1*74
$GBGSV,1,1,01,41,80,335,23,5*4A
$GQGSV,1,1,00,1*65
$GQGSV,1,1,00,8*6C
$GNGGA,182821.000,4910.425467,N,12304.401023,W,1,13,0.92,6.784,M,-16.816,M,,*4B
$GNRMC,182821.000,A,4910.425467,N,12304.401023,W,0.011,102.00,171024,,,A,V*20
$GNGLL,4910.425467,N,12304.401023,W,182821.000,A,A*5F
$GNVTG,102.00,T,,M,0.011,N,0.021,K,A*23
$GNGSA,A,3,02,03,21,28,31,,,,,,,,1.67,0.92,1.39,1*0B
$GNGSA,A,3,,,,,,,,,,,,,1.67,0.92,1.39,2*02
$GNGSA,A,3,,,,,,,,,,,,,1.67,0.92,1.39,3*03
$GNGSA,A,3,14,24,25,27,30,32,33,41,,,,,1.67,0.92,1.39,4*02
$GNGSA,A,3,,,,,,,,,,,,,1.67,0.92,1.39,5*05
$GPGSV,2,1,08,02,46,230,24,03,49,301,23,10,,,16,12,,,17,1*66
$GPGSV,2,2,08,21,37,208,24,28,56,082,24,31,54,152,28,32,,,23,1*5D
$GPGSV,1,1,03,03,49,301,22,28,56,082,23,32,,,18,8*68
$GLGSV,1,1,00,1*78
$GAGSV,1,1,00,7*73
$GAGSV,1,1,00,1*75
$GBGSV,2,1,08,14,14,092,30,24,32,064,35,25,36,131,37,27,25,241,35,1*70
$GBGSV,2,2,08,30,24,295,34,32,27,282,34,33,40,088,36,41,80,335,40,1*74
$GBGSV,1,1,01,41,80,335,23,5*4A
$GQGSV,1,1,00,1*65
$GQGSV,1,1,00,8*6C
$GNGGA,182822.000,4910.425466,N,12304.401031,W,1,13,0.92,6.778,M,-16.816,M,,*49
$GNRMC,182822.000,A,4910.425466,N,12304.401031,W,0.006,102.00,171024,,,A,V*27
$GNGLL,4910.425466,N,12304.401031,W,182822.000,A,A*5E
$GNVTG,102.00,T,,M,0.006,N,0.012,K,A*25
$GNGSA,A,3,02,03,21,28,31,,,,,,,,1.67,0.92,1.39,1*0B
$GNGSA,A,3,,,,,,,,,,,,,1.67,0.92,1.39,2*02
$GNGSA,A,3,,,,,,,,,,,,,1.67,0.92,1.39,3*03
$GNGSA,A,3,14,24,25,27,30,32,33,41,,,,,1.67,0.92,1.39,4*02
$GNGSA,A,3,,,,,,,,,,,,,1.67,0.92,1.39,5*05
$GPGSV,2,1,08,02,46,230,22,03,49,301,20,10,,,16,12,,,15,1*61
$GPGSV,2,2,08,21,37,208,21,28,56,082,23,31,54,152,26,32,,,22,1*50
$GPGSV,1,1,03,03,49,301,21,28,56,082,23,32,,,17,8*64
$GLGSV,1,1,00,1*78
$GAGSV,1,1,00,7*73
$GAGSV,1,1,00,1*75
$GBGSV,3,1,09,14,14,092,31,24,32,064,35,25,36,131,36,27,25,241,35,1*70
$GBGSV,3,2,09,30,24,295,34,32,27,282,34,33,40,088,36,40,,,29,1*47
$GBGSV,3,3,09,41,80,335,41,1*42
$GBGSV,1,1,01,41,80,335,22,5*4B
$GQGSV,1,1,00,1*65
$GQGSV,1,1,00,8*6C
$GNGGA,182823.000,4910.425466,N,12304.401039,W,1,13,0.92,6.775,M,-16.817,M,,*4C
$GNRMC,182823.000,A,4910.425466,N,12304.401039,W,0.010,102.00,171024,,,A,V*29
$GNGLL,4910.425466,N,12304.401039,W,182823.000,A,A*57
$GNVTG,102.00,T,,M,0.010,N,0.018,K,A*28
$GNGSA,A,3,02,03,21,28,31,,,,,,,,1.67,0.92,1.39,1*0B
$GNGSA,A,3,,,,,,,,,,,,,1.67,0.92,1.39,2*02
$GNGSA,A,3,,,,,,,,,,,,,1.67,0.92,1.39,3*03
$GNGSA,A,3,14,24,25,27,30,32,33,41,,,,,1.67,0.92,1.39,4*02
$GNGSA,A,3,,,,,,,,,,,,,1.67,0.92,1.39,5*05
$GPGSV,2,1,08,02,46,230,23,03,49,301,22,10,,,14,12,,,16,1*63
$GPGSV,2,2,08,21,37,208,21,28,56,082,24,31,54,152,28,32,,,21,1*5A
$GPGSV,1,1,03,03,49,301,22,28,56,082,24,32,,,19,8*6E
$GLGSV,1,1,00,1*78
$GAGSV,1,1,00,7*73
$GAGSV,1,1,00,1*75
$GBGSV,3,1,09,14,14,092,30,24,32,064,35,25,36,131,36,27,25,241,35,1*71
$GBGSV,3,2,09,30,24,295,33,32,27,282,34,33,40,088,36,40,,,29,1*40
$GBGSV,3,3,09,41,80,335,40,1*43
$GBGSV,1,1,01,41,80,335,22,5*4B
$GQGSV,1,1,00,1*65
$GQGSV,1,1,00,8*6C
$GNGGA,182824.000,4910.425464,N,12304.401045,W,1,13,0.92,6.771,M,-16.816,M,,*47
$GNRMC,182824.000,A,4910.425464,N,12304.401045,W,0.003,102.00,171024,,,A,V*25
$GNGLL,4910.425464,N,12304.401045,W,182824.000,A,A*59
$GNVTG,102.00,T,,M,0.003,N,0.006,K,A*25
$GNGSA,A,3,02,03,21,28,31,,,,,,,,1.67,0.92,1.39,1*0B
$GNGSA,A,3,,,,,,,,,,,,,1.67,0.92,1.39,2*02
$GNGSA,A,3,,,,,,,,,,,,,1.67,0.92,1.39,3*03
$GNGSA,A,3,14,24,25,27,30,32,33,41,,,,,1.67,0.92,1.39,4*02
$GNGSA,A,3,,,,,,,,,,,,,1.67,0.92,1.39,5*05
$GPGSV,2,1,08,02,46,230,23,03,49,301,21,10,,,15,12,,,16,1*61
$GPGSV,2,2,08,21,37,208,20,28,56,082,24,31,54,152,28,32,,,21,1*5B
$GPGSV,1,1,03,03,49,301,22,28,56,082,24,32,,,19,8*6E
$GLGSV,1,1,00,1*78
$GAGSV,1,1,00,7*73
$GAGSV,1,1,00,1*75
$GBGSV,3,1,09,14,14,092,30,24,32,064,35,25,36,131,36,27,25,241,34,1*70
$GBGSV,3,2,09,30,24,295,33,32,27,282,33,33,40,088,37,40,,,29,1*46
$GBGSV,3,3,09,41,80,335,40,1*43
$GBGSV,1,1,01,41,80,335,23,5*4A
$GQGSV,1,1,00,1*65
$GQGSV,1,1,00,8*6C
$GNGGA,182825.000,4910.425464,N,12304.401050,W,1,13,0.92,6.768,M,-16.816,M,,*4A
$GNRMC,182825.000,A,4910.425464,N,12304.401050,W,0.004,102.00,171024,,,A,V*27
$GNGLL,4910.425464,N,12304.401050,W,182825.000,A,A*5C
$GNVTG,102.00,T,,M,0.004,N,0.008,K,A*2C
$GNGSA,A,3,02,03,21,28,31,,,,,,,,1.67,0.92,1.39,1*0B
$GNGSA,A,3,,,,,,,,,,,,,1.67,0.92,1.39,2*02
$GNGSA,A,3,,,,,,,,,,,,,1.67,0.92,1.39,3*03
$GNGSA,A,3,14,24,25,27,30,32,33,41,,,,,1.67,0.92,1.39,4*02
$GNGSA,A,3,,,,,,,,,,,,,1.67,0.92,1.39,5*05
$GPGSV,2,1,08,02,46,230,23,03,49,301,21,10,,,15,12,,,16,1*61
$GPGSV,2,2,08,21,37,208,22,28,56,082,23,31,54,152,28,32,,,23,1*5C
$GPGSV,1,1,03,03,49,301,22,28,56,082,23,32,,,19,8*69
$GLGSV,1,1,00,1*78
$GAGSV,1,1,00,7*73
$GAGSV,1,1,00,1*75
$GBGSV,3,1,09,14,14,093,29,24,32,064,34,25,36,131,36,27,25,241,35,1*79
$GBGSV,3,2,09,30,24,295,33,32,27,282,33,33,40,088,36,40,,,29,1*47
$GBGSV,3,3,09,41,80,335,40,1*43
$GBGSV,1,1,01,41,80,335,23,5*4A
$GQGSV,1,1,00,1*65
$GQGSV,1,1,00,8*6C
$GNGGA,182826.000,4910.425465,N,12304.401058,W,1,13,0.92,6.766,M,-16.817,M,,*4F
$GNRMC,182826.000,A,4910.425465,N,12304.401058,W,0.012,102.00,171024,,,A,V*2A
$GNGLL,4910.425465,N,12304.401058,W,182826.000,A,A*56
$GNVTG,102.00,T,,M,0.012,N,0.023,K,A*22
$GNGSA,A,3,02,03,21,28,31,,,,,,,,1.67,0.92,1.39,1*0B
$GNGSA,A,3,,,,,,,,,,,,,1.67,0.92,1.39,2*02
$GNGSA,A,3,,,,,,,,,,,,,1.67,0.92,1.39,3*03
$GNGSA,A,3,14,24,25,27,30,32,33,41,,,,,1.67,0.92,1.39,4*02
$GNGSA,A,3,,,,,,,,,,,,,1.67,0.92,1.39,5*05
$GPGSV,2,1,08,02,46,230,24,03,49,301,20,10,,,16,12,,,16,1*64
$GPGSV,2,2,08,21,37,208,21,28,56,082,23,31,54,152,29,32,,,21,1*5C
$GPGSV,1,1,03,03,49,301,22,28,56,082,24,32,,,20,8*64
$GLGSV,1,1,00,1*78
$GAGSV,1,1,00,7*73
$GAGSV,1,1,00,1*75
$GBGSV,3,1,09,14,14,093,29,24,32,064,34,25,36,131,36,27,25,241,35,1*79
$GBGSV,3,2,09,30,24,295,33,32,27,282,33,33,40,088,36,40,,,29,1*47
$GBGSV,3,3,09,41,80,335,40,1*43
$GBGSV,1,1,01,41,80,335,23,5*4A
$GQGSV,1,1,00,1*65
$GQGSV,1,1,00,8*6C
$GNGGA,182827.000,4910.425464,N,12304.401065,W,1,13,0.92,6.760,M,-16.816,M,,*46
$GNRMC,182827.000,A,4910.425464,N,12304.401065,W,0.006,102.00,171024,,,A,V*21
$GNGLL,4910.425464,N,12304.401065,W,182827.000,A,A*58
$GNVTG,102.00,T,,M,0.006,N,0.012,K,A*25
$GNGSA,A,3,02,03,21,28,31,,,,,,,,1.67,0.92,1.39,1*0B
$GNGSA,A,3,,,,,,,,,,,,,1.67,0.92,1.39,2*02
$GNGSA,A,3,,,,,,,,,,,,,1.67,0.92,1.39,3*03
$GNGSA,A,3,14,24,25,27,30,32,33,41,,,,,1.67,0.92,1.39,4*02
$GNGSA,A,3,,,,,,,,,,,,,1.67,0.92,1.39,5*05
$GPGSV,2,1,08,02,46,230,23,03,49,301,22,10,,,16,12,,,17,1*60
$GPGSV,2,2,08,21,37,208,23,28,56,082,24,31,54,152,29,32,,,23,1*5B
$GPGSV,1,1,03,03,49,301,22,28,56,082,23,32,,,18,8*68
$GLGSV,1,1,00,1*78
$GAGSV,1,1,00,7*73
$GAGSV,1,1,00,1*75
$GBGSV,3,1,09,14,14,093,29,24,32,064,33,25,36,131,35,27,25,241,33,1*7B
$GBGSV,3,2,09,30,24,295,33,32,27,282,33,33,40,088,36,40,,,29,1*47
$GBGSV,3,3,09,41,80,335,40,1*43
$GBGSV,1,1,01,41,80,335,22,5*4B
$GQGSV,1,1,00,1*65
$GQGSV,1,1,00,8*6C
$GNGGA,182828.000,4910.425465,N,12304.401072,W,1,13,0.92,6.758,M,-16.817,M,,*44
$GNRMC,182828.000,A,4910.425465,N,12304.401072,W,0.007,102.00,171024,,,A,V*28
$GNGLL,4910.425465,N,12304.401072,W,182828.000,A,A*50
$GNVTG,102.00,T,,M,0.007,N,0.013,K,A*25
$GNGSA,A,3,02,03,21,28,31,,,,,,,,1.67,0.92,1.39,1*0B
$GNGSA,A,3,,,,,,,,,,,,,1.67,0.92,1.39,2*02
$GNGSA,A,3,,,,,,,,,,,,,1.67,0.92,1.39,3*03
$GNGSA,A,3,14,24,25,27,30,32,33,41,,,,,1.67,0.92,1.39,4*02
$GNGSA,A,3,,,,,,,,,,,,,1.67,0.92,1.39,5*05
$GPGSV,2,1,08,02,46,230,23,03,49,301,19,10,,,14,12,,,16,1*6B
$GPGSV,2,2,08,21,37,208,20,28,56,082,22,31,54,152,27,32,,,21,1*52
$GPGSV,1,1,03,03,49,301,22,28,56,082,23,32,,,18,8*68
$GLGSV,1,1,00,1*78
$GAGSV,1,1,00,7*73
$GAGSV,1,1,00,1*75
$GBGSV,3,1,09,14,14,093,29,24,32,064,34,25,36,131,35,27,25,241,34,1*7B
$GBGSV,3,2,09,30,24,295,33,32,27,282,33,33,40,088,36,40,,,29,1*47
$GBGSV,3,3,09,41,80,335,40,1*43
$GBGSV,1,1,01,41,80,335,23,5*4A
$GQGSV,1,1,00,1*65
$GQGSV,1,1,00,8*6C
$GNGGA,182829.000,4910.425467,N,12304.401076,W,1,13,0.92,6.753,M,-16.816,M,,*49
$GNRMC,182829.000,A,4910.425467,N,12304.401076,W,0.018,102.00,171024,,,A,V*21
$GNGLL,4910.425467,N,12304.401076,W,182829.000,A,A*57
$GNVTG,102.00,T,,M,0.018,N,0.033,K,A*29
$GNGSA,A,3,02,03,21,28,31,,,,,,,,1.67,0.92,1.39,1*0B
$GNGSA,A,3,,,,,,,,,,,,,1.67,0.92,1.39,2*02
$GNGSA,A,3,,,,,,,,,,,,,1.67,0.92,1.39,3*03
$GNGSA,A,3,14,24,25,27,30,32,33,41,,,,,1.67,0.92,1.39,4*02
$GNGSA,A,3,,,,,,,,,,,,,1.67,0.92,1.39,5*05
$GPGSV,2,1,08,02,46,230,21,03,49,301,20,10,,,16,12,,,15,1*62
$GPGSV,2,2,08,21,37,208,22,28,56,082,21,31,54,152,28,32,,,22,1*5F
$GPGSV,1,1,03,03,49,301,23,28,56,082,24,32,,,20,8*65
$GLGSV,1,1,00,1*78
$GAGSV,1,1,00,7*73
$GAGSV,1,1,00,1*75
$GBGSV,3,1,09,14,14,093,29,24,32,064,34,25,36,131,36,27,25,241,35,1*79
$GBGSV,3,2,09,30,24,295,33,32,27,282,33,33,40,088,37,40,,,30,1*4E
$GBGSV,3,3,09,41,80,335,40,1*43
$GBGSV,1,1,01,41,80,335,25,5*4C
$GQGSV,1,1,00,1*65
$GQGSV,1,1,00,8*6C
$GNGGA,182830.000,4910.425469,N,12304.401081,W,1,13,0.94,6.749,M,-16.816,M,,*4A
$GNRMC,182830.000,A,4910.425469,N,12304.401081,W,0.007,102.00,171024,,,A,V*21
$GNGLL,4910.425469,N,12304.401081,W,182830.000,A,A*59
$GNVTG,102.00,T,,M,0.007,N,0.014,K,A*22
$GNGSA,A,3,02,03,21,28,31,,,,,,,,1.69,0.94,1.41,1*0C
$GNGSA,A,3,,,,,,,,,,,,,1.69,0.94,1.41,2*05
$GNGSA,A,3,,,,,,,,,,,,,1.69,0.94,1.41,3*04
$GNGSA,A,3,14,24,25,27,30,32,33,41,,,,,1.69,0.94,1.41,4*05
$GNGSA,A,3,,,,,,,,,,,,,1.69,0.94,1.41,5*02
$GPGSV,2,1,08,02,46,230,22,03,49,301,20,10,,,15,12,,,17,1*60
$GPGSV,2,2,08,21,37,208,22,28,56,082,23,31,54,152,29,32,,,20,1*5E
$GPGSV,1,1,03,03,49,301,23,28,56,082,24,32,,,20,8*65
$GLGSV,1,1,00,1*78
$GAGSV,1,1,00,7*73
$GAGSV,1,1,00,1*75
$GBGSV,3,1,09,14,14,093,30,24,32,064,35,25,36,131,36,27,25,241,35,1*70
$GBGSV,3,2,09,30,24,295,33,32,27,282,34,33,40,088,37,40,,,30,1*49
$GBGSV,3,3,09,41,80,335,40,1*43
$GBGSV,1,1,01,41,80,335,23,5*4A
$GQGSV,1,1,00,1*65
$GQGSV,1,1,00,8*6C
$GNGGA,182831.000,4910.425473,N,12304.401090,W,1,13,0.94,6.744,M,-16.816,M,,*4D
$GNRMC,182831.000,A,4910.425473,N,12304.401090,W,0.009,102.00,171024,,,A,V*25
$GNGLL,4910.425473,N,12304.401090,W,182831.000,A,A*53
$GNVTG,102.00,T,,M,0.009,N,0.017,K,A*2F
$GNGSA,A,3,02,03,21,28,31,,,,,,,,1.69,0.94,1.41,1*0C
$GNGSA,A,3,,,,,,,,,,,,,1.69,0.94,1.41,2*05
$GNGSA,A,3,,,,,,,,,,,,,1.69,0.94,1.41,3*04
$GNGSA,A,3,14,24,25,27,30,32,33,41,,,,,1.69,0.94,1.41,4*05
$GNGSA,A,3,,,,,,,,,,,,,1.69,0.94,1.41,5*02
$GPGSV,2,1,08,02,46,230,20,03,49,301,20,10,,,15,12,,,15,1*60
$GPGSV,2,2,08,21,37,208,22,28,56,082,21,31,54,152,28,32,,,20,1*5D
$GPGSV,1,1,03,03,49,301,22,28,56,082,24,32,,,20,8*64
$GLGSV,1,1,00,1*78
$GAGSV,1,1,00,7*73
$GAGSV,1,1,00,1*75
$GBGSV,3,1,09,14,14,093,30,24,32,064,35,25,36,131,36,27,25,241,35,1*70
$GBGSV,3,2,09,30,24,295,34,32,27,282,35,33,39,088,37,40,,,30,1*41
$GBGSV,3,3,09,41,80,335,40,1*43
$GBGSV,1,1,01,41,80,335,23,5*4A
$GQGSV,1,1,00,1*65
$GQGSV,1,1,00,8*6C
$GNGGA,182832.000,4910.425476,N,12304.401098,W,1,13,0.94,6.740,M,-16.816,M,,*47
$GNRMC,182832.000,A,4910.425476,N,12304.401098,W,0.009,102.00,171024,,,A,V*2B
$GNGLL,4910.425476,N,12304.401098,W,182832.000,A,A*5D
$GNVTG,102.00,T,,M,0.009,N,0.016,K,A*2E
$GNGSA,A,3,02,03,21,28,31,,,,,,,,1.69,0.94,1.41,1*0C
$GNGSA,A,3,,,,,,,,,,,,,1.69,0.94,1.41,2*05
$GNGSA,A,3,,,,,,,,,,,,,1.69,0.94,1.41,3*04
$GNGSA,A,3,14,24,25,27,30,32,33,41,,,,,1.69,0.94,1.41,4*05
$GNGSA,A,3,,,,,,,,,,,,,1.69,0.94,1.41,5*02
$GPGSV,2,1,08,02,46,230,20,03,49,301,20,10,,,16,12,,,13,1*65
$GPGSV,2,2,08,21,37,208,20,28,56,082,20,31,54,152,26,32,,,21,1*51
$GPGSV,1,1,03,03,49,301,22,28,56,082,24,32,,,20,8*64
$GLGSV,1,1,00,1*78
$GAGSV,1,1,00,7*73
$GAGSV,1,1,00,1*75
$GBGSV,3,1,09,14,14,093,30,24,32,064,35,25,36,131,36,27,25,241,35,1*70
$GBGSV,3,2,09,30,24,295,34,32,27,282,34,33,39,088,37,40,,,30,1*40
$GBGSV,3,3,09,41,80,335,40,1*43
$GBGSV,1,1,01,41,80,335,22,5*4B
$GQGSV,1,1,00,1*65
$GQGSV,1,1,00,8*6C
$GNGGA,182833.000,4910.425479,N,12304.401112,W,1,13,0.94,6.735,M,-16.816,M,,*48
$GNRMC,182833.000,A,4910.425479,N,12304.401112,W,0.021,102.00,171024,,,A,V*2C
$GNGLL,4910.425479,N,12304.401112,W,182833.000,A,A*50
$GNVTG,102.00,T,,M,0.021,N,0.039,K,A*29
$GNGSA,A,3,02,03,21,28,31,,,,,,,,1.69,0.94,1.41,1*0C
$GNGSA,A,3,,,,,,,,,,,,,1.69,0.94,1.41,2*05
$GNGSA,A,3,,,,,,,,,,,,,1.69,0.94,1.41,3*04
$GNGSA,A,3,14,24,25,27,30,32,33,41,,,,,1.69,0.94,1.41,4*05
$GNGSA,A,3,,,,,,,,,,,,,1.69,0.94,1.41,5*02
$GPGSV,2,1,08,02,46,230,20,03,49,301,19,10,,,13,12,,,15,1*6C
$GPGSV,2,2,08,21,37,208,20,28,56,082,20,31,54,152,26,32,,,19,1*5A
$GPGSV,1,1,03,03,49,301,23,28,56,082,23,32,,,20,8*62
$GLGSV,1,1,00,1*78
$GAGSV,1,1,00,7*73
$GAGSV,1,1,00,1*75
$GBGSV,3,1,09,14,14,093,30,24,32,064,34,25,36,131,36,27,25,241,35,1*71
$GBGSV,3,2,09,30,24,295,34,32,27,282,35,33,39,088,37,40,,,30,1*41
$GBGSV,3,3,09,41,80,335,40,1*43
$GBGSV,1,1,01,41,80,335,22,5*4B
$GQGSV,1,1,00,1*65
$GQGSV,1,1,00,8*6C
$GNGGA,182834.000,4910.425482,N,12304.401127,W,1,13,0.94,6.732,M,-16.817,M,,*4B
$GNRMC,182834.000,A,4910.425482,N,12304.401127,W,0.010,102.00,171024,,,A,V*2B
$GNGLL,4910.425482,N,12304.401127,W,182834.000,A,A*55
$GNVTG,102.00,T,,M,0.010,N,0.019,K,A*29
$GNGSA,A,3,02,03,21,28,31,,,,,,,,1.69,0.94,1.41,1*0C
$GNGSA,A,3,,,,,,,,,,,,,1.69,0.94,1.41,2*05
$GNGSA,A,3,,,,,,,,,,,,,1.69,0.94,1.41,3*04
$GNGSA,A,3,14,24,25,27,30,32,33,41,,,,,1.69,0.94,1.41,4*05
$GNGSA,A,3,,,,,,,,,,,,,1.69,0.94,1.41,5*02
$GPGSV,2,1,08,02,46,230,19,03,49,301,19,10,,,14,12,,,13,1*67
$GPGSV,2,2,08,21,37,208,20,28,56,082,20,31,54,152,25,32,,,20,1*53
$GPGSV,1,1,03,03,49,301,22,28,56,082,22,32,,,19,8*68
$GLGSV,1,1,00,1*78
$GAGSV,1,1,00,7*73
$GAGSV,1,1,00,1*75
$GBGSV,3,1,09,14,14,093,30,24,32,064,34,25,36,131,36,27,25,241,35,1*71
$GBGSV,3,2,09,30,24,295,34,32,27,282,34,33,39,088,36,40,,,30,1*41
$GBGSV,3,3,09,41,80,335,40,1*43
$GBGSV,1,1,01,41,80,335,23,5*4A
$GQGSV,1,1,00,1*65
$GQGSV,1,1,00,8*6C
$GNGGA,182835.000,4910.425485,N,12304.401137,W,1,13,0.94,6.728,M,-16.816,M,,*46
$GNRMC,182835.000,A,4910.425485,N,12304.401137,W,0.008,102.00,171024,,,A,V*25
$GNGLL,4910.425485,N,12304.401137,W,182835.000,A,A*52
$GNVTG,102.00,T,,M,0.008,N,0.015,K,A*2C
$GNGSA,A,3,02,03,21,28,31,,,,,,,,1.69,0.94,1.41,1*0C
$GNGSA,A,3,,,,,,,,,,,,,1.69,0.94,1.41,2*05
$GNGSA,A,3,,,,,,,,,,,,,1.69,0.94,1.41,3*04
$GNGSA,A,3,14,24,25,27,30,32,33,41,,,,,1.69,0.94,1.41,4*05
$GNGSA,A,3,,,,,,,,,,,,,1.69,0.94,1.41,5*02
$GPGSV,2,1,08,02,46,230,19,03,49,301,18,10,,,14,12,,,14,1*61
$GPGSV,2,2,08,21,37,208,19,28,56,082,19,31,54,152,25,32,,,20,1*53
$GPGSV,1,1,03,03,49,301,23,28,56,082,24,32,,,19,8*6F
$GLGSV,1,1,00,1*78
$GAGSV,1,1,00,7*73
$GAGSV,1,1,00,1*75
$GBGSV,3,1,09,14,14,093,30,24,32,064,35,25,36,131,35,27,24,241,35,1*72
$GBGSV,3,2,09,30,24,295,33,32,27,282,34,33,39,088,37,40,,,29,1*4F
$GBGSV,3,3,09,41,80,336,40,1*40
$GBGSV,1,1,01,41,80,336,24,5*4E
$GQGSV,1,1,00,1*65
$GQGSV,1,1,00,8*6C
$GNGGA,182836.000,4910.425490,N,12304.401144,W,1,13,0.94,6.728,M,-16.816,M,,*45
$GNRMC,182836.000,A,4910.425490,N,12304.401144,W,0.009,102.00,171024,,,A,V*27
$GNGLL,4910.425490,N,12304.401144,W,182836.000,A,A*51
$GNVTG,102.00,T,,M,0.009,N,0.017,K,A*2F
$GNGSA,A,3,02,03,21,28,31,,,,,,,,1.69,0.94,1.41,1*0C
$GNGSA,A,3,,,,,,,,,,,,,1.69,0.94,1.41,2*05
$GNGSA,A,3,,,,,,,,,,,,,1.69,0.94,1.41,3*04
$GNGSA,A,3,14,24,25,27,30,32,33,41,,,,,1.69,0.94,1.41,4*05
$GNGSA,A,3,,,,,,,,,,,,,1.69,0.94,1.41,5*02
$GPGSV,2,1,08,02,46,230,19,03,49,301,18,10,,,15,12,,,13,1*67
$GPGSV,2,2,08,21,37,208,17,28,56,082,19,31,54,152,24,32,,,20,1*5C
$GPGSV,1,1,03,03,49,301,23,28,56,082,24,32,,,19,8*6F
$GLGSV,1,1,00,1*78
$GAGSV,1,1,00,7*73
$GAGSV,1,1,00,1*75
$GBGSV,3,1,09,14,14,093,29,24,32,064,35,25,36,131,36,27,24,241,36,1*7A
$GBGSV,3,2,09,30,24,295,33,32,27,282,34,33,39,088,37,40,,,30,1*47
$GBGSV,3,3,09,41,80,336,40,1*40
$GBGSV,1,1,01,41,80,336,24,5*4E
$GQGSV,1,1,00,1*65
$GQGSV,1,1,00,8*6C
$GNGGA,182837.000,4910.425495,N,12304.401153,W,1,13,0.94,6.728,M,-16.816,M,,*47
$GNRMC,182837.000,A,4910.425495,N,12304.401153,W,0.008,102.00,171024,,,A,V*24
$GNGLL,4910.425495,N,12304.401153,W,182837.000,A,A*53
$GNVTG,102.00,T,,M,0.008,N,0.015,K,A*2C
$GNGSA,A,3,02,03,21,28,31,,,,,,,,1.69,0.94,1.41,1*0C
$GNGSA,A,3,,,,,,,,,,,,,1.69,0.94,1.41,2*05
$GNGSA,A,3,,,,,,,,,,,,,1.69,0.94,1.41,3*04
$GNGSA,A,3,14,24,25,27,30,32,33,41,,,,,1.69,0.94,1.41,4*05
$GNGSA,A,3,,,,,,,,,,,,,1.69,0.94,1.41,5*02
$GPGSV,2,1,08,02,46,230,20,03,49,301,19,10,,,14,12,,,15,1*6B
$GPGSV,2,2,08,21,37,208,19,28,56,082,20,31,55,152,25,32,,,20,1*58
$GPGSV,1,1,03,03,49,301,23,28,56,082,24,32,,,19,8*6F
$GLGSV,1,1,00,1*78
$GAGSV,1,1,00,7*73
$GAGSV,1,1,00,1*75
$GBGSV,3,1,09,14,14,093,29,24,32,064,34,25,36,131,36,27,24,241,35,1*78
$GBGSV,3,2,09,30,24,295,34,32,27,282,35,33,39,088,36,40,,,29,1*48
$GBGSV,3,3,09,41,80,336,40,1*40
$GBGSV,1,1,01,41,80,336,23,5*49
$GQGSV,1,1,00,1*65
$GQGSV,1,1,00,8*6C
$GNGGA,182838.000,4910.425499,N,12304.401166,W,1,13,0.94,6.726,M,-16.816,M,,*4C
$GNRMC,182838.000,A,4910.425499,N,12304.401166,W,0.011,102.00,171024,,,A,V*29
$GNGLL,4910.425499,N,12304.401166,W,182838.000,A,A*56
$GNVTG,102.00,T,,M,0.011,N,0.021,K,A*23
$GNGSA,A,3,02,03,21,28,31,,,,,,,,1.69,0.94,1.41,1*0C
$GNGSA,A,3,,,,,,,,,,,,,1.69,0.94,1.41,2*05
$GNGSA,A,3,,,,,,,,,,,,,1.69,0.94,1.41,3*04
$GNGSA,A,3,14,24,25,27,30,32,33,41,,,,,1.69,0.94,1.41,4*05
$GNGSA,A,3,,,,,,,,,,,,,1.69,0.94,1.41,5*02
$GPGSV,2,1,08,02,46,230,22,03,49,301,21,10,,,16,12,,,13,1*66
$GPGSV,2,2,08,21,37,208,21,28,56,082,21,31,55,152,27,32,,,22,1*52
$GPGSV,1,1,03,03,49,301,22,28,56,082,23,32,,,19,8*69
$GLGSV,1,1,00,1*78
$GAGSV,1,1,00,7*73
$GAGSV,1,1,00,1*75
$GBGSV,3,1,09,14,14,093,29,24,32,064,35,25,36,131,37,27,24,241,35,1*78
$GBGSV,3,2,09,30,24,295,34,32,27,282,35,33,39,088,37,40,,,30,1*41
$GBGSV,3,3,09,41,80,336,41,1*41
$GBGSV,1,1,01,41,80,336,23,5*49
$GQGSV,1,1,00,1*65
$GQGSV,1,1,00,8*6C
$GNGGA,182839.000,4910.425501,N,12304.401179,W,1,13,0.94,6.725,M,-16.816,M,,*40
$GNRMC,182839.000,A,4910.425501,N,12304.401179,W,0.012,102.00,171024,,,A,V*25
$GNGLL,4910.425501,N,12304.401179,W,182839.000,A,A*59
$GNVTG,102.00,T,,M,0.012,N,0.023,K,A*22
$GNGSA,A,3,02,03,21,28,31,,,,,,,,1.69,0.94,1.41,1*0C
$GNGSA,A,3,,,,,,,,,,,,,1.69,0.94,1.41,2*05
$GNGSA,A,3,,,,,,,,,,,,,1.69,0.94,1.41,3*04
$GNGSA,A,3,14,24,25,27,30,32,33,41,,,,,1.69,0.94,1.41,4*05
$GNGSA,A,3,,,,,,,,,,,,,1.69,0.94,1.41,5*02
$GPGSV,2,1,07,02,46,230,21,03,49,301,22,10,,,16,21,37,208,20,1*57
$GPGSV,2,2,07,28,56,082,22,31,55,152,27,32,,,20,1*62
$GPGSV,1,1,03,03,49,301,21,28,56,082,22,32,,,20,8*61
$GLGSV,1,1,00,1*78
$GAGSV,1,1,00,7*73
$GAGSV,1,1,00,1*75
$GBGSV,3,1,09,14,14,093,30,24,32,064,36,25,36,131,37,27,24,241,35,1*73
$GBGSV,3,2,09,30,24,295,33,32,27,282,36,33,39,088,37,40,,,30,1*45
$GBGSV,3,3,09,41,80,336,41,1*41
$GBGSV,1,1,01,41,80,336,23,5*49
$GQGSV,1,1,00,1*65
$GQGSV,1,1,00,8*6C
$GNGGA,182840.000,4910.425506,N,12304.401192,W,1,13,0.94,6.727,M,-16.817,M,,*4F
$GNRMC,182840.000,A,4910.425506,N,12304.401192,W,0.005,102.00,171024,,,A,V*2F
$GNGLL,4910.425506,N,12304.401192,W,182840.000,A,A*55
$GNVTG,102.00,T,,M,0.005,N,0.010,K,A*24
$GNGSA,A,3,02,03,21,28,31,,,,,,,,1.69,0.94,1.41,1*0C
$GNGSA,A,3,,,,,,,,,,,,,1.69,0.94,1.41,2*05
$GNGSA,A,3,,,,,,,,,,,,,1.69,0.94,1.41,3*04
$GNGSA,A,3,14,24,25,27,30,32,33,41,,,,,1.69,0.94,1.41,4*05
$GNGSA,A,3,,,,,,,,,,,,,1.69,0.94,1.41,5*02
$GPGSV,2,1,07,02,46,230,23,03,49,301,22,10,,,16,21,37,208,20,1*55
$GPGSV,2,2,07,28,56,082,22,31,55,152,27,32,,,21,1*63
$GPGSV,1,1,03,03,49,301,23,28,56,082,24,32,,,19,8*6F
$GLGSV,1,1,00,1*78
$GAGSV,1,1,00,7*73
$GAGSV,1,1,00,1*75
$GBGSV,3,1,09,14,14,093,30,24,32,064,36,25,36,131,37,27,24,241,35,1*73
$GBGSV,3,2,09,30,24,295,34,32,27,282,34,33,39,088,37,40,,,30,1*40
$GBGSV,3,3,09,41,80,336,41,1*41
$GBGSV,1,1,01,41,80,336,22,5*48
$GQGSV,1,1,00,1*65
$GQGSV,1,1,00,8*6C
$GNGGA,182841.000,4910.425509,N,12304.401208,W,1,13,0.94,6.726,M,-16.816,M,,*41
$GNRMC,182841.000,A,4910.425509,N,12304.401208,W,0.013,102.00,171024,,,A,V*26
$GNGLL,4910.425509,N,12304.401208,W,182841.000,A,A*5B
$GNVTG,102.00,T,,M,0.013,N,0.025,K,A*25
$GNGSA,A,3,02,03,21,28,31,,,,,,,,1.69,0.94,1.41,1*0C
$GNGSA,A,3,,,,,,,,,,,,,1.69,0.94,1.41,2*05
$GNGSA,A,3,,,,,,,,,,,,,1.69,0.94,1.41,3*04
$GNGSA,A,3,14,24,25,27,30,32,33,41,,,,,1.69,0.94,1.41,4*05
$GNGSA,A,3,,,,,,,,,,,,,1.69,0.94,1.41,5*02
$GPGSV,2,1,07,02,46,230,22,03,49,301,22,10,,,17,21,37,208,21,1*54
$GPGSV,2,2,07,28,56,081,22,31,55,152,26,32,,,23,1*63
$GPGSV,1,1,03,03,49,301,22,28,56,081,22,32,,,18,8*6A
$GLGSV,1,1,00,1*78
$GAGSV,1,1,00,7*73
$GAGSV,1,1,00,1*75
$GBGSV,3,1,09,14,14,093,30,24,32,064,36,25,36,131,37,27,24,241,36,1*70
$GBGSV,3,2,09,30,24,295,34,32,27,282,35,33,39,088,38,40,,,30,1*4E
$GBGSV,3,3,09,41,80,336,41,1*41
$GBGSV,1,1,01,41,80,336,23,5*49
$GQGSV,1,1,00,1*65
$GQGSV,1,1,00,8*6C
$GNGGA,182842.000,4910.425513,N,12304.401220,W,1,13,0.94,6.725,M,-16.816,M,,*40
$GNRMC,182842.000,A,4910.425513,N,12304.401220,W,0.003,102.00,171024,,,A,V*25
$GNGLL,4910.425513,N,12304.401220,W,182842.000,A,A*59
$GNVTG,102.00,T,,M,0.003,N,0.005,K,A*26
$GNGSA,A,3,02,03,21,28,31,,,,,,,,1.69,0.94,1.40,1*0D
$GNGSA,A,3,,,,,,,,,,,,,1.69,0.94,1.40,2*04
$GNGSA,A,3,,,,,,,,,,,,,1.69,0.94,1.40,3*05
$GNGSA,A,3,14,24,25,27,30,32,33,41,,,,,1.69,0.94,1.40,4*04
$GNGSA,A,3,,,,,,,,,,,,,1.69,0.94,1.40,5*03
$GPGSV,2,1,07,02,46,230,24,03,49,301,23,10,,,15,21,37,208,23,1*53
$GPGSV,2,2,07,28,56,081,22,31,55,152,28,32,,,23,1*6D
$GPGSV,1,1,03,03,49,301,23,28,56,081,22,32,,,18,8*6B
$GLGSV,1,1,00,1*78
$GAGSV,1,1,00,7*73
$GAGSV,1,1,00,1*75
$GBGSV,3,1,09,14,14,093,30,24,32,064,35,25,36,131,37,27,24,241,35,1*70
$GBGSV,3,2,09,30,24,295,33,32,27,282,35,33,39,088,36,40,,,30,1*47
$GBGSV,3,3,09,41,80,336,40,1*40
$GBGSV,1,1,01,41,80,336,23,5*49
$GQGSV,1,1,00,1*65
$GQGSV,1,1,00,8*6C
$GNGGA,182843.000,4910.425520,N,12304.401233,W,1,13,0.94,6.725,M,-16.816,M,,*43
$GNRMC,182843.000,A,4910.425520,N,12304.401233,W,0.014,102.00,171024,,,A,V*20
$GNGLL,4910.425520,N,12304.401233,W,182843.000,A,A*5A
$GNVTG,102.00,T,,M,0.014,N,0.025,K,A*22
$GNGSA,A,3,02,03,21,28,31,,,,,,,,1.69,0.94,1.40,1*0D
$GNGSA,A,3,,,,,,,,,,,,,1.69,0.94,1.40,2*04
$GNGSA,A,3,,,,,,,,,,,,,1.69,0.94,1.40,3*05
$GNGSA,A,3,14,24,25,27,30,32,33,41,,,,,1.69,0.94,1.40,4*04
$GNGSA,A,3,,,,,,,,,,,,,1.69,0.94,1.40,5*03
$GPGSV,2,1,07,02,46,230,20,03,49,301,19,10,,,14,21,37,208,19,1*56
$GPGSV,2,2,07,28,56,081,20,31,55,152,26,32,,,22,1*60
$GPGSV,1,1,03,03,49,301,22,28,56,081,22,32,,,18,8*6A
$GLGSV,1,1,00,1*78
$GAGSV,1,1,00,7*73
$GAGSV,1,1,00,1*75
$GBGSV,3,1,09,14,14,093,29,24,32,064,36,25,36,131,37,27,24,241,35,1*7B
$GBGSV,3,2,09,30,24,295,34,32,27,282,35,33,39,088,37,40,,,30,1*41
$GBGSV,3,3,09,41,80,336,40,1*40
$GBGSV,1,1,01,41,80,336,23,5*49
$GQGSV,1,1,00,1*65
$GQGSV,1,1,00,8*6C
$GNGGA,182844.000,4910.425528,N,12304.401247,W,1,13,1.06,6.727,M,-16.817,M,,*46
$GNRMC,182844.000,A,4910.425528,N,12304.401247,W,0.008,102.00,171024,,,A,V*21
$GNGLL,4910.425528,N,12304.401247,W,182844.000,A,A*56
$GNVTG,102.00,T,,M,0.008,N,0.015,K,A*2C
$GNGSA,A,3,02,03,21,28,31,,,,,,,,1.76,1.06,1.41,1*08
$GNGSA,A,3,,,,,,,,,,,,,1.76,1.06,1.41,2*01
$GNGSA,A,3,,,,,,,,,,,,,1.76,1.06,1.41,3*00
$GNGSA,A,3,14,24,25,27,30,32,33,41,,,,,1.76,1.06,1.41,4*01
$GNGSA,A,3,,,,,,,,,,,,,1.76,1.06,1.41,5*06
$GPGSV,2,1,07,02,46,230,20,03,49,301,19,10,,,13,21,37,208,17,1*5F
$GPGSV,2,2,07,28,56,081,18,31,55,152,25,32,,,21,1*6B
$GPGSV,1,1,03,03,49,301,21,28,56,081,22,32,,,17,8*66
$GLGSV,1,1,00,1*78
$GAGSV,1,1,00,7*73
$GAGSV,1,1,00,1*75
$GBGSV,3,1,09,14,14,093,29,24,32,064,36,25,36,131,37,27,24,241,35,1*7B
$GBGSV,3,2,09,30,24,295,34,32,27,282,35,33,39,088,37,40,,,31,1*40
$GBGSV,3,3,09,41,80,336,41,1*41
$GBGSV,1,1,01,41,80,336,22,5*48
$GQGSV,1,1,00,1*65
$GQGSV,1,1,00,8*6C
$GNGGA,182845.000,4910.425536,N,12304.401264,W,1,13,0.94,6.726,M,-16.817,M,,*42
$GNRMC,182845.000,A,4910.425536,N,12304.401264,W,0.020,102.00,171024,,,A,V*24
$GNGLL,4910.425536,N,12304.401264,W,182845.000,A,A*59
$GNVTG,102.00,T,,M,0.020,N,0.036,K,A*27
$GNGSA,A,3,02,03,21,28,31,,,,,,,,1.69,0.94,1.40,1*0D
$GNGSA,A,3,,,,,,,,,,,,,1.69,0.94,1.40,2*04
$GNGSA,A,3,,,,,,,,,,,,,1.69,0.94,1.40,3*05
$GNGSA,A,3,14,24,25,27,30,32,33,41,,,,,1.69,0.94,1.40,4*04
$GNGSA,A,3,,,,,,,,,,,,,1.69,0.94,1.40,5*03
$GPGSV,2,1,07,02,46,230,19,03,49,301,20,10,,,14,21,37,208,18,1*57
$GPGSV,2,2,07,28,56,081,18,31,55,152,25,32,,,19,1*60
$GPGSV,1,1,03,03,49,301,22,28,56,081,23,32,,,17,8*64
$GLGSV,1,1,00,1*78
$GAGSV,1,1,00,7*73
$GAGSV,1,1,00,1*75
$GBGSV,3,1,09,14,14,093,30,24,32,064,35,25,36,131,37,27,24,241,35,1*70
$GBGSV,3,2,09,30,24,295,33,32,27,282,35,33,39,088,37,40,,,30,1*46
$GBGSV,3,3,09,41,80,336,41,1*41
$GBGSV,1,1,01,41,80,336,23,5*49
$GQGSV,1,1,00,1*65
$GQGSV,1,1,00,8*6C
$GNGGA,182846.000,4910.425543,N,12304.401284,W,1,14,0.94,6.723,M,-16.816,M,,*4E
$GNRMC,182846.000,A,4910.425543,N,12304.401284,W,0.017,102.00,171024,,,A,V*2F
$GNGLL,4910.425543,N,12304.401284,W,182846.000,A,A*56
$GNVTG,102.00,T,,M,0.017,N,0.031,K,A*24
$GNGSA,A,3,02,03,21,28,31,,,,,,,,1.69,0.94,1.40,1*0D
$GNGSA,A,3,,,,,,,,,,,,,1.69,0.94,1.40,2*04
$GNGSA,A,3,,,,,,,,,,,,,1.69,0.94,1.40,3*05
$GNGSA,A,3,14,24,25,27,30,32,33,40,41,,,,1.69,0.94,1.40,4*00
$GNGSA,A,3,,,,,,,,,,,,,1.69,0.94,1.40,5*03
$GPGSV,2,1,07,02,46,230,19,03,49,301,20,10,,,15,21,37,208,18,1*56
$GPGSV,2,2,07,28,56,081,20,31,55,152,25,32,,,20,1*61
$GPGSV,1,1,03,03,49,301,23,28,56,081,24,32,,,19,8*6C
$GLGSV,1,1,00,1*78
$GAGSV,1,1,00,7*73
$GAGSV,1,1,00,1*75
$GBGSV,3,1,09,14,14,093,30,24,32,064,35,25,36,131,36,27,24,241,35,1*71
$GBGSV,3,2,09,30,24,295,33,32,27,282,35,33,39,088,36,40,10,303,29,1*7E
$GBGSV,3,3,09,41,80,336,40,1*40
$GBGSV,1,1,01,41,80,336,23,5*49
$GQGSV,1,1,00,1*65
$GQGSV,1,1,00,8*6C
$PAIR010,0,0,2336,412144*39
$PAIR010,0,1,2336,412264*39
$PAIR010,0,3,2336,412264*3B
$PAIR010,0,2,2336,412264*3A
$GNGGA,182847.000,4910.425547,N,12304.401299,W,1,14,0.88,6.723,M,-16.816,M,,*4A
$GNRMC,182847.000,A,4910.425547,N,12304.401299,W,0.002,102.00,171024,,,A,V*22
$GNGLL,4910.425547,N,12304.401299,W,182847.000,A,A*5F
$GNVTG,102.00,T,,M,0.002,N,0.004,K,A*26
$GNGSA,A,3,02,03,21,28,31,,,,,,,,1.51,0.88,1.24,1*09
$GNGSA,A,3,,,,,,,,,,,,,1.51,0.88,1.24,2*00
$GNGSA,A,3,,,,,,,,,,,,,1.51,0.88,1.24,3*01
$GNGSA,A,3,14,24,25,27,30,32,33,40,41,,,,1.51,0.88,1.24,4*04
$GNGSA,A,3,,,,,,,,,,,,,1.51,0.88,1.24,5*07
$GPGSV,2,1,07,02,45,230,21,03,49,301,20,10,,,14,21,37,208,20,1*54
$GPGSV,2,2,07,28,56,081,20,31,55,152,23,32,,,21,1*66
$GPGSV,1,1,03,03,49,301,22,28,56,081,22,32,,,17,8*65
$GLGSV,1,1,00,1*78
$GAGSV,1,1,00,7*73
$GAGSV,1,1,00,1*75
$GBGSV,3,1,09,14,14,093,29,24,32,064,35,25,36,131,35,27,24,241,34,1*7B
$GBGSV,3,2,09,30,24,295,31,32,27,282,35,33,39,088,36,40,10,303,28,1*7D
$GBGSV,3,3,09,41,80,336,39,1*4E
$GBGSV,1,1,01,41,80,336,22,5*48
$GQGSV,1,1,00,1*65
$GQGSV,1,1,00,8*6C
$GNGGA,182848.000,4910.425552,N,12304.401312,W,1,14,0.88,6.723,M,-16.817,M,,*42
$GNRMC,182848.000,A,4910.425552,N,12304.401312,W,0.010,102.00,171024,,,A,V*28
$GNGLL,4910.425552,N,12304.401312,W,182848.000,A,A*56
$GNVTG,102.00,T,,M,0.010,N,0.018,K,A*28
$GNGSA,A,3,02,03,21,28,31,,,,,,,,1.51,0.88,1.24,1*09
$GNGSA,A,3,,,,,,,,,,,,,1.51,0.88,1.24,2*00
$GNGSA,A,3,,,,,,,,,,,,,1.51,0.88,1.24,3*01
$GNGSA,A,3,14,24,25,27,30,32,33,40,41,,,,1.51,0.88,1.24,4*04
$GNGSA,A,3,,,,,,,,,,,,,1.51,0.88,1.24,5*07
$GPGSV,2,1,07,02,45,230,21,03,49,301,23,10,,,14,21,37,208,19,1*5D
$GPGSV,2,2,07,28,56,081,21,31,55,152,26,32,,,21,1*62
$GPGSV,1,1,03,03,49,301,21,28,56,081,23,32,,,18,8*68
$GLGSV,1,1,00,1*78
$GAGSV,1,1,00,7*73
$GAGSV,1,1,00,1*75
$GBGSV,3,1,09,14,14,093,29,24,32,064,34,25,36,131,36,27,24,241,34,1*79
$GBGSV,3,2,09,30,24,295,33,32,27,282,34,33,39,088,36,40,10,303,28,1*7E
$GBGSV,3,3,09,41,80,336,40,1*40
$GBGSV,1,1,01,41,80,336,22,5*48
$GQGSV,1,1,00,1*65
$GQGSV,1,1,00,8*6C
$GNGGA,182849.000,4910.425555,N,12304.401325,W,1,14,0.88,6.722,M,-16.816,M,,*40
$GNRMC,182849.000,A,4910.425555,N,12304.401325,W,0.011,102.00,171024,,,A,V*2B
$GNGLL,4910.425555,N,12304.401325,W,182849.000,A,A*54
$GNVTG,102.00,T,,M,0.011,N,0.021,K,A*23
$GNGSA,A,3,02,03,21,28,31,,,,,,,,1.51,0.88,1.24,1*09
$GNGSA,A,3,,,,,,,,,,,,,1.51,0.88,1.24,2*00
$GNGSA,A,3,,,,,,,,,,,,,1.51,0.88,1.24,3*01
$GNGSA,A,3,14,24,25,27,30,32,33,40,41,,,,1.51,0.88,1.24,4*04
$GNGSA,A,3,,,,,,,,,,,,,1.51,0.88,1.24,5*07
$GPGSV,2,1,07,02,45,230,22,03,49,301,23,10,,,17,21,37,208,20,1*57
$GPGSV,2,2,07,28,56,081,22,31,55,152,25,32,,,23,1*60
$GPGSV,1,1,03,03,49,301,22,28,56,081,23,32,,,18,8*6B
$GLGSV,1,1,00,1*78
$GAGSV,1,1,00,7*73
$GAGSV,1,1,00,1*75
$GBGSV,3,1,09,14,14,093,29,24,32,064,35,25,36,131,36,27,24,241,33,1*7F
$GBGSV,3,2,09,30,24,295,32,32,27,282,34,33,39,088,36,40,10,303,28,1*7F
$GBGSV,3,3,09,41,80,336,40,1*40
$GBGSV,1,1,01,41,80,336,23,5*49
$GQGSV,1,1,00,1*65
$GQGSV,1,1,00,8*6C
$GNGGA,182850.000,4910.425558,N,12304.401337,W,1,14,0.88,6.720,M,-16.816,M,,*44
$GNRMC,182850.000,A,4910.425558,N,12304.401337,W,0.010,102.00,171024,,,A,V*2C
$GNGLL,4910.425558,N,12304.401337,W,182850.000,A,A*52
$GNVTG,102.00,T,,M,0.010,N,0.018,K,A*28
$GNGSA,A,3,02,03,21,28,31,,,,,,,,1.51,0.88,1.24,1*09
$GNGSA,A,3,,,,,,,,,,,,,1.51,0.88,1.24,2*00
$GNGSA,A,3,,,,,,,,,,,,,1.51,0.88,1.24,3*01
$GNGSA,A,3,14,24,25,27,30,32,33,40,41,,,,1.51,0.88,1.24,4*04
$GNGSA,A,3,,,,,,,,,,,,,1.51,0.88,1.24,5*07
$GPGSV,2,1,07,02,45,230,22,03,49,301,23,10,,,14,21,37,208,20,1*54
$GPGSV,2,2,07,28,56,081,22,31,55,152,26,32,,,23,1*63
$GPGSV,1,1,03,03,49,301,21,28,56,081,23,32,,,18,8*68
$GLGSV,1,1,00,1*78
$GAGSV,1,1,00,7*73
$GAGSV,1,1,00,1*75
$GBGSV,3,1,09,14,14,093,29,24,32,064,35,25,36,131,36,27,24,241,34,1*78
$GBGSV,3,2,09,30,24,295,33,32,27,282,35,33,39,088,36,40,10,303,28,1*7F
$GBGSV,3,3,09,41,80,336,40,1*40
$GBGSV,1,1,01,41,80,336,23,5*49
$GQGSV,1,1,00,1*65
$GQGSV,1,1,00,8*6C
$GNGGA,182851.000,4910.425560,N,12304.401349,W,1,14,0.88,6.717,M,-16.816,M,,*43
$GNRMC,182851.000,A,4910.425560,N,12304.401349,W,0.007,102.00,171024,,,A,V*29
$GNGLL,4910.425560,N,12304.401349,W,182851.000,A,A*51
$GNVTG,102.00,T,,M,0.007,N,0.013,K,A*25
$GNGSA,A,3,02,03,21,28,31,,,,,,,,1.51,0.88,1.24,1*09
$GNGSA,A,3,,,,,,,,,,,,,1.51,0.88,1.24,2*00
$GNGSA,A,3,,,,,,,,,,,,,1.51,0.88,1.24,3*01
$GNGSA,A,3,14,24,25,27,30,32,33,40,41,,,,1.51,0.88,1.24,4*04
$GNGSA,A,3,,,,,,,,,,,,,1.51,0.88,1.24,5*07
$GPGSV,2,1,07,02,45,230,22,03,49,301,20,10,,,16,21,37,208,20,1*55
$GPGSV,2,2,07,28,56,081,19,31,55,152,23,32,,,20,1*6D
$GPGSV,1,1,03,03,49,301,21,28,56,081,20,32,,,17,8*64
$GLGSV,1,1,00,1*78
$GAGSV,1,1,00,7*73
$GAGSV,1,1,00,1*75
$GBGSV,3,1,09,14,14,093,29,24,32,064,35,25,36,131,35,27,24,241,34,1*7B
$GBGSV,3,2,09,30,24,295,33,32,27,282,34,33,39,088,36,40,10,303,29,1*7F
$GBGSV,3,3,09,41,80,336,39,1*4E
$GBGSV,1,1,01,41,80,336,22,5*48
$GQGSV,1,1,00,1*65
$GQGSV,1,1,00,8*6C
$GNGGA,182852.000,4910.425564,N,12304.401358,W,1,14,0.87,6.718,M,-16.817,M,,*45
$GNRMC,182852.000,A,4910.425564,N,12304.401358,W,0.018,102.00,171024,,,A,V*20
$GNGLL,4910.425564,N,12304.401358,W,182852.000,A,A*56
$GNVTG,102.00,T,,M,0.018,N,0.034,K,A*2E
$GNGSA,A,3,02,03,21,28,31,,,,,,,,1.51,0.87,1.23,1*01
$GNGSA,A,3,,,,,,,,,,,,,1.51,0.87,1.23,2*08
$GNGSA,A,3,,,,,,,,,,,,,1.51,0.87,1.23,3*09
$GNGSA,A,3,14,24,25,27,30,32,33,40,41,,,,1.51,0.87,1.23,4*0C
$GNGSA,A,3,,,,,,,,,,,,,1.51,0.87,1.23,5*0F
$GPGSV,2,1,07,02,45,230,20,03,49,301,22,10,,,16,21,37,208,19,1*5F
$GPGSV,2,2,07,28,56,081,20,31,55,152,23,32,,,20,1*67
$GPGSV,1,1,03,03,49,301,24,28,56,081,23,32,,,19,8*6C
$GLGSV,1,1,00,1*78
$GAGSV,1,1,00,7*73
$GAGSV,1,1,00,1*75
$GBGSV,3,1,09,14,14,093,29,24,32,064,35,25,36,131,36,27,24,241,34,1*78
$GBGSV,3,2,09,30,24,295,33,32,27,282,34,33,39,088,37,40,10,303,29,1*7E
$GBGSV,3,3,09,41,80,336,40,1*40
$GBGSV,1,1,01,41,80,336,23,5*49
$GQGSV,1,1,00,1*65
$GQGSV,1,1,00,8*6C
$GNGGA,182853.000,4910.425569,N,12304.401367,W,1,14,0.87,6.715,M,-16.816,M,,*49
$GNRMC,182853.000,A,4910.425569,N,12304.401367,W,0.014,102.00,171024,,,A,V*2C
$GNGLL,4910.425569,N,12304.401367,W,182853.000,A,A*56
$GNVTG,102.00,T,,M,0.014,N,0.026,K,A*21
$GNGSA,A,3,02,03,21,28,31,,,,,,,,1.51,0.87,1.23,1*01
$GNGSA,A,3,,,,,,,,,,,,,1.51,0.87,1.23,2*08
$GNGSA,A,3,,,,,,,,,,,,,1.51,0.87,1.23,3*09
$GNGSA,A,3,14,24,25,27,30,32,33,40,41,,,,1.51,0.87,1.23,4*0C
$GNGSA,A,3,,,,,,,,,,,,,1.51,0.87,1.23,5*0F
$GPGSV,2,1,07,02,45,230,21,03,49,301,20,10,,,17,21,37,208,19,1*5D
$GPGSV,2,2,07,28,56,081,20,31,55,152,22,32,,,21,1*67
$GPGSV,1,1,03,03,49,301,23,28,56,081,25,32,,,18,8*6C
$GLGSV,1,1,00,1*78
$GAGSV,1,1,00,7*73
$GAGSV,1,1,00,1*75
$GBGSV,3,1,09,14,14,093,30,24,32,064,36,25,36,131,37,27,24,241,35,1*73
$GBGSV,3,2,09,30,24,295,33,32,27,282,35,33,39,088,37,40,10,303,30,1*77
$GBGSV,3,3,09,41,80,336,40,1*40
$GBGSV,1,1,01,41,80,336,24,5*4E
$GQGSV,1,1,00,1*65
$GQGSV,1,1,00,8*6C
$GNGGA,182854.000,4910.425573,N,12304.401377,W,1,14,0.87,6.715,M,-16.816,M,,*44
$GNRMC,182854.000,A,4910.425573,N,12304.401377,W,0.004,102.00,171024,,,A,V*20
$GNGLL,4910.425573,N,12304.401377,W,182854.000,A,A*5B
$GNVTG,102.00,T,,M,0.004,N,0.008,K,A*2C
$GNGSA,A,3,02,03,21,28,31,,,,,,,,1.51,0.87,1.23,1*01
$GNGSA,A,3,,,,,,,,,,,,,1.51,0.87,1.23,2*08
$GNGSA,A,3,,,,,,,,,,,,,1.51,0.87,1.23,3*09
$GNGSA,A,3,14,24,25,27,30,32,33,40,41,,,,1.51,0.87,1.23,4*0C
$GNGSA,A,3,,,,,,,,,,,,,1.51,0.87,1.23,5*0F
$GPGSV,2,1,07,02,45,230,19,03,49,301,20,10,,,15,21,37,208,19,1*54
$GPGSV,2,2,07,28,56,081,20,31,55,152,22,32,,,19,1*6C
$GPGSV,1,1,03,03,49,301,23,28,56,081,24,32,,,17,8*62
$GLGSV,1,1,00,1*78
$GAGSV,1,1,00,7*73
$GAGSV,1,1,00,1*75
$GBGSV,3,1,09,14,14,093,29,24,32,064,34,25,36,131,36,27,24,241,33,1*7E
$GBGSV,3,2,09,30,24,295,32,32,27,282,34,33,39,088,36,40,10,303,29,1*7E
$GBGSV,3,3,09,41,80,336,39,1*4E
$GBGSV,1,1,01,41,80,336,24,5*4E
$GQGSV,1,1,00,1*65
$GQGSV,1,1,00,8*6C
$GNGGA,182855.000,4910.425577,N,12304.401391,W,1,14,0.87,6.712,M,-16.816,M,,*4E
$GNRMC,182855.000,A,4910.425577,N,12304.401391,W,0.003,102.00,171024,,,A,V*2A
$GNGLL,4910.425577,N,12304.401391,W,182855.000,A,A*56
$GNVTG,102.00,T,,M,0.003,N,0.005,K,A*26
$GNGSA,A,3,02,03,21,28,31,,,,,,,,1.51,0.87,1.23,1*01
$GNGSA,A,3,,,,,,,,,,,,,1.51,0.87,1.23,2*08
$GNGSA,A,3,,,,,,,,,,,,,1.51,0.87,1.23,3*09
$GNGSA,A,3,14,24,25,27,30,32,33,40,41,,,,1.51,0.87,1.23,4*0C
$GNGSA,A,3,,,,,,,,,,,,,1.51,0.87,1.23,5*0F
$GPGSV,2,1,07,02,45,230,17,03,49,301,18,10,,,13,21,37,208,19,1*57
$GPGSV,2,2,07,28,56,081,18,31,55,152,22,32,,,17,1*69
$GPGSV,1,1,03,03,49,301,22,28,56,081,23,32,,,17,8*64
$GLGSV,1,1,00,1*78
$GAGSV,1,1,00,7*73
$GAGSV,1,1,00,1*75
$GBGSV,3,1,09,14,14,093,28,24,32,064,35,25,36,131,36,27,24,241,34,1*79
$GBGSV,3,2,09,30,24,295,33,32,27,282,34,33,39,088,36,40,10,303,29,1*7F
$GBGSV,3,3,09,41,80,336,40,1*40
$GBGSV,1,1,01,41,80,336,22,5*48
$GQGSV,1,1,00,1*65
$GQGSV,1,1,00,8*6C
$GNGGA,182856.000,4910.425581,N,12304.401405,W,1,14,0.87,6.711,M,-16.816,M,,*4D
$GNRMC,182856.000,A,4910.425581,N,12304.401405,W,0.008,102.00,171024,,,A,V*21
$GNGLL,4910.425581,N,12304.401405,W,182856.000,A,A*56
$GNVTG,102.00,T,,M,0.008,N,0.015,K,A*2C
$GNGSA,A,3,02,03,21,28,31,,,,,,,,1.51,0.87,1.23,1*01
$GNGSA,A,3,,,,,,,,,,,,,1.51,0.87,1.23,2*08
$GNGSA,A,3,,,,,,,,,,,,,1.51,0.87,1.23,3*09
$GNGSA,A,3,14,24,25,27,30,32,33,40,41,,,,1.51,0.87,1.23,4*0C
$GNGSA,A,3,,,,,,,,,,,,,1.51,0.87,1.23,5*0F
$GPGSV,2,1,07,02,45,230,18,03,49,301,20,10,,,14,21,37,208,20,1*5E
$GPGSV,2,2,07,28,56,081,18,31,55,152,25,32,,,17,1*6E
$GPGSV,1,1,03,03,49,301,19,28,56,081,22,32,,,16,8*6C
$GLGSV,1,1,00,1*78
$GAGSV,1,1,00,7*73
$GAGSV,1,1,00,1*75
$GBGSV,3,1,09,14,14,093,30,24,32,064,35,25,36,131,38,27,24,241,35,1*7F
$GBGSV,3,2,09,30,24,295,33,32,27,282,34,33,39,088,37,40,10,303,29,1*7E
$GBGSV,3,3,09,41,80,336,40,1*40
$GBGSV,1,1,01,41,80,336,23,5*49
$GQGSV,1,1,00,1*65
$GQGSV,1,1,00,8*6C
$GNGGA,182857.000,4910.425584,N,12304.401421,W,1,14,0.87,6.708,M,-16.816,M,,*47
$GNRMC,182857.000,A,4910.425584,N,12304.401421,W,0.013,102.00,171024,,,A,V*29
$GNGLL,4910.425584,N,12304.401421,W,182857.000,A,A*54
$GNVTG,102.00,T,,M,0.013,N,0.023,K,A*23
$GNGSA,A,3,02,03,21,28,31,,,,,,,,1.51,0.87,1.23,1*01
$GNGSA,A,3,,,,,,,,,,,,,1.51,0.87,1.23,2*08
$GNGSA,A,3,,,,,,,,,,,,,1.51,0.87,1.23,3*09
$GNGSA,A,3,14,24,25,27,30,32,33,40,41,,,,1.51,0.87,1.23,4*0C
$GNGSA,A,3,,,,,,,,,,,,,1.51,0.87,1.23,5*0F
$GPGSV,2,1,07,02,45,230,18,03,49,301,20,10,,,15,21,37,208,19,1*55
$GPGSV,2,2,07,28,56,081,20,31,55,152,23,32,,,18,1*6C
$GPGSV,1,1,03,03,49,301,23,28,56,081,22,32,,,17,8*64
$GLGSV,1,1,00,1*78
$GAGSV,1,1,00,7*73
$GAGSV,1,1,00,1*75
$GBGSV,3,1,09,14,14,093,30,24,32,064,35,25,36,131,37,27,24,241,34,1*71
$GBGSV,3,2,09,30,24,295,34,32,27,282,35,33,39,088,37,40,10,303,30,1*70
$GBGSV,3,3,09,41,80,336,41,1*41
$GBGSV,1,1,01,41,80,336,24,5*4E
$GQGSV,1,1,00,1*65
$GQGSV,1,1,00,8*6C
$GNGGA,182858.000,4910.425586,N,12304.401438,W,1,14,0.87,6.706,M,-16.816,M,,*4C
$GNRMC,182858.000,A,4910.425586,N,12304.401438,W,0.017,102.00,171024,,,A,V*28
$GNGLL,4910.425586,N,12304.401438,W,182858.000,A,A*51
$GNVTG,102.00,T,,M,0.017,N,0.031,K,A*24
$GNGSA,A,3,02,03,21,28,31,,,,,,,,1.51,0.87,1.23,1*01
$GNGSA,A,3,,,,,,,,,,,,,1.51,0.87,1.23,2*08
$GNGSA,A,3,,,,,,,,,,,,,1.51,0.87,1.23,3*09
$GNGSA,A,3,14,24,25,27,30,32,33,40,41,,,,1.51,0.87,1.23,4*0C
$GNGSA,A,3,,,,,,,,,,,,,1.51,0.87,1.23,5*0F
$GPGSV,2,1,07,02,45,230,19,03,49,301,20,10,,,15,21,37,208,20,1*5E
$GPGSV,2,2,07,28,56,081,21,31,55,152,24,32,,,18,1*6A
$GPGSV,1,1,03,03,49,301,21,28,56,081,21,32,,,17,8*65
$GLGSV,1,1,00,1*78
$GAGSV,1,1,00,7*73
$GAGSV,1,1,00,1*75
$GBGSV,3,1,09,14,14,093,29,24,32,064,35,25,36,131,37,27,24,241,34,1*79
$GBGSV,3,2,09,30,24,295,32,32,27,282,35,33,39,088,36,40,10,303,30,1*77
$GBGSV,3,3,09,41,80,336,39,1*4E
$GBGSV,1,1,01,41,80,336,21,5*4B
$GQGSV,1,1,00,1*65
$GQGSV,1,1,00,8*6C
$GNGGA,182859.000,4910.425589,N,12304.401453,W,1,14,0.87,6.705,M,-16.817,M,,*4D
$GNRMC,182859.000,A,4910.425589,N,12304.401453,W,0.006,102.00,171024,,,A,V*2B
$GNGLL,4910.425589,N,12304.401453,W,182859.000,A,A*52
$GNVTG,102.00,T,,M,0.006,N,0.011,K,A*26
$GNGSA,A,3,02,03,21,28,31,,,,,,,,1.51,0.87,1.23,1*01
$GNGSA,A,3,,,,,,,,,,,,,1.51,0.87,1.23,2*08
$GNGSA,A,3,,,,,,,,,,,,,1.51,0.87,1.23,3*09
$GNGSA,A,3,14,24,25,27,30,32,33,40,41,,,,1.51,0.87,1.23,4*0C
$GNGSA,A,3,,,,,,,,,,,,,1.51,0.87,1.23,5*0F
$GPGSV,2,1,07,02,45,230,20,03,49,301,22,10,,,16,21,37,208,21,1*54
$GPGSV,2,2,07,28,56,081,21,31,55,152,24,32,,,16,1*64
$GPGSV,1,1,03,03,49,301,22,28,56,081,21,32,,,18,8*69
$GLGSV,1,1,00,1*78
$GAGSV,1,1,00,7*73
$GAGSV,1,1,00,1*75
$GBGSV,3,1,09,14,14,093,30,24,32,064,35,25,36,131,37,27,24,241,34,1*71
$GBGSV,3,2,09,30,24,295,33,32,27,282,34,33,39,088,36,40,10,303,29,1*7F
$GBGSV,3,3,09,41,80,336,40,1*40
$GBGSV,1,1,01,41,80,336,23,5*49
$GQGSV,1,1,00,1*65
$GQGSV,1,1,00,8*6C
$GNGGA,182900.000,4910.425592,N,12304.401466,W,1,14,0.87,6.702,M,-16.817,M,,*4B
$GNRMC,182900.000,A,4910.425592,N,12304.401466,W,0.016,102.00,171024,,,A,V*2B
$GNGLL,4910.425592,N,12304.401466,W,182900.000,A,A*53
$GNVTG,102.00,T,,M,0.016,N,0.029,K,A*2C
$GNGSA,A,3,02,03,21,28,31,,,,,,,,1.51,0.87,1.23,1*01
$GNGSA,A,3,,,,,,,,,,,,,1.51,0.87,1.23,2*08
$GNGSA,A,3,,,,,,,,,,,,,1.51,0.87,1.23,3*09
$GNGSA,A,3,14,24,25,27,30,32,33,40,41,,,,1.51,0.87,1.23,4*0C
$GNGSA,A,3,,,,,,,,,,,,,1.51,0.87,1.23,5*0F
$GPGSV,2,1,07,02,45,230,23,03,49,301,23,10,,,14,21,37,208,22,1*57
$GPGSV,2,2,07,28,56,081,24,31,55,152,25,32,,,19,1*6F
$GPGSV,1,1,03,03,49,301,21,28,56,081,23,32,,,17,8*67
$GLGSV,1,1,00,1*78
$GAGSV,1,1,00,7*73
$GAGSV,1,1,00,1*75
$GBGSV,3,1,09,14,14,093,29,24,32,064,35,25,36,131,37,27,24,241,34,1*79
$GBGSV,3,2,09,30,24,295,33,32,27,282,33,33,39,088,36,40,10,303,28,1*79
$GBGSV,3,3,09,41,80,336,40,1*40
$GBGSV,1,1,01,41,80,336,22,5*48
$GQGSV,1,1,00,1*65
$GQGSV,1,1,00,8*6C
$GNGGA,182901.000,4910.425596,N,12304.401481,W,1,14,0.87,6.700,M,-16.816,M,,*44
$GNRMC,182901.000,A,4910.425596,N,12304.401481,W,0.009,102.00,171024,,,A,V*29
$GNGLL,4910.425596,N,12304.401481,W,182901.000,A,A*5F
$GNVTG,102.00,T,,M,0.009,N,0.017,K,A*2F
$GNGSA,A,3,02,03,21,28,31,,,,,,,,1.51,0.87,1.23,1*01
$GNGSA,A,3,,,,,,,,,,,,,1.51,0.87,1.23,2*08
$GNGSA,A,3,,,,,,,,,,,,,1.51,0.87,1.23,3*09
$GNGSA,A,3,14,24,25,27,30,32,33,40,41,,,,1.51,0.87,1.23,4*0C
$GNGSA,A,3,,,,,,,,,,,,,1.51,0.87,1.23,5*0F
$GPGSV,2,1,07,02,45,230,20,03,49,301,21,10,,,16,21,37,208,20,1*56
$GPGSV,2,2,07,28,56,081,23,31,55,152,24,32,,,18,1*68
$GPGSV,1,1,03,03,49,301,21,28,56,081,22,32,,,16,8*67
$GLGSV,1,1,00,1*78
$GAGSV,1,1,00,7*73
$GAGSV,1,1,00,1*75
$GBGSV,3,1,09,14,14,093,30,24,32,064,35,25,36,131,37,27,24,241,34,1*71
$GBGSV,3,2,09,30,24,295,33,32,27,282,35,33,39,088,37,40,10,303,29,1*7F
$GBGSV,3,3,09,41,80,336,40,1*40
$GBGSV,1,1,01,41,80,336,22,5*48
$GQGSV,1,1,00,1*65
$GQGSV,1,1,00,8*6C
$GNGGA,182902.000,4910.425601,N,12304.401490,W,1,14,0.87,6.701,M,-16.817,M,,*4A
$GNRMC,182902.000,A,4910.425601,N,12304.401490,W,0.012,102.00,171024,,,A,V*2D
$GNGLL,4910.425601,N,12304.401490,W,182902.000,A,A*51
$GNVTG,102.00,T,,M,0.012,N,0.023,K,A*22
$GNGSA,A,3,02,03,21,28,31,,,,,,,,1.51,0.87,1.23,1*01
$GNGSA,A,3,,,,,,,,,,,,,1.51,0.87,1.23,2*08
$GNGSA,A,3,,,,,,,,,,,,,1.51,0.87,1.23,3*09
$GNGSA,A,3,14,24,25,27,30,32,33,40,41,,,,1.51,0.87,1.23,4*0C
$GNGSA,A,3,,,,,,,,,,,,,1.51,0.87,1.23,5*0F
$GPGSV,2,1,07,02,45,230,19,03,49,301,20,10,,,16,21,37,208,20,1*5D
$GPGSV,2,2,07,28,56,081,20,31,55,152,23,32,,,17,1*63
$GPGSV,1,1,03,03,49,301,22,28,56,081,23,32,,,17,8*64
$GLGSV,1,1,00,1*78
$GAGSV,1,1,00,7*73
$GAGSV,1,1,00,1*75
$GBGSV,3,1,09,14,14,093,29,24,32,064,35,25,36,131,37,27,24,241,34,1*79
$GBGSV,3,2,09,30,24,295,33,32,27,282,35,33,39,088,36,40,10,303,29,1*7E
$GBGSV,3,3,09,41,80,336,40,1*40
$GBGSV,1,1,01,41,80,336,22,5*48
$GQGSV,1,1,00,1*65
$GQGSV,1,1,00,8*6C
$GNGGA,182903.000,4910.425604,N,12304.401500,W,1,14,0.87,6.703,M,-16.817,M,,*44
$GNRMC,182903.000,A,4910.425604,N,12304.401500,W,0.020,102.00,171024,,,A,V*20
$GNGLL,4910.425604,N,12304.401500,W,182903.000,A,A*5D
$GNVTG,102.00,T,,M,0.020,N,0.036,K,A*27
$GNGSA,A,3,02,03,21,28,31,,,,,,,,1.51,0.87,1.23,1*01
$GNGSA,A,3,,,,,,,,,,,,,1.51,0.87,1.23,2*08
$GNGSA,A,3,,,,,,,,,,,,,1.51,0.87,1.23,3*09
$GNGSA,A,3,14,24,25,27,30,32,33,40,41,,,,1.51,0.87,1.23,4*0C
$GNGSA,A,3,,,,,,,,,,,,,1.51,0.87,1.23,5*0F
$GPGSV,2,1,07,02,45,230,17,03,49,301,19,10,,,13,21,36,208,20,1*5D
$GPGSV,2,2,07,28,56,081,19,31,55,152,22,32,,,15,1*6A
$GPGSV,1,1,03,03,49,301,20,28,56,081,21,32,,,15,8*66
$GLGSV,1,1,00,1*78
$GAGSV,1,1,00,7*73
$GAGSV,1,1,00,1*75
$GBGSV,3,1,09,14,14,093,30,24,32,064,35,25,36,131,37,27,24,241,34,1*71
$GBGSV,3,2,09,30,24,295,33,32,27,282,35,33,39,088,37,40,10,303,29,1*7F
$GBGSV,3,3,09,41,80,336,40,1*40
$GBGSV,1,1,01,41,80,336,22,5*48
$GQGSV,1,1,00,1*65
$GQGSV,1,1,00,8*6C
$GNGGA,182904.000,4910.425607,N,12304.401513,W,1,14,0.87,6.702,M,-16.816,M,,*42
$GNRMC,182904.000,A,4910.425607,N,12304.401513,W,0.020,102.00,171024,,,A,V*26
$GNGLL,4910.425607,N,12304.401513,W,182904.000,A,A*5B
$GNVTG,102.00,T,,M,0.020,N,0.037,K,A*26
$GNGSA,A,3,02,03,21,28,31,,,,,,,,1.51,0.87,1.23,1*01
$GNGSA,A,3,,,,,,,,,,,,,1.51,0.87,1.23,2*08
$GNGSA,A,3,,,,,,,,,,,,,1.51,0.87,1.23,3*09
$GNGSA,A,3,14,24,25,27,30,32,33,40,41,,,,1.51,0.87,1.23,4*0C
$GNGSA,A,3,,,,,,,,,,,,,1.51,0.87,1.23,5*0F
$GPGSV,2,1,07,02,45,230,19,03,49,301,19,10,,,14,21,36,208,20,1*54
$GPGSV,2,2,07,28,56,081,19,31,55,152,23,32,,,15,1*6B
$GPGSV,1,1,03,03,49,301,21,28,56,081,20,32,,,14,8*67
$GLGSV,1,1,00,1*78
$GAGSV,1,1,00,7*73
$GAGSV,1,1,00,1*75
$GBGSV,3,1,09,14,14,093,29,24,32,064,35,25,36,131,37,27,24,241,34,1*79
$GBGSV,3,2,09,30,24,295,32,32,27,282,34,33,39,088,36,40,10,303,29,1*7E
$GBGSV,3,3,09,41,80,336,40,1*40
$GBGSV,1,1,01,41,80,336,23,5*49
$GQGSV,1,1,00,1*65
$GQGSV,1,1,00,8*6C
$GNGGA,182905.000,4910.425609,N,12304.401520,W,1,14,0.87,6.701,M,-16.816,M,,*4E
$GNRMC,182905.000,A,4910.425609,N,12304.401520,W,0.010,102.00,171024,,,A,V*2A
$GNGLL,4910.425609,N,12304.401520,W,182905.000,A,A*54
$GNVTG,102.00,T,,M,0.010,N,0.018,K,A*28
$GNGSA,A,3,02,03,21,28,31,,,,,,,,1.51,0.87,1.23,1*01
$GNGSA,A,3,,,,,,,,,,,,,1.51,0.87,1.23,2*08
$GNGSA,A,3,,,,,,,,,,,,,1.51,0.87,1.23,3*09
$GNGSA,A,3,14,24,25,27,30,32,33,40,41,,,,1.51,0.87,1.23,4*0C
$GNGSA,A,3,,,,,,,,,,,,,1.51,0.87,1.23,5*0F
$GPGSV,2,1,07,02,45,230,18,03,49,301,20,10,,,14,21,36,208,20,1*5F
$GPGSV,2,2,07,28,56,081,20,31,55,152,23,32,,,17,1*63
$GPGSV,1,1,03,03,49,301,22,28,56,081,21,32,,,16,8*67
$GLGSV,1,1,00,1*78
$GAGSV,1,1,00,7*73
$GAGSV,1,1,00,1*75
$GBGSV,3,1,09,14,14,093,30,24,32,064,35,25,36,131,38,27,24,241,35,1*7F
$GBGSV,3,2,09,30,24,295,33,32,27,282,35,33,39,088,37,40,10,303,29,1*7F
$GBGSV,3,3,09,41,80,337,40,1*41
$GBGSV,1,1,01,41,80,337,23,5*48
$GQGSV,1,1,00,1*65
$GQGSV,1,1,00,8*6C
$GNGGA,182906.000,4910.425612,N,12304.401524,W,1,14,0.90,6.701,M,-16.816,M,,*45
$GNRMC,182906.000,A,4910.425612,N,12304.401524,W,0.012,102.00,171024,,,A,V*25
$GNGLL,4910.425612,N,12304.401524,W,182906.000,A,A*59
$GNVTG,102.00,T,,M,0.012,N,0.023,K,A*22
$GNGSA,A,3,02,03,21,28,31,,,,,,,,1.53,0.90,1.23,1*05
$GNGSA,A,3,,,,,,,,,,,,,1.53,0.90,1.23,2*0C
$GNGSA,A,3,,,,,,,,,,,,,1.53,0.90,1.23,3*0D
$GNGSA,A,3,14,24,25,27,30,32,33,40,41,,,,1.53,0.90,1.23,4*08
$GNGSA,A,3,,,,,,,,,,,,,1.53,0.90,1.23,5*0B
$GPGSV,2,1,07,02,45,230,18,03,49,301,21,10,,,12,21,36,208,21,1*59
$GPGSV,2,2,07,28,56,081,21,31,55,152,21,32,,,17,1*60
$GPGSV,1,1,03,03,49,301,23,28,56,081,22,32,,,16,8*65
$GLGSV,1,1,00,1*78
$GAGSV,1,1,00,7*73
$GAGSV,1,1,00,1*75
$GBGSV,3,1,09,14,14,093,29,24,32,064,35,25,36,131,38,27,24,241,34,1*76
$GBGSV,3,2,09,30,24,295,32,32,27,282,34,33,39,088,37,40,10,303,29,1*7F
$GBGSV,3,3,09,41,80,337,40,1*41
$GBGSV,1,1,01,41,80,337,23,5*48
$GQGSV,1,1,00,1*65
$GQGSV,1,1,00,8*6C
$GNGGA,182907.000,4910.425615,N,12304.401528,W,1,14,0.90,6.700,M,-16.816,M,,*4E
$GNRMC,182907.000,A,4910.425615,N,12304.401528,W,0.010,102.00,171024,,,A,V*2D
$GNGLL,4910.425615,N,12304.401528,W,182907.000,A,A*53
$GNVTG,102.00,T,,M,0.010,N,0.019,K,A*29
$GNGSA,A,3,02,03,21,28,31,,,,,,,,1.53,0.90,1.23,1*05
$GNGSA,A,3,,,,,,,,,,,,,1.53,0.90,1.23,2*0C
$GNGSA,A,3,,,,,,,,,,,,,1.53,0.90,1.23,3*0D
$GNGSA,A,3,14,24,25,27,30,32,33,40,41,,,,1.53,0.90,1.23,4*08
$GNGSA,A,3,,,,,,,,,,,,,1.53,0.90,1.23,5*0B
$GPGSV,2,1,07,02,45,230,19,03,49,301,21,10,,,16,21,36,208,21,1*5C
$GPGSV,2,2,07,28,56,081,22,31,55,152,25,32,,,19,1*69
$GPGSV,1,1,03,03,49,301,23,28,56,081,23,32,,,16,8*64
$GLGSV,1,1,00,1*78
$GAGSV,1,1,00,7*73
$GAGSV,1,1,00,1*75
$GBGSV,3,1,09,14,14,093,30,24,32,064,35,25,36,131,38,27,24,241,35,1*7F
$GBGSV,3,2,09,30,24,295,32,32,27,282,35,33,39,088,36,40,10,303,29,1*7F
$GBGSV,3,3,09,41,80,337,40,1*41
$GBGSV,1,1,01,41,80,337,22,5*49
$GQGSV,1,1,00,1*65
$GQGSV,1,1,00,8*6C
$GNGGA,182908.000,4910.425619,N,12304.401529,W,1,14,0.87,6.697,M,-16.816,M,,*45
$GNRMC,182908.000,A,4910.425619,N,12304.401529,W,0.010,102.00,171024,,,A,V*2F
$GNGLL,4910.425619,N,12304.401529,W,182908.000,A,A*51
$GNVTG,102.00,T,,M,0.010,N,0.018,K,A*28
$GNGSA,A,3,02,03,21,28,31,,,,,,,,1.51,0.87,1.23,1*01
$GNGSA,A,3,,,,,,,,,,,,,1.51,0.87,1.23,2*08
$GNGSA,A,3,,,,,,,,,,,,,1.51,0.87,1.23,3*09
$GNGSA,A,3,14,24,25,27,30,32,33,40,41,,,,1.51,0.87,1.23,4*0C
$GNGSA,A,3,,,,,,,,,,,,,1.51,0.87,1.23,5*0F
$GPGSV,2,1,07,02,45,230,19,03,49,301,22,10,,,14,21,36,208,23,1*5F
$GPGSV,2,2,07,28,56,081,22,31,55,152,25,32,,,19,1*69
$GPGSV,1,1,03,03,49,301,23,28,56,081,23,32,,,15,8*67
$GLGSV,1,1,00,1*78
$GAGSV,1,1,00,7*73
$GAGSV,1,1,00,1*75
$GBGSV,3,1,09,14,14,093,29,24,32,064,36,25,36,131,38,27,24,241,33,1*72
$GBGSV,3,2,09,30,24,295,33,32,27,282,35,33,39,088,36,40,10,303,28,1*7F
$GBGSV,3,3,09,41,80,337,40,1*41
$GBGSV,1,1,01,41,80,337,23,5*48
$GQGSV,1,1,00,1*65
$GQGSV,1,1,00,8*6C
$GNGGA,182909.000,4910.425621,N,12304.401531,W,1,14,0.87,6.695,M,-16.816,M,,*44
$GNRMC,182909.000,A,4910.425621,N,12304.401531,W,0.007,102.00,171024,,,A,V*2A
$GNGLL,4910.425621,N,12304.401531,W,182909.000,A,A*52
$GNVTG,102.00,T,,M,0.007,N,0.012,K,A*24
$GNGSA,A,3,02,03,21,28,31,,,,,,,,1.51,0.87,1.23,1*01
$GNGSA,A,3,,,,,,,,,,,,,1.51,0.87,1.23,2*08
$GNGSA,A,3,,,,,,,,,,,,,1.51,0.87,1.23,3*09
$GNGSA,A,3,14,24,25,27,30,32,33,40,41,,,,1.51,0.87,1.23,4*0C
$GNGSA,A,3,,,,,,,,,,,,,1.51,0.87,1.23,5*0F
$GPGSV,2,1,07,02,45,230,19,03,49,301,20,10,,,14,21,36,208,21,1*5F
$GPGSV,2,2,07,28,56,081,20,31,55,152,20,32,,,19,1*6E
$GPGSV,1,1,03,03,49,301,22,28,56,081,22,32,,,16,8*64
$GLGSV,1,1,00,1*78
$GAGSV,1,1,00,7*73
$GAGSV,1,1,00,1*75
$GBGSV,3,1,09,14,14,093,29,24,32,064,35,25,36,131,37,27,24,241,33,1*7E
$GBGSV,3,2,09,30,24,295,32,32,27,282,35,33,39,088,36,40,10,303,27,1*71
$GBGSV,3,3,09,41,80,337,39,1*4F
$GBGSV,1,1,01,41,80,337,23,5*48
$GQGSV,1,1,00,1*65
$GQGSV,1,1,00,8*6C
$GNGGA,182910.000,4910.425623,N,12304.401536,W,1,14,0.87,6.695,M,-16.817,M,,*48
$GNRMC,182910.000,A,4910.425623,N,12304.401536,W,0.011,102.00,171024,,,A,V*20
$GNGLL,4910.425623,N,12304.401536,W,182910.000,A,A*5F
$GNVTG,102.00,T,,M,0.011,N,0.021,K,A*23
$GNGSA,A,3,02,03,21,28,31,,,,,,,,1.51,0.87,1.23,1*01
$GNGSA,A,3,,,,,,,,,,,,,1.51,0.87,1.23,2*08
$GNGSA,A,3,,,,,,,,,,,,,1.51,0.87,1.23,3*09
$GNGSA,A,3,14,24,25,27,30,32,33,40,41,,,,1.51,0.87,1.23,4*0C
$GNGSA,A,3,,,,,,,,,,,,,1.51,0.87,1.23,5*0F
$GPGSV,2,1,07,02,45,230,17,03,49,301,20,10,,,13,21,36,208,19,1*5D
$GPGSV,2,2,07,28,56,081,20,31,55,152,21,32,,,17,1*61
$GPGSV,1,1,03,03,49,301,23,28,56,081,21,32,,,15,8*65
$GLGSV,1,1,00,1*78
$GAGSV,1,1,00,7*73
$GAGSV,1,1,00,1*75
$GBGSV,3,1,09,14,14,093,30,24,32,064,35,25,36,131,37,27,24,241,35,1*70
$GBGSV,3,2,09,30,24,295,32,32,27,282,34,33,39,088,37,40,10,303,29,1*7F
$GBGSV,3,3,09,41,80,337,40,1*41
$GBGSV,1,1,01,41,80,337,23,5*48
$GQGSV,1,1,00,1*65
$GQGSV,1,1,00,8*6C
$GNGGA,182911.000,4910.425624,N,12304.401540,W,1,14,0.87,6.692,M,-16.816,M,,*49
$GNRMC,182911.000,A,4910.425624,N,12304.401540,W,0.011,102.00,171024,,,A,V*27
$GNGLL,4910.425624,N,12304.401540,W,182911.000,A,A*58
$GNVTG,102.00,T,,M,0.011,N,0.021,K,A*23
$GNGSA,A,3,02,03,21,28,31,,,,,,,,1.51,0.87,1.23,1*01
$GNGSA,A,3,,,,,,,,,,,,,1.51,0.87,1.23,2*08
$GNGSA,A,3,,,,,,,,,,,,,1.51,0.87,1.23,3*09
$GNGSA,A,3,14,24,25,27,30,32,33,40,41,,,,1.51,0.87,1.23,4*0C
$GNGSA,A,3,,,,,,,,,,,,,1.51,0.87,1.23,5*0F
$GPGSV,2,1,07,02,45,230,17,03,49,301,19,10,,,13,21,36,208,20,1*5D
$GPGSV,2,2,07,28,56,081,19,31,55,152,20,32,,,17,1*6A
$GPGSV,1,1,03,03,49,301,21,28,56,081,20,32,,,14,8*67
$GLGSV,1,1,00,1*78
$GAGSV,1,1,00,7*73
$GAGSV,1,1,00,1*75
$GBGSV,3,1,09,14,14,093,30,24,32,064,35,25,36,131,37,27,24,241,35,1*70
$GBGSV,3,2,09,30,24,295,32,32,27,282,34,33,39,088,36,40,10,303,29,1*7E
$GBGSV,3,3,09,41,80,337,40,1*41
$GBGSV,1,1,01,41,80,337,22,5*49
$GQGSV,1,1,00,1*65
$GQGSV,1,1,00,8*6C
$GNGGA,182912.000,4910.425625,N,12304.401544,W,1,14,0.87,6.690,M,-16.816,M,,*4D
$GNRMC,182912.000,A,4910.425625,N,12304.401544,W,0.007,102.00,171024,,,A,V*26
$GNGLL,4910.425625,N,12304.401544,W,182912.000,A,A*5E
$GNVTG,102.00,T,,M,0.007,N,0.012,K,A*24
$GNGSA,A,3,02,03,21,28,31,,,,,,,,1.51,0.87,1.23,1*01
$GNGSA,A,3,,,,,,,,,,,,,1.51,0.87,1.23,2*08
$GNGSA,A,3,,,,,,,,,,,,,1.51,0.87,1.23,3*09
$GNGSA,A,3,14,24,25,27,30,32,33,40,41,,,,1.51,0.87,1.23,4*0C
$GNGSA,A,3,,,,,,,,,,,,,1.51,0.87,1.23,5*0F
$GPGSV,2,1,07,02,45,230,16,03,49,301,20,10,,,12,21,36,208,20,1*57
$GPGSV,2,2,07,28,56,081,19,31,55,152,21,32,,,18,1*64
$GPGSV,1,1,03,03,49,301,22,28,56,081,22,32,,,14,8*66
$GLGSV,1,1,00,1*78
$GAGSV,1,1,00,7*73
$GAGSV,1,1,00,1*75
$GBGSV,3,1,09,14,14,093,30,24,32,064,35,25,36,131,37,27,24,241,34,1*71
$GBGSV,3,2,09,30,24,295,33,32,27,282,34,33,39,088,36,40,10,303,28,1*7E
$GBGSV,3,3,09,41,80,337,40,1*41
$GBGSV,1,1,01,41,80,337,23,5*48
$GQGSV,1,1,00,1*65
$GQGSV,1,1,00,8*6C
$GNGGA,182913.000,4910.425625,N,12304.401551,W,1,14,0.87,6.687,M,-16.816,M,,*4E
$GNRMC,182913.000,A,4910.425625,N,12304.401551,W,0.009,102.00,171024,,,A,V*2D
$GNGLL,4910.425625,N,12304.401551,W,182913.000,A,A*5B
$GNVTG,102.00,T,,M,0.009,N,0.016,K,A*2E
$GNGSA,A,3,02,03,21,28,31,,,,,,,,1.51,0.87,1.23,1*01
$GNGSA,A,3,,,,,,,,,,,,,1.51,0.87,1.23,2*08
$GNGSA,A,3,,,,,,,,,,,,,1.51,0.87,1.23,3*09
$GNGSA,A,3,14,24,25,27,30,32,33,40,41,,,,1.51,0.87,1.23,4*0C
$GNGSA,A,3,,,,,,,,,,,,,1.51,0.87,1.23,5*0F
$GPGSV,2,1,07,02,45,230,17,03,49,301,18,10,,,08,21,36,208,18,1*5D
$GPGSV,2,2,07,28,56,081,17,31,55,152,20,32,,,17,1*64
$GPGSV,1,1,03,03,49,301,22,28,56,081,21,32,,,14,8*65
$GLGSV,1,1,00,1*78
$GAGSV,1,1,00,7*73
$GAGSV,1,1,00,1*75
$GBGSV,3,1,09,14,14,093,31,24,32,064,36,25,36,131,37,27,24,241,34,1*73
$GBGSV,3,2,09,30,24,295,32,32,27,282,35,33,39,088,37,40,10,303,29,1*7E
$GBGSV,3,3,09,41,80,337,40,1*41
$GBGSV,1,1,01,41,80,337,24,5*4F
$GQGSV,1,1,00,1*65
$GQGSV,1,1,00,8*6C
$GNGGA,182914.000,4910.425627,N,12304.401560,W,1,14,0.96,6.685,M,-16.816,M,,*4B
$GNRMC,182914.000,A,4910.425627,N,12304.401560,W,0.010,102.00,171024,,,A,V*22
$GNGLL,4910.425627,N,12304.401560,W,182914.000,A,A*5C
$GNVTG,102.00,T,,M,0.010,N,0.019,K,A*29
$GNGSA,A,3,02,03,21,28,31,,,,,,,,1.58,0.96,1.25,1*0E
$GNGSA,A,3,,,,,,,,,,,,,1.58,0.96,1.25,2*07
$GNGSA,A,3,,,,,,,,,,,,,1.58,0.96,1.25,3*06
$GNGSA,A,3,14,24,25,27,30,32,33,40,41,,,,1.58,0.96,1.25,4*03
$GNGSA,A,3,,,,,,,,,,,,,1.58,0.96,1.25,5*00
$GPGSV,2,1,07,02,45,230,17,03,49,301,17,10,,,12,21,36,208,18,1*59
$GPGSV,2,2,07,28,56,081,17,31,55,152,20,32,,,17,1*64
$GPGSV,1,1,03,03,49,301,21,28,56,081,22,32,,,13,8*62
$GLGSV,1,1,00,1*78
$GAGSV,1,1,00,7*73
$GAGSV,1,1,00,1*75
$GBGSV,3,1,09,14,14,093,30,24,32,064,36,25,36,131,38,27,24,241,34,1*7D
$GBGSV,3,2,09,30,24,295,33,32,27,282,34,33,39,088,37,40,10,303,30,1*76
$GBGSV,3,3,09,41,80,337,40,1*41
$GBGSV,1,1,01,41,80,337,22,5*49
$GQGSV,1,1,00,1*65
$GQGSV,1,1,00,8*6C
$GNGGA,182915.000,4910.425626,N,12304.401563,W,1,14,0.96,6.682,M,-16.817,M,,*4E
$GNRMC,182915.000,A,4910.425626,N,12304.401563,W,0.012,102.00,171024,,,A,V*23
$GNGLL,4910.425626,N,12304.401563,W,182915.000,A,A*5F
$GNVTG,102.00,T,,M,0.012,N,0.023,K,A*22
$GNGSA,A,3,02,03,21,28,31,,,,,,,,1.58,0.96,1.25,1*0E
$GNGSA,A,3,,,,,,,,,,,,,1.58,0.96,1.25,2*07
$GNGSA,A,3,,,,,,,,,,,,,1.58,0.96,1.25,3*06
$GNGSA,A,3,14,24,25,27,30,32,33,40,41,,,,1.58,0.96,1.25,4*03
$GNGSA,A,3,,,,,,,,,,,,,1.58,0.96,1.25,5*00
$GPGSV,2,1,06,02,45,230,17,03,49,301,20,21,36,208,20,28,56,081,19,1*6D
$GPGSV,2,2,06,31,55,152,20,32,,,19,1*5D
$GPGSV,1,1,03,03,49,301,22,28,56,081,21,32,,,13,8*62
$GLGSV,1,1,00,1*78
$GAGSV,1,1,00,7*73
$GAGSV,1,1,00,1*75
$GBGSV,3,1,09,14,14,093,28,24,32,064,35,25,36,131,38,27,24,241,34,1*77
$GBGSV,3,2,09,30,24,295,31,32,27,282,34,33,39,088,37,40,10,303,28,1*7D
$GBGSV,3,3,09,41,80,337,40,1*41
$GBGSV,1,1,01,41,80,337,22,5*49
$GQGSV,1,1,00,1*65
$GQGSV,1,1,00,8*6C
$GNGGA,182916.000,4910.425626,N,12304.401568,W,1,14,0.96,6.677,M,-16.816,M,,*4D
$GNRMC,182916.000,A,4910.425626,N,12304.401568,W,0.003,102.00,171024,,,A,V*2B
$GNGLL,4910.425626,N,12304.401568,W,182916.000,A,A*57
$GNVTG,102.00,T,,M,0.003,N,0.005,K,A*26
$GNGSA,A,3,02,03,21,28,31,,,,,,,,1.58,0.96,1.25,1*0E
$GNGSA,A,3,,,,,,,,,,,,,1.58,0.96,1.25,2*07
$GNGSA,A,3,,,,,,,,,,,,,1.58,0.96,1.25,3*06
$GNGSA,A,3,14,24,25,27,30,32,33,40,41,,,,1.58,0.96,1.25,4*03
$GNGSA,A,3,,,,,,,,,,,,,1.58,0.96,1.25,5*00
$GPGSV,2,1,06,02,45,230,17,03,49,301,20,21,36,208,21,28,56,081,21,1*67
$GPGSV,2,2,06,31,55,152,17,32,,,19,1*59
$GPGSV,1,1,03,03,49,301,20,28,56,081,22,32,,,12,8*62
$GLGSV,1,1,00,1*78
$GAGSV,1,1,00,7*73
$GAGSV,1,1,00,1*75
$GBGSV,3,1,09,14,14,093,30,24,32,064,36,25,36,131,38,27,24,241,34,1*7D
$GBGSV,3,2,09,30,24,295,33,32,27,282,34,33,39,088,37,40,10,303,29,1*7E
$GBGSV,3,3,09,41,80,337,40,1*41
$GBGSV,1,1,01,41,80,337,22,5*49
$GQGSV,1,1,00,1*65
$GQGSV,1,1,00,8*6C
$GNGGA,182917.000,4910.425626,N,12304.401574,W,1,14,0.96,6.674,M,-16.816,M,,*42
$GNRMC,182917.000,A,4910.425626,N,12304.401574,W,0.010,102.00,171024,,,A,V*25
$GNGLL,4910.425626,N,12304.401574,W,182917.000,A,A*5B
$GNVTG,102.00,T,,M,0.010,N,0.018,K,A*28
$GNGSA,A,3,02,03,21,28,31,,,,,,,,1.57,0.96,1.25,1*01
$GNGSA,A,3,,,,,,,,,,,,,1.57,0.96,1.25,2*08
$GNGSA,A,3,,,,,,,,,,,,,1.57,0.96,1.25,3*09
$GNGSA,A,3,14,24,25,27,30,32,33,40,41,,,,1.57,0.96,1.25,4*0C
$GNGSA,A,3,,,,,,,,,,,,,1.57,0.96,1.25,5*0F
$GPGSV,2,1,06,02,45,230,20,03,49,301,23,21,36,208,22,28,56,081,23,1*61
$GPGSV,2,2,06,31,55,152,20,32,,,19,1*5D
$GPGSV,1,1,02,03,49,301,20,28,56,081,20,8*63
$GLGSV,1,1,00,1*78
$GAGSV,1,1,00,7*73
$GAGSV,1,1,00,1*75
$GBGSV,3,1,09,14,14,093,30,24,32,064,35,25,36,131,37,27,24,241,34,1*71
$GBGSV,3,2,09,30,24,295,33,32,27,282,34,33,39,088,36,40,10,303,27,1*71
$GBGSV,3,3,09,41,80,337,40,1*41
$GBGSV,1,1,02,33,39,088,18,41,80,337,21,5*7A
$GQGSV,1,1,00,1*65
$GQGSV,1,1,00,8*6C
$GNGGA,182918.000,4910.425626,N,12304.401576,W,1,14,0.96,6.671,M,-16.816,M,,*4A
$GNRMC,182918.000,A,4910.425626,N,12304.401576,W,0.021,102.00,171024,,,A,V*2A
$GNGLL,4910.425626,N,12304.401576,W,182918.000,A,A*56
$GNVTG,102.00,T,,M,0.021,N,0.039,K,A*29
$GNGSA,A,3,02,03,21,28,31,,,,,,,,1.57,0.96,1.25,1*01
$GNGSA,A,3,,,,,,,,,,,,,1.57,0.96,1.25,2*08
$GNGSA,A,3,,,,,,,,,,,,,1.57,0.96,1.25,3*09
$GNGSA,A,3,14,24,25,27,30,32,33,40,41,,,,1.57,0.96,1.25,4*0C
$GNGSA,A,3,,,,,,,,,,,,,1.57,0.96,1.25,5*0F
$GPGSV,2,1,06,02,45,230,21,03,49,301,24,21,36,208,23,28,56,081,25,1*60
$GPGSV,2,2,06,31,55,152,19,32,,,22,1*5F
$GPGSV,1,1,02,03,49,301,22,28,56,081,21,8*60
$GLGSV,1,1,00,1*78
$GAGSV,1,1,00,7*73
$GAGSV,1,1,00,1*75
$GBGSV,3,1,09,14,14,093,30,24,32,064,36,25,36,131,37,27,24,241,35,1*73
$GBGSV,3,2,09,30,24,295,33,32,27,282,34,33,39,088,37,40,10,303,29,1*7E
$GBGSV,3,3,09,41,80,337,40,1*41
$GBGSV,1,1,02,33,39,088,19,41,80,337,21,5*7B
$GQGSV,1,1,00,1*65
$GQGSV,1,1,00,8*6C
$GNGGA,182919.000,4910.425626,N,12304.401576,W,1,14,0.96,6.669,M,-16.816,M,,*42
$GNRMC,182919.000,A,4910.425626,N,12304.401576,W,0.007,102.00,171024,,,A,V*2F
$GNGLL,4910.425626,N,12304.401576,W,182919.000,A,A*57
$GNVTG,102.00,T,,M,0.007,N,0.013,K,A*25
$GNGSA,A,3,02,03,21,28,31,,,,,,,,1.57,0.96,1.25,1*01
$GNGSA,A,3,,,,,,,,,,,,,1.57,0.96,1.25,2*08
$GNGSA,A,3,,,,,,,,,,,,,1.57,0.96,1.25,3*09
$GNGSA,A,3,14,24,25,27,30,32,33,40,41,,,,1.57,0.96,1.25,4*0C
$GNGSA,A,3,,,,,,,,,,,,,1.57,0.96,1.25,5*0F
$GPGSV,2,1,06,02,45,230,21,03,49,301,24,21,36,208,23,28,56,081,23,1*66
$GPGSV,2,2,06,31,55,152,18,32,,,23,1*5F
$GPGSV,1,1,02,03,49,301,22,28,56,081,22,8*63
$GLGSV,1,1,00,1*78
$GAGSV,1,1,00,7*73
$GAGSV,1,1,00,1*75
$GBGSV,3,1,09,14,14,093,31,24,32,064,36,25,36,131,37,27,24,241,34,1*73
$GBGSV,3,2,09,30,24,295,32,32,27,282,34,33,39,088,36,40,10,303,28,1*7F
$GBGSV,3,3,09,41,80,337,40,1*41
$GBGSV,1,1,02,33,39,088,20,41,80,337,23,5*73
$GQGSV,1,1,00,1*65
$GQGSV,1,1,00,8*6C
$GNGGA,182920.000,4910.425625,N,12304.401576,W,1,14,0.96,6.668,M,-16.816,M,,*4A
$GNRMC,182920.000,A,4910.425625,N,12304.401576,W,0.012,102.00,171024,,,A,V*22
$GNGLL,4910.425625,N,12304.401576,W,182920.000,A,A*5E
$GNVTG,102.00,T,,M,0.012,N,0.022,K,A*23
$GNGSA,A,3,02,03,21,28,31,,,,,,,,1.57,0.96,1.25,1*01
$GNGSA,A,3,,,,,,,,,,,,,1.57,0.96,1.25,2*08
$GNGSA,A,3,,,,,,,,,,,,,1.57,0.96,1.25,3*09
$GNGSA,A,3,14,24,25,27,30,32,33,40,41,,,,1.57,0.96,1.25,4*0C
$GNGSA,A,3,,,,,,,,,,,,,1.57,0.96,1.25,5*0F
$GPGSV,2,1,06,02,45,230,21,03,49,301,24,21,36,208,22,28,56,081,25,1*61
$GPGSV,2,2,06,31,55,152,18,32,,,22,1*5E
$GPGSV,1,1,02,03,49,301,24,28,56,081,22,8*65
$GLGSV,1,1,00,1*78
$GAGSV,1,1,00,7*73
$GAGSV,1,1,00,1*75
$GBGSV,3,1,09,14,14,093,30,24,32,064,36,25,36,131,38,27,24,241,34,1*7D
$GBGSV,3,2,09,30,24,295,32,32,27,282,34,33,39,088,37,40,10,303,28,1*7E
$GBGSV,3,3,09,41,80,337,40,1*41
$GBGSV,1,1,02,33,39,088,20,41,80,337,24,5*74
$GQGSV,1,1,00,1*65
$GQGSV,1,1,00,8*6C
$GNGGA,182921.000,4910.425625,N,12304.401577,W,1,14,0.96,6.666,M,-16.816,M,,*44
$GNRMC,182921.000,A,4910.425625,N,12304.401577,W,0.005,102.00,171024,,,A,V*24
$GNGLL,4910.425625,N,12304.401577,W,182921.000,A,A*5E
$GNVTG,102.00,T,,M,0.005,N,0.010,K,A*24
$GNGSA,A,3,02,03,21,28,31,,,,,,,,1.57,0.96,1.25,1*01
$GNGSA,A,3,,,,,,,,,,,,,1.57,0.96,1.25,2*08
$GNGSA,A,3,,,,,,,,,,,,,1.57,0.96,1.25,3*09
$GNGSA,A,3,14,24,25,27,30,32,33,40,41,,,,1.57,0.96,1.25,4*0C
$GNGSA,A,3,,,,,,,,,,,,,1.57,0.96,1.25,5*0F
$GPGSV,2,1,06,02,45,230,19,03,49,301,22,21,36,208,23,28,56,081,24,1*6C
$GPGSV,2,2,06,31,55,152,17,32,,,20,1*53
$GPGSV,1,1,02,03,49,301,22,28,56,081,23,8*62
$GLGSV,1,1,00,1*78
$GAGSV,1,1,00,7*73
$GAGSV,1,1,00,1*75
$GBGSV,3,1,09,14,14,093,30,24,32,064,36,25,36,131,38,27,24,241,34,1*7D
$GBGSV,3,2,09,30,24,295,32,32,27,282,33,33,39,088,37,40,10,303,28,1*79
$GBGSV,3,3,09,41,80,337,40,1*41
$GBGSV,1,1,02,33,39,088,21,41,80,337,24,5*75
$GQGSV,1,1,00,1*65
