$GNGGA,182820.000,4910.416240,N,12304.393152,W,1,21,0.55,-64.290,M,-16.816,M,,*51
$GNGLL,4910.416240,N,12304.393152,W,182820.000,A,A*56
$GNGSA,A,3,28,31,03,02,21,32,04,25,17,19,26,10,0.84,0.55,0.63,1*0B
$GNGSA,A,3,72,,,,,,,,,,,,0.84,0.55,0.63,2*0E
$GNGSA,A,3,,,,,,,,,,,,,0.84,0.55,0.63,3*0A
$GNGSA,A,3,41,33,25,24,27,30,14,28,,,,,0.84,0.55,0.63,4*00
$GPGSV,4,1,13,28,57,085,26,31,54,154,27,03,49,302,27,02,46,231,24,1*68
$GPGSV,4,2,13,21,37,209,23,32,29,068,22,04,21,251,19,25,15,053,18,1*6C
$GPGSV,4,3,13,17,11,303,19,19,08,328,16,26,06,138,16,10,05,119,16,1*64
$GPGSV,4,4,13,41,,,,1*63
$GLGSV,1,1,01,72,12,079,19,1*49
$GAGSV,1,1,00,7*73
$GBGSV,3,1,12,41,80,334,36,33,40,088,30,25,36,132,31,24,33,065,30,1*7A
$GBGSV,3,2,12,27,25,242,30,30,24,296,27,14,15,093,25,28,05,203,16,1*79
$GBGSV,3,3,12,23,05,175,21,26,02,025,15,07,01,312,,10,01,325,18,1*7F
$GNRMC,182820.000,A,4910.416240,N,12304.393152,W,0.06,170.85,171024,,,A,V*17
$GNVTG,170.85,T,,M,0.06,N,0.12,K,A*2D
$GNGGA,182821.000,4910.416264,N,12304.393140,W,1,21,0.55,-64.292,M,-16.816,M,,*57
$GNGLL,4910.416264,N,12304.393140,W,182821.000,A,A*52
$GNGSA,A,3,28,31,03,02,21,32,04,25,17,19,26,10,0.84,0.55,0.63,1*0B
$GNGSA,A,3,72,,,,,,,,,,,,0.84,0.55,0.63,2*0E
$GNGSA,A,3,,,,,,,,,,,,,0.84,0.55,0.63,3*0A
$GNGSA,A,3,41,33,25,24,27,30,14,28,,,,,0.84,0.55,0.63,4*00
$GPGSV,4,1,14,28,57,082,26,31,54,154,27,03,49,302,27,02,46,231,24,1*68
$GPGSV,4,2,14,21,37,209,24,32,29,068,23,04,21,251,19,25,15,053,18,1*6D
$GPGSV,4,3,14,17,11,303,19,19,08,328,16,26,06,138,16,10,05,119,16,1*63
$GPGSV,4,4,14,12,04,019,,41,,,,1*5B
$GLGSV,1,1,01,72,12,079,19,1*49
$GAGSV,1,1,00,7*73
$GBGSV,4,1,14,41,80,334,36,33,40,088,30,25,36,132,31,24,33,065,30,1*7B
$GBGSV,4,2,14,27,25,242,30,30,24,296,28,14,15,093,25,28,05,203,16,1*77
$GBGSV,4,3,14,23,05,175,22,26,02,025,15,10,01,325,18,29,01,343,,1*75
$GBGSV,4,4,14,07,01,312,,04,01,261,,1*75
$GNRMC,182821.000,A,4910.416264,N,12304.393140,W,0.13,170.85,171024,,,A,V*17
$GNVTG,170.85,T,,M,0.13,N,0.24,K,A*2C
$GNGGA,182822.000,4910.416252,N,12304.393116,W,1,21,0.55,-64.299,M,-16.817,M,,*58
$GNGLL,4910.416252,N,12304.393116,W,182822.000,A,A*57
$GNGSA,A,3,28,31,03,02,21,32,04,25,17,19,26,10,0.84,0.55,0.63,1*0B
$GNGSA,A,3,72,,,,,,,,,,,,0.84,0.55,0.63,2*0E
$GNGSA,A,3,,,,,,,,,,,,,0.84,0.55,0.63,3*0A
$GNGSA,A,3,41,33,25,24,27,30,14,28,,,,,0.84,0.55,0.63,4*00
$GPGSV,4,1,13,28,57,082,26,31,54,154,27,03,49,302,27,02,46,231,24,1*6F
$GPGSV,4,2,13,21,37,209,24,32,29,068,23,04,21,251,19,25,15,053,18,1*6A
$GPGSV,4,3,13,17,11,303,19,19,08,328,15,26,06,138,16,10,05,119,16,1*67
$GPGSV,4,4,13,12,04,019,,1*59
$GLGSV,1,1,01,72,12,079,19,1*49
$GAGSV,1,1,00,7*73
$GBGSV,4,1,14,41,80,334,36,33,40,088,30,25,36,132,31,24,33,065,30,1*7B
$GBGSV,4,2,14,27,25,242,30,30,24,296,28,14,15,093,25,28,05,203,16,1*77
$GBGSV,4,3,14,23,05,175,22,26,02,025,15,10,01,325,18,29,01,343,,1*75
$GBGSV,4,4,14,07,01,312,15,04,01,261,,1*71
$GNRMC,182822.000,A,4910.416252,N,12304.393116,W,0.10,170.85,171024,,,A,V*11
$GNVTG,170.85,T,,M,0.10,N,0.18,K,A*20
$GNGGA,182823.000,4910.416252,N,12304.393104,W,1,21,0.55,-64.294,M,-16.816,M,,*56
$GNGLL,4910.416252,N,12304.393104,W,182823.000,A,A*55
$GNGSA,A,3,28,31,03,02,21,32,04,25,17,19,26,10,0.84,0.55,0.63,1*0B
$GNGSA,A,3,72,,,,,,,,,,,,0.84,0.55,0.63,2*0E
$GNGSA,A,3,,,,,,,,,,,,,0.84,0.55,0.63,3*0A
$GNGSA,A,3,41,33,25,24,27,30,14,28,,,,,0.84,0.55,0.63,4*00
$GPGSV,4,1,14,28,57,082,25,31,54,154,26,03,49,302,27,02,46,231,23,1*6D
$GPGSV,4,2,14,21,37,209,23,32,29,068,23,04,21,251,19,25,15,053,18,1*6A
$GPGSV,4,3,14,17,11,303,18,19,08,328,15,26,06,138,16,10,05,119,16,1*61
$GPGSV,4,4,14,12,04,019,,36,,,,1*5B
$GLGSV,1,1,01,72,12,079,19,1*49
$GAGSV,1,1,00,7*73
$GBGSV,4,1,14,41,80,334,36,33,40,088,30,25,36,132,32,24,33,065,30,1*78
$GBGSV,4,2,14,27,25,242,30,30,24,296,28,14,15,093,25,28,05,203,16,1*77
$GBGSV,4,3,14,23,05,175,22,26,02,025,15,10,01,325,18,29,01,343,,1*75
$GBGSV,4,4,14,07,01,312,13,04,01,261,,1*77
$GNRMC,182823.000,A,4910.416252,N,12304.393104,W,0.20,170.85,171024,,,A,V*10
$GNVTG,170.85,T,,M,0.20,N,0.38,K,A*21
$GNGGA,182824.000,4910.416252,N,12304.393074,W,1,21,0.55,-64.357,M,-16.816,M,,*59
$GNGLL,4910.416252,N,12304.393074,W,182824.000,A,A*54
$GNGSA,A,3,28,31,03,02,21,32,04,25,17,19,26,10,0.84,0.55,0.63,1*0B
$GNGSA,A,3,72,,,,,,,,,,,,0.84,0.55,0.63,2*0E
$GNGSA,A,3,,,,,,,,,,,,,0.84,0.55,0.63,3*0A
$GNGSA,A,3,41,33,25,24,27,30,14,28,,,,,0.84,0.55,0.63,4*00
$GPGSV,4,1,13,28,57,082,25,31,55,153,26,03,49,302,26,02,46,231,23,1*6D
$GPGSV,4,2,13,21,37,209,24,32,29,068,22,04,21,251,19,25,15,053,18,1*6B
$GPGSV,4,3,13,17,11,303,18,19,08,328,15,26,06,138,16,10,05,119,16,1*66
$GPGSV,4,4,13,36,,,,1*63
$GLGSV,1,1,01,72,12,079,19,1*49
$GAGSV,1,1,00,7*73
$GBGSV,3,1,12,41,80,334,36,33,40,088,30,25,36,132,32,24,33,065,30,1*79
$GBGSV,3,2,12,27,25,242,30,30,24,296,28,14,15,093,25,28,05,203,16,1*76
$GBGSV,3,3,12,23,05,175,22,26,02,025,15,07,01,312,12,10,01,325,18,1*7F
$GNRMC,182824.000,A,4910.416252,N,12304.393074,W,0.24,170.85,171024,,,A,V*15
$GNVTG,170.85,T,,M,0.24,N,0.45,K,A*2F
$GNGGA,182825.000,4910.416270,N,12304.393044,W,1,21,0.55,-64.444,M,-16.816,M,,*5E
$GNGLL,4910.416270,N,12304.393044,W,182825.000,A,A*56
$GNGSA,A,3,28,31,03,02,21,32,04,25,17,19,26,10,0.84,0.55,0.63,1*0B
$GNGSA,A,3,72,,,,,,,,,,,,0.84,0.55,0.63,2*0E
$GNGSA,A,3,,,,,,,,,,,,,0.84,0.55,0.63,3*0A
$GNGSA,A,3,41,33,25,24,27,30,14,28,,,,,0.84,0.55,0.63,4*00
$GPGSV,4,1,13,28,57,082,25,31,55,153,27,03,49,302,26,02,46,231,24,1*6B
$GPGSV,4,2,13,21,37,209,24,32,28,068,22,04,21,251,19,25,15,053,18,1*6A
$GPGSV,4,3,13,17,11,303,18,19,08,328,17,26,06,138,16,10,05,119,16,1*64
$GPGSV,4,4,13,36,,,,1*63
$GLGSV,1,1,01,72,12,079,19,1*49
$GAGSV,1,1,00,7*73
$GBGSV,3,1,12,41,80,334,36,33,40,088,30,25,36,132,32,24,33,065,30,1*79
$GBGSV,3,2,12,27,25,242,30,30,24,296,28,14,15,093,25,28,05,203,16,1*76
$GBGSV,3,3,12,23,05,175,22,26,02,025,15,07,01,312,12,10,01,325,18,1*7F
$GNRMC,182825.000,A,4910.416270,N,12304.393044,W,0.10,170.85,171024,,,A,V*10
$GNVTG,170.85,T,,M,0.10,N,0.19,K,A*21
$GNGGA,182826.000,4910.416240,N,12304.393044,W,1,21,0.55,-64.473,M,-16.816,M,,*5A
$GNGLL,4910.416240,N,12304.393044,W,182826.000,A,A*56
$GNGSA,A,3,28,31,03,02,21,32,04,25,17,19,26,10,0.84,0.55,0.63,1*0B
$GNGSA,A,3,72,,,,,,,,,,,,0.84,0.55,0.63,2*0E
$GNGSA,A,3,,,,,,,,,,,,,0.84,0.55,0.63,3*0A
$GNGSA,A,3,41,33,25,24,27,30,14,28,,,,,0.84,0.55,0.63,4*00
$GPGSV,4,1,14,28,57,082,25,31,55,153,27,03,49,302,26,02,46,231,24,1*6C
$GPGSV,4,2,14,21,37,209,24,32,28,068,22,04,21,251,19,25,15,053,18,1*6D
$GPGSV,4,3,14,17,11,303,18,19,08,328,17,26,06,138,16,10,05,119,16,1*63
$GPGSV,4,4,14,12,04,019,,36,,,,1*5B
$GLGSV,1,1,01,72,12,079,19,1*49
$GAGSV,1,1,00,7*73
$GBGSV,4,1,14,41,80,334,36,33,40,088,30,25,36,132,32,24,33,065,30,1*78
$GBGSV,4,2,14,27,25,242,31,30,24,296,28,14,15,093,25,28,05,203,16,1*76
$GBGSV,4,3,14,23,05,175,22,26,02,025,15,10,01,325,18,29,01,343,,1*75
$GBGSV,4,4,14,07,01,312,12,04,01,261,,1*76
$GNRMC,182826.000,A,4910.416240,N,12304.393044,W,0.23,170.85,171024,,,A,V*10
$GNVTG,170.85,T,,M,0.23,N,0.42,K,A*2F
$GNGGA,182827.000,4910.416264,N,12304.393008,W,1,21,0.55,-64.406,M,-16.816,M,,*57
$GNGLL,4910.416264,N,12304.393008,W,182827.000,A,A*59
$GNGSA,A,3,28,31,03,02,21,32,04,25,17,19,26,10,0.84,0.55,0.63,1*0B
$GNGSA,A,3,72,,,,,,,,,,,,0.84,0.55,0.63,2*0E
$GNGSA,A,3,,,,,,,,,,,,,0.84,0.55,0.63,3*0A
$GNGSA,A,3,41,33,25,24,27,30,14,28,,,,,0.84,0.55,0.63,4*00
$GPGSV,4,1,14,28,57,082,25,31,55,153,27,03,49,302,26,02,46,231,24,1*6C
$GPGSV,4,2,14,21,37,209,24,32,28,068,22,04,21,251,19,25,15,053,17,1*62
$GPGSV,4,3,14,17,11,303,18,19,08,328,17,26,06,138,16,10,05,119,16,1*63
$GPGSV,4,4,14,12,04,019,,36,,,,1*5B
$GLGSV,1,1,01,72,12,079,20,1*43
$GAGSV,1,1,00,7*73
$GBGSV,4,1,14,41,80,334,36,33,40,088,30,25,36,132,32,24,33,065,30,1*78
$GBGSV,4,2,14,27,25,242,31,30,24,296,28,14,15,093,24,28,05,203,16,1*77
$GBGSV,4,3,14,23,05,175,22,26,02,025,15,10,01,325,18,29,01,343,,1*75
$GBGSV,4,4,14,07,01,312,12,04,01,261,,1*76
$GNRMC,182827.000,A,4910.416264,N,12304.393008,W,0.17,170.85,171024,,,A,V*18
$GNVTG,170.85,T,,M,0.17,N,0.31,K,A*2C
$GNGGA,182828.000,4910.416276,N,12304.392966,W,1,21,0.55,-64.353,M,-16.816,M,,*5C
$GNGLL,4910.416276,N,12304.392966,W,182828.000,A,A*55
$GNGSA,A,3,28,31,03,02,21,32,04,25,17,19,26,10,0.84,0.55,0.63,1*0B
$GNGSA,A,3,72,,,,,,,,,,,,0.84,0.55,0.63,2*0E
$GNGSA,A,3,,,,,,,,,,,,,0.84,0.55,0.63,3*0A
$GNGSA,A,3,41,33,25,24,27,30,14,28,,,,,0.84,0.55,0.63,4*00
$GPGSV,4,1,13,28,57,082,24,31,55,153,27,03,49,302,26,02,46,231,24,1*6A
$GPGSV,4,2,13,21,37,209,24,32,28,068,22,04,21,251,19,25,15,053,17,1*65
$GPGSV,4,3,13,17,11,303,18,19,08,328,16,26,06,138,16,10,05,119,16,1*65
$GPGSV,4,4,13,12,04,019,,1*59
$GLGSV,1,1,01,72,12,079,20,1*43
$GAGSV,1,1,00,7*73
$GBGSV,4,1,14,41,80,334,36,33,40,088,30,25,36,132,32,24,33,065,30,1*78
$GBGSV,4,2,14,27,25,242,31,30,24,296,28,14,15,093,24,28,05,203,16,1*77
$GBGSV,4,3,14,23,05,175,22,26,02,025,15,10,01,325,18,29,01,343,,1*75
$GBGSV,4,4,14,07,01,312,12,04,01,261,,1*76
$GNRMC,182828.000,A,4910.416276,N,12304.392966,W,0.18,170.85,171024,,,A,V*1B
$GNVTG,170.85,T,,M,0.18,N,0.34,K,A*26
$GNGGA,182829.000,4910.416276,N,12304.392954,W,1,21,0.55,-64.285,M,-16.816,M,,*56
$GNGLL,4910.416276,N,12304.392954,W,182829.000,A,A*55
$GNGSA,A,3,28,31,03,02,21,32,04,25,17,19,26,10,0.84,0.55,0.63,1*0B
$GNGSA,A,3,72,,,,,,,,,,,,0.84,0.55,0.63,2*0E
$GNGSA,A,3,,,,,,,,,,,,,0.84,0.55,0.63,3*0A
$GNGSA,A,3,41,33,25,24,27,30,14,28,,,,,0.84,0.55,0.63,4*00
$GPGSV,4,1,14,28,57,082,24,31,55,153,27,03,49,302,26,02,46,231,24,1*6D
$GPGSV,4,2,14,21,37,209,24,32,28,068,22,04,21,251,19,25,15,053,17,1*62
$GPGSV,4,3,14,17,11,303,18,19,08,328,17,26,06,138,16,10,05,119,16,1*63
$GPGSV,4,4,14,12,04,019,,49,,,,1*53
$GLGSV,1,1,01,72,12,079,20,1*43
$GAGSV,1,1,00,7*73
$GBGSV,4,1,14,41,80,334,36,33,40,088,30,25,36,132,32,24,33,065,31,1*79
$GBGSV,4,2,14,27,25,242,31,30,24,296,28,14,15,093,24,28,05,203,16,1*77
$GBGSV,4,3,14,23,05,175,22,26,02,025,14,10,01,325,18,29,01,343,,1*74
$GBGSV,4,4,14,07,01,312,13,04,01,261,,1*77
$GNRMC,182829.000,A,4910.416276,N,12304.392954,W,0.13,170.85,171024,,,A,V*10
$GNVTG,170.85,T,,M,0.13,N,0.24,K,A*2C
$GNGGA,182830.000,4910.416306,N,12304.392984,W,1,21,0.55,-64.242,M,-16.817,M,,*5F
$GNGLL,4910.416306,N,12304.392984,W,182830.000,A,A*56
$GNGSA,A,3,28,31,03,02,21,32,04,25,17,19,26,10,0.84,0.55,0.63,1*0B
$GNGSA,A,3,72,,,,,,,,,,,,0.84,0.55,0.63,2*0E
$GNGSA,A,3,,,,,,,,,,,,,0.84,0.55,0.63,3*0A
$GNGSA,A,3,41,33,25,24,27,30,14,28,,,,,0.84,0.55,0.63,4*00
$GPGSV,4,1,14,28,57,082,23,31,55,153,26,03,49,302,25,02,46,231,23,1*6F
$GPGSV,4,2,14,21,37,209,23,32,28,068,21,04,21,251,18,25,15,053,16,1*66
$GPGSV,4,3,14,17,11,303,18,19,08,328,15,26,06,138,16,10,05,119,16,1*61
$GPGSV,4,4,14,12,04,019,,49,,,,1*53
$GLGSV,1,1,01,72,12,079,20,1*43
$GAGSV,1,1,00,7*73
$GBGSV,4,1,14,41,80,334,36,33,40,088,30,25,36,132,32,24,33,065,31,1*79
$GBGSV,4,2,14,27,25,242,30,30,24,296,28,14,15,093,24,28,05,203,16,1*76
$GBGSV,4,3,14,23,05,175,22,26,02,025,15,10,01,325,18,29,01,343,,1*75
$GBGSV,4,4,14,07,01,312,13,04,01,261,,1*77
$GNRMC,182830.000,A,4910.416306,N,12304.392984,W,0.14,170.85,171024,,,A,V*14
$GNVTG,170.85,T,,M,0.14,N,0.27,K,A*28
$GNGGA,182831.000,4910.416282,N,12304.393026,W,1,21,0.55,-64.281,M,-16.816,M,,*5D
$GNGLL,4910.416282,N,12304.393026,W,182831.000,A,A*5A
$GNGSA,A,3,28,31,03,02,21,32,04,25,17,19,26,10,0.84,0.55,0.63,1*0B
$GNGSA,A,3,72,,,,,,,,,,,,0.84,0.55,0.63,2*0E
$GNGSA,A,3,,,,,,,,,,,,,0.84,0.55,0.63,3*0A
$GNGSA,A,3,41,33,25,24,27,30,14,28,,,,,0.84,0.55,0.63,4*00
$GPGSV,4,1,13,28,57,082,23,31,55,153,26,03,49,302,25,02,46,231,23,1*68
$GPGSV,4,2,13,21,37,209,23,32,28,068,20,04,21,251,18,25,15,053,16,1*60
$GPGSV,4,3,13,17,11,303,18,19,08,328,15,26,06,138,16,10,05,119,16,1*66
$GPGSV,4,4,13,49,,,,1*6B
$GLGSV,1,1,01,72,12,079,19,1*49
$GAGSV,1,1,00,7*73
$GBGSV,3,1,12,41,80,334,36,33,40,088,30,25,36,132,32,24,33,065,31,1*78
$GBGSV,3,2,12,27,25,242,30,30,24,296,29,14,15,093,24,28,05,203,16,1*76
$GBGSV,3,3,12,23,05,175,22,26,02,025,14,07,01,312,14,10,01,325,18,1*78
$GNRMC,182831.000,A,4910.416282,N,12304.393026,W,0.04,170.85,171024,,,A,V*19
$GNVTG,170.85,T,,M,0.04,N,0.07,K,A*2B
$GNGGA,182832.000,4910.416288,N,12304.393032,W,1,21,0.55,-64.283,M,-16.817,M,,*52
$GNGLL,4910.416288,N,12304.393032,W,182832.000,A,A*56
$GNGSA,A,3,28,31,03,02,21,32,04,25,17,19,26,10,0.84,0.55,0.63,1*0B
$GNGSA,A,3,72,,,,,,,,,,,,0.84,0.55,0.63,2*0E
$GNGSA,A,3,,,,,,,,,,,,,0.84,0.55,0.63,3*0A
$GNGSA,A,3,41,33,25,24,27,30,14,28,,,,,0.84,0.55,0.63,4*00
$GPGSV,4,1,13,28,57,082,24,31,55,153,27,03,49,302,29,02,46,231,24,1*65
$GPGSV,4,2,13,21,37,209,25,32,28,068,21,04,21,251,18,25,15,053,17,1*66
$GPGSV,4,3,13,17,11,303,20,19,08,328,15,26,06,138,16,10,05,119,17,1*6C
$GPGSV,4,4,13,49,,,,1*6B
$GLGSV,1,1,01,72,12,079,19,1*49
$GAGSV,1,1,00,7*73
$GBGSV,3,1,12,41,80,334,36,33,40,088,30,25,36,132,32,24,33,065,31,1*78
$GBGSV,3,2,12,27,25,242,30,30,24,296,29,14,15,093,24,28,05,203,16,1*76
$GBGSV,3,3,12,23,05,175,23,26,02,025,14,07,01,312,13,10,01,325,18,1*7E
$GNRMC,182832.000,A,4910.416288,N,12304.393032,W,0.19,170.85,171024,,,A,V*19
$GNVTG,170.85,T,,M,0.19,N,0.35,K,A*26
$GNGGA,182833.000,4910.416312,N,12304.393014,W,1,21,0.55,-64.229,M,-16.816,M,,*54
$GNGLL,4910.416312,N,12304.393014,W,182833.000,A,A*51
$GNGSA,A,3,28,31,03,02,21,32,04,25,17,19,26,10,0.84,0.55,0.63,1*0B
$GNGSA,A,3,72,,,,,,,,,,,,0.84,0.55,0.63,2*0E
$GNGSA,A,3,,,,,,,,,,,,,0.84,0.55,0.63,3*0A
$GNGSA,A,3,41,33,25,24,27,30,14,28,,,,,0.84,0.55,0.63,4*00
$GPGSV,4,1,14,28,57,082,25,31,55,153,27,03,49,302,28,02,46,231,25,1*63
$GPGSV,4,2,14,21,37,209,25,32,28,068,21,04,21,251,19,25,15,053,17,1*60
$GPGSV,4,3,14,17,11,303,20,19,08,328,15,26,06,138,16,10,05,119,17,1*6B
$GPGSV,4,4,14,12,04,019,,49,,,,1*53
$GLGSV,1,1,01,72,12,079,19,1*49
$GAGSV,1,1,00,7*73
$GBGSV,4,1,14,41,80,334,37,33,40,088,31,25,36,132,33,24,33,065,32,1*7B
$GBGSV,4,2,14,27,25,242,30,30,24,296,29,14,15,093,25,28,05,203,16,1*76
$GBGSV,4,3,14,23,05,175,23,26,02,025,12,10,01,325,18,29,01,343,,1*73
$GBGSV,4,4,14,07,01,312,12,04,01,261,,1*76
$GNRMC,182833.000,A,4910.416312,N,12304.393014,W,0.15,170.85,171024,,,A,V*12
$GNVTG,170.85,T,,M,0.15,N,0.28,K,A*26
$GNGGA,182834.000,4910.416324,N,12304.392978,W,1,21,0.55,-64.226,M,-16.817,M,,*5A
$GNGLL,4910.416324,N,12304.392978,W,182834.000,A,A*51
$GNGSA,A,3,28,31,03,02,21,32,04,25,17,19,26,10,0.84,0.55,0.63,1*0B
$GNGSA,A,3,72,,,,,,,,,,,,0.84,0.55,0.63,2*0E
$GNGSA,A,3,,,,,,,,,,,,,0.84,0.55,0.63,3*0A
$GNGSA,A,3,41,33,25,24,27,30,14,28,,,,,0.84,0.55,0.63,4*00
$GPGSV,4,1,13,28,57,082,25,31,55,153,27,03,49,302,27,02,46,231,25,1*6B
$GPGSV,4,2,13,21,37,209,25,32,28,068,22,04,21,251,19,25,15,053,18,1*6B
$GPGSV,4,3,13,17,11,303,20,19,08,328,16,26,06,138,16,10,05,119,17,1*6F
$GPGSV,4,4,13,12,04,019,,1*59
$GLGSV,1,1,01,72,12,079,18,1*48
$GAGSV,1,1,00,7*73
$GBGSV,4,1,14,41,80,334,37,33,40,088,31,25,36,132,33,24,33,065,32,1*7B
$GBGSV,4,2,14,27,25,242,30,30,24,296,29,14,15,093,25,28,05,203,16,1*76
$GBGSV,4,3,14,23,05,175,22,26,02,025,13,10,01,325,18,29,01,343,,1*73
$GBGSV,4,4,14,07,01,312,13,04,01,261,,1*77
$GNRMC,182834.000,A,4910.416324,N,12304.392978,W,0.16,170.85,171024,,,A,V*11
$GNVTG,170.85,T,,M,0.16,N,0.30,K,A*2C
$GNGGA,182835.000,4910.416354,N,12304.393032,W,1,21,0.55,-64.231,M,-16.816,M,,*5D
$GNGLL,4910.416354,N,12304.393032,W,182835.000,A,A*51
$GNGSA,A,3,28,31,03,02,21,32,04,25,17,19,26,10,0.84,0.55,0.63,1*0B
$GNGSA,A,3,72,,,,,,,,,,,,0.84,0.55,0.63,2*0E
$GNGSA,A,3,,,,,,,,,,,,,0.84,0.55,0.63,3*0A
$GNGSA,A,3,41,33,25,24,27,30,14,28,,,,,0.84,0.55,0.63,4*00
$GPGSV,4,1,14,28,57,082,25,31,55,153,27,03,49,302,27,02,46,231,25,1*6C
$GPGSV,4,2,14,21,37,209,25,32,28,068,21,04,21,251,19,25,15,053,18,1*6F
$GPGSV,4,3,14,17,11,303,20,19,08,328,16,26,06,138,16,10,05,119,17,1*68
$GPGSV,4,4,14,12,04,019,,39,,,,1*54
$GLGSV,1,1,01,72,12,079,18,1*48
$GAGSV,1,1,00,7*73
$GBGSV,4,1,14,41,80,334,37,33,40,088,31,25,36,132,33,24,33,065,32,1*7B
$GBGSV,4,2,14,27,25,242,30,30,24,296,29,14,15,093,25,28,05,203,17,1*77
$GBGSV,4,3,14,23,05,175,22,26,02,025,14,10,01,325,18,29,01,343,,1*74
$GBGSV,4,4,14,07,01,312,13,04,01,261,,1*77
$GNRMC,182835.000,A,4910.416354,N,12304.393032,W,0.07,170.85,171024,,,A,V*11
$GNVTG,170.85,T,,M,0.07,N,0.13,K,A*2D
$GNGGA,182836.000,4910.416354,N,12304.393056,W,1,21,0.55,-64.266,M,-16.817,M,,*5F
$GNGLL,4910.416354,N,12304.393056,W,182836.000,A,A*50
$GNGSA,A,3,28,31,03,02,21,32,04,25,17,19,26,10,0.84,0.55,0.63,1*0B
$GNGSA,A,3,72,,,,,,,,,,,,0.84,0.55,0.63,2*0E
$GNGSA,A,3,,,,,,,,,,,,,0.84,0.55,0.63,3*0A
$GNGSA,A,3,41,33,25,24,27,30,14,28,,,,,0.84,0.55,0.63,4*00
$GPGSV,4,1,13,28,57,082,25,31,55,153,27,03,49,302,28,02,46,231,25,1*64
$GPGSV,4,2,13,21,37,209,25,32,28,068,21,04,21,251,19,25,15,053,19,1*69
$GPGSV,4,3,13,17,11,303,20,19,08,328,16,26,06,138,16,10,05,119,17,1*6F
$GPGSV,4,4,13,39,,,,1*6C
$GLGSV,1,1,01,72,12,079,18,1*48
$GAGSV,1,1,00,7*73
$GBGSV,3,1,12,41,80,334,37,33,40,088,31,25,36,132,33,24,33,065,32,1*7A
$GBGSV,3,2,12,27,25,242,30,30,24,296,29,14,15,093,25,28,05,203,18,1*79
$GBGSV,3,3,12,23,05,175,22,26,02,025,12,07,01,312,13,10,01,325,17,1*76
$GNRMC,182836.000,A,4910.416354,N,12304.393056,W,0.14,170.85,171024,,,A,V*12
$GNVTG,170.85,T,,M,0.14,N,0.27,K,A*28
$GNGGA,182837.000,4910.416366,N,12304.393104,W,1,21,0.55,-64.281,M,-16.816,M,,*51
$GNGLL,4910.416366,N,12304.393104,W,182837.000,A,A*56
$GNGSA,A,3,28,31,03,02,21,32,04,25,17,19,26,10,0.84,0.55,0.63,1*0B
$GNGSA,A,3,72,,,,,,,,,,,,0.84,0.55,0.63,2*0E
$GNGSA,A,3,,,,,,,,,,,,,0.84,0.55,0.63,3*0A
$GNGSA,A,3,41,33,25,24,27,30,14,28,,,,,0.84,0.55,0.63,4*00
$GPGSV,4,1,13,28,57,082,25,31,55,153,27,03,49,302,27,02,46,231,24,1*6A
$GPGSV,4,2,13,21,37,209,24,32,28,068,20,04,21,251,19,25,15,053,19,1*69
$GPGSV,4,3,13,17,11,303,20,19,08,328,16,26,06,138,16,10,05,119,17,1*6F
$GPGSV,4,4,13,39,,,,1*6C
$GLGSV,1,1,01,72,12,079,19,1*49
$GAGSV,1,1,00,7*73
$GBGSV,3,1,12,41,80,334,37,33,40,088,31,25,36,132,33,24,33,065,32,1*7A
$GBGSV,3,2,12,27,25,242,30,30,24,296,29,14,15,093,25,28,05,203,19,1*78
$GBGSV,3,3,12,23,05,175,22,26,02,025,12,07,01,312,13,10,01,325,17,1*76
$GNRMC,182837.000,A,4910.416366,N,12304.393104,W,0.24,170.85,171024,,,A,V*17
$GNVTG,170.85,T,,M,0.24,N,0.45,K,A*2F
$GNGGA,182838.000,4910.416384,N,12304.393176,W,1,21,0.55,-64.250,M,-16.816,M,,*5B
$GNGLL,4910.416384,N,12304.393176,W,182838.000,A,A*50
$GNGSA,A,3,28,31,03,02,21,32,04,25,17,19,26,10,0.84,0.55,0.63,1*0B
$GNGSA,A,3,72,,,,,,,,,,,,0.84,0.55,0.63,2*0E
$GNGSA,A,3,,,,,,,,,,,,,0.84,0.55,0.63,3*0A
$GNGSA,A,3,41,33,25,24,27,30,14,28,,,,,0.84,0.55,0.63,4*00
$GPGSV,4,1,14,28,57,082,24,31,55,153,26,03,49,302,26,02,46,231,23,1*6B
$GPGSV,4,2,14,21,37,209,24,32,28,068,19,04,21,251,18,25,15,053,18,1*64
$GPGSV,4,3,14,17,11,303,20,19,08,328,16,26,06,138,15,10,05,119,17,1*6B
$GPGSV,4,4,14,12,04,019,,39,,,,1*54
$GLGSV,1,1,01,72,12,079,19,1*49
$GAGSV,1,1,00,7*73
$GBGSV,4,1,14,41,80,334,37,33,40,088,31,25,36,132,33,24,33,065,32,1*7B
$GBGSV,4,2,14,27,25,242,31,30,24,296,29,14,15,093,25,28,05,203,19,1*78
$GBGSV,4,3,14,23,05,175,22,26,02,025,13,10,01,325,17,29,01,343,,1*7C
$GBGSV,4,4,14,07,01,312,,04,01,261,,1*75
$GNRMC,182838.000,A,4910.416384,N,12304.393176,W,0.06,170.85,171024,,,A,V*11
$GNVTG,170.85,T,,M,0.06,N,0.11,K,A*2E
$GNGGA,182839.000,4910.416414,N,12304.393194,W,1,21,0.55,-64.176,M,-16.816,M,,*5F
$GNGLL,4910.416414,N,12304.393194,W,182839.000,A,A*53
$GNGSA,A,3,28,31,03,02,21,32,04,25,17,19,26,10,0.84,0.55,0.63,1*0B
$GNGSA,A,3,72,,,,,,,,,,,,0.84,0.55,0.63,2*0E
$GNGSA,A,3,,,,,,,,,,,,,0.84,0.55,0.63,3*0A
$GNGSA,A,3,41,33,25,24,27,30,14,28,,,,,0.84,0.55,0.63,4*00
$GPGSV,4,1,14,28,57,082,24,31,55,153,26,03,49,302,26,02,46,231,23,1*6B
$GPGSV,4,2,14,21,37,209,25,32,28,068,19,04,21,251,18,25,15,053,18,1*65
$GPGSV,4,3,14,17,11,303,20,19,08,328,16,26,06,138,16,10,05,119,17,1*68
$GPGSV,4,4,14,12,04,019,,39,,,,1*54
$GLGSV,1,1,01,72,12,079,19,1*49
$GAGSV,1,1,00,7*73
$GBGSV,4,1,14,41,80,334,37,33,40,088,31,25,36,132,33,24,33,065,31,1*78
$GBGSV,4,2,14,27,25,242,31,30,24,296,29,14,15,093,25,28,05,203,19,1*78
$GBGSV,4,3,14,23,05,175,22,26,02,025,14,10,01,325,17,29,01,343,,1*7B
$GBGSV,4,4,14,07,01,312,,04,01,261,,1*75
$GNRMC,182839.000,A,4910.416414,N,12304.393194,W,0.17,170.85,171024,,,A,V*12
$GNVTG,170.85,T,,M,0.17,N,0.31,K,A*2C
$GNGGA,182840.000,4910.416438,N,12304.393188,W,1,21,0.55,-64.082,M,-16.816,M,,*58
$GNGLL,4910.416438,N,12304.393188,W,182840.000,A,A*5E
$GNGSA,A,3,28,31,03,02,21,32,04,25,17,19,26,10,0.84,0.55,0.63,1*0B
$GNGSA,A,3,72,,,,,,,,,,,,0.84,0.55,0.63,2*0E
$GNGSA,A,3,,,,,,,,,,,,,0.84,0.55,0.63,3*0A
$GNGSA,A,3,41,33,25,24,27,30,14,28,,,,,0.84,0.55,0.63,4*00
$GPGSV,4,1,13,28,57,082,24,31,55,153,26,03,49,302,27,02,46,231,23,1*6D
$GPGSV,4,2,13,21,37,209,25,32,28,068,19,04,21,251,18,25,15,053,19,1*63
$GPGSV,4,3,13,17,11,303,20,19,08,328,16,26,06,138,16,10,05,119,17,1*6F
$GPGSV,4,4,13,12,04,019,,1*59
$GLGSV,1,1,01,72,12,079,19,1*49
$GAGSV,1,1,00,7*73
$GBGSV,4,1,14,41,80,334,37,33,40,088,32,25,36,132,34,24,33,065,31,1*7C
$GBGSV,4,2,14,27,25,242,31,30,24,296,29,14,15,093,25,28,05,203,19,1*78
$GBGSV,4,3,14,23,05,175,22,26,02,025,14,10,01,325,18,29,01,343,,1*74
$GBGSV,4,4,14,07,01,312,,04,01,261,,1*75
$GNRMC,182840.000,A,4910.416438,N,12304.393188,W,0.15,170.85,171024,,,A,V*1D
$GNVTG,170.85,T,,M,0.15,N,0.27,K,A*29
$GNGGA,182841.000,4910.416486,N,12304.393182,W,1,21,0.55,-64.053,M,-16.817,M,,*5B
$GNGLL,4910.416486,N,12304.393182,W,182841.000,A,A*50
$GNGSA,A,3,28,31,03,02,21,32,04,25,17,19,26,10,0.84,0.55,0.63,1*0B
$GNGSA,A,3,72,,,,,,,,,,,,0.84,0.55,0.63,2*0E
$GNGSA,A,3,,,,,,,,,,,,,0.84,0.55,0.63,3*0A
$GNGSA,A,3,41,33,25,24,27,30,14,28,,,,,0.84,0.55,0.63,4*00
$GPGSV,4,1,14,28,57,082,25,31,55,153,27,03,49,302,27,02,46,231,24,1*6D
$GPGSV,4,2,14,21,37,209,25,32,28,068,20,04,21,251,18,25,15,053,20,1*64
$GPGSV,4,3,14,17,11,303,20,19,08,328,17,26,06,138,16,10,05,119,18,1*66
$GPGSV,4,4,14,12,04,019,,40,,,,1*5A
$GLGSV,1,1,01,72,12,079,18,1*48
$GAGSV,1,1,00,7*73
$GBGSV,4,1,14,41,80,334,37,33,40,088,32,25,36,132,33,24,33,065,31,1*7B
$GBGSV,4,2,14,27,25,242,31,30,24,296,29,14,15,093,25,28,05,203,19,1*78
$GBGSV,4,3,14,23,05,175,22,26,02,025,12,10,01,325,18,29,01,343,,1*72
$GBGSV,4,4,14,07,01,312,,04,01,261,,1*75
$GNRMC,182841.000,A,4910.416486,N,12304.393182,W,0.05,170.85,171024,,,A,V*12
$GNVTG,170.85,T,,M,0.05,N,0.09,K,A*24
$GNGGA,182842.000,4910.416510,N,12304.393170,W,1,21,0.55,-64.023,M,-16.817,M,,*5C
$GNGLL,4910.416510,N,12304.393170,W,182842.000,A,A*50
$GNGSA,A,3,28,31,03,02,21,32,04,25,17,19,26,10,0.84,0.55,0.63,1*0B
$GNGSA,A,3,72,,,,,,,,,,,,0.84,0.55,0.63,2*0E
$GNGSA,A,3,,,,,,,,,,,,,0.84,0.55,0.63,3*0A
$GNGSA,A,3,41,33,25,24,27,30,14,28,,,,,0.84,0.55,0.63,4*00
$GPGSV,4,1,14,28,57,082,25,31,55,153,27,03,49,302,27,02,46,231,25,1*6C
$GPGSV,4,2,14,21,37,209,27,32,28,068,21,04,21,251,18,25,15,053,21,1*66
$GPGSV,4,3,14,17,11,303,21,19,08,328,18,26,06,138,16,10,05,119,18,1*68
$GPGSV,4,4,14,12,04,019,,40,,,,1*5A
$GLGSV,1,1,01,72,12,079,18,1*48
$GAGSV,1,1,00,7*73
$GBGSV,4,1,14,41,80,334,37,33,40,088,32,25,36,132,33,24,33,065,31,1*7B
$GBGSV,4,2,14,27,25,242,31,30,24,296,29,14,15,093,25,28,05,203,19,1*78
$GBGSV,4,3,14,23,05,175,22,26,02,025,14,10,01,325,18,29,01,343,,1*74
$GBGSV,4,4,14,07,01,312,,04,01,261,,1*75
$GNRMC,182842.000,A,4910.416510,N,12304.393170,W,0.11,170.85,171024,,,A,V*17
$GNVTG,170.85,T,,M,0.11,N,0.20,K,A*2A
$GNGGA,182843.000,4910.416534,N,12304.393200,W,1,21,0.55,-63.969,M,-16.816,M,,*5E
$GNGLL,4910.416534,N,12304.393200,W,182843.000,A,A*53
$GNGSA,A,3,28,31,03,02,21,32,04,25,17,19,26,10,0.84,0.55,0.63,1*0B
$GNGSA,A,3,72,,,,,,,,,,,,0.84,0.55,0.63,2*0E
$GNGSA,A,3,,,,,,,,,,,,,0.84,0.55,0.63,3*0A
$GNGSA,A,3,41,33,25,24,27,30,14,28,,,,,0.84,0.55,0.63,4*00
$GPGSV,4,1,13,28,57,082,25,31,55,153,27,03,49,302,27,02,46,231,25,1*6B
$GPGSV,4,2,13,21,37,209,26,32,28,068,22,04,21,251,19,25,15,053,20,1*63
$GPGSV,4,3,13,17,11,303,21,19,08,328,18,26,06,138,16,10,05,119,18,1*6F
$GPGSV,4,4,13,40,,,,1*62
$GLGSV,1,1,01,72,12,079,18,1*48
$GAGSV,1,1,00,7*73
$GBGSV,3,1,12,41,80,334,37,33,40,088,32,25,36,132,33,24,33,065,31,1*7A
$GBGSV,3,2,12,27,25,242,31,30,24,296,29,14,15,093,25,28,05,203,18,1*78
$GBGSV,3,3,12,23,05,175,22,26,02,025,12,29,01,343,,10,01,325,18,1*73
$GNRMC,182843.000,A,4910.416534,N,12304.393200,W,0.08,170.85,171024,,,A,V*1C
$GNVTG,170.85,T,,M,0.08,N,0.14,K,A*25
$GNGGA,182844.000,4910.416558,N,12304.393194,W,1,21,0.55,-63.940,M,-16.816,M,,*56
$GNGLL,4910.416558,N,12304.393194,W,182844.000,A,A*50
$GNGSA,A,3,28,31,03,02,21,32,04,25,17,19,26,10,0.84,0.55,0.63,1*0B
$GNGSA,A,3,72,,,,,,,,,,,,0.84,0.55,0.63,2*0E
$GNGSA,A,3,,,,,,,,,,,,,0.84,0.55,0.63,3*0A
$GNGSA,A,3,41,33,25,24,27,30,14,28,,,,,0.84,0.55,0.63,4*00
$GPGSV,4,1,13,28,57,082,24,31,55,153,27,03,49,302,27,02,46,231,25,1*6A
$GPGSV,4,2,13,21,37,209,26,32,28,068,22,04,21,251,19,25,15,053,20,1*63
$GPGSV,4,3,13,17,11,303,21,19,08,328,18,26,06,138,16,10,05,119,18,1*6F
$GPGSV,4,4,13,40,,,,1*62
$GLGSV,1,1,01,72,12,079,18,1*48
$GAGSV,1,1,00,7*73
$GBGSV,3,1,12,41,80,334,37,33,40,088,32,25,36,132,33,24,33,065,31,1*7A
$GBGSV,3,2,12,27,25,242,31,30,24,296,29,14,15,093,25,28,05,203,18,1*78
$GBGSV,3,3,12,23,05,175,21,26,02,025,13,29,01,343,,10,01,325,18,1*71
$GNRMC,182844.000,A,4910.416558,N,12304.393194,W,0.20,170.85,171024,,,A,V*15
$GNVTG,170.85,T,,M,0.20,N,0.36,K,A*2F
$GNGGA,182845.000,4910.416564,N,12304.393188,W,1,21,0.55,-63.915,M,-16.816,M,,*55
$GNGLL,4910.416564,N,12304.393188,W,182845.000,A,A*53
$GNGSA,A,3,28,31,03,02,21,32,04,25,17,19,26,10,0.84,0.55,0.63,1*0B
$GNGSA,A,3,72,,,,,,,,,,,,0.84,0.55,0.63,2*0E
$GNGSA,A,3,,,,,,,,,,,,,0.84,0.55,0.63,3*0A
$GNGSA,A,3,41,33,25,24,27,30,14,28,,,,,0.84,0.55,0.63,4*00
$GPGSV,4,1,13,28,57,082,22,31,55,153,25,03,49,302,26,02,46,231,23,1*69
$GPGSV,4,2,13,21,37,209,21,32,28,068,21,04,21,251,18,25,15,053,17,1*62
$GPGSV,4,3,13,17,11,303,20,19,08,328,17,26,06,138,16,10,05,119,18,1*61
$GPGSV,4,4,13,40,,,,1*62
$GLGSV,1,1,01,72,12,079,18,1*48
$GAGSV,1,1,00,7*73
$GBGSV,3,1,12,41,80,334,37,33,40,088,32,25,36,132,33,24,33,065,31,1*7A
$GBGSV,3,2,12,27,25,242,31,30,24,296,29,14,15,093,25,28,05,203,18,1*78
$GBGSV,3,3,12,23,05,175,21,26,02,025,11,29,01,343,,10,01,325,18,1*73
$GNRMC,182845.000,A,4910.416564,N,12304.393188,W,0.19,170.85,171024,,,A,V*1C
$GNVTG,170.85,T,,M,0.19,N,0.35,K,A*26
$GNGGA,182846.000,4910.416540,N,12304.393164,W,1,21,0.55,-63.872,M,-16.816,M,,*52
$GNGLL,4910.416540,N,12304.393164,W,182846.000,A,A*54
$GNGSA,A,3,28,31,03,02,21,32,04,25,17,19,26,10,0.84,0.55,0.63,1*0B
$GNGSA,A,3,72,,,,,,,,,,,,0.84,0.55,0.63,2*0E
$GNGSA,A,3,,,,,,,,,,,,,0.84,0.55,0.63,3*0A
$GNGSA,A,3,41,33,25,24,27,30,14,28,,,,,0.84,0.55,0.63,4*00
$GPGSV,4,1,14,28,57,082,20,31,55,153,24,03,49,302,25,02,46,231,21,1*6C
$GPGSV,4,2,14,21,37,209,20,32,28,068,19,04,21,251,17,25,15,053,17,1*60
$GPGSV,4,3,14,17,11,303,19,19,08,328,16,26,06,138,15,10,05,119,16,1*60
$GPGSV,4,4,14,12,04,019,,40,,,,1*5A
$GLGSV,1,1,01,72,12,079,18,1*48
$GAGSV,1,1,00,7*73
$GBGSV,4,1,14,41,80,334,37,33,40,088,32,25,36,132,33,24,33,065,31,1*7B
$GBGSV,4,2,14,27,25,242,31,30,24,296,29,14,15,093,25,28,05,203,18,1*79
$GBGSV,4,3,14,23,05,175,21,26,02,025,12,10,01,325,18,29,01,343,,1*71
$GBGSV,4,4,14,07,01,312,,04,01,261,,1*75
$GNRMC,182846.000,A,4910.416540,N,12304.393164,W,0.20,170.85,171024,,,A,V*11
$GNVTG,170.85,T,,M,0.20,N,0.38,K,A*21
$GNGGA,182847.000,4910.416528,N,12304.393206,W,1,21,0.55,-63.805,M,-16.816,M,,*5A
$GNGLL,4910.416528,N,12304.393206,W,182847.000,A,A*5C
$GNGSA,A,3,28,31,03,02,21,32,04,25,17,19,26,10,0.84,0.55,0.63,1*0B
$GNGSA,A,3,72,,,,,,,,,,,,0.84,0.55,0.63,2*0E
$GNGSA,A,3,,,,,,,,,,,,,0.84,0.55,0.63,3*0A
$GNGSA,A,3,41,33,25,24,27,30,14,28,,,,,0.84,0.55,0.63,4*00
$GPGSV,4,1,13,28,57,082,19,31,55,153,23,03,49,302,25,02,46,231,20,1*67
$GPGSV,4,2,13,21,37,209,20,32,28,068,18,04,21,251,17,25,15,053,17,1*66
$GPGSV,4,3,13,17,11,303,18,19,08,328,15,26,06,138,14,10,05,119,15,1*67
$GPGSV,4,4,13,12,04,019,,1*59
$GLGSV,1,1,01,72,12,079,18,1*48
$GAGSV,1,1,00,7*73
$GBGSV,4,1,14,41,80,334,36,33,40,088,32,25,36,132,33,24,33,065,31,1*7A
$GBGSV,4,2,14,27,25,242,31,30,24,296,28,14,15,093,25,28,05,203,18,1*78
$GBGSV,4,3,14,23,05,175,21,26,02,025,12,10,01,325,18,29,01,343,,1*71
$GBGSV,4,4,14,07,01,312,,04,01,261,,1*75
$GNRMC,182847.000,A,4910.416528,N,12304.393206,W,0.07,170.85,171024,,,A,V*1C
$GNVTG,170.85,T,,M,0.07,N,0.13,K,A*2D
$GNGGA,182848.000,4910.416534,N,12304.393248,W,1,21,0.55,-63.729,M,-16.816,M,,*53
$GNGLL,4910.416534,N,12304.393248,W,182848.000,A,A*54
$GNGSA,A,3,28,31,03,02,21,32,04,25,17,19,26,10,0.84,0.55,0.63,1*0B
$GNGSA,A,3,72,,,,,,,,,,,,0.84,0.55,0.63,2*0E
$GNGSA,A,3,,,,,,,,,,,,,0.84,0.55,0.63,3*0A
$GNGSA,A,3,41,33,25,24,27,30,14,28,,,,,0.84,0.55,0.63,4*00
$GPGSV,4,1,14,28,57,082,20,31,55,153,25,03,49,302,26,02,46,231,21,1*6E
$GPGSV,4,2,14,21,37,209,21,48,33,182,,32,28,068,18,04,21,251,17,1*64
$GPGSV,4,3,14,25,15,053,18,17,11,303,18,19,08,328,16,26,06,138,15,1*67
$GPGSV,4,4,14,10,05,119,17,12,04,019,,1*65
$GLGSV,1,1,01,72,12,079,18,1*48
$GAGSV,1,1,00,7*73
$GBGSV,4,1,14,41,80,334,36,33,40,088,32,25,36,132,33,24,33,065,31,1*7A
$GBGSV,4,2,14,27,25,242,31,30,24,296,28,14,15,093,25,28,05,203,19,1*79
$GBGSV,4,3,14,23,05,175,22,26,02,025,11,10,01,325,18,29,01,343,,1*71
$GBGSV,4,4,14,07,01,312,,04,01,261,,1*75
$GNRMC,182848.000,A,4910.416534,N,12304.393248,W,0.16,170.85,171024,,,A,V*14
$GNVTG,170.85,T,,M,0.16,N,0.30,K,A*2C
$GNGGA,182849.000,4910.416534,N,12304.393290,W,1,21,0.55,-63.673,M,-16.817,M,,*58
$GNGLL,4910.416534,N,12304.393290,W,182849.000,A,A*50
$GNGSA,A,3,28,31,03,02,21,32,04,25,17,19,26,10,0.84,0.55,0.63,1*0B
$GNGSA,A,3,72,,,,,,,,,,,,0.84,0.55,0.63,2*0E
$GNGSA,A,3,,,,,,,,,,,,,0.84,0.55,0.63,3*0A
$GNGSA,A,3,41,33,25,24,27,30,14,28,,,,,0.84,0.55,0.63,4*00
$GPGSV,4,1,14,28,57,082,21,31,55,153,25,03,49,302,26,02,46,231,21,1*6F
$GPGSV,4,2,14,21,37,209,22,48,33,182,,32,28,068,19,04,21,251,18,1*69
$GPGSV,4,3,14,25,15,053,18,17,11,303,18,19,08,328,16,26,06,138,15,1*67
$GPGSV,4,4,14,10,05,119,17,12,04,019,,1*65
$GLGSV,1,1,01,72,12,079,19,1*49
$GAGSV,1,1,00,7*73
$GBGSV,3,1,11,41,80,334,36,33,40,088,32,25,36,132,33,24,33,065,31,1*78
$GBGSV,3,2,11,27,25,242,31,30,24,296,28,14,15,093,25,23,05,175,22,1*7A
$GBGSV,3,3,11,28,05,203,19,26,02,025,12,10,01,325,18,1*4F
$GNRMC,182849.000,A,4910.416534,N,12304.393290,W,0.28,170.85,171024,,,A,V*1D
$GNVTG,170.85,T,,M,0.28,N,0.51,K,A*26
$GNGGA,182850.000,4910.416516,N,12304.393350,W,1,21,0.55,-63.658,M,-16.816,M,,*55
$GNGLL,4910.416516,N,12304.393350,W,182850.000,A,A*55
$GNGSA,A,3,28,31,03,02,21,32,04,25,17,19,26,10,0.84,0.55,0.63,1*0B
$GNGSA,A,3,72,,,,,,,,,,,,0.84,0.55,0.63,2*0E
$GNGSA,A,3,,,,,,,,,,,,,0.84,0.55,0.63,3*0A
$GNGSA,A,3,41,33,25,24,27,30,14,28,,,,,0.84,0.55,0.63,4*00
$GPGSV,4,1,14,28,57,082,22,31,55,153,26,03,49,302,26,02,46,231,22,1*6C
$GPGSV,4,2,14,21,37,209,23,48,33,182,,32,28,068,20,04,21,251,18,1*62
$GPGSV,4,3,14,25,15,053,18,17,11,303,19,19,08,328,16,26,06,138,17,1*64
$GPGSV,4,4,14,10,05,119,17,12,04,019,,1*65
$GLGSV,1,1,01,72,12,079,19,1*49
$GAGSV,1,1,00,7*73
$GBGSV,3,1,11,41,80,334,36,33,40,088,32,25,36,132,33,24,33,065,32,1*7B
$GBGSV,3,2,11,27,25,242,31,30,24,296,28,14,15,093,25,23,05,175,22,1*7A
$GBGSV,3,3,11,28,05,203,19,26,02,025,12,10,01,325,18,1*4F
$GNRMC,182850.000,A,4910.416516,N,12304.393350,W,0.14,170.85,171024,,,A,V*17
$GNVTG,170.85,T,,M,0.14,N,0.27,K,A*28
$GNGGA,182851.000,4910.416492,N,12304.393386,W,1,21,0.55,-63.663,M,-16.817,M,,*5B
$GNGLL,4910.416492,N,12304.393386,W,182851.000,A,A*52
$GNGSA,A,3,28,31,03,02,21,32,04,25,17,19,26,10,0.84,0.55,0.63,1*0B
$GNGSA,A,3,72,,,,,,,,,,,,0.84,0.55,0.63,2*0E
$GNGSA,A,3,,,,,,,,,,,,,0.84,0.55,0.63,3*0A
$GNGSA,A,3,41,33,25,24,27,30,14,28,,,,,0.84,0.55,0.63,4*00
$GPGSV,4,1,14,28,57,082,22,31,55,153,26,03,49,302,27,02,46,231,23,1*6C
$GPGSV,4,2,14,21,37,209,24,48,33,182,,32,28,068,21,04,21,251,18,1*64
$GPGSV,4,3,14,25,15,053,19,17,11,303,20,19,08,328,16,26,06,138,17,1*6F
$GPGSV,4,4,14,10,05,119,19,12,04,019,,1*6B
$GLGSV,1,1,01,72,12,079,19,1*49
$GAGSV,1,1,00,7*73
$GBGSV,4,1,14,41,80,334,36,33,40,088,32,25,36,132,33,24,33,065,32,1*79
$GBGSV,4,2,14,27,25,242,31,30,24,296,28,14,15,093,25,28,05,203,19,1*79
$GBGSV,4,3,14,23,05,175,22,26,02,025,14,10,01,325,18,29,01,343,,1*74
$GBGSV,4,4,14,07,01,312,,04,01,261,,1*75
$GNRMC,182851.000,A,4910.416492,N,12304.393386,W,0.34,170.85,171024,,,A,V*12
$GNVTG,170.85,T,,M,0.34,N,0.63,K,A*2A
$GNGGA,182852.000,4910.416480,N,12304.393434,W,1,21,0.55,-63.627,M,-16.817,M,,*55
$GNGLL,4910.416480,N,12304.393434,W,182852.000,A,A*5C
$GNGSA,A,3,28,31,03,02,21,32,04,25,17,19,26,10,0.84,0.55,0.63,1*0B
$GNGSA,A,3,72,,,,,,,,,,,,0.84,0.55,0.63,2*0E
$GNGSA,A,3,,,,,,,,,,,,,0.84,0.55,0.63,3*0A
$GNGSA,A,3,41,33,25,24,27,30,14,28,,,,,0.84,0.55,0.63,4*00
$GPGSV,4,1,14,28,57,082,22,31,55,153,26,03,49,302,27,02,46,231,23,1*6C
$GPGSV,4,2,14,21,37,209,24,48,33,182,,32,28,068,21,04,21,251,18,1*64
$GPGSV,4,3,14,25,15,053,19,17,11,303,20,19,08,328,16,26,06,138,17,1*6F
$GPGSV,4,4,14,10,05,119,17,12,04,019,,1*65
$GLGSV,1,1,01,72,12,079,19,1*49
$GAGSV,1,1,00,7*73
$GBGSV,4,1,14,41,80,334,36,33,40,088,32,25,36,132,32,24,33,065,32,1*78
$GBGSV,4,2,14,27,25,242,31,30,24,296,28,14,15,093,25,28,05,203,19,1*79
$GBGSV,4,3,14,23,05,175,22,26,02,025,13,10,01,325,18,29,01,343,,1*73
$GBGSV,4,4,14,07,01,312,,04,01,261,,1*75
$GNRMC,182852.000,A,4910.416480,N,12304.393434,W,0.21,170.85,171024,,,A,V*18
$GNVTG,170.85,T,,M,0.21,N,0.38,K,A*20
$GNGGA,182853.000,4910.416468,N,12304.393488,W,1,21,0.55,-63.579,M,-16.817,M,,*5D
$GNGLL,4910.416468,N,12304.393488,W,182853.000,A,A*5C
$GNGSA,A,3,28,31,03,02,21,32,04,25,17,19,26,10,0.84,0.55,0.63,1*0B
$GNGSA,A,3,72,,,,,,,,,,,,0.84,0.55,0.63,2*0E
$GNGSA,A,3,,,,,,,,,,,,,0.84,0.55,0.63,3*0A
$GNGSA,A,3,41,33,25,24,27,30,14,28,,,,,0.84,0.55,0.63,4*00
$GPGSV,4,1,14,28,57,082,22,31,55,153,26,03,49,302,26,02,46,231,22,1*6C
$GPGSV,4,2,14,21,37,209,24,48,33,182,,32,28,068,21,04,21,251,18,1*64
$GPGSV,4,3,14,25,15,053,19,17,11,303,20,19,08,328,16,26,06,138,17,1*6F
$GPGSV,4,4,14,10,05,119,17,12,04,019,,1*65
$GLGSV,1,1,01,72,12,079,19,1*49
$GAGSV,1,1,00,7*73
$GBGSV,4,1,14,41,80,334,36,33,40,088,32,25,36,132,33,24,33,065,32,1*79
$GBGSV,4,2,14,27,25,242,31,30,24,296,28,14,15,093,25,28,05,203,19,1*79
$GBGSV,4,3,14,23,05,175,22,26,02,025,13,10,01,325,18,29,01,343,,1*73
$GBGSV,4,4,14,07,01,312,,04,01,261,,1*75
$GNRMC,182853.000,A,4910.416468,N,12304.393488,W,0.26,170.85,171024,,,A,V*1F
$GNVTG,170.85,T,,M,0.26,N,0.48,K,A*20
$GNGGA,182854.000,4910.416498,N,12304.393524,W,1,21,0.55,-63.514,M,-16.816,M,,*58
$GNGLL,4910.416498,N,12304.393524,W,182854.000,A,A*53
$GNGSA,A,3,28,31,03,02,21,32,04,25,17,19,26,10,0.84,0.55,0.63,1*0B
$GNGSA,A,3,72,,,,,,,,,,,,0.84,0.55,0.63,2*0E
$GNGSA,A,3,,,,,,,,,,,,,0.84,0.55,0.63,3*0A
$GNGSA,A,3,41,33,25,24,27,30,14,28,,,,,0.84,0.55,0.63,4*00
$GPGSV,4,1,13,28,57,082,21,31,55,153,25,03,49,302,25,02,46,231,21,1*6B
$GPGSV,4,2,13,21,37,209,23,32,28,068,20,04,21,251,18,25,15,053,19,1*6F
$GPGSV,4,3,13,17,11,303,20,19,08,328,16,26,06,138,17,10,05,119,17,1*6E
$GPGSV,4,4,13,12,04,019,,1*59
$GLGSV,1,1,01,72,12,079,18,1*48
$GAGSV,1,1,00,7*73
$GBGSV,3,1,11,41,80,334,36,33,40,088,32,25,36,132,33,24,33,065,32,1*7B
$GBGSV,3,2,11,27,25,242,31,30,24,296,28,14,15,093,25,23,05,175,22,1*7A
$GBGSV,3,3,11,28,05,203,18,26,02,025,13,10,01,325,18,1*4F
$GNRMC,182854.000,A,4910.416498,N,12304.393524,W,0.13,170.85,171024,,,A,V*16
$GNVTG,170.85,T,,M,0.13,N,0.25,K,A*2D
$GNGGA,182855.000,4910.416438,N,12304.393536,W,1,21,0.55,-63.469,M,-16.816,M,,*5B
$GNGLL,4910.416438,N,12304.393536,W,182855.000,A,A*5B
$GNGSA,A,3,28,31,03,02,21,32,04,25,17,19,26,10,0.84,0.55,0.63,1*0B
$GNGSA,A,3,72,,,,,,,,,,,,0.84,0.55,0.63,2*0E
$GNGSA,A,3,,,,,,,,,,,,,0.84,0.55,0.63,3*0A
$GNGSA,A,3,41,33,25,24,27,30,14,28,,,,,0.84,0.55,0.63,4*00
$GPGSV,4,1,14,28,57,082,21,31,55,153,25,03,49,302,25,02,46,231,20,1*6D
$GPGSV,4,2,14,21,37,209,22,48,33,182,,32,28,068,20,04,21,251,18,1*63
$GPGSV,4,3,14,25,15,053,19,17,11,303,19,19,08,328,16,26,06,138,17,1*65
$GPGSV,4,4,14,10,05,119,17,12,04,019,,1*65
$GLGSV,1,1,01,72,12,079,18,1*48
$GAGSV,1,1,00,7*73
$GBGSV,3,1,11,41,80,334,36,33,40,088,32,25,36,132,33,24,33,065,32,1*7B
$GBGSV,3,2,11,27,25,242,31,30,24,296,28,14,15,093,25,23,05,175,22,1*7A
$GBGSV,3,3,11,28,05,203,18,26,02,025,11,10,01,325,18,1*4D
$GNRMC,182855.000,A,4910.416438,N,12304.393536,W,0.15,170.85,171024,,,A,V*18
$GNVTG,170.85,T,,M,0.15,N,0.27,K,A*29
$GNGGA,182856.000,4910.416462,N,12304.393512,W,1,21,0.55,-63.479,M,-16.816,M,,*50
$GNGLL,4910.416462,N,12304.393512,W,182856.000,A,A*51
$GNGSA,A,3,28,31,03,02,21,32,04,25,17,19,26,10,0.84,0.55,0.63,1*0B
$GNGSA,A,3,72,,,,,,,,,,,,0.84,0.55,0.63,2*0E
$GNGSA,A,3,,,,,,,,,,,,,0.84,0.55,0.63,3*0A
$GNGSA,A,3,41,33,25,24,27,30,14,28,,,,,0.84,0.55,0.63,4*00
$GPGSV,4,1,13,28,57,082,22,31,55,153,26,03,49,302,26,02,46,231,21,1*68
$GPGSV,4,2,13,21,37,209,23,32,28,068,21,04,21,251,18,25,15,053,20,1*64
$GPGSV,4,3,13,17,11,303,19,19,08,328,16,26,06,138,17,10,05,119,18,1*6B
$GPGSV,4,4,13,12,04,019,,1*59
$GLGSV,1,1,01,72,12,079,18,1*48
$GAGSV,1,1,00,7*73
$GBGSV,3,1,11,41,80,334,36,33,40,088,32,25,36,132,33,24,33,065,32,1*7B
$GBGSV,3,2,11,27,25,242,31,30,24,296,28,14,15,093,25,23,05,175,22,1*7A
$GBGSV,3,3,11,28,05,203,18,26,02,025,13,10,01,325,18,1*4F
$GNRMC,182856.000,A,4910.416462,N,12304.393512,W,0.05,170.85,171024,,,A,V*13
$GNVTG,170.85,T,,M,0.05,N,0.09,K,A*24
$GNGGA,182857.000,4910.416468,N,12304.393524,W,1,21,0.55,-63.461,M,-16.816,M,,*57
$GNGLL,4910.416468,N,12304.393524,W,182857.000,A,A*5F
$GNGSA,A,3,28,31,03,02,21,32,04,25,17,19,26,10,0.84,0.55,0.63,1*0B
$GNGSA,A,3,72,,,,,,,,,,,,0.84,0.55,0.63,2*0E
$GNGSA,A,3,,,,,,,,,,,,,0.84,0.55,0.63,3*0A
$GNGSA,A,3,41,33,25,24,27,30,14,28,,,,,0.84,0.55,0.63,4*00
$GPGSV,4,1,14,28,57,082,23,31,55,153,26,03,49,302,26,02,46,231,22,1*6D
$GPGSV,4,2,14,21,37,209,24,44,33,171,,32,28,068,22,04,21,251,19,1*66
$GPGSV,4,3,14,25,15,053,20,17,11,303,19,19,08,328,17,26,06,138,17,1*6E
$GPGSV,4,4,14,10,05,119,18,12,04,019,,1*6A
$GLGSV,1,1,01,72,12,079,17,1*47
$GAGSV,1,1,00,7*73
$GBGSV,4,1,14,41,80,334,35,33,40,088,31,25,36,132,32,24,33,065,32,1*78
$GBGSV,4,2,14,27,25,242,30,30,24,296,27,14,15,093,25,28,05,203,18,1*76
$GBGSV,4,3,14,23,05,175,22,26,02,025,11,10,01,325,18,29,01,343,,1*71
$GBGSV,4,4,14,07,01,312,,04,01,261,,1*75
$GNRMC,182857.000,A,4910.416468,N,12304.393524,W,0.22,170.85,171024,,,A,V*18
$GNVTG,170.85,T,,M,0.22,N,0.41,K,A*2D
$GNGGA,182858.000,4910.416504,N,12304.393548,W,1,21,0.55,-63.412,M,-16.816,M,,*5D
$GNGLL,4910.416504,N,12304.393548,W,182858.000,A,A*51
$GNGSA,A,3,28,31,03,02,21,32,04,25,17,19,26,10,0.84,0.55,0.63,1*0B
$GNGSA,A,3,72,,,,,,,,,,,,0.84,0.55,0.63,2*0E
$GNGSA,A,3,,,,,,,,,,,,,0.84,0.55,0.63,3*0A
$GNGSA,A,3,41,33,25,24,27,30,14,28,,,,,0.84,0.55,0.63,4*00
$GPGSV,4,1,14,28,57,082,23,31,55,153,26,03,49,302,26,02,46,231,22,1*6D
$GPGSV,4,2,14,21,37,209,24,44,33,171,,32,28,068,22,04,21,251,19,1*66
$GPGSV,4,3,14,25,15,053,21,17,11,303,19,19,08,328,17,26,06,138,17,1*6F
$GPGSV,4,4,14,10,05,119,18,12,04,019,,1*6A
$GLGSV,1,1,01,72,12,079,17,1*47
$GAGSV,1,1,00,7*73
$GBGSV,3,1,11,41,80,334,35,33,40,088,32,25,36,132,33,24,33,065,32,1*78
$GBGSV,3,2,11,27,25,242,30,30,24,296,27,14,15,093,25,23,05,175,22,1*74
$GBGSV,3,3,11,28,05,203,18,26,02,025,13,10,01,325,18,1*4F
$GNRMC,182858.000,A,4910.416504,N,12304.393548,W,0.22,170.85,171024,,,A,V*16
$GNVTG,170.85,T,,M,0.22,N,0.41,K,A*2D
$GNGGA,182859.000,4910.416546,N,12304.393554,W,1,21,0.55,-63.389,M,-16.816,M,,*52
$GNGLL,4910.416546,N,12304.393554,W,182859.000,A,A*5B
$GNGSA,A,3,28,31,03,02,21,32,04,25,17,19,26,10,0.84,0.55,0.63,1*0B
$GNGSA,A,3,72,,,,,,,,,,,,0.84,0.55,0.63,2*0E
$GNGSA,A,3,,,,,,,,,,,,,0.84,0.55,0.63,3*0A
$GNGSA,A,3,41,33,25,24,27,30,14,28,,,,,0.84,0.55,0.63,4*00
$GPGSV,4,1,14,28,57,082,24,31,55,153,26,03,49,302,26,02,46,231,22,1*6A
$GPGSV,4,2,14,21,37,209,24,44,33,171,,32,28,068,24,04,21,251,19,1*60
$GPGSV,4,3,14,25,15,053,22,17,11,303,19,19,08,328,17,26,06,138,17,1*6C
$GPGSV,4,4,14,10,05,119,18,12,04,019,,1*6A
$GLGSV,1,1,01,72,12,079,17,1*47
$GAGSV,1,1,00,7*73
$GBGSV,3,1,11,41,80,334,35,33,40,088,32,25,36,132,33,24,33,065,32,1*78
$GBGSV,3,2,11,27,25,242,30,30,24,296,27,14,15,093,25,23,05,175,21,1*77
$GBGSV,3,3,11,28,05,203,18,26,02,025,14,10,01,325,18,1*48
$GNRMC,182859.000,A,4910.416546,N,12304.393554,W,0.09,170.85,171024,,,A,V*15
$GNVTG,170.85,T,,M,0.09,N,0.16,K,A*26
$GNGGA,182900.000,4910.416564,N,12304.393554,W,1,21,0.55,-63.391,M,-16.816,M,,*56
$GNGLL,4910.416564,N,12304.393554,W,182900.000,A,A*56
$GNGSA,A,3,28,31,03,02,21,32,04,25,17,19,26,10,0.84,0.55,0.63,1*0B
$GNGSA,A,3,72,,,,,,,,,,,,0.84,0.55,0.63,2*0E
$GNGSA,A,3,,,,,,,,,,,,,0.84,0.55,0.63,3*0A
$GNGSA,A,3,41,33,25,24,27,30,14,28,,,,,0.84,0.55,0.63,4*00
$GPGSV,4,1,14,28,57,082,25,31,55,153,27,03,49,302,27,02,46,231,23,1*6A
$GPGSV,4,2,14,21,37,209,25,44,33,171,,32,28,068,26,04,21,251,19,1*63
$GPGSV,4,3,14,25,15,053,23,17,11,303,19,19,08,328,18,26,06,138,17,1*62
$GPGSV,4,4,14,10,05,119,18,12,04,019,,1*6A
$GLGSV,1,1,01,72,12,079,17,1*47
$GAGSV,1,1,00,7*73
$GBGSV,4,1,14,41,80,334,34,33,40,088,32,25,36,132,32,24,33,065,31,1*79
$GBGSV,4,2,14,27,25,242,30,30,24,296,27,14,15,093,25,28,05,203,18,1*76
$GBGSV,4,3,14,23,05,175,21,26,02,025,14,10,01,325,18,29,01,343,,1*77
$GBGSV,4,4,14,07,01,312,,04,01,261,,1*75
$GNRMC,182900.000,A,4910.416564,N,12304.393554,W,0.07,170.85,171024,,,A,V*16
$GNVTG,170.85,T,,M,0.07,N,0.14,K,A*2A
$GNGGA,182901.000,4910.416552,N,12304.393560,W,1,21,0.55,-63.384,M,-16.816,M,,*51
$GNGLL,4910.416552,N,12304.393560,W,182901.000,A,A*55
$GNGSA,A,3,28,31,03,02,21,32,04,25,17,19,26,10,0.84,0.55,0.63,1*0B
$GNGSA,A,3,72,,,,,,,,,,,,0.84,0.55,0.63,2*0E
$GNGSA,A,3,,,,,,,,,,,,,0.84,0.55,0.63,3*0A
$GNGSA,A,3,41,33,25,24,27,30,14,28,,,,,0.84,0.55,0.63,4*00
$GPGSV,4,1,14,28,57,082,25,31,55,153,27,03,49,302,27,02,46,231,23,1*6A
$GPGSV,4,2,14,21,37,209,25,44,33,171,,32,28,068,24,04,21,251,19,1*61
$GPGSV,4,3,14,25,15,053,23,17,11,303,19,19,08,328,18,26,06,138,17,1*62
$GPGSV,4,4,14,10,05,119,18,12,04,019,,1*6A
$GLGSV,1,1,01,72,12,079,16,1*46
$GAGSV,1,1,00,7*73
$GBGSV,4,1,14,41,80,334,34,33,40,088,32,25,36,132,32,24,33,065,31,1*79
$GBGSV,4,2,14,27,25,242,30,30,24,296,27,14,15,093,25,28,05,203,18,1*76
$GBGSV,4,3,14,23,05,175,21,26,02,025,11,10,01,325,18,29,01,343,,1*72
$GBGSV,4,4,14,07,01,312,,04,01,261,,1*75
$GNRMC,182901.000,A,4910.416552,N,12304.393560,W,0.03,170.85,171024,,,A,V*11
$GNVTG,170.85,T,,M,0.03,N,0.06,K,A*2D
$GNGGA,182902.000,4910.416576,N,12304.393572,W,1,21,0.55,-63.320,M,-16.816,M,,*59
$GNGLL,4910.416576,N,12304.393572,W,182902.000,A,A*53
$GNGSA,A,3,28,31,03,02,21,32,04,25,17,19,26,10,0.84,0.55,0.63,1*0B
$GNGSA,A,3,72,,,,,,,,,,,,0.84,0.55,0.63,2*0E
$GNGSA,A,3,,,,,,,,,,,,,0.84,0.55,0.63,3*0A
$GNGSA,A,3,41,33,25,24,27,30,14,28,,,,,0.84,0.55,0.63,4*00
$GPGSV,4,1,14,28,57,082,25,31,55,153,27,03,49,302,27,02,46,231,23,1*6A
$GPGSV,4,2,14,21,37,209,25,44,33,171,,32,28,068,24,04,21,251,19,1*61
$GPGSV,4,3,14,25,15,053,23,17,11,303,19,19,08,328,19,26,06,138,17,1*63
$GPGSV,4,4,14,10,05,119,18,12,04,019,,1*6A
$GLGSV,1,1,01,72,12,079,16,1*46
$GAGSV,1,1,00,7*73
$GBGSV,4,1,14,41,80,334,35,33,40,088,32,25,36,132,32,24,33,065,32,1*7B
$GBGSV,4,2,14,27,25,242,30,30,24,296,27,14,15,093,25,28,05,203,18,1*76
$GBGSV,4,3,14,23,05,175,21,26,02,025,14,10,01,325,18,29,01,343,,1*77
$GBGSV,4,4,14,07,01,312,,04,01,261,,1*75
$GNRMC,182902.000,A,4910.416576,N,12304.393572,W,0.11,170.85,171024,,,A,V*14
$GNVTG,170.85,T,,M,0.11,N,0.21,K,A*2B
$GNGGA,182903.000,4910.416582,N,12304.393602,W,1,21,0.55,-63.310,M,-16.817,M,,*55
$GNGLL,4910.416582,N,12304.393602,W,182903.000,A,A*5D
$GNGSA,A,3,28,31,03,02,21,32,04,25,17,19,26,10,0.84,0.55,0.63,1*0B
$GNGSA,A,3,72,,,,,,,,,,,,0.84,0.55,0.63,2*0E
$GNGSA,A,3,,,,,,,,,,,,,0.84,0.55,0.63,3*0A
$GNGSA,A,3,41,33,25,24,27,30,14,28,,,,,0.84,0.55,0.63,4*00
$GPGSV,3,1,12,28,57,082,25,31,55,153,26,03,49,302,27,02,46,231,23,1*6A
$GPGSV,3,2,12,21,37,209,24,32,28,068,23,04,21,251,19,25,15,053,22,1*64
$GPGSV,3,3,12,17,11,303,18,19,08,328,18,26,06,138,17,10,05,119,18,1*62
$GLGSV,1,1,01,72,12,079,15,1*45
$GAGSV,1,1,00,7*73
$GBGSV,3,1,12,41,80,334,35,33,40,088,32,25,36,132,32,24,33,065,32,1*7A
$GBGSV,3,2,12,27,25,242,30,30,24,296,27,14,15,093,25,28,05,203,18,1*77
$GBGSV,3,3,12,23,05,175,21,26,02,025,11,10,01,325,18,04,01,261,,1*7D
$GNRMC,182903.000,A,4910.416582,N,12304.393602,W,0.10,170.85,171024,,,A,V*1B
$GNVTG,170.85,T,,M,0.10,N,0.18,K,A*20
$GNGGA,182904.000,4910.416618,N,12304.393644,W,1,21,0.55,-63.291,M,-16.816,M,,*59
$GNGLL,4910.416618,N,12304.393644,W,182904.000,A,A*58
$GNGSA,A,3,28,31,03,02,21,32,04,25,17,19,26,10,0.84,0.55,0.63,1*0B
$GNGSA,A,3,72,,,,,,,,,,,,0.84,0.55,0.63,2*0E
$GNGSA,A,3,,,,,,,,,,,,,0.84,0.55,0.63,3*0A
$GNGSA,A,3,41,33,25,24,27,30,14,28,,,,,0.84,0.55,0.63,4*00
$GPGSV,4,1,13,28,57,082,24,31,55,153,26,03,49,302,26,02,46,231,23,1*6C
$GPGSV,4,2,13,21,37,209,23,44,33,171,,32,28,068,23,04,21,251,18,1*66
$GPGSV,4,3,13,25,15,053,21,17,11,303,17,19,08,328,18,26,06,138,17,1*69
$GPGSV,4,4,13,10,05,119,18,1*52
$GLGSV,1,1,01,72,12,079,16,1*46
$GAGSV,1,1,00,7*73
$GBGSV,3,1,12,41,80,334,35,33,40,088,32,25,36,132,32,24,33,065,32,1*7A
$GBGSV,3,2,12,27,25,242,30,30,24,296,27,14,15,093,25,28,05,203,18,1*77
$GBGSV,3,3,12,23,05,175,21,26,02,025,,10,01,325,18,04,01,261,,1*7D
$GNRMC,182904.000,A,4910.416618,N,12304.393644,W,0.08,170.85,171024,,,A,V*17
$GNVTG,170.85,T,,M,0.08,N,0.15,K,A*24
$GNGGA,182905.000,4910.416618,N,12304.393668,W,1,21,0.55,-63.291,M,-16.816,M,,*56
$GNGLL,4910.416618,N,12304.393668,W,182905.000,A,A*57
$GNGSA,A,3,28,31,03,02,21,32,04,25,17,19,26,10,0.84,0.55,0.63,1*0B
$GNGSA,A,3,72,,,,,,,,,,,,0.84,0.55,0.63,2*0E
$GNGSA,A,3,,,,,,,,,,,,,0.84,0.55,0.63,3*0A
$GNGSA,A,3,41,33,25,24,27,30,14,28,,,,,0.84,0.55,0.63,4*00
$GPGSV,4,1,13,28,57,082,23,31,55,153,25,03,49,302,26,02,46,231,22,1*69
$GPGSV,4,2,13,21,37,209,22,32,28,068,22,04,21,251,18,25,15,053,20,1*66
$GPGSV,4,3,13,17,11,303,17,19,08,328,18,26,06,138,17,10,05,119,17,1*64
$GPGSV,4,4,13,12,04,019,,1*59
$GLGSV,1,1,01,72,12,079,13,1*43
$GAGSV,1,1,00,7*73
$GBGSV,3,1,11,41,80,334,35,33,40,088,32,25,36,132,32,24,33,065,32,1*79
$GBGSV,3,2,11,27,25,242,30,30,24,296,27,14,15,093,25,23,05,175,21,1*77
$GBGSV,3,3,11,28,05,203,18,26,02,025,,10,01,325,18,1*4D
$GNRMC,182905.000,A,4910.416618,N,12304.393668,W,0.02,170.85,171024,,,A,V*12
$GNVTG,170.85,T,,M,0.02,N,0.03,K,A*29
$GNGGA,182906.000,4910.416624,N,12304.393698,W,1,21,0.55,-63.248,M,-16.816,M,,*51
$GNGLL,4910.416624,N,12304.393698,W,182906.000,A,A*54
$GNGSA,A,3,28,31,03,02,21,32,04,25,17,19,26,10,0.84,0.55,0.63,1*0B
$GNGSA,A,3,72,,,,,,,,,,,,0.84,0.55,0.63,2*0E
$GNGSA,A,3,,,,,,,,,,,,,0.84,0.55,0.63,3*0A
$GNGSA,A,3,41,33,25,24,27,30,14,28,,,,,0.84,0.55,0.63,4*00
$GPGSV,4,1,14,28,57,082,23,31,55,153,25,03,49,302,26,02,46,231,21,1*6D
$GPGSV,4,2,14,21,37,209,22,46,33,188,,32,28,068,21,04,21,251,18,1*66
$GPGSV,4,3,14,25,15,053,20,17,11,303,17,19,08,328,18,26,06,138,17,1*6F
$GPGSV,4,4,14,10,05,119,17,12,04,019,,1*65
$GLGSV,1,1,01,72,12,079,13,1*43
$GAGSV,1,1,00,7*73
$GBGSV,4,1,14,41,80,334,35,33,40,088,32,25,36,132,32,24,33,065,32,1*7B
$GBGSV,4,2,14,27,25,242,30,30,24,296,27,14,15,093,25,28,05,203,18,1*76
$GBGSV,4,3,14,23,05,175,21,26,02,025,,10,01,325,18,29,01,343,,1*72
$GBGSV,4,4,14,07,01,312,,04,01,261,,1*75
$GNRMC,182906.000,A,4910.416624,N,12304.393698,W,0.06,170.85,171024,,,A,V*15
$GNVTG,170.85,T,,M,0.06,N,0.11,K,A*2E
$GNGGA,182907.000,4910.416630,N,12304.393716,W,1,21,0.55,-63.197,M,-16.817,M,,*52
$GNGLL,4910.416630,N,12304.393716,W,182907.000,A,A*57
$GNGSA,A,3,28,31,03,02,21,32,04,25,17,19,26,10,0.84,0.55,0.63,1*0B
$GNGSA,A,3,72,,,,,,,,,,,,0.84,0.55,0.63,2*0E
$GNGSA,A,3,,,,,,,,,,,,,0.84,0.55,0.63,3*0A
$GNGSA,A,3,41,33,25,24,27,30,14,28,,,,,0.84,0.55,0.63,4*00
$GPGSV,4,1,14,28,57,082,24,31,55,153,25,03,49,302,26,02,46,231,21,1*6A
$GPGSV,4,2,14,21,37,209,22,46,33,188,,32,28,068,24,04,21,251,18,1*63
$GPGSV,4,3,14,25,15,053,20,17,11,303,18,19,08,328,17,26,06,138,17,1*6F
$GPGSV,4,4,14,10,05,119,16,12,04,019,,1*64
$GLGSV,1,1,01,72,12,079,13,1*43
$GAGSV,1,1,00,7*73
$GBGSV,3,1,11,41,80,334,35,33,40,088,32,25,36,132,33,24,33,065,31,1*7B
$GBGSV,3,2,11,27,25,242,29,30,24,296,27,14,15,093,25,23,05,175,20,1*7E
$GBGSV,3,3,11,28,05,203,18,26,02,025,,10,01,325,18,1*4D
$GNRMC,182907.000,A,4910.416630,N,12304.393716,W,0.29,170.85,171024,,,A,V*1B
$GNVTG,170.85,T,,M,0.29,N,0.54,K,A*22
$GNGGA,182908.000,4910.416636,N,12304.393764,W,1,21,0.55,-63.153,M,-16.816,M,,*57
$GNGLL,4910.416636,N,12304.393764,W,182908.000,A,A*5B
$GNGSA,A,3,28,31,03,02,21,32,04,25,17,19,26,10,0.84,0.55,0.63,1*0B
$GNGSA,A,3,72,,,,,,,,,,,,0.84,0.55,0.63,2*0E
$GNGSA,A,3,,,,,,,,,,,,,0.84,0.55,0.63,3*0A
$GNGSA,A,3,41,33,25,24,27,30,14,28,,,,,0.84,0.55,0.63,4*00
$GPGSV,4,1,14,28,57,082,24,31,55,153,25,03,49,302,27,02,46,231,21,1*6B
$GPGSV,4,2,14,21,37,209,22,46,33,188,,32,28,068,24,04,21,251,18,1*63
$GPGSV,4,3,14,25,15,053,21,17,11,303,18,19,08,328,17,26,06,138,18,1*61
$GPGSV,4,4,14,10,05,119,16,12,04,019,,1*64
$GLGSV,1,1,01,72,12,079,11,1*41
$GAGSV,1,1,00,7*73
$GBGSV,3,1,11,41,80,334,35,33,40,088,32,25,36,132,33,24,33,065,32,1*78
$GBGSV,3,2,11,27,25,242,29,30,24,296,27,14,15,093,25,23,05,175,20,1*7E
$GBGSV,3,3,11,28,05,203,18,26,02,025,,10,01,325,18,1*4D
$GNRMC,182908.000,A,4910.416636,N,12304.393764,W,0.16,170.85,171024,,,A,V*1B
$GNVTG,170.85,T,,M,0.16,N,0.29,K,A*24
$GNGGA,182909.000,4910.416684,N,12304.393782,W,1,21,0.55,-63.120,M,-16.816,M,,*53
$GNGLL,4910.416684,N,12304.393782,W,182909.000,A,A*5B
$GNGSA,A,3,28,31,03,02,21,32,04,25,17,19,26,10,0.84,0.55,0.63,1*0B
$GNGSA,A,3,72,,,,,,,,,,,,0.84,0.55,0.63,2*0E
$GNGSA,A,3,,,,,,,,,,,,,0.84,0.55,0.63,3*0A
$GNGSA,A,3,41,33,25,24,27,30,14,28,,,,,0.84,0.55,0.63,4*00
$GPGSV,4,1,14,28,57,082,24,31,55,153,25,03,49,302,27,02,46,231,21,1*6B
$GPGSV,4,2,14,21,37,209,22,46,33,188,,32,28,068,24,04,21,251,18,1*63
$GPGSV,4,3,14,25,15,053,21,17,11,303,18,19,08,328,17,26,06,138,18,1*61
$GPGSV,4,4,14,10,05,119,16,12,04,019,,1*64
$GLGSV,1,1,01,72,12,079,13,1*43
$GAGSV,1,1,00,7*73
$GBGSV,4,1,14,41,80,334,35,33,40,088,32,25,36,132,33,24,33,065,33,1*7B
$GBGSV,4,2,14,27,25,242,29,30,24,296,27,14,15,093,25,28,05,203,18,1*7E
$GBGSV,4,3,14,23,05,175,21,26,02,025,,10,01,325,18,29,01,343,,1*72
$GBGSV,4,4,14,07,01,312,,04,01,261,,1*75
$GNRMC,182909.000,A,4910.416684,N,12304.393782,W,0.04,170.85,171024,,,A,V*18
$GNVTG,170.85,T,,M,0.04,N,0.08,K,A*24
$GNGGA,182910.000,4910.416672,N,12304.393824,W,1,21,0.55,-63.065,M,-16.816,M,,*51
$GNGLL,4910.416672,N,12304.393824,W,182910.000,A,A*59
$GNGSA,A,3,28,31,03,02,21,32,04,25,17,19,26,10,0.84,0.55,0.63,1*0B
$GNGSA,A,3,72,,,,,,,,,,,,0.84,0.55,0.63,2*0E
$GNGSA,A,3,,,,,,,,,,,,,0.84,0.55,0.63,3*0A
$GNGSA,A,3,41,33,25,24,27,30,14,28,,,,,0.84,0.55,0.63,4*00
$GPGSV,4,1,14,28,57,082,24,31,55,153,25,03,49,302,27,02,46,231,21,1*6B
$GPGSV,4,2,14,21,37,209,22,46,33,188,,32,28,068,25,04,21,251,18,1*62
$GPGSV,4,3,14,25,15,053,21,17,11,303,18,19,08,328,17,26,06,138,18,1*61
$GPGSV,4,4,14,10,05,119,16,12,04,019,,1*64
$GLGSV,1,1,01,72,12,079,12,1*42
$GAGSV,1,1,00,7*73
$GBGSV,4,1,14,41,80,334,36,33,40,088,32,25,36,132,33,24,33,065,33,1*78
$GBGSV,4,2,14,27,25,242,29,30,24,296,27,14,15,093,26,28,05,203,18,1*7D
$GBGSV,4,3,14,23,05,175,21,26,02,025,,10,01,325,18,29,01,343,,1*72
$GBGSV,4,4,14,07,01,312,,04,01,261,,1*75
$GNRMC,182910.000,A,4910.416672,N,12304.393824,W,0.15,170.85,171024,,,A,V*1A
$GNVTG,170.85,T,,M,0.15,N,0.28,K,A*26
$GNGGA,182911.000,4910.416684,N,12304.393800,W,1,21,0.55,-63.001,M,-16.816,M,,*5D
$GNGLL,4910.416684,N,12304.393800,W,182911.000,A,A*57
$GNGSA,A,3,28,31,03,02,21,32,04,25,17,19,26,10,0.84,0.55,0.63,1*0B
$GNGSA,A,3,72,,,,,,,,,,,,0.84,0.55,0.63,2*0E
$GNGSA,A,3,,,,,,,,,,,,,0.84,0.55,0.63,3*0A
$GNGSA,A,3,41,33,25,24,27,30,14,28,,,,,0.84,0.55,0.63,4*00
$GPGSV,4,1,14,28,57,082,23,31,55,153,25,03,49,302,26,02,46,231,21,1*6D
$GPGSV,4,2,14,21,37,209,22,46,33,188,,32,28,068,24,04,21,251,18,1*63
$GPGSV,4,3,14,25,15,053,21,17,11,303,18,19,08,328,17,26,06,138,18,1*61
$GPGSV,4,4,14,10,05,119,16,12,04,019,,1*64
$GLGSV,1,1,01,72,12,079,13,1*43
$GAGSV,1,1,00,7*73
$GBGSV,4,1,14,41,80,334,36,33,40,088,32,25,36,132,33,24,33,065,32,1*79
$GBGSV,4,2,14,27,25,242,29,30,24,296,27,14,15,093,26,28,05,203,18,1*7D
$GBGSV,4,3,14,23,05,175,21,26,02,025,,10,01,325,18,29,01,343,,1*72
$GBGSV,4,4,14,07,01,312,,04,01,261,,1*75
$GNRMC,182911.000,A,4910.416684,N,12304.393800,W,0.16,170.85,171024,,,A,V*17
$GNVTG,170.85,T,,M,0.16,N,0.30,K,A*2C
$GNGGA,182912.000,4910.416672,N,12304.393824,W,1,21,0.55,-62.949,M,-16.816,M,,*55
$GNGLL,4910.416672,N,12304.393824,W,182912.000,A,A*5B
$GNGSA,A,3,28,31,03,02,21,32,04,25,17,19,26,10,0.84,0.55,0.63,1*0B
$GNGSA,A,3,72,,,,,,,,,,,,0.84,0.55,0.63,2*0E
$GNGSA,A,3,,,,,,,,,,,,,0.84,0.55,0.63,3*0A
$GNGSA,A,3,41,33,25,24,27,30,14,28,,,,,0.84,0.55,0.63,4*00
$GPGSV,4,1,14,28,57,082,23,31,55,153,25,03,49,302,26,02,46,231,21,1*6D
$GPGSV,4,2,14,21,37,209,22,46,33,188,,32,28,068,25,04,21,251,18,1*62
$GPGSV,4,3,14,25,15,053,20,17,11,303,18,19,08,328,17,26,06,138,18,1*60
$GPGSV,4,4,14,10,05,119,16,12,04,019,,1*64
$GLGSV,1,1,01,72,12,079,13,1*43
$GAGSV,1,1,00,7*73
$GBGSV,4,1,14,41,80,334,36,33,40,088,32,25,36,132,33,24,33,065,32,1*79
$GBGSV,4,2,14,27,25,242,29,30,24,296,27,14,15,093,26,28,05,203,18,1*7D
$GBGSV,4,3,14,23,05,175,20,26,02,025,,10,01,325,18,29,01,343,,1*73
$GBGSV,4,4,14,07,01,312,,04,01,261,,1*75
$GNRMC,182912.000,A,4910.416672,N,12304.393824,W,0.33,170.85,171024,,,A,V*1C
$GNVTG,170.85,T,,M,0.33,N,0.61,K,A*2F
$GNGGA,182913.000,4910.416654,N,12304.393896,W,1,21,0.55,-62.929,M,-16.817,M,,*5E
$GNGLL,4910.416654,N,12304.393896,W,182913.000,A,A*57
$GNGSA,A,3,28,31,03,02,21,32,04,25,17,19,26,10,0.84,0.55,0.63,1*0B
$GNGSA,A,3,72,,,,,,,,,,,,0.84,0.55,0.63,2*0E
$GNGSA,A,3,,,,,,,,,,,,,0.84,0.55,0.63,3*0A
$GNGSA,A,3,41,33,25,24,27,30,14,28,,,,,0.84,0.55,0.63,4*00
$GPGSV,4,1,13,28,57,082,23,31,55,153,25,03,49,302,26,02,46,231,21,1*6A
$GPGSV,4,2,13,21,37,209,22,32,28,068,25,04,21,251,18,25,15,053,20,1*61
$GPGSV,4,3,13,17,11,303,18,19,08,328,17,26,06,138,18,10,05,119,16,1*6A
$GPGSV,4,4,13,12,04,019,,1*59
$GLGSV,1,1,01,72,12,079,11,1*41
$GAGSV,1,1,00,7*73
$GBGSV,3,1,11,41,80,334,36,33,40,088,32,25,36,132,33,24,33,065,32,1*7B
$GBGSV,3,2,11,27,25,242,29,30,24,296,28,14,15,093,26,23,05,175,20,1*72
$GBGSV,3,3,11,28,05,203,18,26,02,025,,10,01,325,18,1*4D
$GNRMC,182913.000,A,4910.416654,N,12304.393896,W,0.17,170.85,171024,,,A,V*16
$GNVTG,170.85,T,,M,0.17,N,0.31,K,A*2C
$GNGGA,182914.000,4910.416660,N,12304.393980,W,1,21,0.55,-62.915,M,-16.816,M,,*56
$GNGLL,4910.416660,N,12304.393980,W,182914.000,A,A*51
$GNGSA,A,3,28,31,03,02,21,32,04,25,17,19,26,10,0.84,0.55,0.63,1*0B
$GNGSA,A,3,72,,,,,,,,,,,,0.84,0.55,0.63,2*0E
$GNGSA,A,3,,,,,,,,,,,,,0.84,0.55,0.63,3*0A
$GNGSA,A,3,41,33,25,24,27,30,14,28,,,,,0.84,0.55,0.63,4*00
$GPGSV,4,1,13,28,57,082,24,31,55,153,25,03,49,302,26,02,46,231,21,1*6D
$GPGSV,4,2,13,21,37,209,21,32,28,068,25,04,21,251,18,25,15,053,20,1*62
$GPGSV,4,3,13,17,11,303,18,19,08,328,17,26,06,138,18,10,05,119,16,1*6A
$GPGSV,4,4,13,12,04,019,,1*59
$GLGSV,1,1,01,72,12,079,14,1*44
$GAGSV,1,1,00,7*73
$GBGSV,3,1,11,41,80,334,36,33,40,088,32,25,36,132,33,24,33,065,32,1*7B
$GBGSV,3,2,11,27,25,242,29,30,24,296,28,14,15,093,26,23,05,175,20,1*72
$GBGSV,3,3,11,28,05,203,18,26,02,025,,10,01,325,18,1*4D
$GNRMC,182914.000,A,4910.416660,N,12304.393980,W,0.31,170.85,171024,,,A,V*14
$GNVTG,170.85,T,,M,0.31,N,0.57,K,A*28
$GNGGA,182915.000,4910.416708,N,12304.393998,W,1,21,0.55,-62.893,M,-16.816,M,,*5E
$GNGLL,4910.416708,N,12304.393998,W,182915.000,A,A*56
$GNGSA,A,3,28,31,03,02,21,32,04,25,17,19,26,10,0.84,0.55,0.63,1*0B
$GNGSA,A,3,72,,,,,,,,,,,,0.84,0.55,0.63,2*0E
$GNGSA,A,3,,,,,,,,,,,,,0.84,0.55,0.63,3*0A
$GNGSA,A,3,41,33,25,24,27,30,14,28,,,,,0.84,0.55,0.63,4*00
$GPGSV,4,1,14,28,57,082,23,31,55,153,25,03,49,302,26,02,46,231,21,1*6D
$GPGSV,4,2,14,21,37,209,21,51,31,159,,32,28,068,25,04,21,251,18,1*69
$GPGSV,4,3,14,25,15,053,20,17,11,303,18,19,08,328,17,26,06,138,18,1*60
$GPGSV,4,4,14,10,05,119,16,12,04,019,,1*64
$GLGSV,1,1,01,72,12,079,14,1*44
$GAGSV,1,1,00,7*73
$GBGSV,4,1,14,41,80,334,36,33,40,088,32,25,36,132,33,24,33,065,32,1*79
$GBGSV,4,2,14,27,25,242,29,30,24,296,28,14,15,093,26,28,05,203,18,1*72
$GBGSV,4,3,14,23,05,175,20,26,02,025,,10,01,325,18,29,01,343,,1*73
$GBGSV,4,4,14,07,01,312,,04,01,261,,1*75
$GNRMC,182915.000,A,4910.416708,N,12304.393998,W,0.28,170.85,171024,,,A,V*1B
$GNVTG,170.85,T,,M,0.28,N,0.53,K,A*24
$GNGGA,182916.000,4910.416756,N,12304.393998,W,1,21,0.55,-62.869,M,-16.816,M,,*53
$GNGLL,4910.416756,N,12304.393998,W,182916.000,A,A*5E
$GNGSA,A,3,28,31,03,02,21,32,04,25,17,19,26,10,0.84,0.55,0.63,1*0B
$GNGSA,A,3,72,,,,,,,,,,,,0.84,0.55,0.63,2*0E
$GNGSA,A,3,,,,,,,,,,,,,0.84,0.55,0.63,3*0A
$GNGSA,A,3,41,33,25,24,27,30,14,28,,,,,0.84,0.55,0.63,4*00
$GPGSV,4,1,14,28,57,082,24,31,55,153,25,03,49,302,26,02,46,231,21,1*6A
$GPGSV,4,2,14,21,37,209,21,51,31,159,,32,28,068,25,04,21,251,18,1*69
$GPGSV,4,3,14,25,15,053,20,17,11,303,18,19,08,328,17,26,06,138,18,1*60
$GPGSV,4,4,14,10,05,119,16,12,04,019,,1*64
$GLGSV,1,1,01,72,11,080,12,1*47
$GAGSV,1,1,00,7*73
$GBGSV,3,1,11,41,80,334,36,33,40,088,32,25,36,132,33,24,33,065,32,1*7B
$GBGSV,3,2,11,27,25,242,29,30,24,296,28,14,15,093,26,23,05,175,20,1*72
$GBGSV,3,3,11,28,05,203,18,26,02,025,,10,01,325,18,1*4D
$GNRMC,182916.000,A,4910.416756,N,12304.393998,W,0.14,170.85,171024,,,A,V*1C
$GNVTG,170.85,T,,M,0.14,N,0.26,K,A*29
$GNGGA,182917.000,4910.416798,N,12304.393986,W,1,21,0.55,-62.811,M,-16.816,M,,*50
$GNGLL,4910.416798,N,12304.393986,W,182917.000,A,A*52
$GNGSA,A,3,28,31,03,02,21,32,04,25,17,19,26,10,0.84,0.55,0.63,1*0B
$GNGSA,A,3,72,,,,,,,,,,,,0.84,0.55,0.63,2*0E
$GNGSA,A,3,,,,,,,,,,,,,0.84,0.55,0.63,3*0A
$GNGSA,A,3,41,33,25,24,27,30,14,28,,,,,0.84,0.55,0.63,4*00
$GPGSV,4,1,14,28,57,082,23,31,55,153,25,03,49,302,26,02,46,231,21,1*6D
$GPGSV,4,2,14,21,37,209,21,51,31,159,,32,28,068,25,04,21,251,18,1*69
$GPGSV,4,3,14,25,15,053,20,17,11,303,18,19,08,328,17,26,06,138,17,1*6F
$GPGSV,4,4,14,10,05,119,16,12,04,019,,1*64
$GLGSV,1,1,01,72,11,080,12,1*47
$GAGSV,1,1,00,7*73
$GBGSV,3,1,11,41,80,334,36,33,40,088,32,25,36,132,33,24,33,065,32,1*7B
$GBGSV,3,2,11,27,25,242,29,30,24,296,28,14,15,093,26,23,05,175,20,1*72
$GBGSV,3,3,11,28,05,203,18,26,02,025,,10,01,325,18,1*4D
$GNRMC,182917.000,A,4910.416798,N,12304.393986,W,0.06,170.85,171024,,,A,V*13
$GNVTG,170.85,T,,M,0.06,N,0.11,K,A*2E
$GNGGA,182918.000,4910.416810,N,12304.393980,W,1,21,0.55,-62.707,M,-16.816,M,,*5E
$GNGLL,4910.416810,N,12304.393980,W,182918.000,A,A*54
$GNGSA,A,3,28,31,03,02,21,32,04,25,17,19,26,10,0.84,0.55,0.63,1*0B
$GNGSA,A,3,72,,,,,,,,,,,,0.84,0.55,0.63,2*0E
$GNGSA,A,3,,,,,,,,,,,,,0.84,0.55,0.63,3*0A
$GNGSA,A,3,41,33,25,24,27,30,14,28,,,,,0.84,0.55,0.63,4*00
$GPGSV,4,1,14,28,57,082,23,31,55,153,25,03,49,302,25,02,46,231,21,1*6E
$GPGSV,4,2,14,21,37,209,21,51,31,159,,32,28,068,25,04,21,251,18,1*69
$GPGSV,4,3,14,25,15,053,20,17,11,303,18,19,08,328,17,26,06,138,17,1*6F
$GPGSV,4,4,14,10,05,119,16,12,04,019,,1*64
$GLGSV,1,1,01,72,11,080,12,1*47
$GAGSV,1,1,00,7*73
$GBGSV,4,1,14,41,80,334,36,33,40,088,32,25,36,132,33,24,33,065,32,1*79
$GBGSV,4,2,14,27,25,242,29,30,24,296,28,14,15,093,26,28,05,203,18,1*72
$GBGSV,4,3,14,23,05,175,20,26,02,025,,10,01,325,18,29,01,343,,1*73
$GBGSV,4,4,14,07,01,312,,04,01,261,,1*75
$GNRMC,182918.000,A,4910.416810,N,12304.393980,W,0.24,170.85,171024,,,A,V*15
$GNVTG,170.85,T,,M,0.24,N,0.44,K,A*2E
$GNGGA,182919.000,4910.416840,N,12304.393992,W,1,20,0.56,-62.635,M,-16.816,M,,*5B
$GNGLL,4910.416840,N,12304.393992,W,182919.000,A,A*53
$GNGSA,A,3,28,31,03,02,21,32,04,25,17,19,26,10,0.85,0.56,0.64,1*0E
$GNGSA,A,3,,,,,,,,,,,,,0.85,0.56,0.64,2*0E
$GNGSA,A,3,,,,,,,,,,,,,0.85,0.56,0.64,3*0F
$GNGSA,A,3,41,33,25,24,27,30,14,28,,,,,0.85,0.56,0.64,4*05
$GPGSV,4,1,14,28,57,082,23,31,55,153,25,03,49,302,26,02,46,231,22,1*6E
$GPGSV,4,2,14,21,37,209,21,51,31,159,,32,28,068,25,04,21,251,18,1*69
$GPGSV,4,3,14,25,15,053,20,17,11,303,18,19,08,328,17,26,06,138,17,1*6F
$GPGSV,4,4,14,10,05,119,16,12,04,019,,1*64
$GLGSV,1,1,01,72,11,080,,1*44
$GAGSV,1,1,00,7*73
$GBGSV,4,1,14,41,80,334,36,33,40,088,32,25,36,132,33,24,33,065,32,1*79
$GBGSV,4,2,14,27,25,242,29,30,24,296,28,14,15,093,27,28,05,203,19,1*72
$GBGSV,4,3,14,23,05,175,20,26,02,025,,10,01,325,18,29,01,343,,1*73
$GBGSV,4,4,14,07,01,312,,04,01,261,,1*75
$GNRMC,182919.000,A,4910.416840,N,12304.393992,W,0.12,170.85,171024,,,A,V*17
$GNVTG,170.85,T,,M,0.12,N,0.22,K,A*2B
$GNGGA,182920.000,4910.416888,N,12304.393992,W,1,20,0.56,-62.568,M,-16.817,M,,*5F
$GNGLL,4910.416888,N,12304.393992,W,182920.000,A,A*5D
$GNGSA,A,3,28,31,03,02,21,32,04,25,17,19,26,10,0.85,0.56,0.64,1*0E
$GNGSA,A,3,,,,,,,,,,,,,0.85,0.56,0.64,2*0E
$GNGSA,A,3,,,,,,,,,,,,,0.85,0.56,0.64,3*0F
