$GNGGA,065821.000,4911.282563,N,12307.012536,W,1,38,0.67,2.587,M,-16.829,M,,*42
$GNRMC,065821.000,A,4911.282563,N,12307.012536,W,0.012,142.10,011224,,,A,V*20
$GNGLL,4911.282563,N,12307.012536,W,065821.000,A,A*5C
$GNVTG,142.10,T,,M,0.012,N,0.023,K,A*27
$GNGSA,A,3,05,11,12,18,20,25,26,28,29,31,,,1.19,0.67,0.99,1*04
$GNGSA,A,3,65,66,72,73,79,80,81,82,88,,,,1.19,0.67,0.99,2*0D
$GNGSA,A,3,07,10,12,24,26,29,31,33,,,,,1.19,0.67,0.99,3*05
$GNGSA,A,3,09,16,27,29,30,32,33,36,39,41,45,,1.19,0.67,0.99,4*05
$GNGSA,A,3,,,,,,,,,,,,,1.19,0.67,0.99,5*0D
$GPGSV,3,1,11,05,58,106,31,11,21,062,44,12,10,164,26,18,37,246,36,1*61
$GPGSV,3,2,11,20,40,057,46,25,40,193,19,26,24,310,44,28,08,261,33,1*64
$GPGSV,3,3,11,29,81,321,21,31,13,288,36,48,32,192,32,1*54
$GPGSV,1,1,00,8*6D
$GLGSV,3,1,09,65,32,059,31,66,24,116,40,72,05,007,16,73,10,339,24,1*71
$GLGSV,3,2,09,79,33,217,40,80,45,290,29,81,67,015,38,82,42,282,37,1*70
$GLGSV,3,3,09,88,22,069,34,1*49
$GAGSV,3,1,09,07,11,058,34,08,03,011,25,10,20,242,23,12,44,244,35,7*78
$GAGSV,3,2,09,24,46,295,35,26,25,059,44,29,04,108,41,31,54,203,35,7*7F
$GAGSV,3,3,09,33,75,048,34,7*43
$GAGSV,1,1,00,1*75
$GBGSV,3,1,12,06,,,21,09,10,333,25,16,14,315,20,27,34,084,39,1*4D
$GBGSV,3,2,12,29,32,277,42,30,82,016,22,32,29,128,34,33,04,022,26,1*72
$GBGSV,3,3,12,36,28,233,30,39,12,307,25,41,30,063,35,45,30,291,38,1*77
$GBGSV,1,1,00,5*72
$GQGSV,1,1,00,1*65
$GQGSV,1,1,00,8*6C
$PQTMDRCAL,1,0,1*5C
$PQTMVEHATT,1,3079832,0.000000,0.000000,142.098160,89.989998,179.990005,3.726868*3B
$PQTMDRPVA,1,3079832,065821.000,1,49.18804271,-123.11687561,2.587,-16.829,-0.005,0.004,-0.000,0.006,0.000000,0.000000,142.098160*54
$GNGGA,065822.000,4911.282561,N,12307.012541,W,1,38,0.64,2.581,M,-16.829,M,,*46
$GNRMC,065822.000,A,4911.282561,N,12307.012541,W,0.013,142.10,011224,,,A,V*20
$GNGLL,4911.282561,N,12307.012541,W,065822.000,A,A*5D
$GNVTG,142.10,T,,M,0.013,N,0.024,K,A*21
$GNGSA,A,3,05,11,12,18,20,25,26,28,29,31,,,1.09,0.64,0.87,1*09
$GNGSA,A,3,65,66,72,73,79,80,81,82,88,,,,1.09,0.64,0.87,2*00
$GNGSA,A,3,07,10,12,24,26,29,31,33,,,,,1.09,0.64,0.87,3*08
$GNGSA,A,3,09,16,27,29,30,32,33,36,39,41,45,,1.09,0.64,0.87,4*08
$GNGSA,A,3,,,,,,,,,,,,,1.09,0.64,0.87,5*00
$GPGSV,3,1,11,05,58,106,31,11,21,062,44,12,10,164,25,18,37,246,35,1*61
$GPGSV,3,2,11,20,40,057,47,25,40,193,21,26,24,310,44,28,08,261,33,1*6E
$GPGSV,3,3,11,29,81,321,21,31,13,288,35,48,32,192,32,1*57
$GPGSV,1,1,00,8*6D
$GLGSV,3,1,09,65,32,059,33,66,24,116,40,72,05,007,16,73,10,339,25,1*72
$GLGSV,3,2,09,79,33,217,39,80,45,290,31,81,67,015,38,82,42,282,38,1*78
$GLGSV,3,3,09,88,22,069,34,1*49
$GAGSV,3,1,09,07,11,058,35,08,03,011,25,10,20,242,21,12,44,244,34,7*7A
$GAGSV,3,2,09,24,46,295,35,26,25,059,43,29,04,108,41,31,54,203,33,7*7E
$GAGSV,3,3,09,33,75,048,34,7*43
$GAGSV,1,1,00,1*75
$GBGSV,3,1,12,06,,,23,09,10,333,26,16,14,315,20,27,34,084,40,1*42
$GBGSV,3,2,12,29,32,277,42,30,82,016,24,32,29,128,32,33,04,022,26,1*72
$GBGSV,3,3,12,36,28,233,29,39,12,307,25,41,30,063,34,45,30,291,39,1*7F
$GBGSV,1,1,00,5*72
$GQGSV,1,1,00,1*65
$GQGSV,1,1,00,8*6C
$PQTMDRCAL,1,0,1*5C
$PQTMVEHATT,1,3080832,0.000000,0.000000,142.098160,89.989998,179.990005,3.726868*3D
$PQTMDRPVA,1,3080832,065822.000,1,49.18804268,-123.11687569,2.581,-16.829,-0.005,0.004,-0.001,0.007,0.000000,0.000000,142.098160*57
$GNGGA,065823.000,4911.282557,N,12307.012551,W,1,38,0.59,2.577,M,-16.830,M,,*4C
$GNRMC,065823.000,A,4911.282557,N,12307.012551,W,0.020,142.10,011224,,,A,V*25
$GNGLL,4911.282557,N,12307.012551,W,065823.000,A,A*58
$GNVTG,142.10,T,,M,0.020,N,0.038,K,A*2C
$GNGSA,A,3,05,11,12,18,20,25,26,28,29,31,,,1.14,0.59,0.98,1*05
$GNGSA,A,3,65,66,72,73,79,80,81,82,88,,,,1.14,0.59,0.98,2*0C
$GNGSA,A,3,07,10,12,24,26,29,31,33,,,,,1.14,0.59,0.98,3*04
$GNGSA,A,3,09,16,27,29,30,32,33,36,39,41,45,,1.14,0.59,0.98,4*04
$GNGSA,A,3,,,,,,,,,,,,,1.14,0.59,0.98,5*0C
$GPGSV,3,1,11,05,58,106,32,11,21,062,44,12,10,164,27,18,37,246,35,1*60
$GPGSV,3,2,11,20,40,057,47,25,40,193,24,26,25,310,44,28,08,261,33,1*6A
$GPGSV,3,3,11,29,81,322,26,31,13,288,35,48,32,192,32,1*53
$GPGSV,1,1,00,8*6D
$GLGSV,3,1,09,65,32,059,31,66,24,116,40,72,05,007,14,73,10,339,23,1*74
$GLGSV,3,2,09,79,33,217,39,80,45,290,32,81,67,015,38,82,42,282,38,1*7B
$GLGSV,3,3,09,88,22,069,34,1*49
$GAGSV,3,1,09,07,11,058,34,08,03,011,24,10,20,242,21,12,44,244,33,7*7D
$GAGSV,3,2,09,24,46,295,33,26,25,059,44,29,04,108,40,31,54,203,33,7*7E
$GAGSV,3,3,09,33,75,048,34,7*43
$GAGSV,1,1,00,1*75
$GBGSV,3,1,12,06,,,22,09,10,333,26,16,14,315,20,27,34,084,40,1*43
$GBGSV,3,2,12,29,32,277,42,30,82,016,23,32,29,128,34,33,04,022,26,1*73
$GBGSV,3,3,12,36,28,233,29,39,12,307,26,41,30,063,34,45,30,291,38,1*7D
$GBGSV,1,1,00,5*72
$GQGSV,1,1,00,1*65
$GQGSV,1,1,00,8*6C
$PQTMDRCAL,1,0,1*5C
$PQTMVEHATT,1,3081832,0.000000,0.000000,142.098160,89.989998,179.990005,3.726868*3C
$PQTMDRPVA,1,3081832,065823.000,1,49.18804262,-123.11687584,2.577,-16.830,-0.008,0.006,0.000,0.010,0.000000,0.000000,142.098160*7A
$GNGGA,065824.000,4911.282554,N,12307.012563,W,1,37,0.58,2.572,M,-16.829,M,,*4A
$GNRMC,065824.000,A,4911.282554,N,12307.012563,W,0.028,142.10,011224,,,A,V*28
$GNGLL,4911.282554,N,12307.012563,W,065824.000,A,A*5D
$GNVTG,142.10,T,,M,0.028,N,0.051,K,A*2B
$GNGSA,A,3,05,11,18,20,25,26,28,29,31,,,,1.14,0.58,0.98,1*07
$GNGSA,A,3,65,66,72,73,79,80,81,82,88,,,,1.14,0.58,0.98,2*0D
$GNGSA,A,3,07,10,12,24,26,29,31,33,,,,,1.14,0.58,0.98,3*05
$GNGSA,A,3,09,16,27,29,30,32,33,36,39,41,45,,1.14,0.58,0.98,4*05
$GNGSA,A,3,,,,,,,,,,,,,1.14,0.58,0.98,5*0D
$GPGSV,3,1,10,05,58,106,31,11,21,062,44,18,37,246,35,20,40,057,47,1*61
$GPGSV,3,2,10,25,40,193,24,26,25,310,45,28,08,261,33,29,81,322,23,1*6D
$GPGSV,3,3,10,31,13,288,34,48,32,192,32,1*66
$GPGSV,1,1,00,8*6D
$GLGSV,3,1,09,65,32,059,32,66,24,116,40,72,05,007,17,73,10,339,23,1*74
$GLGSV,3,2,09,79,33,217,40,80,45,290,33,81,67,015,38,82,42,282,39,1*75
$GLGSV,3,3,09,88,22,069,35,1*48
$GAGSV,3,1,09,07,11,058,35,08,03,011,24,10,20,242,21,12,44,244,35,7*7A
$GAGSV,3,2,09,24,46,295,34,26,25,059,43,29,04,108,40,31,54,203,34,7*79
$GAGSV,3,3,09,33,75,048,35,7*42
$GAGSV,1,1,00,1*75
$GBGSV,3,1,12,06,,,23,09,10,333,25,16,14,315,20,27,34,084,39,1*4F
$GBGSV,3,2,12,29,32,277,42,30,82,016,24,32,29,128,33,33,04,022,26,1*73
$GBGSV,3,3,12,36,28,233,29,39,12,307,27,41,30,063,35,45,30,291,38,1*7D
$GBGSV,1,1,00,5*72
$GQGSV,1,1,00,1*65
$GQGSV,1,1,00,8*6C
$PQTMDRCAL,1,0,1*5C
$PQTMVEHATT,1,3082832,0.000000,0.000000,142.098160,89.989998,179.990005,3.726868*3F
$PQTMDRPVA,1,3082832,065824.000,1,49.18804256,-123.11687605,2.572,-16.829,-0.011,0.009,-0.002,0.014,0.000000,0.000000,142.098160*52
$GNGGA,065825.000,4911.282549,N,12307.012575,W,1,38,0.68,2.567,M,-16.829,M,,*48
$GNRMC,065825.000,A,4911.282549,N,12307.012575,W,0.027,142.10,011224,,,A,V*2D
$GNGLL,4911.282549,N,12307.012575,W,065825.000,A,A*57
$GNVTG,142.10,T,,M,0.027,N,0.049,K,A*2D
$GNGSA,A,3,05,11,12,18,20,25,26,28,29,31,,,1.21,0.68,1.00,1*01
$GNGSA,A,3,65,66,72,73,79,80,81,82,88,,,,1.21,0.68,1.00,2*08
$GNGSA,A,3,07,10,12,24,26,29,31,33,,,,,1.21,0.68,1.00,3*00
$GNGSA,A,3,09,16,27,29,30,32,33,36,39,41,45,,1.21,0.68,1.00,4*00
$GNGSA,A,3,,,,,,,,,,,,,1.21,0.68,1.00,5*08
$GPGSV,3,1,11,05,58,106,31,11,21,062,44,12,10,164,26,18,37,246,36,1*61
$GPGSV,3,2,11,20,40,057,47,25,40,193,24,26,25,310,45,28,08,261,33,1*6B
$GPGSV,3,3,11,29,81,322,25,31,13,288,34,48,32,192,32,1*51
$GPGSV,1,1,00,8*6D
$GLGSV,3,1,09,65,32,058,30,66,24,116,40,72,05,007,15,73,10,339,23,1*75
$GLGSV,3,2,09,79,33,217,39,80,45,290,31,81,67,015,38,82,42,282,39,1*79
$GLGSV,3,3,09,88,22,069,34,1*49
$GAGSV,3,1,09,07,11,058,36,08,03,011,25,10,20,242,21,12,44,244,34,7*79
$GAGSV,3,2,09,24,46,295,33,26,25,059,44,29,04,108,40,31,54,203,33,7*7E
$GAGSV,3,3,09,33,75,048,33,7*44
$GAGSV,1,1,00,1*75
$GBGSV,3,1,12,06,,,22,09,10,333,25,16,14,315,20,27,34,084,39,1*4E
$GBGSV,3,2,12,29,32,277,42,30,82,016,23,32,29,128,32,33,04,022,27,1*74
$GBGSV,3,3,12,36,28,233,28,39,12,307,26,41,30,063,34,45,30,291,38,1*7C
$GBGSV,1,1,00,5*72
$GQGSV,1,1,00,1*65
$GQGSV,1,1,00,8*6C
$PQTMDRCAL,1,0,1*5C
$PQTMVEHATT,1,3083832,0.000000,0.000000,142.098160,89.989998,179.990005,3.726868*3E
$PQTMDRPVA,1,3083832,065825.000,1,49.18804248,-123.11687626,2.567,-16.829,-0.011,0.008,-0.001,0.014,0.000000,0.000000,142.098160*5A
$GNGGA,065826.000,4911.282544,N,12307.012587,W,1,38,0.63,2.560,M,-16.829,M,,*47
$GNRMC,065826.000,A,4911.282544,N,12307.012587,W,0.024,142.10,011224,,,A,V*2D
$GNGLL,4911.282544,N,12307.012587,W,065826.000,A,A*54
$GNVTG,142.10,T,,M,0.024,N,0.045,K,A*22
$GNGSA,A,3,05,11,12,18,20,25,26,28,29,31,,,1.15,0.63,0.96,1*03
$GNGSA,A,3,65,66,72,73,79,80,81,82,88,,,,1.15,0.63,0.96,2*0A
$GNGSA,A,3,07,10,12,24,26,29,31,33,,,,,1.15,0.63,0.96,3*02
$GNGSA,A,3,09,16,27,29,30,32,33,36,39,41,45,,1.15,0.63,0.96,4*02
$GNGSA,A,3,,,,,,,,,,,,,1.15,0.63,0.96,5*0A
$GPGSV,3,1,11,05,58,106,30,11,21,062,44,12,10,164,26,18,37,246,35,1*63
$GPGSV,3,2,11,20,40,057,47,25,40,193,25,26,25,310,45,28,08,261,33,1*6A
$GPGSV,3,3,11,29,81,322,26,31,13,288,34,48,32,192,32,1*52
$GPGSV,1,1,00,8*6D
$GLGSV,3,1,09,65,32,058,30,66,24,116,41,72,05,007,17,73,10,339,23,1*76
$GLGSV,3,2,09,79,33,217,40,80,45,290,33,81,67,015,38,82,42,282,39,1*75
$GLGSV,3,3,09,88,22,069,35,1*48
$GAGSV,3,1,09,07,11,058,34,08,03,011,25,10,20,242,20,12,44,244,34,7*7A
$GAGSV,3,2,09,24,46,295,33,26,25,059,43,29,04,108,40,31,54,203,34,7*7E
$GAGSV,3,3,09,33,75,048,34,7*43
$GAGSV,1,1,00,1*75
$GBGSV,3,1,12,06,,,23,09,10,333,25,16,14,315,21,27,34,084,39,1*4E
$GBGSV,3,2,12,29,32,277,42,30,82,016,25,32,29,128,33,33,04,022,27,1*73
$GBGSV,3,3,12,36,28,233,28,39,12,307,27,41,30,063,35,45,30,291,38,1*7C
$GBGSV,1,1,00,5*72
$GQGSV,1,1,00,1*65
$GQGSV,1,1,00,8*6C
$PQTMDRCAL,1,0,1*5C
$PQTMVEHATT,1,3084832,0.000000,0.000000,142.098160,89.989998,179.990005,3.726868*39
$PQTMDRPVA,1,3084832,065826.000,1,49.18804241,-123.11687645,2.560,-16.829,-0.010,0.008,0.001,0.013,0.000000,0.000000,142.098160*7E
$GNGGA,065827.000,4911.282540,N,12307.012597,W,1,38,0.66,2.553,M,-16.829,M,,*46
$GNRMC,065827.000,A,4911.282540,N,12307.012597,W,0.019,142.10,011224,,,A,V*27
$GNGLL,4911.282540,N,12307.012597,W,065827.000,A,A*50
$GNVTG,142.10,T,,M,0.019,N,0.035,K,A*2B
$GNGSA,A,3,05,11,12,18,20,25,26,28,29,31,,,1.19,0.66,0.99,1*05
$GNGSA,A,3,65,66,72,73,79,80,81,82,88,,,,1.19,0.66,0.99,2*0C
$GNGSA,A,3,07,10,12,24,26,29,31,33,,,,,1.19,0.66,0.99,3*04
$GNGSA,A,3,09,16,27,29,30,32,33,36,39,41,45,,1.19,0.66,0.99,4*04
$GNGSA,A,3,,,,,,,,,,,,,1.19,0.66,0.99,5*0C
$GPGSV,3,1,11,05,58,106,31,11,21,062,44,12,10,164,25,18,37,246,35,1*61
$GPGSV,3,2,11,20,40,057,47,25,40,193,26,26,25,310,44,28,08,261,33,1*68
$GPGSV,3,3,11,29,81,322,26,31,13,288,35,48,32,192,32,1*53
$GPGSV,1,1,00,8*6D
$GLGSV,3,1,09,65,32,058,32,66,24,116,41,72,05,007,16,73,10,339,23,1*75
$GLGSV,3,2,09,79,33,217,39,80,45,290,32,81,67,015,38,82,42,282,39,1*7A
$GLGSV,3,3,09,88,22,069,35,1*48
$GAGSV,3,1,09,07,11,058,35,08,03,011,23,10,20,242,22,12,44,244,35,7*7E
$GAGSV,3,2,09,24,46,295,34,26,25,059,43,29,04,108,40,31,54,203,33,7*7E
$GAGSV,3,3,09,33,75,048,33,7*44
$GAGSV,1,1,00,1*75
$GBGSV,3,1,12,06,,,21,09,10,333,24,16,14,315,21,27,34,084,40,1*43
$GBGSV,3,2,12,29,32,277,42,30,82,017,24,32,29,128,33,33,04,022,27,1*73
$GBGSV,3,3,12,36,28,233,28,39,12,307,26,41,30,063,35,45,30,291,38,1*7D
$GBGSV,1,1,00,5*72
$GQGSV,1,1,00,1*65
$GQGSV,1,1,00,8*6C
$PQTMDRCAL,1,0,1*5C
$PQTMVEHATT,1,3085832,0.000000,0.000000,142.098160,89.989998,179.990005,3.726868*38
$PQTMDRPVA,1,3085832,065827.000,1,49.18804233,-123.11687662,2.553,-16.829,-0.008,0.006,0.001,0.010,0.000000,0.000000,142.098160*7A
$GNGGA,065828.000,4911.282535,N,12307.012609,W,1,38,0.69,2.548,M,-16.829,M,,*4A
$GNRMC,065828.000,A,4911.282535,N,12307.012609,W,0.023,142.10,011224,,,A,V*27
$GNGLL,4911.282535,N,12307.012609,W,065828.000,A,A*59
$GNVTG,142.10,T,,M,0.023,N,0.043,K,A*23
$GNGSA,A,3,05,11,12,18,20,25,26,28,29,31,,,1.26,0.69,1.05,1*02
$GNGSA,A,3,65,66,72,73,79,80,81,82,88,,,,1.26,0.69,1.05,2*0B
$GNGSA,A,3,07,10,12,24,26,29,31,33,,,,,1.26,0.69,1.05,3*03
$GNGSA,A,3,09,16,27,29,30,32,33,36,39,41,45,,1.26,0.69,1.05,4*03
$GNGSA,A,3,,,,,,,,,,,,,1.26,0.69,1.05,5*0B
$GPGSV,3,1,11,05,58,106,30,11,21,062,44,12,10,164,26,18,37,246,36,1*60
$GPGSV,3,2,11,20,40,057,47,25,40,193,26,26,25,310,45,28,08,261,33,1*69
$GPGSV,3,3,11,29,81,322,26,31,13,288,35,48,32,192,32,1*53
$GPGSV,1,1,00,8*6D
$GLGSV,3,1,09,65,32,058,31,66,24,116,41,72,05,007,17,73,10,339,23,1*77
$GLGSV,3,2,09,79,33,217,39,80,45,290,34,81,67,015,37,82,42,282,38,1*72
$GLGSV,3,3,09,88,22,069,35,1*48
$GAGSV,3,1,09,07,11,058,34,08,03,011,26,10,20,242,24,12,44,244,34,7*7D
$GAGSV,3,2,09,24,46,295,32,26,25,059,43,29,04,108,40,31,54,203,32,7*79
$GAGSV,3,3,09,33,75,048,33,7*44
$GAGSV,1,1,00,1*75
$GBGSV,3,1,12,06,,,22,09,10,333,25,16,14,315,20,27,34,084,40,1*40
$GBGSV,3,2,12,29,32,277,42,30,82,017,25,32,29,128,32,33,04,022,28,1*7C
$GBGSV,3,3,12,36,28,233,28,39,12,307,27,41,30,063,34,45,30,291,38,1*7D
$GBGSV,1,1,00,5*72
$GQGSV,1,1,00,1*65
$GQGSV,1,1,00,8*6C
$PQTMDRCAL,1,0,1*5C
$PQTMVEHATT,1,3086832,0.000000,0.000000,142.098160,89.989998,179.990005,3.726868*3B
$PQTMDRPVA,1,3086832,065828.000,1,49.18804226,-123.11687682,2.548,-16.829,-0.009,0.007,-0.001,0.012,0.000000,0.000000,142.098160*59
$GNGGA,065829.000,4911.282530,N,12307.012622,W,1,38,0.69,2.545,M,-16.829,M,,*4A
$GNRMC,065829.000,A,4911.282530,N,12307.012622,W,0.022,142.10,011224,,,A,V*2B
$GNGLL,4911.282530,N,12307.012622,W,065829.000,A,A*54
$GNVTG,142.10,T,,M,0.022,N,0.040,K,A*21
$GNGSA,A,3,05,11,12,18,20,25,26,28,29,31,,,1.26,0.69,1.05,1*02
$GNGSA,A,3,65,66,72,73,79,80,81,82,88,,,,1.26,0.69,1.05,2*0B
$GNGSA,A,3,07,10,12,24,26,29,31,33,,,,,1.26,0.69,1.05,3*03
$GNGSA,A,3,09,16,27,29,30,32,33,36,39,41,45,,1.26,0.69,1.05,4*03
$GNGSA,A,3,,,,,,,,,,,,,1.26,0.69,1.05,5*0B
$GPGSV,3,1,11,05,58,106,30,11,21,062,44,12,10,164,25,18,37,246,36,1*63
$GPGSV,3,2,11,20,40,057,47,25,40,193,28,26,25,310,45,28,08,261,33,1*67
$GPGSV,3,3,11,29,81,322,29,31,13,288,35,48,32,192,32,1*5C
$GPGSV,1,1,00,8*6D
$GLGSV,3,1,09,65,32,058,33,66,24,116,41,72,05,007,18,73,10,339,23,1*7A
$GLGSV,3,2,09,79,33,217,39,80,45,290,32,81,67,015,37,82,42,282,38,1*74
$GLGSV,3,3,09,88,22,069,34,1*49
$GAGSV,3,1,09,07,11,058,34,08,03,011,24,10,20,242,20,12,44,244,34,7*7B
$GAGSV,3,2,09,24,46,295,32,26,25,059,43,29,04,108,40,31,54,203,33,7*78
$GAGSV,3,3,09,33,75,048,33,7*44
$GAGSV,1,1,00,1*75
$GBGSV,3,1,12,06,,,23,09,10,333,25,16,14,315,19,27,34,084,39,1*45
$GBGSV,3,2,12,29,32,277,42,30,82,017,27,32,29,128,32,33,04,022,27,1*71
$GBGSV,3,3,12,36,28,233,29,39,12,307,27,41,30,063,34,45,30,291,38,1*7C
$GBGSV,1,1,00,5*72
$GQGSV,1,1,00,1*65
$GQGSV,1,1,00,8*6C
$PQTMDRCAL,1,0,1*5C
$PQTMVEHATT,1,3087832,0.000000,0.000000,142.098160,89.989998,179.990005,3.726868*3A
$PQTMDRPVA,1,3087832,065829.000,1,49.18804217,-123.11687703,2.545,-16.829,-0.009,0.007,-0.002,0.011,0.000000,0.000000,142.098160*5E
$GNGGA,065830.000,4911.282525,N,12307.012630,W,1,38,0.68,2.539,M,-16.829,M,,*4F
$GNRMC,065830.000,A,4911.282525,N,12307.012630,W,0.016,142.10,011224,,,A,V*23
$GNGLL,4911.282525,N,12307.012630,W,065830.000,A,A*5B
$GNVTG,142.10,T,,M,0.016,N,0.029,K,A*29
$GNGSA,A,3,05,11,12,18,20,25,26,28,29,31,,,1.15,0.68,0.93,1*0D
$GNGSA,A,3,65,66,72,73,79,80,81,82,88,,,,1.15,0.68,0.93,2*04
$GNGSA,A,3,07,10,12,24,26,29,31,33,,,,,1.15,0.68,0.93,3*0C
$GNGSA,A,3,09,16,27,29,30,32,33,36,39,41,45,,1.15,0.68,0.93,4*0C
$GNGSA,A,3,,,,,,,,,,,,,1.15,0.68,0.93,5*04
$GPGSV,3,1,11,05,58,106,30,11,21,062,45,12,10,164,26,18,37,246,36,1*61
$GPGSV,3,2,11,20,40,057,47,25,40,193,27,26,25,310,44,28,08,261,32,1*68
$GPGSV,3,3,11,29,81,322,30,31,13,288,35,48,32,192,32,1*54
$GPGSV,1,1,00,8*6D
$GLGSV,3,1,09,65,32,058,32,66,24,116,42,72,05,007,18,73,10,339,22,1*79
$GLGSV,3,2,09,79,33,217,39,80,45,290,34,81,67,015,37,82,42,282,39,1*73
$GLGSV,3,3,09,88,22,069,35,1*48
$GAGSV,3,1,09,07,11,058,35,08,03,011,25,10,20,242,21,12,44,244,34,7*7A
$GAGSV,3,2,09,24,46,295,33,26,25,059,43,29,04,108,39,31,54,203,32,7*76
$GAGSV,3,3,09,33,75,048,33,7*44
$GAGSV,1,1,00,1*75
$GBGSV,3,1,12,06,,,23,09,10,333,24,16,14,315,20,27,34,084,39,1*4E
$GBGSV,3,2,12,29,32,277,42,30,82,017,25,32,29,128,31,33,04,022,26,1*71
$GBGSV,3,3,12,36,28,233,28,39,12,307,25,41,30,063,33,45,30,291,37,1*77
$GBGSV,1,1,00,5*72
$GQGSV,1,1,00,1*65
$GQGSV,1,1,00,8*6C
$PQTMDRCAL,1,0,1*5C
$PQTMVEHATT,1,3088832,0.000000,0.000000,142.098160,89.989998,179.990005,3.726868*35
$PQTMDRPVA,1,3088832,065830.000,1,49.18804208,-123.11687717,2.539,-16.829,-0.006,0.005,-0.001,0.008,0.000000,0.000000,142.098160*5F
$GNGGA,065831.000,4911.282520,N,12307.012642,W,1,38,0.66,2.534,M,-16.830,M,,*45
$GNRMC,065831.000,A,4911.282520,N,12307.012642,W,0.018,142.10,011224,,,A,V*2C
$GNGLL,4911.282520,N,12307.012642,W,065831.000,A,A*5A
$GNVTG,142.10,T,,M,0.018,N,0.034,K,A*2B
$GNGSA,A,3,05,11,12,18,20,25,26,28,29,31,,,1.08,0.66,0.86,1*0B
$GNGSA,A,3,65,66,72,73,79,80,81,82,88,,,,1.08,0.66,0.86,2*02
$GNGSA,A,3,07,10,12,24,26,29,31,33,,,,,1.08,0.66,0.86,3*0A
$GNGSA,A,3,09,16,27,29,30,32,33,36,39,41,45,,1.08,0.66,0.86,4*0A
$GNGSA,A,3,,,,,,,,,,,,,1.08,0.66,0.86,5*02
$GPGSV,3,1,11,05,58,106,30,11,20,062,45,12,10,164,26,18,37,246,37,1*61
$GPGSV,3,2,11,20,40,057,47,25,40,193,27,26,25,310,45,28,08,261,33,1*68
$GPGSV,3,3,11,29,81,322,31,31,13,288,36,48,32,192,32,1*56
$GPGSV,1,1,00,8*6D
$GLGSV,3,1,09,65,32,058,32,66,24,116,42,72,05,007,16,73,10,339,24,1*71
$GLGSV,3,2,09,79,33,217,39,80,45,290,34,81,67,015,37,82,42,282,38,1*72
$GLGSV,3,3,09,88,22,069,36,1*4B
$GAGSV,3,1,09,07,11,058,34,08,03,011,26,10,20,242,23,12,44,244,35,7*7B
$GAGSV,3,2,09,24,46,295,33,26,25,059,43,29,04,108,40,31,54,203,31,7*7B
$GAGSV,3,3,09,33,75,048,33,7*44
$GAGSV,1,1,00,1*75
$GBGSV,3,1,12,06,,,23,09,10,333,25,16,14,315,21,27,34,084,39,1*4E
$GBGSV,3,2,12,29,32,277,42,30,82,017,26,32,29,128,31,33,04,021,27,1*70
$GBGSV,3,3,12,36,28,233,28,39,12,307,26,41,30,063,34,45,30,291,37,1*73
$GBGSV,1,1,00,5*72
$GQGSV,1,1,00,1*65
$GQGSV,1,1,00,8*6C
$PQTMDRCAL,1,0,1*5C
$PQTMVEHATT,1,3089832,0.000000,0.000000,142.098160,89.989998,179.990005,3.726868*34
$PQTMDRPVA,1,3089832,065831.000,1,49.18804199,-123.11687737,2.534,-16.830,-0.007,0.006,-0.001,0.009,0.000000,0.000000,142.098160*50
$GNGGA,065832.000,4911.282514,N,12307.012655,W,1,38,0.65,2.528,M,-16.830,M,,*49
$GNRMC,065832.000,A,4911.282514,N,12307.012655,W,0.025,142.10,011224,,,A,V*20
$GNGLL,4911.282514,N,12307.012655,W,065832.000,A,A*58
$GNVTG,142.10,T,,M,0.025,N,0.046,K,A*20
$GNGSA,A,3,05,11,12,18,20,25,26,28,29,31,,,1.04,0.65,0.81,1*03
$GNGSA,A,3,65,66,72,73,79,80,81,82,88,,,,1.04,0.65,0.81,2*0A
$GNGSA,A,3,07,10,12,24,26,29,31,33,,,,,1.04,0.65,0.81,3*02
$GNGSA,A,3,09,16,27,29,30,32,33,36,39,41,45,,1.04,0.65,0.81,4*02
$GNGSA,A,3,,,,,,,,,,,,,1.04,0.65,0.81,5*0A
$GPGSV,3,1,11,05,58,106,29,11,20,062,45,12,10,164,25,18,37,246,37,1*6A
$GPGSV,3,2,11,20,40,057,47,25,40,193,27,26,25,310,44,28,08,261,33,1*69
$GPGSV,3,3,11,29,81,322,30,31,13,288,35,48,32,192,32,1*54
$GPGSV,1,1,00,8*6D
$GLGSV,3,1,09,65,32,058,31,66,24,116,43,72,05,007,16,73,10,339,24,1*73
$GLGSV,3,2,09,79,33,217,39,80,45,290,36,81,67,015,37,82,42,282,39,1*71
$GLGSV,3,3,09,88,22,069,36,1*4B
$GAGSV,3,1,09,07,11,058,34,08,03,011,26,10,20,242,21,12,44,244,35,7*79
$GAGSV,3,2,09,24,46,295,32,26,25,059,44,29,04,108,40,31,54,203,30,7*7C
$GAGSV,3,3,09,33,75,048,33,7*44
$GAGSV,1,1,00,1*75
$GBGSV,3,1,12,06,,,24,09,10,333,25,16,14,315,19,27,34,084,39,1*42
$GBGSV,3,2,12,29,32,277,42,30,82,017,28,32,29,128,32,33,04,021,27,1*7D
$GBGSV,3,3,12,36,28,233,28,39,12,307,28,41,30,063,34,45,30,291,37,1*7D
$GBGSV,1,1,00,5*72
$GQGSV,1,1,00,1*65
$GQGSV,1,1,00,8*6C
$PQTMDRCAL,1,0,1*5C
$PQTMVEHATT,1,3090832,0.000000,0.000000,142.098160,89.989998,179.990005,3.726868*3C
$PQTMDRPVA,1,3090832,065832.000,1,49.18804190,-123.11687758,2.528,-16.830,-0.010,0.008,-0.001,0.013,0.000000,0.000000,142.098160*55
$GNGGA,065833.000,4911.282505,N,12307.012679,W,1,38,0.61,2.522,M,-16.829,M,,*40
$GNRMC,065833.000,A,4911.282505,N,12307.012679,W,0.031,142.10,011224,,,A,V*2A
$GNGLL,4911.282505,N,12307.012679,W,065833.000,A,A*57
$GNVTG,142.10,T,,M,0.031,N,0.058,K,A*2A
$GNGSA,A,3,05,11,12,18,20,25,26,28,29,31,,,1.02,0.61,0.81,1*01
$GNGSA,A,3,65,66,72,73,79,80,81,82,88,,,,1.02,0.61,0.81,2*08
$GNGSA,A,3,07,10,12,24,26,29,31,33,,,,,1.02,0.61,0.81,3*00
$GNGSA,A,3,09,16,27,29,30,32,33,36,39,41,45,,1.02,0.61,0.81,4*00
$GNGSA,A,3,,,,,,,,,,,,,1.02,0.61,0.81,5*08
$GPGSV,3,1,11,05,58,106,28,11,20,062,45,12,10,164,25,18,37,246,38,1*64
$GPGSV,3,2,11,20,40,057,47,25,40,193,26,26,25,310,44,28,08,261,32,1*69
$GPGSV,3,3,11,29,81,322,31,31,13,288,36,48,32,192,33,1*57
$GPGSV,1,1,00,8*6D
$GLGSV,3,1,09,65,32,058,31,66,24,116,42,72,05,007,17,73,10,339,23,1*74
$GLGSV,3,2,09,79,33,217,39,80,45,290,35,81,67,016,37,82,42,282,37,1*7F
$GLGSV,3,3,09,88,22,069,37,1*4A
$GAGSV,3,1,09,07,11,058,35,08,03,011,25,10,20,242,22,12,44,244,35,7*78
$GAGSV,3,2,09,24,46,295,30,26,25,059,43,29,04,108,39,31,54,203,30,7*77
$GAGSV,3,3,09,33,75,048,33,7*44
$GAGSV,1,1,00,1*75
$GBGSV,3,1,12,06,,,23,09,10,333,25,16,14,315,19,27,34,084,38,1*44
$GBGSV,3,2,12,29,32,277,42,30,82,017,28,32,29,128,31,33,04,021,26,1*7F
$GBGSV,3,3,12,36,28,233,29,39,12,307,26,41,30,063,34,45,30,291,36,1*73
$GBGSV,1,1,00,5*72
$GQGSV,1,1,00,1*65
$GQGSV,1,1,00,8*6C
$PQTMDRCAL,1,0,1*5C
$PQTMVEHATT,1,3091832,0.000000,0.000000,142.098160,89.989998,179.990005,3.726868*3D
$PQTMDRPVA,1,3091832,065833.000,1,49.18804175,-123.11687799,2.522,-16.829,-0.013,0.010,-0.002,0.016,0.000000,0.000000,142.098160*5D
$GNGGA,065834.000,4911.282497,N,12307.012699,W,1,38,0.65,2.518,M,-16.829,M,,*4E
$GNRMC,065834.000,A,4911.282497,N,12307.012699,W,0.021,142.10,011224,,,A,V*28
$GNGLL,4911.282497,N,12307.012699,W,065834.000,A,A*54
$GNVTG,142.10,T,,M,0.021,N,0.040,K,A*22
$GNGSA,A,3,05,11,12,18,20,25,26,28,29,31,,,1.22,0.65,1.03,1*0C
$GNGSA,A,3,65,66,72,73,79,80,81,82,88,,,,1.22,0.65,1.03,2*05
$GNGSA,A,3,07,10,12,24,26,29,31,33,,,,,1.22,0.65,1.03,3*0D
$GNGSA,A,3,09,16,27,29,30,32,33,36,39,41,45,,1.22,0.65,1.03,4*0D
$GNGSA,A,3,,,,,,,,,,,,,1.22,0.65,1.03,5*05
$GPGSV,3,1,11,05,58,106,29,11,20,062,44,12,10,164,25,18,37,246,38,1*64
$GPGSV,3,2,11,20,40,057,46,25,40,193,26,26,25,310,44,28,08,261,32,1*68
$GPGSV,3,3,11,29,81,322,28,31,13,288,36,48,32,192,33,1*5F
$GPGSV,1,1,00,8*6D
$GLGSV,3,1,09,65,32,058,31,66,24,116,43,72,05,007,17,73,10,339,24,1*72
$GLGSV,3,2,09,79,33,217,39,80,45,290,37,81,67,016,37,82,42,282,37,1*7D
$GLGSV,3,3,09,88,22,069,37,1*4A
$GAGSV,3,1,09,07,11,058,34,08,03,011,27,10,20,242,24,12,44,244,36,7*7E
$GAGSV,3,2,09,24,46,295,32,26,25,059,43,29,04,108,39,31,54,203,30,7*75
$GAGSV,3,3,09,33,75,048,32,7*45
$GAGSV,1,1,00,1*75
$GBGSV,3,1,12,06,,,23,09,10,333,24,16,14,315,20,27,34,084,39,1*4E
$GBGSV,3,2,12,29,32,277,42,30,82,017,29,32,29,128,32,33,04,021,26,1*7D
$GBGSV,3,3,12,36,28,233,29,39,12,307,28,41,30,063,34,45,30,291,37,1*7C
$GBGSV,1,1,00,5*72
$GQGSV,1,1,00,1*65
$GQGSV,1,1,00,8*6C
$PQTMDRCAL,1,0,1*5C
$PQTMVEHATT,1,3092832,0.000000,0.000000,142.098160,89.989998,179.990005,3.726868*3E
$PQTMDRPVA,1,3092832,065834.000,1,49.18804162,-123.11687832,2.518,-16.829,-0.009,0.007,-0.001,0.011,0.000000,0.000000,142.098160*51
$GNGGA,065835.000,4911.282491,N,12307.012721,W,1,38,0.58,2.512,M,-16.829,M,,*4F
$GNRMC,065835.000,A,4911.282491,N,12307.012721,W,0.022,142.10,011224,,,A,V*2E
$GNGLL,4911.282491,N,12307.012721,W,065835.000,A,A*51
$GNVTG,142.10,T,,M,0.022,N,0.041,K,A*20
$GNGSA,A,3,05,11,12,18,20,25,26,28,29,31,,,0.98,0.58,0.79,1*0E
$GNGSA,A,3,65,66,72,73,79,80,81,82,88,,,,0.98,0.58,0.79,2*07
$GNGSA,A,3,07,10,12,24,26,29,31,33,,,,,0.98,0.58,0.79,3*0F
$GNGSA,A,3,09,16,27,29,30,32,33,36,39,41,45,,0.98,0.58,0.79,4*0F
$GNGSA,A,3,,,,,,,,,,,,,0.98,0.58,0.79,5*07
$GPGSV,3,1,11,05,58,106,25,11,20,062,44,12,10,164,24,18,37,246,38,1*69
$GPGSV,3,2,11,20,40,057,47,25,40,193,26,26,25,310,44,28,08,261,30,1*6B
$GPGSV,3,3,11,29,81,322,29,31,13,288,36,48,32,192,33,1*5E
$GPGSV,1,1,00,8*6D
$GLGSV,3,1,09,65,32,058,31,66,24,116,43,72,05,007,15,73,10,339,23,1*77
$GLGSV,3,2,09,79,33,217,39,80,45,290,37,81,67,016,37,82,42,282,37,1*7D
$GLGSV,3,3,09,88,22,069,37,1*4A
$GAGSV,3,1,09,07,11,058,34,08,03,011,25,10,20,242,22,12,44,244,35,7*79
$GAGSV,3,2,09,24,46,295,29,26,25,059,43,29,04,108,39,31,54,203,31,7*7E
$GAGSV,3,3,09,33,75,048,33,7*44
$GAGSV,1,1,00,1*75
$GBGSV,3,1,12,06,,,23,09,10,333,24,16,14,315,19,27,34,084,39,1*44
$GBGSV,3,2,12,29,32,277,42,30,82,017,29,32,29,128,30,33,04,021,26,1*7F
$GBGSV,3,3,12,36,28,233,29,39,12,307,27,41,30,063,34,45,30,291,37,1*73
$GBGSV,1,1,00,5*72
$GQGSV,1,1,00,1*65
$GQGSV,1,1,00,8*6C
$PQTMDRCAL,1,0,1*5C
$PQTMVEHATT,1,3093832,0.000000,0.000000,142.098160,89.989998,179.990005,3.726868*3F
$PQTMDRPVA,1,3093832,065835.000,1,49.18804151,-123.11687868,2.512,-16.829,-0.009,0.007,0.001,0.011,0.000000,0.000000,142.098160*79
$GNGGA,065836.000,4911.282488,N,12307.012739,W,1,38,0.63,2.508,M,-16.830,M,,*46
$GNRMC,065836.000,A,4911.282488,N,12307.012739,W,0.023,142.10,011224,,,A,V*2D
$GNGLL,4911.282488,N,12307.012739,W,065836.000,A,A*53
$GNVTG,142.10,T,,M,0.023,N,0.043,K,A*23
$GNGSA,A,3,05,11,12,18,20,25,26,28,29,31,,,1.28,0.63,1.11,1*03
$GNGSA,A,3,65,66,72,73,79,80,81,82,88,,,,1.28,0.63,1.11,2*0A
$GNGSA,A,3,07,10,12,24,26,29,31,33,,,,,1.28,0.63,1.11,3*02
$GNGSA,A,3,09,16,27,29,30,32,33,36,39,41,45,,1.28,0.63,1.11,4*02
$GNGSA,A,3,,,,,,,,,,,,,1.28,0.63,1.11,5*0A
$GPGSV,3,1,11,05,58,106,25,11,20,062,44,12,10,164,24,18,37,246,38,1*69
$GPGSV,3,2,11,20,40,057,47,25,40,193,26,26,25,310,44,28,08,261,30,1*6B
$GPGSV,3,3,11,29,81,322,29,31,13,288,36,48,32,192,33,1*5E
$GPGSV,1,1,00,8*6D
$GLGSV,3,1,09,65,32,058,30,66,24,116,44,72,05,007,16,73,10,339,24,1*75
$GLGSV,3,2,09,79,33,217,39,80,45,290,38,81,67,016,37,82,42,282,36,1*73
$GLGSV,3,3,09,88,22,069,38,1*45
$GAGSV,3,1,09,07,11,058,34,08,03,011,25,10,20,242,21,12,44,244,36,7*79
$GAGSV,3,2,09,24,46,295,29,26,25,059,43,29,04,108,39,31,54,203,29,7*77
$GAGSV,3,3,09,33,75,048,33,7*44
$GAGSV,1,1,00,1*75
$GBGSV,3,1,12,06,,,23,09,10,333,25,16,14,315,19,27,34,084,39,1*45
$GBGSV,3,2,12,29,32,277,42,30,82,017,29,32,29,128,32,33,04,021,25,1*7E
$GBGSV,3,3,12,36,28,233,29,39,12,307,27,41,30,063,34,45,30,291,37,1*73
$GBGSV,1,1,00,5*72
$GQGSV,1,1,00,1*65
$GQGSV,1,1,00,8*6C
$PQTMDRCAL,1,0,1*5C
$PQTMVEHATT,1,3094832,0.000000,0.000000,142.098160,89.989998,179.990005,3.726868*38
$PQTMDRPVA,1,3094832,065836.000,1,49.18804146,-123.11687898,2.508,-16.830,-0.009,0.007,-0.000,0.012,0.000000,0.000000,142.098160*58
$GNGGA,065837.000,4911.282484,N,12307.012764,W,1,38,0.64,2.503,M,-16.829,M,,*47
$GNRMC,065837.000,A,4911.282484,N,12307.012764,W,0.022,142.10,011224,,,A,V*29
$GNGLL,4911.282484,N,12307.012764,W,065837.000,A,A*56
$GNVTG,142.10,T,,M,0.022,N,0.040,K,A*21
$GNGSA,A,3,05,11,12,18,20,25,26,28,29,31,,,1.16,0.64,0.97,1*06
$GNGSA,A,3,65,66,72,73,79,80,81,82,88,,,,1.16,0.64,0.97,2*0F
$GNGSA,A,3,07,10,12,24,26,29,31,33,,,,,1.16,0.64,0.97,3*07
$GNGSA,A,3,09,16,27,29,30,32,33,36,39,41,45,,1.16,0.64,0.97,4*07
$GNGSA,A,3,,,,,,,,,,,,,1.16,0.64,0.97,5*0F
$GPGSV,3,1,11,05,58,106,26,11,20,062,45,12,10,164,25,18,37,246,39,1*6B
$GPGSV,3,2,11,20,40,057,47,25,40,193,28,26,25,310,44,28,08,261,30,1*65
$GPGSV,3,3,11,29,81,322,28,31,13,288,36,48,32,192,33,1*5F
$GPGSV,1,1,00,8*6D
$GLGSV,3,1,09,65,32,058,30,66,24,116,44,72,05,007,17,73,10,339,24,1*74
$GLGSV,3,2,09,79,33,217,39,80,45,290,37,81,67,016,38,82,42,282,36,1*73
$GLGSV,3,3,09,88,22,069,37,1*4A
$GAGSV,3,1,09,07,11,058,35,08,03,011,24,10,20,242,23,12,44,244,36,7*7B
$GAGSV,3,2,09,24,46,295,28,26,25,059,43,29,04,108,38,31,54,203,29,7*77
$GAGSV,3,3,09,33,75,048,32,7*45
$GAGSV,1,1,00,1*75
$GBGSV,3,1,12,06,,,23,09,10,333,25,16,14,315,18,27,34,084,39,1*44
$GBGSV,3,2,12,29,32,277,42,30,82,017,30,32,29,128,32,33,04,021,26,1*75
$GBGSV,3,3,12,36,28,233,29,39,12,307,27,41,30,063,35,45,30,291,37,1*72
$GBGSV,1,1,00,5*72
$GQGSV,1,1,00,1*65
$GQGSV,1,1,00,8*6C
$PQTMDRCAL,1,0,1*5C
$PQTMVEHATT,1,3095832,0.000000,0.000000,142.098160,89.989998,179.990005,3.726868*39
$PQTMDRPVA,1,3095832,065837.000,1,49.18804141,-123.11687939,2.503,-16.829,-0.009,0.007,-0.000,0.011,0.000000,0.000000,142.098160*55
$GNGGA,065838.000,4911.282481,N,12307.012785,W,1,38,0.63,2.502,M,-16.830,M,,*4C
$GNRMC,065838.000,A,4911.282481,N,12307.012785,W,0.026,142.10,011224,,,A,V*28
$GNGLL,4911.282481,N,12307.012785,W,065838.000,A,A*53
$GNVTG,142.10,T,,M,0.026,N,0.048,K,A*2D
$GNGSA,A,3,05,11,12,18,20,25,26,28,29,31,,,1.13,0.63,0.93,1*00
$GNGSA,A,3,65,66,72,73,79,80,81,82,88,,,,1.13,0.63,0.93,2*09
$GNGSA,A,3,07,10,12,24,26,29,31,33,,,,,1.13,0.63,0.93,3*01
$GNGSA,A,3,09,16,27,29,30,32,33,36,39,41,45,,1.13,0.63,0.93,4*01
$GNGSA,A,3,,,,,,,,,,,,,1.13,0.63,0.93,5*09
$GPGSV,3,1,11,05,58,106,27,11,20,062,45,12,10,164,24,18,37,246,39,1*6B
$GPGSV,3,2,11,20,40,057,47,25,40,193,29,26,25,310,44,28,08,261,30,1*64
$GPGSV,3,3,11,29,81,322,29,31,13,288,36,48,32,192,33,1*5E
$GPGSV,1,1,00,8*6D
$GLGSV,3,1,09,65,32,058,28,66,24,116,44,72,05,007,17,73,10,339,24,1*7D
$GLGSV,3,2,09,79,33,217,39,80,45,290,38,81,67,016,37,82,42,282,36,1*73
$GLGSV,3,3,09,88,22,069,37,1*4A
$GAGSV,3,1,09,07,11,058,35,08,03,011,25,10,20,242,24,12,44,244,35,7*7E
$GAGSV,3,2,09,24,46,295,27,26,25,059,43,29,04,108,39,31,54,203,30,7*71
$GAGSV,3,3,09,33,75,048,32,7*45
$GAGSV,1,1,00,1*75
$GBGSV,3,1,12,06,,,22,09,10,333,25,16,14,315,20,27,34,084,39,1*4E
$GBGSV,3,2,12,29,32,277,42,30,82,017,30,32,29,128,32,33,04,021,26,1*75
$GBGSV,3,3,12,36,28,233,28,39,12,307,28,41,30,063,34,45,30,291,37,1*7D
$GBGSV,1,1,00,5*72
$GQGSV,1,1,00,1*65
$GQGSV,1,1,00,8*6C
$PQTMDRCAL,1,0,1*5C
$PQTMVEHATT,1,3096832,0.000000,0.000000,142.098160,89.989998,179.990005,3.726868*3A
$PQTMDRPVA,1,3096832,065838.000,1,49.18804134,-123.11687975,2.502,-16.830,-0.010,0.008,-0.002,0.013,0.000000,0.000000,142.098160*5D
$GNGGA,065839.000,4911.282480,N,12307.012806,W,1,38,0.58,2.498,M,-16.830,M,,*42
$GNRMC,065839.000,A,4911.282480,N,12307.012806,W,0.026,142.10,011224,,,A,V*2C
$GNGLL,4911.282480,N,12307.012806,W,065839.000,A,A*57
$GNVTG,142.10,T,,M,0.026,N,0.048,K,A*2D
$GNGSA,A,3,05,11,12,18,20,25,26,28,29,31,,,1.02,0.58,0.84,1*0E
$GNGSA,A,3,65,66,72,73,79,80,81,82,88,,,,1.02,0.58,0.84,2*07
$GNGSA,A,3,07,10,12,24,26,29,31,33,,,,,1.02,0.58,0.84,3*0F
$GNGSA,A,3,09,16,27,29,30,32,33,36,39,41,45,,1.02,0.58,0.84,4*0F
$GNGSA,A,3,,,,,,,,,,,,,1.02,0.58,0.84,5*07
$GPGSV,3,1,11,05,58,106,28,11,20,062,45,12,10,164,24,18,37,246,39,1*64
$GPGSV,3,2,11,20,40,057,47,25,40,193,27,26,25,310,44,28,08,261,30,1*6A
$GPGSV,3,3,11,29,81,322,29,31,13,288,36,48,32,192,33,1*5E
$GPGSV,1,1,00,8*6D
$GLGSV,3,1,09,65,32,058,27,66,24,116,43,72,05,007,15,73,10,339,25,1*76
$GLGSV,3,2,09,79,33,217,39,80,45,290,37,81,67,016,37,82,42,282,35,1*7F
$GLGSV,3,3,09,88,22,069,38,1*45
$GAGSV,3,1,09,07,11,058,35,08,03,011,24,10,20,242,24,12,44,244,35,7*7F
$GAGSV,3,2,09,24,46,295,27,26,25,059,43,29,04,108,39,31,54,203,28,7*78
$GAGSV,3,3,09,33,75,048,32,7*45
$GAGSV,1,1,00,1*75
$GBGSV,3,1,12,06,,,22,09,10,333,25,16,14,315,20,27,34,084,39,1*4E
$GBGSV,3,2,12,29,32,277,42,30,82,017,31,32,29,128,32,33,04,021,25,1*77
$GBGSV,3,3,12,36,28,233,28,39,12,307,27,41,30,063,33,45,30,291,38,1*7A
$GBGSV,1,1,00,5*72
$GQGSV,1,1,00,1*65
$GQGSV,1,1,00,8*6C
$PQTMDRCAL,1,0,1*5C
$PQTMVEHATT,1,3097832,0.000000,0.000000,142.098160,89.989998,179.990005,3.726868*3B
$PQTMDRPVA,1,3097832,065839.000,1,49.18804133,-123.11688010,2.498,-16.830,-0.011,0.008,-0.002,0.013,0.000000,0.000000,142.098160*5C
$GNGGA,065840.000,4911.282481,N,12307.012825,W,1,37,0.58,2.495,M,-16.830,M,,*4E
$GNRMC,065840.000,A,4911.282481,N,12307.012825,W,0.022,142.10,011224,,,A,V*26
$GNGLL,4911.282481,N,12307.012825,W,065840.000,A,A*59
$GNVTG,142.10,T,,M,0.022,N,0.040,K,A*21
$GNGSA,A,3,05,11,18,20,25,26,28,29,31,,,,1.03,0.58,0.85,1*0D
$GNGSA,A,3,65,66,72,73,79,80,81,82,88,,,,1.03,0.58,0.85,2*07
$GNGSA,A,3,07,10,12,24,26,29,31,33,,,,,1.03,0.58,0.85,3*0F
$GNGSA,A,3,09,16,27,29,30,32,33,36,39,41,45,,1.03,0.58,0.85,4*0F
$GNGSA,A,3,,,,,,,,,,,,,1.03,0.58,0.85,5*07
$GPGSV,3,1,10,05,58,106,28,11,20,062,45,18,37,246,39,20,40,057,47,1*65
$GPGSV,3,2,10,25,40,193,27,26,25,310,44,28,08,261,29,29,81,322,27,1*60
$GPGSV,3,3,10,31,13,288,35,48,32,192,33,1*66
$GPGSV,1,1,00,8*6D
$GLGSV,3,1,09,65,32,058,27,66,24,116,44,72,05,007,16,73,10,339,26,1*71
$GLGSV,3,2,09,79,33,217,40,80,45,290,37,81,67,016,37,82,42,282,37,1*73
$GLGSV,3,3,09,88,22,069,38,1*45
$GAGSV,3,1,09,07,11,058,35,08,03,011,26,10,20,242,25,12,44,244,36,7*7F
$GAGSV,3,2,09,24,46,295,25,26,25,059,43,29,04,108,39,31,54,203,26,7*74
$GAGSV,3,3,09,33,75,048,32,7*45
$GAGSV,1,1,00,1*75
$GBGSV,3,1,12,06,,,24,09,10,333,25,16,14,315,20,27,34,084,39,1*48
$GBGSV,3,2,12,29,32,277,42,30,82,017,32,32,29,128,32,33,04,021,25,1*74
$GBGSV,3,3,12,36,28,233,28,39,12,307,28,41,30,063,34,45,30,291,38,1*72
$GBGSV,1,1,00,5*72
$GQGSV,1,1,00,1*65
$GQGSV,1,1,00,8*6C
$PQTMDRCAL,1,0,1*5C
$PQTMVEHATT,1,3098832,0.000000,0.000000,142.098160,89.989998,179.990005,3.726868*34
$PQTMDRPVA,1,3098832,065840.000,1,49.18804134,-123.11688041,2.495,-16.830,-0.009,0.007,-0.002,0.011,0.000000,0.000000,142.098160*57
$GNGGA,065841.000,4911.282482,N,12307.012840,W,1,38,0.65,2.492,M,-16.829,M,,*41
$GNRMC,065841.000,A,4911.282482,N,12307.012840,W,0.018,142.10,011224,,,A,V*2E
$GNGLL,4911.282482,N,12307.012840,W,065841.000,A,A*58
$GNVTG,142.10,T,,M,0.018,N,0.033,K,A*2C
$GNGSA,A,3,05,11,12,18,20,25,26,28,29,31,,,1.14,0.65,0.94,1*06
$GNGSA,A,3,65,66,72,73,79,80,81,82,88,,,,1.14,0.65,0.94,2*0F
$GNGSA,A,3,07,10,12,24,26,29,31,33,,,,,1.14,0.65,0.94,3*07
$GNGSA,A,3,09,16,27,29,30,32,33,36,39,41,45,,1.14,0.65,0.94,4*07
$GNGSA,A,3,,,,,,,,,,,,,1.14,0.65,0.94,5*0F
$GPGSV,3,1,11,05,58,106,27,11,20,062,45,12,10,164,24,18,37,246,39,1*6B
$GPGSV,3,2,11,20,40,057,47,25,40,193,28,26,25,310,44,28,08,261,29,1*6D
$GPGSV,3,3,11,29,81,322,27,31,13,288,36,48,32,192,33,1*50
$GPGSV,1,1,00,8*6D
$GLGSV,3,1,09,65,32,058,27,66,24,116,44,72,05,007,15,73,10,339,25,1*71
$GLGSV,3,2,09,79,33,217,39,80,45,290,36,81,67,016,36,82,43,282,36,1*7D
$GLGSV,3,3,09,88,22,069,38,1*45
$GAGSV,3,1,09,07,11,058,34,08,03,011,24,10,20,242,25,12,44,244,35,7*7F
$GAGSV,3,2,09,24,46,295,25,26,25,059,43,29,04,108,39,31,54,203,28,7*7A
$GAGSV,3,3,09,33,75,048,33,7*44
$GAGSV,1,1,00,1*75
$GBGSV,3,1,12,06,,,24,09,10,333,25,16,14,315,20,27,34,084,38,1*49
$GBGSV,3,2,12,29,32,277,42,30,82,017,31,32,29,128,33,33,04,021,25,1*76
$GBGSV,3,3,12,36,28,233,29,39,12,307,27,41,30,063,34,45,30,291,39,1*7D
$GBGSV,1,1,00,5*72
$GQGSV,1,1,00,1*65
$GQGSV,1,1,00,8*6C
$PQTMDRCAL,1,0,1*5C
$PQTMVEHATT,1,3099832,0.000000,0.000000,142.098160,89.989998,179.990005,3.726868*35
$PQTMDRPVA,1,3099832,065841.000,1,49.18804137,-123.11688066,2.492,-16.829,-0.007,0.006,-0.001,0.009,0.000000,0.000000,142.098160*5B
$GNGGA,065842.000,4911.282484,N,12307.012854,W,1,37,0.55,2.488,M,-16.829,M,,*46
$GNRMC,065842.000,A,4911.282484,N,12307.012854,W,0.021,142.10,011224,,,A,V*24
$GNGLL,4911.282484,N,12307.012854,W,065842.000,A,A*58
$GNVTG,142.10,T,,M,0.021,N,0.039,K,A*2C
$GNGSA,A,3,05,11,18,20,25,26,28,29,31,,,,0.95,0.55,0.77,1*03
$GNGSA,A,3,65,66,72,73,79,80,81,82,88,,,,0.95,0.55,0.77,2*09
$GNGSA,A,3,07,10,12,24,26,29,31,33,,,,,0.95,0.55,0.77,3*01
$GNGSA,A,3,09,16,27,29,30,32,33,36,39,41,45,,0.95,0.55,0.77,4*01
$GNGSA,A,3,,,,,,,,,,,,,0.95,0.55,0.77,5*09
$GPGSV,3,1,10,05,58,106,28,11,20,062,45,18,37,246,39,20,40,057,47,1*65
$GPGSV,3,2,10,25,40,193,28,26,25,310,44,28,08,261,29,29,81,322,28,1*60
$GPGSV,3,3,10,31,13,288,36,48,32,192,33,1*65
$GPGSV,1,1,00,8*6D
$GLGSV,3,1,09,65,32,058,28,66,24,116,44,72,05,007,14,73,10,339,27,1*7D
$GLGSV,3,2,09,79,33,217,39,80,45,290,37,81,67,016,37,82,43,282,37,1*7C
$GLGSV,3,3,09,88,22,069,39,1*44
$GAGSV,3,1,09,07,11,058,34,08,03,011,25,10,20,242,25,12,44,244,34,7*7F
$GAGSV,3,2,09,24,46,295,24,26,25,059,43,29,04,108,39,31,54,203,25,7*76
$GAGSV,3,3,09,33,75,048,33,7*44
$GAGSV,1,1,00,1*75
$GBGSV,3,1,12,06,,,23,09,10,333,24,16,14,315,20,27,34,084,38,1*4F
$GBGSV,3,2,12,29,32,277,41,30,82,017,32,32,29,128,33,33,04,021,25,1*76
$GBGSV,3,3,12,36,28,233,28,39,12,307,28,41,30,063,35,45,30,291,38,1*73
$GBGSV,1,1,00,5*72
$GQGSV,1,1,00,1*65
$GQGSV,1,1,00,8*6C
$PQTMDRCAL,1,0,1*5C
$PQTMVEHATT,1,3100832,0.000000,0.000000,142.098160,89.989998,179.990005,3.726868*34
$PQTMDRPVA,1,3100832,065842.000,1,49.18804141,-123.11688090,2.488,-16.829,-0.008,0.007,-0.002,0.011,0.000000,0.000000,142.098160*5E
$GNGGA,065843.000,4911.282486,N,12307.012868,W,1,37,0.68,2.485,M,-16.830,M,,*41
$GNRMC,065843.000,A,4911.282486,N,12307.012868,W,0.021,142.10,011224,,,A,V*28
$GNGLL,4911.282486,N,12307.012868,W,065843.000,A,A*54
$GNVTG,142.10,T,,M,0.021,N,0.039,K,A*2C
$GNGSA,A,3,05,11,18,20,25,26,28,29,31,,,,1.22,0.68,1.02,1*03
$GNGSA,A,3,65,66,72,73,79,80,81,82,88,,,,1.22,0.68,1.02,2*09
$GNGSA,A,3,07,10,12,24,26,29,31,33,,,,,1.22,0.68,1.02,3*01
$GNGSA,A,3,09,16,27,29,30,32,33,36,39,41,45,,1.22,0.68,1.02,4*01
$GNGSA,A,3,,,,,,,,,,,,,1.22,0.68,1.02,5*09
$GPGSV,3,1,10,05,58,106,26,11,20,062,45,18,37,246,39,20,40,057,47,1*6B
$GPGSV,3,2,10,25,40,193,28,26,25,310,43,28,07,261,30,29,81,322,27,1*6F
$GPGSV,3,3,10,31,13,288,36,48,32,192,33,1*65
$GPGSV,1,1,00,8*6D
$GLGSV,3,1,09,65,32,058,28,66,24,116,43,72,05,007,13,73,10,339,26,1*7C
$GLGSV,3,2,09,79,33,217,39,80,45,290,35,81,67,016,37,82,43,282,37,1*7E
$GLGSV,3,3,09,88,22,069,39,1*44
$GAGSV,3,1,09,07,11,058,35,08,03,011,27,10,20,242,28,12,44,244,35,7*70
$GAGSV,3,2,09,24,46,295,26,26,25,059,43,29,04,108,39,31,54,203,25,7*74
$GAGSV,3,3,09,33,75,048,33,7*44
$GAGSV,1,1,00,1*75
$GBGSV,3,1,12,06,,,23,09,10,333,24,16,14,314,20,27,34,084,37,1*41
$GBGSV,3,2,12,29,32,277,41,30,82,017,32,32,29,128,33,33,04,021,25,1*76
$GBGSV,3,3,12,36,28,233,28,39,12,307,27,41,30,063,35,45,30,291,39,1*7D
$GBGSV,1,1,00,5*72
$GQGSV,1,1,00,1*65
$GQGSV,1,1,00,8*6C
$PQTMDRCAL,1,0,1*5C
$PQTMVEHATT,1,3101832,0.000000,0.000000,142.098160,89.989998,179.990005,3.726868*35
$PQTMDRPVA,1,3101832,065843.000,1,49.18804143,-123.11688113,2.485,-16.830,-0.009,0.007,-0.000,0.011,0.000000,0.000000,142.098160*50
$GNGGA,065844.000,4911.282489,N,12307.012885,W,1,37,0.52,2.481,M,-16.829,M,,*4F
$GNRMC,065844.000,A,4911.282489,N,12307.012885,W,0.018,142.10,011224,,,A,V*29
$GNGLL,4911.282489,N,12307.012885,W,065844.000,A,A*5F
$GNVTG,142.10,T,,M,0.018,N,0.034,K,A*2B
$GNGSA,A,3,05,11,18,20,25,26,28,29,31,,,,0.91,0.52,0.75,1*02
$GNGSA,A,3,65,66,72,73,79,80,81,82,88,,,,0.91,0.52,0.75,2*08
$GNGSA,A,3,07,10,12,24,26,29,31,33,,,,,0.91,0.52,0.75,3*00
$GNGSA,A,3,09,16,27,29,30,32,33,36,39,41,45,,0.91,0.52,0.75,4*00
$GNGSA,A,3,,,,,,,,,,,,,0.91,0.52,0.75,5*08
$GPGSV,3,1,10,05,58,106,24,11,20,062,45,18,37,246,38,20,40,057,47,1*68
$GPGSV,3,2,10,25,40,193,28,26,25,310,43,28,07,261,29,29,81,322,27,1*67
$GPGSV,3,3,10,31,13,288,36,48,32,192,33,1*65
$GPGSV,1,1,00,8*6D
$GLGSV,3,1,09,65,32,058,30,66,24,116,43,72,05,007,11,73,10,339,25,1*74
$GLGSV,3,2,09,79,33,217,39,80,45,290,37,81,67,016,36,82,43,282,38,1*72
$GLGSV,3,3,09,88,22,069,38,1*45
$GAGSV,3,1,09,07,11,058,34,08,03,011,26,10,20,242,25,12,44,244,34,7*7C
$GAGSV,3,2,09,24,46,295,25,26,25,059,43,29,04,108,39,31,54,203,27,7*75
$GAGSV,3,3,09,33,75,048,32,7*45
$GAGSV,1,1,00,1*75
$GBGSV,3,1,12,06,,,23,09,10,333,23,16,14,314,19,27,34,084,38,1*43
$GBGSV,3,2,12,29,32,277,42,30,82,017,32,32,29,128,34,33,04,021,23,1*74
$GBGSV,3,3,12,36,28,233,28,39,12,307,29,41,30,063,36,45,30,291,39,1*70
$GBGSV,1,1,00,5*72
$GQGSV,1,1,00,1*65
$GQGSV,1,1,00,8*6C
$PQTMDRCAL,1,0,1*5C
$PQTMVEHATT,1,3102832,0.000000,0.000000,142.098160,89.989998,179.990005,3.726868*36
$PQTMDRPVA,1,3102832,065844.000,1,49.18804148,-123.11688141,2.481,-16.829,-0.007,0.006,-0.002,0.009,0.000000,0.000000,142.098160*50
$GNGGA,065845.000,4911.282490,N,12307.012900,W,1,37,0.52,2.479,M,-16.829,M,,*4D
$GNRMC,065845.000,A,4911.282490,N,12307.012900,W,0.021,142.10,011224,,,A,V*26
$GNGLL,4911.282490,N,12307.012900,W,065845.000,A,A*5A
$GNVTG,142.10,T,,M,0.021,N,0.038,K,A*2D
$GNGSA,A,3,05,11,18,20,25,26,28,29,31,,,,0.91,0.52,0.75,1*02
$GNGSA,A,3,65,66,72,73,79,80,81,82,88,,,,0.91,0.52,0.75,2*08
$GNGSA,A,3,07,10,12,24,26,29,31,33,,,,,0.91,0.52,0.75,3*00
$GNGSA,A,3,09,16,27,29,30,32,33,36,39,41,45,,0.91,0.52,0.75,4*00
$GNGSA,A,3,,,,,,,,,,,,,0.91,0.52,0.75,5*08
$GPGSV,3,1,10,05,58,106,23,11,20,062,45,18,37,246,38,20,40,057,47,1*6F
$GPGSV,3,2,10,25,40,193,27,26,25,310,43,28,07,261,29,29,81,322,29,1*66
$GPGSV,3,3,10,31,13,288,36,48,32,192,33,1*65
$GPGSV,1,1,00,8*6D
$GLGSV,3,1,09,65,32,058,30,66,24,116,43,72,05,007,12,73,10,339,26,1*74
$GLGSV,3,2,09,79,33,217,39,80,45,290,35,81,67,016,36,82,43,282,38,1*70
$GLGSV,3,3,09,88,22,069,38,1*45
$GAGSV,3,1,09,07,11,058,33,08,03,011,25,10,20,242,26,12,44,244,34,7*7B
$GAGSV,3,2,09,24,46,295,22,26,25,059,43,29,04,108,39,31,54,203,26,7*73
$GAGSV,3,3,09,33,75,048,33,7*44
$GAGSV,1,1,00,1*75
$GBGSV,3,1,12,06,,,23,09,10,333,23,16,14,314,21,27,34,084,37,1*47
$GBGSV,3,2,12,29,32,277,41,30,82,017,34,32,30,128,34,33,04,021,24,1*7E
$GBGSV,3,3,12,36,28,233,28,39,12,307,28,41,30,063,36,45,30,291,38,1*70
$GBGSV,1,1,00,5*72
$GQGSV,1,1,00,1*65
$GQGSV,1,1,00,8*6C
$PQTMDRCAL,1,0,1*5C
$PQTMVEHATT,1,3103832,0.000000,0.000000,142.098160,89.989998,179.990005,3.726868*37
$PQTMDRPVA,1,3103832,065845.000,1,49.18804151,-123.11688167,2.479,-16.829,-0.008,0.006,-0.003,0.011,0.000000,0.000000,142.098160*5C
$GNGGA,065846.000,4911.282493,N,12307.012914,W,1,37,0.52,2.474,M,-16.829,M,,*45
$GNRMC,065846.000,A,4911.282493,N,12307.012914,W,0.008,142.10,011224,,,A,V*28
$GNGLL,4911.282493,N,12307.012914,W,065846.000,A,A*5F
$GNVTG,142.10,T,,M,0.008,N,0.016,K,A*2A
$GNGSA,A,3,05,11,18,20,25,26,28,29,31,,,,0.92,0.52,0.75,1*01
$GNGSA,A,3,65,66,72,73,79,80,81,82,88,,,,0.92,0.52,0.75,2*0B
$GNGSA,A,3,07,10,12,24,26,29,31,33,,,,,0.92,0.52,0.75,3*03
$GNGSA,A,3,09,16,27,29,30,32,33,36,39,41,45,,0.92,0.52,0.75,4*03
$GNGSA,A,3,,,,,,,,,,,,,0.92,0.52,0.75,5*0B
$GPGSV,3,1,10,05,58,106,23,11,20,062,45,18,37,246,39,20,40,057,47,1*6E
$GPGSV,3,2,10,25,40,193,29,26,25,310,44,28,07,261,30,29,81,322,28,1*66
$GPGSV,3,3,10,31,13,288,37,48,32,192,32,1*65
$GPGSV,1,1,00,8*6D
$GLGSV,3,1,09,65,32,058,30,66,24,116,43,72,05,007,12,73,10,339,27,1*75
$GLGSV,3,2,09,79,33,217,39,80,45,290,37,81,67,016,37,82,43,282,38,1*73
$GLGSV,3,3,09,88,22,069,38,1*45
$GAGSV,3,1,09,07,11,058,35,08,03,011,27,10,20,242,26,12,44,244,34,7*7F
$GAGSV,3,2,09,24,46,295,23,26,25,059,43,29,04,108,39,31,54,203,26,7*72
$GAGSV,3,3,09,33,75,048,32,7*45
$GAGSV,1,1,00,1*75
$GBGSV,3,1,12,06,,,24,09,10,333,23,16,14,314,19,27,34,084,37,1*4B
$GBGSV,3,2,12,29,32,277,41,30,82,017,33,32,30,128,34,33,04,021,23,1*7E
$GBGSV,3,3,12,36,28,233,29,39,12,307,28,41,30,063,36,45,30,291,38,1*71
$GBGSV,1,1,00,5*72
$GQGSV,1,1,00,1*65
$GQGSV,1,1,00,8*6C
$PQTMDRCAL,1,0,1*5C
$PQTMVEHATT,1,3104832,0.000000,0.000000,142.098160,89.989998,179.990005,3.726868*30
$PQTMDRPVA,1,3104832,065846.000,1,49.18804154,-123.11688190,2.474,-16.829,-0.003,0.003,-0.001,0.004,0.000000,0.000000,142.098160*50
$GNGGA,065847.000,4911.282495,N,12307.012925,W,1,37,0.52,2.468,M,-16.830,M,,*45
$GNRMC,065847.000,A,4911.282495,N,12307.012925,W,0.006,142.10,011224,,,A,V*23
$GNGLL,4911.282495,N,12307.012925,W,065847.000,A,A*5A
$GNVTG,142.10,T,,M,0.006,N,0.010,K,A*22
$GNGSA,A,3,05,11,18,20,25,26,28,29,31,,,,0.92,0.52,0.75,1*01
$GNGSA,A,3,65,66,72,73,79,80,81,82,88,,,,0.92,0.52,0.75,2*0B
$GNGSA,A,3,07,10,12,24,26,29,31,33,,,,,0.92,0.52,0.75,3*03
$GNGSA,A,3,09,16,27,29,30,32,33,36,39,41,45,,0.92,0.52,0.75,4*03
$GNGSA,A,3,,,,,,,,,,,,,0.92,0.52,0.75,5*0B
$GPGSV,3,1,10,05,58,106,22,11,20,062,45,18,37,246,38,20,40,057,47,1*6E
$GPGSV,3,2,10,25,40,193,28,26,25,310,43,28,07,261,31,29,81,322,27,1*6E
$GPGSV,3,3,10,31,13,288,37,48,32,192,33,1*64
$GPGSV,1,1,00,8*6D
$GLGSV,3,1,09,65,32,058,30,66,24,116,42,72,05,007,13,73,10,339,26,1*74
$GLGSV,3,2,09,79,33,217,39,80,45,290,36,81,67,016,38,82,43,282,38,1*7D
$GLGSV,3,3,09,88,21,069,38,1*46
$GAGSV,3,1,09,07,11,058,33,08,03,011,27,10,20,242,26,12,44,244,33,7*7E
$GAGSV,3,2,09,24,46,295,22,26,25,059,42,29,04,108,39,31,54,203,24,7*70
$GAGSV,3,3,09,33,75,048,32,7*45
$GAGSV,1,1,00,1*75
$GBGSV,3,1,12,06,,,23,09,10,333,23,16,14,314,19,27,34,084,37,1*4C
$GBGSV,3,2,12,29,32,277,41,30,82,018,34,32,30,128,34,33,04,021,23,1*76
$GBGSV,3,3,12,36,28,233,28,39,12,307,29,41,30,063,36,45,30,291,38,1*71
$GBGSV,1,1,00,5*72
$GQGSV,1,1,00,1*65
$GQGSV,1,1,00,8*6C
$PQTMDRCAL,1,0,1*5C
$PQTMVEHATT,1,3105832,0.000000,0.000000,142.098160,89.989998,179.990005,3.726868*31
$PQTMDRPVA,1,3105832,065847.000,1,49.18804159,-123.11688208,2.468,-16.830,-0.002,0.002,0.001,0.003,0.000000,0.000000,142.098160*70
$GNGGA,065848.000,4911.282497,N,12307.012933,W,1,37,0.52,2.461,M,-16.829,M,,*4E
$GNRMC,065848.000,A,4911.282497,N,12307.012933,W,0.010,142.10,011224,,,A,V*2E
$GNGLL,4911.282497,N,12307.012933,W,065848.000,A,A*50
$GNVTG,142.10,T,,M,0.010,N,0.019,K,A*2C
$GNGSA,A,3,05,11,18,20,25,26,28,29,31,,,,0.92,0.52,0.75,1*01
$GNGSA,A,3,65,66,72,73,79,80,81,82,88,,,,0.92,0.52,0.75,2*0B
$GNGSA,A,3,07,10,12,24,26,29,31,33,,,,,0.92,0.52,0.75,3*03
$GNGSA,A,3,09,16,27,29,30,32,33,36,39,41,45,,0.92,0.52,0.75,4*03
$GNGSA,A,3,,,,,,,,,,,,,0.92,0.52,0.75,5*0B
$GPGSV,3,1,10,05,58,106,20,11,20,062,45,18,37,246,38,20,40,057,47,1*6C
$GPGSV,3,2,10,25,40,193,27,26,25,310,43,28,07,261,30,29,81,322,25,1*62
$GPGSV,3,3,10,31,13,288,37,48,32,192,33,1*64
$GPGSV,1,1,00,8*6D
$GLGSV,3,1,09,65,32,058,30,66,24,116,43,72,05,007,11,73,10,339,27,1*76
$GLGSV,3,2,09,79,33,217,40,80,45,290,37,81,67,016,39,82,43,282,38,1*73
$GLGSV,3,3,09,88,21,069,39,1*47
$GAGSV,3,1,09,07,11,058,33,08,03,011,25,10,20,242,27,12,44,244,33,7*7D
$GAGSV,3,2,09,24,46,295,21,26,25,059,43,29,04,108,39,31,54,203,25,7*73
$GAGSV,3,3,09,33,75,048,32,7*45
$GAGSV,1,1,00,1*75
$GBGSV,3,1,12,06,,,23,09,10,333,24,16,14,314,19,27,34,084,38,1*44
$GBGSV,3,2,12,29,32,277,41,30,82,018,34,32,30,128,35,33,04,021,23,1*77
$GBGSV,3,3,12,36,28,233,28,39,12,307,28,41,30,063,36,45,30,291,38,1*70
$GBGSV,1,1,00,5*72
$GQGSV,1,1,00,1*65
$GQGSV,1,1,00,8*6C
$PQTMDRCAL,1,0,1*5C
$PQTMVEHATT,1,3106832,0.000000,0.000000,142.098160,89.989998,179.990005,3.726868*32
$PQTMDRPVA,1,3106832,065848.000,1,49.18804161,-123.11688222,2.461,-16.829,-0.004,0.003,-0.001,0.005,0.000000,0.000000,142.098160*52
$GNGGA,065849.000,4911.282497,N,12307.012935,W,1,37,0.52,2.456,M,-16.830,M,,*45
$GNRMC,065849.000,A,4911.282497,N,12307.012935,W,0.011,142.10,011224,,,A,V*28
$GNGLL,4911.282497,N,12307.012935,W,065849.000,A,A*57
$GNVTG,142.10,T,,M,0.011,N,0.021,K,A*26
$GNGSA,A,3,05,11,18,20,25,26,28,29,31,,,,0.92,0.52,0.75,1*01
$GNGSA,A,3,65,66,72,73,79,80,81,82,88,,,,0.92,0.52,0.75,2*0B
$GNGSA,A,3,07,10,12,24,26,29,31,33,,,,,0.92,0.52,0.75,3*03
$GNGSA,A,3,09,16,27,29,30,32,33,36,39,41,45,,0.92,0.52,0.75,4*03
$GNGSA,A,3,,,,,,,,,,,,,0.92,0.52,0.75,5*0B
$GPGSV,3,1,10,05,58,106,18,11,20,062,46,18,37,246,38,20,40,057,47,1*64
$GPGSV,3,2,10,25,40,193,28,26,25,310,43,28,07,261,31,29,81,322,27,1*6E
$GPGSV,3,3,10,31,13,288,37,48,32,192,32,1*65
$GPGSV,1,1,00,8*6D
$GLGSV,3,1,09,65,32,058,32,66,24,116,43,72,05,007,14,73,10,339,27,1*71
$GLGSV,3,2,09,79,33,217,40,80,45,290,36,81,67,016,39,82,43,282,38,1*72
$GLGSV,3,3,09,88,21,069,39,1*47
$GAGSV,3,1,09,07,11,058,33,08,03,011,26,10,20,243,26,12,44,244,34,7*79
$GAGSV,3,2,09,24,46,295,22,26,24,059,43,29,04,108,39,31,54,203,23,7*77
$GAGSV,3,3,09,33,75,048,31,7*46
$GAGSV,1,1,00,1*75
$GBGSV,3,1,12,06,,,22,09,10,333,24,16,14,314,18,27,34,084,37,1*4B
$GBGSV,3,2,12,29,32,277,41,30,82,018,35,32,30,128,35,33,04,021,24,1*71
$GBGSV,3,3,12,36,28,233,29,39,12,307,28,41,30,063,36,45,30,291,38,1*71
$GBGSV,1,1,00,5*72
$GQGSV,1,1,00,1*65
$GQGSV,1,1,00,8*6C
$PQTMDRCAL,1,0,1*5C
$PQTMVEHATT,1,3107832,0.000000,0.000000,142.098160,89.989998,179.990005,3.726868*33
$PQTMDRPVA,1,3107832,065849.000,1,49.18804161,-123.11688226,2.456,-16.830,-0.005,0.004,-0.002,0.006,0.000000,0.000000,142.098160*5C
$GNGGA,065850.000,4911.282497,N,12307.012942,W,1,38,0.61,2.450,M,-16.830,M,,*44
$GNRMC,065850.000,A,4911.282497,N,12307.012942,W,0.024,142.10,011224,,,A,V*26
$GNGLL,4911.282497,N,12307.012942,W,065850.000,A,A*5F
$GNVTG,142.10,T,,M,0.024,N,0.045,K,A*22
$GNGSA,A,3,05,11,12,18,20,25,26,28,29,31,,,1.10,0.61,0.91,1*03
$GNGSA,A,3,65,66,72,73,79,80,81,82,88,,,,1.10,0.61,0.91,2*0A
$GNGSA,A,3,07,10,12,24,26,29,31,33,,,,,1.10,0.61,0.91,3*02
$GNGSA,A,3,09,16,27,29,30,32,33,36,39,41,45,,1.10,0.61,0.91,4*02
$GNGSA,A,3,,,,,,,,,,,,,1.10,0.61,0.91,5*0A
$GPGSV,3,1,11,05,58,106,17,11,20,062,46,12,10,164,22,18,37,246,38,1*6C
$GPGSV,3,2,11,20,40,057,47,25,40,193,27,26,25,310,43,28,07,261,31,1*63
$GPGSV,3,3,11,29,81,322,28,31,13,288,37,48,32,192,33,1*5E
$GPGSV,1,1,00,8*6D
$GLGSV,3,1,09,65,32,058,31,66,24,116,43,72,05,007,14,73,10,339,26,1*73
$GLGSV,3,2,09,79,33,217,40,80,45,290,37,81,67,016,38,82,43,282,37,1*7D
$GLGSV,3,3,09,88,21,069,39,1*47
$GAGSV,3,1,09,07,11,058,31,08,03,011,26,10,20,243,26,12,44,244,34,7*7B
$GAGSV,3,2,09,24,46,295,21,26,24,059,43,29,04,108,39,31,54,203,23,7*74
$GAGSV,3,3,09,33,75,048,32,7*45
$GAGSV,1,1,00,1*75
$GBGSV,3,1,12,06,,,22,09,10,333,24,16,14,314,18,27,34,084,37,1*4B
$GBGSV,3,2,12,29,32,277,41,30,82,018,34,32,30,128,36,33,04,021,23,1*74
$GBGSV,3,3,12,36,28,233,27,39,12,307,28,41,30,063,37,45,30,291,38,1*7E
$GBGSV,1,1,00,5*72
$GQGSV,1,1,00,1*65
$GQGSV,1,1,00,8*6C
$PQTMDRCAL,1,0,1*5C
$PQTMVEHATT,1,3108832,0.000000,0.000000,142.098160,89.989998,179.990005,3.726868*3C
$PQTMDRPVA,1,3108832,065850.000,1,49.18804161,-123.11688236,2.450,-16.830,-0.010,0.008,-0.000,0.012,0.000000,0.000000,142.098160*53
$GNGGA,065851.000,4911.282496,N,12307.012948,W,1,38,0.57,2.443,M,-16.829,M,,*41
