$PAIR010,0,1,2348,257180*3E
$GNGGA,232603.000,4910.428540,N,12304.401660,W,2,30,0.47,5.562,M,-16.817,M,,*47
$GNGLL,4910.428540,N,12304.401660,W,232603.000,A,D*54
$GNGSA,A,3,19,24,17,06,12,14,11,15,13,,,,0.77,0.47,0.61,1*0B
$GNGSA,A,3,75,85,66,76,,,,,,,,,0.77,0.47,0.61,2*08
$GNGSA,A,3,02,30,36,11,07,25,08,34,10,29,,,0.77,0.47,0.61,3*06
$GNGSA,A,3,35,24,26,44,29,45,41,,,,,,0.77,0.47,0.61,4*0B
$GPGSV,4,1,13,19,82,110,36,24,55,279,35,17,51,059,32,06,34,149,32,1*6B
$GPGSV,4,2,13,46,33,188,27,12,26,283,27,14,26,098,29,11,09,176,26,1*6B
$GPGSV,4,3,13,15,07,235,25,13,05,203,21,03,04,062,15,02,04,029,23,1*6F
$GPGSV,4,4,13,32,02,344,,1*56
$GLGSV,2,1,07,75,73,346,33,84,55,055,21,85,53,168,31,74,43,111,,1*77
$GLGSV,2,2,07,66,18,309,24,76,17,307,29,67,08,359,,1*44
$GAGSV,3,1,10,02,76,068,33,30,44,285,31,36,43,115,29,11,31,051,24,7*7F
$GAGSV,3,2,10,07,27,280,24,25,24,094,24,08,17,226,27,34,16,166,24,7*7D
$GAGSV,3,3,10,10,12,030,24,29,10,332,21,7*7E
$GBGSV,3,1,11,35,64,089,32,24,64,294,29,26,59,137,30,44,49,189,30,1*70
$GBGSV,3,2,11,12,25,199,22,29,14,044,23,25,11,304,20,45,06,127,18,1*75
$GBGSV,3,3,11,41,05,314,21,32,01,003,,34,01,212,14,1*42
$GNRMC,232603.000,A,4910.428540,N,12304.401660,W,0.02,132.56,070125,,,D,V*19
$GNVTG,132.56,T,,M,0.02,N,0.04,K,D*23
$PAIRLOG,Full*51
$GNGGA,232604.000,4910.428390,N,12304.401516,W,2,30,0.47,5.552,M,-16.817,M,,*4A
$GNGLL,4910.428390,N,12304.401516,W,232604.000,A,D*5A
$GNGSA,A,3,19,24,17,06,12,14,11,15,13,,,,0.77,0.47,0.61,1*0B
$GNGSA,A,3,75,85,66,76,,,,,,,,,0.77,0.47,0.61,2*08
$GNGSA,A,3,02,30,36,11,07,25,08,34,10,29,,,0.77,0.47,0.61,3*06
$GNGSA,A,3,35,24,26,44,29,45,41,,,,,,0.77,0.47,0.61,4*0B
$GPGSV,4,1,13,19,82,110,36,24,55,279,35,17,51,059,33,06,34,149,32,1*6A
$GPGSV,4,2,13,46,33,188,27,12,26,283,27,14,26,098,30,11,09,176,26,1*63
$GPGSV,4,3,13,15,07,235,25,13,05,203,21,03,04,062,16,02,04,029,24,1*6B
$GPGSV,4,4,13,32,02,344,,1*56
$GLGSV,2,1,07,75,73,346,33,84,55,055,20,85,53,168,30,74,43,111,,1*77
$GLGSV,2,2,07,66,18,309,22,76,17,307,29,67,08,359,,1*42
$GAGSV,3,1,10,02,76,068,33,30,44,285,31,36,43,115,29,11,31,051,24,7*7F
$GAGSV,3,2,10,07,27,280,24,25,24,094,24,08,17,226,27,34,16,166,24,7*7D
$GAGSV,3,3,10,10,12,030,24,29,10,332,21,7*7E
$GBGSV,3,1,11,35,64,089,32,24,64,294,29,26,59,137,30,44,49,189,30,1*70
$GBGSV,3,2,11,12,25,199,22,29,14,044,23,25,11,304,21,45,06,127,18,1*74
$GBGSV,3,3,11,41,05,314,21,32,01,003,,34,01,212,14,1*42
$GNRMC,232604.000,A,4910.428390,N,12304.401516,W,0.03,132.56,070125,,,D,V*16
$GNVTG,132.56,T,,M,0.03,N,0.05,K,D*23
$PAIRLOG,Full*51
$GNGGA,232605.000,4910.428324,N,12304.401372,W,2,30,0.47,5.471,M,-16.817,M,,*40
$GNGLL,4910.428324,N,12304.401372,W,232605.000,A,D*50
$GNGSA,A,3,19,24,17,06,12,14,11,15,13,,,,0.77,0.47,0.61,1*0B
$GNGSA,A,3,75,85,66,76,,,,,,,,,0.77,0.47,0.61,2*08
$GNGSA,A,3,02,30,36,11,07,25,08,34,10,29,,,0.77,0.47,0.61,3*06
$GNGSA,A,3,35,24,26,44,29,45,41,,,,,,0.77,0.47,0.61,4*0B
$GPGSV,4,1,13,19,82,110,36,24,55,279,35,17,51,059,33,06,34,149,32,1*6A
$GPGSV,4,2,13,46,33,188,27,12,26,283,27,14,26,098,30,11,09,176,26,1*63
$GPGSV,4,3,13,15,07,235,25,13,05,203,21,03,04,062,15,02,04,029,24,1*68
$GPGSV,4,4,13,32,02,344,,1*56
$GLGSV,2,1,07,75,73,346,32,84,55,055,19,85,53,168,29,74,43,111,,1*74
$GLGSV,2,2,07,66,18,309,21,76,17,307,29,67,08,359,,1*41
$GAGSV,3,1,10,02,76,068,33,30,44,285,31,36,43,115,29,11,31,051,24,7*7F
$GAGSV,3,2,10,07,27,280,24,25,24,094,24,08,17,226,27,34,16,166,24,7*7D
$GAGSV,3,3,10,10,12,030,25,29,10,332,21,7*7F
$GBGSV,3,1,11,35,64,089,31,24,64,294,28,26,59,137,28,44,49,189,28,1*72
$GBGSV,3,2,11,12,25,199,21,29,14,044,22,25,11,304,20,45,06,127,18,1*77
$GBGSV,3,3,11,41,05,314,20,32,01,003,,34,01,212,14,1*43
$GNRMC,232605.000,A,4910.428324,N,12304.401372,W,0.03,132.56,070125,,,D,V*1C
$GNVTG,132.56,T,,M,0.03,N,0.05,K,D*23
$PAIRLOG,Full*51
$GNGGA,232606.000,4910.428228,N,12304.401300,W,2,30,0.47,5.309,M,-16.817,M,,*43
$GNGLL,4910.428228,N,12304.401300,W,232606.000,A,D*5B
$GNGSA,A,3,19,24,17,06,12,14,11,15,13,,,,0.77,0.47,0.61,1*0B
$GNGSA,A,3,75,85,66,76,,,,,,,,,0.77,0.47,0.61,2*08
$GNGSA,A,3,02,30,36,11,07,25,08,34,10,29,,,0.77,0.47,0.61,3*06
$GNGSA,A,3,35,24,26,44,29,45,41,,,,,,0.77,0.47,0.61,4*0B
$GPGSV,4,1,13,19,82,110,36,24,55,279,35,17,51,059,33,06,34,149,32,1*6A
$GPGSV,4,2,13,46,33,188,27,12,26,283,27,14,26,098,29,11,09,176,25,1*68
$GPGSV,4,3,13,15,07,235,24,13,05,203,21,03,04,062,14,02,04,029,24,1*68
$GPGSV,4,4,13,32,02,344,,1*56
$GLGSV,2,1,07,75,73,346,32,84,55,055,18,85,53,168,29,74,43,111,,1*75
$GLGSV,2,2,07,66,18,309,20,76,17,307,29,67,08,359,,1*40
$GAGSV,3,1,10,02,76,068,33,30,44,285,30,36,43,115,29,11,31,051,23,7*79
$GAGSV,3,2,10,07,27,280,24,25,24,094,23,08,17,226,26,34,16,166,24,7*7B
$GAGSV,3,3,10,10,12,030,25,29,10,332,21,7*7F
$GBGSV,3,1,11,35,64,089,31,24,64,294,28,26,59,137,28,44,49,189,28,1*72
$GBGSV,3,2,11,12,25,199,21,29,14,044,22,25,11,304,20,45,06,127,17,1*78
$GBGSV,3,3,11,41,05,314,20,32,01,003,,34,01,212,14,1*43
$GNRMC,232606.000,A,4910.428228,N,12304.401300,W,0.03,132.56,070125,,,D,V*17
$GNVTG,132.56,T,,M,0.03,N,0.05,K,D*23
$PAIRLOG,Full*51
$GNGGA,232607.000,4910.428132,N,12304.401282,W,2,30,0.47,5.202,M,-16.817,M,,*4B
$GNGLL,4910.428132,N,12304.401282,W,232607.000,A,D*59
$GNGSA,A,3,19,24,17,06,12,14,11,15,13,,,,0.77,0.47,0.61,1*0B
$GNGSA,A,3,75,85,66,76,,,,,,,,,0.77,0.47,0.61,2*08
$GNGSA,A,3,02,30,36,11,07,25,08,34,10,29,,,0.77,0.47,0.61,3*06
$GNGSA,A,3,35,24,26,44,29,45,41,,,,,,0.77,0.47,0.61,4*0B
$GPGSV,4,1,13,19,82,110,36,24,55,279,35,17,51,059,33,06,34,149,31,1*69
$GPGSV,4,2,13,46,33,188,27,12,26,283,27,14,26,098,29,11,09,176,25,1*68
$GPGSV,4,3,13,15,07,235,24,13,05,203,21,03,04,062,15,02,04,029,23,1*6E
$GPGSV,4,4,13,32,02,344,,1*56
$GLGSV,2,1,07,75,73,346,32,84,55,055,18,85,53,168,29,74,43,111,,1*75
$GLGSV,2,2,07,66,18,309,20,76,17,307,29,67,08,359,,1*40
$GAGSV,3,1,10,02,76,068,33,30,44,285,30,36,43,115,29,11,31,051,23,7*79
$GAGSV,3,2,10,07,27,280,24,25,24,094,23,08,17,226,26,34,16,166,24,7*7B
$GAGSV,3,3,10,10,12,030,25,29,10,332,20,7*7E
$GBGSV,3,1,11,35,64,089,31,24,64,294,28,26,59,137,28,44,49,189,28,1*72
$GBGSV,3,2,11,12,25,199,22,29,14,044,22,25,11,304,19,45,06,127,17,1*71
$GBGSV,3,3,11,41,05,314,20,32,01,003,,34,01,212,13,1*44
$GNRMC,232607.000,A,4910.428132,N,12304.401282,W,0.03,132.56,070125,,,D,V*15
$GNVTG,132.56,T,,M,0.03,N,0.05,K,D*23
$PAIRLOG,Full*51
$GNGGA,232608.000,4910.428024,N,12304.401210,W,2,30,0.47,5.147,M,-16.817,M,,*4B
$GNGLL,4910.428024,N,12304.401210,W,232608.000,A,D*5B
$GNGSA,A,3,19,24,17,06,14,12,11,15,13,,,,0.77,0.47,0.61,1*0B
$GNGSA,A,3,75,85,66,76,,,,,,,,,0.77,0.47,0.61,2*08
$GNGSA,A,3,02,30,36,11,07,25,08,34,10,29,,,0.77,0.47,0.61,3*06
$GNGSA,A,3,24,35,26,44,29,45,41,,,,,,0.77,0.47,0.61,4*0B
$GPGSV,4,1,13,19,82,110,35,24,55,279,35,17,51,059,33,06,34,149,31,1*6A
$GPGSV,4,2,13,46,33,188,27,14,26,098,29,12,26,283,27,11,09,176,25,1*68
$GPGSV,4,3,13,15,07,235,24,13,05,203,20,02,04,029,23,03,04,062,16,1*6C
$GPGSV,4,4,13,32,02,344,,1*56
$GLGSV,2,1,06,75,73,346,32,84,55,055,18,85,53,168,29,74,43,111,,1*74
$GLGSV,2,2,06,66,18,309,20,76,17,307,29,1*77
$GAGSV,3,1,10,02,76,068,32,30,44,285,30,36,43,115,29,11,31,051,23,7*78
$GAGSV,3,2,10,07,27,280,23,25,24,094,23,08,17,226,26,34,16,166,23,7*7B
$GAGSV,3,3,10,10,12,030,24,29,10,332,20,7*7F
$GBGSV,3,1,11,24,64,294,28,35,64,089,32,26,59,137,29,44,49,189,29,1*71
$GBGSV,3,2,11,12,25,199,22,29,14,044,22,25,11,304,19,45,06,127,17,1*71
$GBGSV,3,3,11,41,05,314,20,32,01,003,,34,01,212,13,1*44
$GNRMC,232608.000,A,4910.428024,N,12304.401210,W,0.03,132.56,070125,,,D,V*17
$GNVTG,132.56,T,,M,0.03,N,0.05,K,D*23
$PAIRLOG,Full*51
$GNGGA,232609.000,4910.427934,N,12304.401150,W,2,30,0.47,5.049,M,-16.816,M,,*44
$GNGLL,4910.427934,N,12304.401150,W,232609.000,A,D*5A
$GNGSA,A,3,19,24,17,06,12,14,11,15,13,,,,0.77,0.47,0.61,1*0B
$GNGSA,A,3,75,85,66,76,,,,,,,,,0.77,0.47,0.61,2*08
$GNGSA,A,3,02,30,36,11,07,25,08,34,10,29,,,0.77,0.47,0.61,3*06
$GNGSA,A,3,24,35,26,44,29,45,41,,,,,,0.77,0.47,0.61,4*0B
$GPGSV,4,1,13,19,82,110,35,24,55,279,35,17,51,059,33,06,34,149,31,1*6A
$GPGSV,4,2,13,46,33,188,27,12,26,283,27,14,26,098,29,11,09,176,25,1*68
$GPGSV,4,3,13,15,07,235,24,13,05,203,20,02,04,029,23,03,04,062,16,1*6C
$GPGSV,4,4,13,32,02,344,,1*56
$GLGSV,2,1,07,75,73,346,33,84,55,055,18,85,53,168,29,74,43,111,,1*74
$GLGSV,2,2,07,66,18,309,20,76,17,307,29,67,08,359,,1*40
$GAGSV,3,1,10,02,76,068,32,30,44,285,30,36,43,115,29,11,31,051,23,7*78
$GAGSV,3,2,10,07,27,280,23,25,24,094,23,08,17,226,26,34,16,166,23,7*7B
$GAGSV,3,3,10,10,12,030,24,29,10,332,19,7*75
$GBGSV,3,1,10,24,64,294,29,35,64,089,33,26,59,137,30,44,49,189,29,1*78
$GBGSV,3,2,10,12,25,199,23,29,14,044,22,25,11,304,19,45,06,127,17,1*71
$GBGSV,3,3,10,41,05,314,20,34,01,212,14,1*71
$GNRMC,232609.000,A,4910.427934,N,12304.401150,W,0.02,132.56,070125,,,D,V*17
$GNVTG,132.56,T,,M,0.02,N,0.04,K,D*23
$PAIRLOG,Full*51
$GNGGA,232610.000,4910.427820,N,12304.401042,W,2,30,0.47,4.975,M,-16.816,M,,*4D
$GNGLL,4910.427820,N,12304.401042,W,232610.000,A,D*54
$GNGSA,A,3,19,24,17,06,12,14,11,15,13,,,,0.77,0.47,0.61,1*0B
$GNGSA,A,3,75,85,66,76,,,,,,,,,0.77,0.47,0.61,2*08
$GNGSA,A,3,02,30,36,11,07,25,08,34,10,29,,,0.77,0.47,0.61,3*06
$GNGSA,A,3,35,24,26,44,29,45,41,,,,,,0.77,0.47,0.61,4*0B
$GPGSV,4,1,13,19,82,110,35,24,55,279,35,17,51,059,32,06,34,149,31,1*6B
$GPGSV,4,2,13,46,33,188,27,12,26,283,27,14,26,098,29,11,09,176,25,1*68
$GPGSV,4,3,13,15,07,235,24,13,05,203,21,03,04,062,14,02,04,029,23,1*6F
$GPGSV,4,4,13,32,02,344,,1*56
$GLGSV,2,1,07,75,73,346,33,84,55,055,18,85,53,168,29,74,43,111,,1*74
$GLGSV,2,2,07,66,18,309,20,76,17,307,29,67,08,359,,1*40
$GAGSV,3,1,10,02,76,068,32,30,44,285,30,36,43,115,29,11,31,051,23,7*78
$GAGSV,3,2,10,07,27,280,23,25,24,094,22,08,17,226,25,34,16,166,22,7*78
$GAGSV,3,3,10,10,12,030,24,29,10,332,19,7*75
$GBGSV,3,1,11,35,64,089,33,24,64,294,29,26,59,137,30,44,49,189,29,1*79
$GBGSV,3,2,11,12,25,199,24,29,14,044,23,25,11,304,19,45,06,127,17,1*76
$GBGSV,3,3,11,41,05,314,21,32,01,003,,34,01,212,15,1*43
$GNRMC,232610.000,A,4910.427820,N,12304.401042,W,0.02,132.56,070125,,,D,V*19
$GNVTG,132.56,T,,M,0.02,N,0.04,K,D*23
$PAIRLOG,Full*51
$GNGGA,232611.000,4910.427712,N,12304.400982,W,2,30,0.47,4.949,M,-16.816,M,,*49
$GNGLL,4910.427712,N,12304.400982,W,232611.000,A,D*5F
$GNGSA,A,3,19,24,17,06,12,14,11,15,13,,,,0.77,0.47,0.61,1*0B
$GNGSA,A,3,75,85,66,76,,,,,,,,,0.77,0.47,0.61,2*08
$GNGSA,A,3,02,30,36,11,07,25,08,34,10,29,,,0.77,0.47,0.61,3*06
$GNGSA,A,3,35,24,26,44,29,45,41,,,,,,0.77,0.47,0.61,4*0B
$GPGSV,4,1,13,19,82,110,35,24,55,279,35,17,51,059,31,06,34,149,31,1*68
$GPGSV,4,2,13,46,33,188,27,12,26,283,27,14,26,098,29,11,09,176,23,1*6E
$GPGSV,4,3,13,15,07,235,24,13,05,203,21,03,04,062,14,02,04,029,22,1*6E
$GPGSV,4,4,13,32,02,344,,1*56
$GLGSV,2,1,07,75,73,346,33,84,55,055,19,85,53,168,29,74,43,111,,1*75
$GLGSV,2,2,07,66,18,309,20,76,17,307,29,67,08,359,,1*40
$GAGSV,3,1,10,02,76,068,31,30,44,285,30,36,43,115,29,11,31,051,23,7*7B
$GAGSV,3,2,10,07,27,280,23,25,24,094,21,08,17,226,25,34,16,166,22,7*7B
$GAGSV,3,3,10,10,12,030,24,29,10,332,19,7*75
$GBGSV,3,1,11,35,64,089,32,24,64,294,29,26,59,137,30,44,49,189,29,1*78
$GBGSV,3,2,11,12,25,199,24,29,14,044,23,25,11,304,19,45,06,127,17,1*76
$GBGSV,3,3,11,41,05,314,21,32,01,003,,34,01,212,15,1*43
$GNRMC,232611.000,A,4910.427712,N,12304.400982,W,0.02,132.56,070125,,,D,V*12
$GNVTG,132.56,T,,M,0.02,N,0.04,K,D*23
$PAIRLOG,Full*51
$GNGGA,232612.000,4910.427580,N,12304.400862,W,2,30,0.47,4.916,M,-16.816,M,,*46
$GNGLL,4910.427580,N,12304.400862,W,232612.000,A,D*5A
$GNGSA,A,3,19,24,17,06,12,14,11,15,13,,,,0.77,0.47,0.61,1*0B
$GNGSA,A,3,75,85,66,76,,,,,,,,,0.77,0.47,0.61,2*08
$GNGSA,A,3,02,30,36,11,07,25,08,34,10,29,,,0.77,0.47,0.61,3*06
$GNGSA,A,3,35,24,26,44,29,45,41,,,,,,0.77,0.47,0.61,4*0B
$GPGSV,4,1,13,19,82,110,34,24,55,279,34,17,51,059,31,06,34,149,31,1*68
$GPGSV,4,2,13,46,33,188,27,12,26,283,27,14,26,098,29,11,09,176,24,1*69
$GPGSV,4,3,13,15,07,235,24,13,05,203,20,03,04,062,15,02,04,029,20,1*6C
$GPGSV,4,4,13,32,02,344,,1*56
$GLGSV,2,1,07,75,73,346,33,84,55,055,19,85,53,168,29,74,43,111,,1*75
$GLGSV,2,2,07,66,18,309,21,76,17,307,29,67,08,359,,1*41
$GAGSV,3,1,10,02,76,068,31,30,44,285,30,36,43,115,29,11,31,051,22,7*7A
$GAGSV,3,2,10,07,27,280,22,25,24,094,21,08,17,226,25,34,16,166,22,7*7A
$GAGSV,3,3,10,10,12,030,24,29,10,331,19,7*76
$GBGSV,3,1,11,35,64,089,32,24,64,294,29,26,59,137,30,44,49,189,29,1*78
$GBGSV,3,2,11,12,25,199,24,29,14,044,23,25,11,304,19,45,06,127,17,1*76
$GBGSV,3,3,11,41,05,314,21,32,01,003,,34,01,212,15,1*43
$GNRMC,232612.000,A,4910.427580,N,12304.400862,W,0.03,132.56,070125,,,D,V*16
$GNVTG,132.56,T,,M,0.03,N,0.05,K,D*23
$PAIRLOG,Full*51
$GNGGA,232613.000,4910.427496,N,12304.400814,W,2,30,0.47,4.881,M,-16.816,M,,*4F
$GNGLL,4910.427496,N,12304.400814,W,232613.000,A,D*5C
$GNGSA,A,3,19,24,17,06,12,14,11,15,13,,,,0.77,0.47,0.61,1*0B
$GNGSA,A,3,75,85,66,76,,,,,,,,,0.77,0.47,0.61,2*08
$GNGSA,A,3,02,30,36,11,07,25,08,34,10,29,,,0.77,0.47,0.61,3*06
$GNGSA,A,3,35,24,26,44,29,45,41,,,,,,0.77,0.47,0.61,4*0B
$GPGSV,4,1,13,19,82,110,34,24,55,279,33,17,51,059,31,06,34,149,31,1*6F
$GPGSV,4,2,13,46,33,188,27,12,26,283,27,14,26,098,29,11,09,176,24,1*69
$GPGSV,4,3,13,15,07,235,23,13,05,203,19,03,04,062,15,02,04,029,22,1*63
$GPGSV,4,4,13,32,02,344,,1*56
$GLGSV,2,1,07,75,73,346,33,84,55,055,19,85,53,168,29,74,43,111,,1*75
$GLGSV,2,2,07,66,18,309,21,76,17,307,29,67,08,359,,1*41
$GAGSV,3,1,10,02,76,068,30,30,45,286,30,36,43,115,29,11,31,051,21,7*7A
$GAGSV,3,2,10,07,27,280,22,25,24,094,21,08,17,226,25,34,16,166,21,7*79
$GAGSV,3,3,10,10,12,030,24,29,10,331,18,7*77
$GBGSV,3,1,11,35,64,089,32,24,64,294,29,26,59,137,29,44,49,189,28,1*71
$GBGSV,3,2,11,12,25,199,23,29,14,044,22,25,11,304,19,45,06,127,17,1*70
$GBGSV,3,3,11,41,05,314,21,32,01,003,,34,01,212,14,1*42
$GNRMC,232613.000,A,4910.427496,N,12304.400814,W,0.03,132.56,070125,,,D,V*10
$GNVTG,132.56,T,,M,0.03,N,0.05,K,D*23
$PAIRLOG,Full*51
$GNGGA,232614.000,4910.427412,N,12304.400772,W,2,30,0.47,4.839,M,-16.816,M,,*48
$GNGLL,4910.427412,N,12304.400772,W,232614.000,A,D*58
$GNGSA,A,3,19,24,17,06,12,14,11,15,13,,,,0.77,0.47,0.61,1*0B
$GNGSA,A,3,75,85,66,76,,,,,,,,,0.77,0.47,0.61,2*08
$GNGSA,A,3,02,30,36,11,07,25,08,34,10,29,,,0.77,0.47,0.61,3*06
$GNGSA,A,3,35,24,26,44,29,45,41,,,,,,0.77,0.47,0.61,4*0B
$GPGSV,4,1,13,19,82,110,34,24,55,279,33,17,51,059,31,06,34,149,31,1*6F
$GPGSV,4,2,13,46,33,188,27,12,26,283,26,14,26,098,28,11,09,176,24,1*69
$GPGSV,4,3,13,15,07,235,23,13,05,203,19,03,04,062,15,02,04,029,21,1*60
$GPGSV,4,4,13,32,02,344,,1*56
$GLGSV,2,1,07,75,73,346,32,84,55,055,19,85,53,168,30,74,43,111,,1*7C
$GLGSV,2,2,07,66,18,309,20,76,17,307,29,67,08,359,,1*40
$GAGSV,3,1,10,02,76,068,30,30,45,286,29,36,43,115,29,11,31,051,21,7*72
$GAGSV,3,2,10,07,27,280,21,25,24,094,21,08,17,226,24,34,16,166,21,7*7B
$GAGSV,3,3,10,10,12,030,23,29,10,331,17,7*7F
$GBGSV,3,1,11,35,64,089,32,24,64,294,29,26,59,137,29,44,49,189,28,1*71
$GBGSV,3,2,11,12,25,199,23,29,14,044,21,25,11,304,19,45,06,127,17,1*73
$GBGSV,3,3,11,41,05,314,20,32,01,003,,34,01,212,14,1*43
$GNRMC,232614.000,A,4910.427412,N,12304.400772,W,0.02,132.56,070125,,,D,V*15
$GNVTG,132.56,T,,M,0.02,N,0.04,K,D*23
$PAIRLOG,Full*51
$GNGGA,232615.000,4910.427322,N,12304.400736,W,2,30,0.47,4.903,M,-16.816,M,,*45
$GNGLL,4910.427322,N,12304.400736,W,232615.000,A,D*5D
$GNGSA,A,3,19,24,17,06,12,14,11,15,13,,,,0.77,0.47,0.61,1*0B
$GNGSA,A,3,75,85,66,76,,,,,,,,,0.77,0.47,0.61,2*08
$GNGSA,A,3,02,30,36,11,07,25,08,34,10,29,,,0.77,0.47,0.61,3*06
$GNGSA,A,3,35,24,26,44,29,45,41,,,,,,0.77,0.47,0.61,4*0B
$GPGSV,4,1,13,19,82,110,34,24,55,279,33,17,51,059,31,06,34,149,31,1*6F
$GPGSV,4,2,13,46,33,188,27,12,26,283,26,14,26,098,28,11,09,176,24,1*69
$GPGSV,4,3,13,15,07,235,23,13,05,203,19,03,04,062,15,02,04,029,23,1*62
$GPGSV,4,4,13,32,02,344,,1*56
$GLGSV,2,1,07,75,73,346,32,84,55,055,19,85,53,168,30,74,43,111,,1*7C
$GLGSV,2,2,07,66,18,309,20,76,17,307,29,67,08,359,,1*40
$GAGSV,3,1,10,02,76,068,31,30,45,286,29,36,43,115,29,11,31,051,21,7*73
$GAGSV,3,2,10,07,27,280,22,25,24,094,21,08,17,226,24,34,16,166,22,7*7B
$GAGSV,3,3,10,10,12,030,23,29,10,331,17,7*7F
$GBGSV,3,1,11,35,64,089,32,24,64,294,28,26,59,137,29,44,49,189,27,1*7F
$GBGSV,3,2,11,12,25,199,23,29,14,044,21,25,11,304,19,45,06,127,17,1*73
$GBGSV,3,3,11,41,05,314,20,32,01,003,,34,01,212,14,1*43
$GNRMC,232615.000,A,4910.427322,N,12304.400736,W,0.02,132.56,070125,,,D,V*10
$GNVTG,132.56,T,,M,0.02,N,0.03,K,D*24
$PAIRLOG,Full*51
$GNGGA,232616.000,4910.427220,N,12304.400766,W,2,30,0.47,4.946,M,-16.816,M,,*41
$GNGLL,4910.427220,N,12304.400766,W,232616.000,A,D*58
$GNGSA,A,3,19,24,17,06,12,14,11,15,13,,,,0.77,0.47,0.61,1*0B
$GNGSA,A,3,75,85,66,76,,,,,,,,,0.77,0.47,0.61,2*08
$GNGSA,A,3,02,30,36,11,07,25,08,34,10,29,,,0.77,0.47,0.61,3*06
$GNGSA,A,3,35,24,26,44,29,45,41,,,,,,0.77,0.47,0.61,4*0B
$GPGSV,4,1,13,19,82,110,34,24,55,279,33,17,51,059,31,06,34,149,31,1*6F
$GPGSV,4,2,13,46,33,188,27,12,26,283,26,14,26,098,28,11,09,176,24,1*69
$GPGSV,4,3,13,15,07,235,23,13,05,203,19,03,04,062,16,02,04,029,23,1*61
$GPGSV,4,4,13,32,02,344,,1*56
$GLGSV,2,1,07,75,73,346,33,84,55,055,19,85,53,168,30,74,43,111,,1*7D
$GLGSV,2,2,07,66,18,309,20,76,17,307,29,67,08,359,,1*40
$GAGSV,3,1,10,02,76,068,31,30,45,286,29,36,43,115,29,11,31,051,22,7*70
$GAGSV,3,2,10,07,27,280,22,25,24,094,21,08,17,226,24,34,16,166,22,7*7B
$GAGSV,3,3,10,10,12,030,24,29,10,331,17,7*78
$GBGSV,3,1,11,35,64,089,32,24,64,294,28,26,59,137,29,44,49,189,27,1*7F
$GBGSV,3,2,11,12,25,199,22,29,14,044,21,25,11,304,19,45,06,127,17,1*72
$GBGSV,3,3,11,41,05,314,20,32,01,003,,34,01,212,14,1*43
$GNRMC,232616.000,A,4910.427220,N,12304.400766,W,0.01,132.56,070125,,,D,V*16
$GNVTG,132.56,T,,M,0.01,N,0.03,K,D*27
$PAIRLOG,Full*51
$GNGGA,232617.000,4910.427190,N,12304.400844,W,2,30,0.47,5.037,M,-16.816,M,,*49
$GNGLL,4910.427190,N,12304.400844,W,232617.000,A,D*5E
$GNGSA,A,3,19,24,17,06,12,14,11,15,13,,,,0.77,0.47,0.61,1*0B
$GNGSA,A,3,75,85,66,76,,,,,,,,,0.77,0.47,0.61,2*08
$GNGSA,A,3,02,30,36,11,07,25,08,34,10,29,,,0.77,0.47,0.61,3*06
$GNGSA,A,3,35,24,26,44,29,45,41,,,,,,0.77,0.47,0.61,4*0B
$GPGSV,4,1,13,19,82,110,34,24,55,279,34,17,51,059,32,06,34,149,31,1*6B
$GPGSV,4,2,13,46,33,188,27,12,26,283,27,14,26,098,29,11,09,176,25,1*68
$GPGSV,4,3,13,15,07,235,23,13,05,203,19,03,04,062,15,02,04,029,23,1*62
$GPGSV,4,4,13,32,02,344,,1*56
$GLGSV,2,1,07,75,73,346,33,84,55,055,19,85,53,168,30,74,43,111,,1*7D
$GLGSV,2,2,07,66,18,309,20,76,17,307,29,67,08,359,,1*40
$GAGSV,3,1,10,02,76,068,31,30,45,286,30,36,43,115,29,11,31,051,23,7*79
$GAGSV,3,2,10,07,27,280,23,25,24,094,21,08,17,226,25,34,17,166,22,7*7A
$GAGSV,3,3,10,10,12,030,24,29,10,331,17,7*78
$GBGSV,3,1,11,35,64,089,32,24,64,294,28,26,59,137,29,44,49,189,27,1*7F
$GBGSV,3,2,11,12,25,199,22,29,14,044,21,25,11,304,19,45,06,127,17,1*72
$GBGSV,3,3,11,41,05,314,20,32,01,003,,34,01,212,14,1*43
$GNRMC,232617.000,A,4910.427190,N,12304.400844,W,0.01,132.56,070125,,,D,V*10
$GNVTG,132.56,T,,M,0.01,N,0.02,K,D*26
$PAIRLOG,Full*51
$GNGGA,232618.000,4910.427106,N,12304.400898,W,2,30,0.47,5.019,M,-16.817,M,,*45
$GNGLL,4910.427106,N,12304.400898,W,232618.000,A,D*5F
$GNGSA,A,3,19,24,17,06,12,14,11,15,13,,,,0.77,0.47,0.61,1*0B
$GNGSA,A,3,75,85,66,76,,,,,,,,,0.77,0.47,0.61,2*08
$GNGSA,A,3,02,30,36,11,07,25,08,34,10,29,,,0.77,0.47,0.61,3*06
$GNGSA,A,3,35,24,26,44,29,45,41,,,,,,0.77,0.47,0.61,4*0B
$GPGSV,4,1,13,19,82,110,34,24,55,279,34,17,51,059,32,06,34,149,31,1*6B
$GPGSV,4,2,13,46,33,188,27,12,26,283,27,14,26,098,29,11,09,176,25,1*68
$GPGSV,4,3,13,15,07,235,24,13,05,203,19,03,04,062,16,02,04,029,23,1*66
$GPGSV,4,4,13,32,02,344,,1*56
$GLGSV,2,1,07,75,73,346,33,84,55,055,19,85,53,168,30,74,43,111,,1*7D
$GLGSV,2,2,07,66,18,309,20,76,17,307,29,67,08,359,,1*40
$GAGSV,3,1,10,02,76,068,31,30,45,286,30,36,43,115,29,11,31,051,23,7*79
$GAGSV,3,2,10,07,27,280,23,25,24,094,21,08,17,226,25,34,17,166,21,7*79
$GAGSV,3,3,10,10,12,030,24,29,10,331,17,7*78
$GBGSV,3,1,11,35,64,089,32,24,64,294,28,26,59,137,29,44,49,189,27,1*7F
$GBGSV,3,2,11,12,25,199,22,29,14,044,21,25,11,304,19,45,06,127,17,1*72
$GBGSV,3,3,11,41,05,314,20,32,01,003,,34,01,212,14,1*43
$GNRMC,232618.000,A,4910.427106,N,12304.400898,W,0.02,132.56,070125,,,D,V*12
$GNVTG,132.56,T,,M,0.02,N,0.03,K,D*24
$PAIRLOG,Full*51
$GNGGA,232619.000,4910.427112,N,12304.400802,W,2,30,0.47,5.052,M,-16.816,M,,*4C
$GNGLL,4910.427112,N,12304.400802,W,232619.000,A,D*58
$GNGSA,A,3,19,24,17,06,12,14,11,15,13,,,,0.77,0.47,0.61,1*0B
$GNGSA,A,3,75,85,66,76,,,,,,,,,0.77,0.47,0.61,2*08
$GNGSA,A,3,02,30,36,11,07,25,08,34,10,29,,,0.77,0.47,0.61,3*06
$GNGSA,A,3,35,24,26,44,29,45,41,,,,,,0.77,0.47,0.61,4*0B
$GPGSV,4,1,13,19,82,110,35,24,55,279,35,17,51,059,33,06,34,149,31,1*6A
$GPGSV,4,2,13,46,33,188,28,12,26,283,28,14,26,098,29,11,09,176,26,1*6B
$GPGSV,4,3,13,15,07,235,25,13,05,203,19,03,04,062,17,02,04,029,23,1*66
$GPGSV,4,4,13,32,02,344,,1*56
$GLGSV,2,1,07,75,73,346,33,84,55,055,19,85,53,168,30,74,43,111,,1*7D
$GLGSV,2,2,07,66,18,309,20,76,17,307,29,67,08,359,,1*40
$GAGSV,3,1,10,02,76,068,32,30,45,286,30,36,44,114,30,11,31,051,24,7*73
$GAGSV,3,2,10,07,27,280,24,25,24,094,21,08,17,226,26,34,17,166,21,7*7D
$GAGSV,3,3,10,10,12,030,24,29,10,331,17,7*78
$GBGSV,3,1,11,35,64,089,32,24,64,294,29,26,59,137,29,44,49,189,27,1*7E
$GBGSV,3,2,11,12,25,199,22,29,14,044,22,25,11,304,19,45,06,127,17,1*71
$GBGSV,3,3,11,41,05,314,20,32,01,003,,34,01,212,14,1*43
$GNRMC,232619.000,A,4910.427112,N,12304.400802,W,0.02,132.56,070125,,,D,V*15
$GNVTG,132.56,T,,M,0.02,N,0.04,K,D*23
$PAIRLOG,Full*51
$GNGGA,232620.000,4910.427058,N,12304.400760,W,2,30,0.47,5.006,M,-16.817,M,,*42
$GNGLL,4910.427058,N,12304.400760,W,232620.000,A,D*56
$GNGSA,A,3,19,24,17,06,12,14,11,15,13,,,,0.77,0.47,0.61,1*0B
$GNGSA,A,3,75,85,66,76,,,,,,,,,0.77,0.47,0.61,2*08
$GNGSA,A,3,02,30,36,11,07,25,08,34,10,29,,,0.77,0.47,0.61,3*06
$GNGSA,A,3,35,24,26,44,29,45,41,,,,,,0.77,0.47,0.61,4*0B
$GPGSV,4,1,13,19,82,110,35,24,55,279,35,17,51,059,33,06,34,149,32,1*69
$GPGSV,4,2,13,46,33,188,28,12,26,283,29,14,26,098,29,11,09,176,26,1*6A
$GPGSV,4,3,13,15,07,235,25,13,05,203,19,03,04,062,15,02,04,029,23,1*64
$GPGSV,4,4,13,32,02,344,,1*56
$GLGSV,2,1,07,75,73,346,33,84,55,055,19,85,53,168,30,74,43,111,,1*7D
$GLGSV,2,2,07,66,18,309,20,76,17,307,29,67,08,359,,1*40
$GAGSV,3,1,10,02,76,068,33,30,45,286,31,36,44,114,30,11,31,051,24,7*73
$GAGSV,3,2,10,07,27,280,24,25,24,094,21,08,17,226,27,34,17,166,21,7*7C
$GAGSV,3,3,10,10,12,030,24,29,10,331,17,7*78
$GBGSV,3,1,11,35,64,089,31,24,64,294,29,26,59,137,29,44,49,189,27,1*7D
$GBGSV,3,2,11,12,25,199,22,29,14,044,22,25,11,304,19,45,06,127,17,1*71
$GBGSV,3,3,11,41,05,314,20,32,01,003,,34,01,212,14,1*43
$GNRMC,232620.000,A,4910.427058,N,12304.400760,W,0.02,132.56,070125,,,D,V*1B
$GNVTG,132.56,T,,M,0.02,N,0.04,K,D*23
$PAIRLOG,Full*51
$GNGGA,232621.000,4910.426986,N,12304.400706,W,2,30,0.47,4.859,M,-16.816,M,,*4A
$GNGLL,4910.426986,N,12304.400706,W,232621.000,A,D*5C
$GNGSA,A,3,19,24,17,06,14,12,11,15,13,,,,0.77,0.47,0.61,1*0B
$GNGSA,A,3,75,85,76,66,,,,,,,,,0.77,0.47,0.61,2*08
$GNGSA,A,3,02,30,36,11,07,25,34,08,10,29,,,0.77,0.47,0.61,3*06
$GNGSA,A,3,24,35,26,44,29,45,41,,,,,,0.77,0.47,0.61,4*0B
$GPGSV,4,1,13,19,82,110,35,24,55,279,35,17,51,059,33,06,34,149,32,1*69
$GPGSV,4,2,13,46,33,188,28,14,26,098,30,12,26,283,29,11,09,176,26,1*62
$GPGSV,4,3,13,15,07,235,25,13,05,203,19,02,04,029,23,03,04,062,15,1*64
$GPGSV,4,4,13,32,02,344,,1*56
$GLGSV,2,1,06,75,73,346,33,84,55,055,19,85,53,168,29,74,43,111,,1*74
$GLGSV,2,2,06,76,17,307,29,66,17,308,20,1*79
$GAGSV,3,1,10,02,76,068,33,30,45,286,31,36,44,114,30,11,31,051,24,7*73
$GAGSV,3,2,10,07,27,280,24,25,24,094,22,34,17,166,22,08,17,226,27,7*7C
$GAGSV,3,3,10,10,12,030,25,29,10,331,17,7*79
$GBGSV,3,1,11,24,64,294,28,35,64,089,30,26,59,137,28,44,49,189,26,1*7D
$GBGSV,3,2,11,12,25,199,21,29,14,044,21,25,11,304,18,45,06,127,17,1*70
$GBGSV,3,3,11,41,05,314,19,32,01,003,,34,01,212,13,1*4E
$GNRMC,232621.000,A,4910.426986,N,12304.400706,W,0.02,132.56,070125,,,D,V*11
$GNVTG,132.56,T,,M,0.02,N,0.04,K,D*23
$PAIRLOG,Full*51
$GNGGA,232622.000,4910.426836,N,12304.400634,W,2,30,0.47,4.829,M,-16.816,M,,*44
$GNGLL,4910.426836,N,12304.400634,W,232622.000,A,D*55
$GNGSA,A,3,19,24,17,06,12,14,11,15,13,,,,0.77,0.47,0.61,1*0B
$GNGSA,A,3,75,85,66,76,,,,,,,,,0.77,0.47,0.61,2*08
$GNGSA,A,3,02,30,36,11,07,25,08,34,10,29,,,0.77,0.47,0.61,3*06
$GNGSA,A,3,35,24,26,44,29,45,41,,,,,,0.77,0.47,0.61,4*0B
$GPGSV,4,1,13,19,82,110,35,24,55,279,35,17,51,059,33,06,34,149,32,1*69
$GPGSV,4,2,13,46,33,188,28,12,26,283,29,14,26,098,30,11,09,176,26,1*62
$GPGSV,4,3,13,15,07,235,25,13,05,203,20,03,04,062,16,02,04,029,23,1*6D
$GPGSV,4,4,13,32,02,344,,1*56
$GLGSV,2,1,07,75,73,346,33,84,55,055,19,85,53,168,29,74,43,111,,1*75
$GLGSV,2,2,07,66,17,308,20,76,17,307,29,67,09,358,,1*4E
$GAGSV,3,1,10,02,76,068,33,30,45,286,31,36,44,114,30,11,31,051,24,7*73
$GAGSV,3,2,10,07,27,280,24,25,24,094,22,08,17,226,27,34,17,166,22,7*7C
$GAGSV,3,3,10,10,12,030,25,29,10,331,17,7*79
$GBGSV,3,1,11,35,64,089,31,24,64,294,28,26,59,137,28,44,49,189,26,1*7C
$GBGSV,3,2,11,12,25,199,21,29,14,044,21,25,11,304,18,45,06,127,17,1*70
$GBGSV,3,3,11,41,05,314,19,32,01,003,,34,01,212,13,1*4E
$GNRMC,232622.000,A,4910.426836,N,12304.400634,W,0.03,132.56,070125,,,D,V*19
$GNVTG,132.56,T,,M,0.03,N,0.05,K,D*23
$PAIRLOG,Full*51
$GNGGA,232623.000,4910.426830,N,12304.400556,W,2,30,0.47,4.734,M,-16.816,M,,*47
$GNGLL,4910.426830,N,12304.400556,W,232623.000,A,D*55
$GNGSA,A,3,19,24,17,06,12,14,11,15,13,,,,0.77,0.47,0.61,1*0B
$GNGSA,A,3,75,85,66,76,,,,,,,,,0.77,0.47,0.61,2*08
$GNGSA,A,3,02,30,36,11,07,25,08,34,10,29,,,0.77,0.47,0.61,3*06
$GNGSA,A,3,35,24,26,44,29,45,41,,,,,,0.77,0.47,0.61,4*0B
$GPGSV,4,1,13,19,82,110,35,24,55,279,35,17,51,059,33,06,34,149,32,1*69
$GPGSV,4,2,13,46,33,188,28,12,26,283,29,14,26,098,30,11,09,176,26,1*62
$GPGSV,4,3,13,15,07,235,25,13,05,203,20,03,04,062,16,02,04,029,24,1*6A
$GPGSV,4,4,13,32,02,344,,1*56
$GLGSV,2,1,07,75,73,346,33,84,55,055,19,85,53,168,29,74,43,111,,1*75
$GLGSV,2,2,07,66,17,308,20,76,17,307,29,67,09,358,,1*4E
$GAGSV,3,1,10,02,76,068,33,30,45,286,31,36,44,114,30,11,31,051,23,7*74
$GAGSV,3,2,10,07,27,280,24,25,24,094,22,08,17,226,27,34,17,166,22,7*7C
$GAGSV,3,3,10,10,12,030,25,29,10,331,17,7*79
$GBGSV,3,1,11,35,64,089,31,24,64,294,28,26,59,137,27,44,49,189,26,1*73
$GBGSV,3,2,11,12,25,199,21,29,14,044,20,25,11,304,18,45,06,127,16,1*70
$GBGSV,3,3,11,41,05,314,19,32,01,003,,34,01,212,13,1*4E
$GNRMC,232623.000,A,4910.426830,N,12304.400556,W,0.02,132.56,070125,,,D,V*18
$GNVTG,132.56,T,,M,0.02,N,0.04,K,D*23
$PAIRLOG,Full*51
$GNGGA,232624.000,4910.426770,N,12304.400406,W,2,30,0.47,4.565,M,-16.817,M,,*48
$GNGLL,4910.426770,N,12304.400406,W,232624.000,A,D*5D
$GNGSA,A,3,19,24,17,06,12,14,11,15,13,,,,0.77,0.47,0.61,1*0B
$GNGSA,A,3,75,85,66,76,,,,,,,,,0.77,0.47,0.61,2*08
$GNGSA,A,3,02,30,36,11,07,25,08,34,10,29,,,0.77,0.47,0.61,3*06
$GNGSA,A,3,35,24,26,44,29,45,41,,,,,,0.77,0.47,0.61,4*0B
$GPGSV,4,1,13,19,82,110,35,24,55,279,35,17,51,059,33,06,34,149,32,1*69
$GPGSV,4,2,13,46,33,188,28,12,26,283,29,14,26,098,30,11,09,176,26,1*62
$GPGSV,4,3,13,15,07,235,25,13,05,203,20,03,04,062,16,02,04,029,24,1*6A
$GPGSV,4,4,13,32,02,344,,1*56
$GLGSV,2,1,07,75,73,346,33,84,55,055,18,85,53,168,29,74,43,111,,1*74
$GLGSV,2,2,07,66,17,308,20,76,17,307,29,67,09,358,,1*4E
$GAGSV,3,1,10,02,76,068,33,30,45,286,31,36,44,114,30,11,31,051,23,7*74
$GAGSV,3,2,10,07,27,280,23,25,24,094,22,08,17,226,27,34,17,166,22,7*7B
$GAGSV,3,3,10,10,12,030,25,29,10,331,17,7*79
$GBGSV,3,1,11,35,64,089,31,24,64,294,28,26,59,137,27,44,49,189,26,1*73
$GBGSV,3,2,11,12,25,199,21,29,14,044,20,25,11,304,18,45,06,127,16,1*70
$GBGSV,3,3,11,41,05,314,19,32,01,003,,34,01,212,13,1*4E
$GNRMC,232624.000,A,4910.426770,N,12304.400406,W,0.03,132.56,070125,,,D,V*11
$GNVTG,132.56,T,,M,0.03,N,0.05,K,D*23
$PAIRLOG,Full*51
$GNGGA,232625.000,4910.426656,N,12304.400268,W,2,30,0.47,4.308,M,-16.816,M,,*4E
$GNGLL,4910.426656,N,12304.400268,W,232625.000,A,D*57
$GNGSA,A,3,19,24,17,06,12,14,11,15,13,,,,0.77,0.47,0.61,1*0B
$GNGSA,A,3,75,85,66,76,,,,,,,,,0.77,0.47,0.61,2*08
$GNGSA,A,3,02,30,36,11,07,25,08,34,10,29,,,0.77,0.47,0.61,3*06
$GNGSA,A,3,35,24,26,44,29,45,41,,,,,,0.77,0.47,0.61,4*0B
$GPGSV,4,1,13,19,82,110,36,24,55,279,35,17,51,059,33,06,34,149,32,1*6A
$GPGSV,4,2,13,46,33,188,28,12,26,283,29,14,26,098,30,11,09,176,26,1*62
$GPGSV,4,3,13,15,07,235,25,13,05,203,20,03,04,062,16,02,04,029,23,1*6D
$GPGSV,4,4,13,32,02,344,,1*56
$GLGSV,2,1,07,75,73,346,33,84,55,055,18,85,53,168,29,74,43,111,,1*74
$GLGSV,2,2,07,66,17,308,20,76,17,307,29,67,09,358,,1*4E
$GAGSV,3,1,10,02,76,068,33,30,45,286,31,36,44,114,30,11,31,051,23,7*74
$GAGSV,3,2,10,07,27,280,23,25,24,094,22,08,17,226,27,34,17,166,22,7*7B
$GAGSV,3,3,10,10,12,030,25,29,10,331,17,7*79
$GBGSV,3,1,11,35,64,089,31,24,64,294,28,26,59,137,27,44,49,189,26,1*73
$GBGSV,3,2,11,12,25,199,21,29,14,044,20,25,11,304,19,45,06,127,16,1*71
$GBGSV,3,3,11,41,05,314,19,32,01,003,,34,01,212,13,1*4E
$GNRMC,232625.000,A,4910.426656,N,12304.400268,W,0.03,132.56,070125,,,D,V*1B
$GNVTG,132.56,T,,M,0.03,N,0.05,K,D*23
$PAIRLOG,Full*51
$GNGGA,232626.000,4910.426614,N,12304.400178,W,2,30,0.47,4.042,M,-16.816,M,,*44
$GNGLL,4910.426614,N,12304.400178,W,232626.000,A,D*50
$GNGSA,A,3,19,24,17,06,12,14,11,15,13,,,,0.77,0.47,0.61,1*0B
$GNGSA,A,3,75,85,66,76,,,,,,,,,0.77,0.47,0.61,2*08
$GNGSA,A,3,02,30,36,11,07,25,08,34,10,29,,,0.77,0.47,0.61,3*06
$GNGSA,A,3,35,24,26,44,29,45,41,,,,,,0.77,0.47,0.61,4*0B
$GPGSV,4,1,13,19,82,110,36,24,55,279,35,17,51,059,33,06,34,149,32,1*6A
$GPGSV,4,2,13,46,33,188,28,12,26,283,29,14,26,098,30,11,09,176,27,1*63
$GPGSV,4,3,13,15,07,235,25,13,05,203,20,03,04,062,16,02,04,029,24,1*6A
$GPGSV,4,4,13,32,02,344,,1*56
$GLGSV,2,1,07,75,73,346,33,84,55,055,18,85,53,168,29,74,43,111,,1*74
$GLGSV,2,2,07,66,17,308,19,76,17,307,29,67,09,358,,1*44
$GAGSV,3,1,10,02,76,068,33,30,45,286,31,36,44,114,30,11,31,051,24,7*73
$GAGSV,3,2,10,07,27,280,23,25,24,094,23,08,17,226,27,34,17,166,22,7*7A
$GAGSV,3,3,10,10,12,030,25,29,10,331,17,7*79
$GBGSV,3,1,11,35,64,089,31,24,64,294,28,26,59,137,28,44,49,189,27,1*7D
$GBGSV,3,2,11,12,25,199,21,29,14,044,20,25,11,304,19,45,06,127,16,1*71
$GBGSV,3,3,11,41,05,314,19,32,01,003,,34,01,212,13,1*4E
$GNRMC,232626.000,A,4910.426614,N,12304.400178,W,0.02,132.56,070125,,,D,V*1D
$GNVTG,132.56,T,,M,0.02,N,0.04,K,D*23
$PAIRLOG,Full*51
$GNGGA,232627.000,4910.426512,N,12304.400106,W,2,30,0.47,3.821,M,-16.816,M,,*43
$GNGLL,4910.426512,N,12304.400106,W,232627.000,A,D*5D
$GNGSA,A,3,19,24,17,06,12,14,11,15,13,,,,0.77,0.47,0.61,1*0B
$GNGSA,A,3,75,85,66,76,,,,,,,,,0.77,0.47,0.61,2*08
$GNGSA,A,3,02,30,36,11,07,25,08,34,10,29,,,0.77,0.47,0.61,3*06
$GNGSA,A,3,35,24,26,44,29,45,41,,,,,,0.77,0.47,0.61,4*0B
$GPGSV,4,1,13,19,82,110,36,24,55,279,35,17,51,059,33,06,34,149,32,1*6A
$GPGSV,4,2,13,46,33,188,28,12,26,283,29,14,26,098,30,11,09,176,27,1*63
$GPGSV,4,3,13,15,07,235,25,13,05,203,20,03,04,062,16,02,04,029,24,1*6A
$GPGSV,4,4,13,32,02,344,,1*56
$GLGSV,2,1,07,75,73,346,33,84,55,055,18,85,53,168,30,74,43,111,,1*7C
$GLGSV,2,2,07,66,17,308,19,76,17,307,29,67,09,358,,1*44
$GAGSV,3,1,10,02,76,068,33,30,45,286,31,36,44,114,30,11,31,051,24,7*73
$GAGSV,3,2,10,07,27,280,23,25,24,094,23,08,17,226,27,34,17,166,22,7*7A
$GAGSV,3,3,10,10,12,030,25,29,10,331,17,7*79
$GBGSV,3,1,11,35,64,089,31,24,64,294,28,26,59,137,28,44,49,189,27,1*7D
$GBGSV,3,2,11,12,25,199,21,29,14,044,20,25,11,304,20,45,06,127,16,1*7B
$GBGSV,3,3,11,41,05,314,19,32,01,003,,34,01,212,14,1*49
$GNRMC,232627.000,A,4910.426512,N,12304.400106,W,0.02,132.56,070125,,,D,V*10
$GNVTG,132.56,T,,M,0.02,N,0.04,K,D*23
$PAIRLOG,Full*51
$GNGGA,232628.000,4910.426380,N,12304.399944,W,2,30,0.47,3.649,M,-16.816,M,,*48
$GNGLL,4910.426380,N,12304.399944,W,232628.000,A,D*56
$GNGSA,A,3,19,24,17,06,12,14,11,15,13,,,,0.77,0.47,0.61,1*0B
$GNGSA,A,3,75,85,66,76,,,,,,,,,0.77,0.47,0.61,2*08
$GNGSA,A,3,02,30,36,11,07,25,08,34,10,29,,,0.77,0.47,0.61,3*06
$GNGSA,A,3,35,24,26,44,29,45,41,,,,,,0.77,0.47,0.61,4*0B
$GPGSV,4,1,13,19,82,110,36,24,55,279,36,17,51,059,34,06,34,149,32,1*6E
$GPGSV,4,2,13,46,33,188,28,12,26,283,29,14,26,098,30,11,09,176,27,1*63
$GPGSV,4,3,13,15,07,235,25,13,05,203,20,03,04,062,17,02,04,029,24,1*6B
$GPGSV,4,4,13,32,02,344,,1*56
$GLGSV,2,1,07,75,73,346,33,84,55,055,18,85,53,168,30,74,43,111,,1*7C
$GLGSV,2,2,07,66,17,308,19,76,17,307,29,67,09,358,,1*44
$GAGSV,3,1,10,02,76,068,33,30,45,286,31,36,44,114,30,11,31,051,24,7*73
$GAGSV,3,2,10,07,27,280,24,25,24,094,23,08,17,226,27,34,17,166,23,7*7C
$GAGSV,3,3,10,10,12,030,25,29,10,331,17,7*79
$GBGSV,3,1,11,35,64,089,31,24,64,294,29,26,59,137,28,44,49,189,28,1*73
$GBGSV,3,2,11,12,25,199,22,29,14,044,20,25,11,304,20,45,06,127,16,1*78
$GBGSV,3,3,11,41,05,314,20,32,01,003,,34,01,212,14,1*43
$GNRMC,232628.000,A,4910.426380,N,12304.399944,W,0.03,132.56,070125,,,D,V*1A
$GNVTG,132.56,T,,M,0.03,N,0.05,K,D*23
$PAIRLOG,Full*51
$GNGGA,232629.000,4910.426350,N,12304.399968,W,2,30,0.47,3.554,M,-16.816,M,,*45
$GNGLL,4910.426350,N,12304.399968,W,232629.000,A,D*54
$GNGSA,A,3,19,24,17,06,12,14,11,15,13,,,,0.77,0.47,0.61,1*0B
$GNGSA,A,3,75,85,66,76,,,,,,,,,0.77,0.47,0.61,2*08
$GNGSA,A,3,02,30,36,11,07,25,08,34,10,29,,,0.77,0.47,0.61,3*06
$GNGSA,A,3,35,24,26,44,29,45,41,,,,,,0.77,0.47,0.61,4*0B
$GPGSV,4,1,13,19,82,110,36,24,55,279,36,17,51,059,34,06,34,149,32,1*6E
$GPGSV,4,2,13,46,33,188,28,12,26,283,29,14,26,098,30,11,09,176,27,1*63
$GPGSV,4,3,13,15,07,235,25,13,05,203,20,03,04,062,18,02,04,029,24,1*64
$GPGSV,4,4,13,32,02,344,,1*56
$GLGSV,2,1,07,75,73,346,33,84,55,055,19,85,53,168,30,74,42,112,,1*7F
$GLGSV,2,2,07,66,17,308,19,76,17,307,29,67,09,358,,1*44
$GAGSV,3,1,10,02,76,068,33,30,45,286,31,36,44,114,30,11,31,051,24,7*73
$GAGSV,3,2,10,07,27,280,24,25,24,094,23,08,17,226,27,34,17,166,23,7*7C
$GAGSV,3,3,10,10,12,030,25,29,10,331,17,7*79
$GBGSV,3,1,11,35,64,089,31,24,64,294,29,26,59,137,28,44,49,189,28,1*73
$GBGSV,3,2,11,12,25,199,22,29,14,044,20,25,11,304,20,45,06,127,16,1*78
$GBGSV,3,3,11,41,05,314,21,32,01,003,,34,01,212,14,1*42
$GNRMC,232629.000,A,4910.426350,N,12304.399968,W,0.02,132.56,070125,,,D,V*19
$GNVTG,132.56,T,,M,0.02,N,0.04,K,D*23
$PAIRLOG,Full*51
$GNGGA,232630.000,4910.426218,N,12304.399932,W,2,30,0.47,3.582,M,-16.817,M,,*45
$GNGLL,4910.426218,N,12304.399932,W,232630.000,A,D*5E
$GNGSA,A,3,19,24,17,06,12,14,11,15,13,,,,0.77,0.47,0.61,1*0B
$GNGSA,A,3,75,85,66,76,,,,,,,,,0.77,0.47,0.61,2*08
$GNGSA,A,3,02,30,36,11,07,25,08,34,10,29,,,0.77,0.47,0.61,3*06
$GNGSA,A,3,35,24,26,44,29,45,41,,,,,,0.77,0.47,0.61,4*0B
$GPGSV,4,1,13,19,82,110,36,24,55,279,36,17,51,059,34,06,34,149,32,1*6E
$GPGSV,4,2,13,46,33,188,28,12,26,283,29,14,26,098,30,11,09,176,27,1*63
$GPGSV,4,3,13,15,07,235,25,13,05,203,20,03,04,062,17,02,04,029,24,1*6B
$GPGSV,4,4,13,32,02,344,,1*56
$GLGSV,2,1,07,75,74,350,33,84,55,055,19,85,53,168,30,74,42,112,,1*7F
$GLGSV,2,2,07,66,17,308,18,76,17,307,29,67,09,358,,1*45
$GAGSV,3,1,10,02,76,068,33,30,45,286,31,36,44,114,30,11,31,051,24,7*73
$GAGSV,3,2,10,07,27,280,24,25,24,094,23,08,17,226,27,34,17,166,23,7*7C
$GAGSV,3,3,10,10,12,030,25,29,10,331,17,7*79
$GBGSV,3,1,11,35,64,089,32,24,64,294,30,26,59,137,29,44,49,189,29,1*78
$GBGSV,3,2,11,12,25,199,23,29,14,044,21,25,11,304,21,45,06,127,17,1*78
$GBGSV,3,3,11,41,05,314,22,32,01,003,,34,01,212,14,1*41
$GNRMC,232630.000,A,4910.426218,N,12304.399932,W,0.02,132.56,070125,,,D,V*13
$GNVTG,132.56,T,,M,0.02,N,0.04,K,D*23
$PAIRLOG,Full*51
$GNGGA,232631.000,4910.426152,N,12304.399872,W,2,30,0.47,3.624,M,-16.817,M,,*43
$GNGLL,4910.426152,N,12304.399872,W,232631.000,A,D*57
$GNGSA,A,3,19,24,17,06,14,12,11,15,13,,,,0.77,0.47,0.61,1*0B
$GNGSA,A,3,75,85,76,66,,,,,,,,,0.77,0.47,0.61,2*08
$GNGSA,A,3,02,30,36,11,07,25,34,08,10,29,,,0.77,0.47,0.61,3*06
$GNGSA,A,3,24,35,26,44,29,45,41,,,,,,0.77,0.47,0.61,4*0B
$GPGSV,4,1,13,19,82,110,36,24,55,279,36,17,51,059,34,06,34,149,32,1*6E
$GPGSV,4,2,13,46,33,188,28,14,26,098,30,12,26,283,29,11,09,176,27,1*63
$GPGSV,4,3,13,15,07,235,25,13,05,203,20,02,04,029,24,03,04,062,17,1*6B
$GPGSV,4,4,13,32,02,344,,1*56
$GLGSV,2,1,06,75,74,350,33,84,55,055,19,85,53,168,30,74,42,112,,1*7E
$GLGSV,2,2,06,76,18,308,29,66,17,308,18,1*72
$GAGSV,3,1,10,02,76,068,33,30,45,286,31,36,44,114,30,11,31,051,24,7*73
$GAGSV,3,2,10,07,27,280,24,25,24,094,23,34,17,166,22,08,17,226,27,7*7D
$GAGSV,3,3,10,10,12,030,25,29,10,331,17,7*79
$GBGSV,3,1,11,24,64,294,30,35,64,089,32,26,59,137,30,44,49,189,30,1*78
$GBGSV,3,2,11,12,25,199,24,29,14,044,22,25,11,304,22,45,06,127,17,1*7F
$GBGSV,3,3,11,41,05,314,22,32,01,003,,34,01,212,14,1*41
$GNRMC,232631.000,A,4910.426152,N,12304.399872,W,0.02,132.56,070125,,,D,V*1A
$GNVTG,132.56,T,,M,0.02,N,0.04,K,D*23
$PAIRLOG,Full*51
$GNGGA,232632.000,4910.426152,N,12304.399782,W,2,30,0.47,3.602,M,-16.816,M,,*45
$GNGLL,4910.426152,N,12304.399782,W,232632.000,A,D*54
$GNGSA,A,3,19,24,17,06,12,14,11,15,13,,,,0.77,0.47,0.61,1*0B
$GNGSA,A,3,75,85,76,66,,,,,,,,,0.77,0.47,0.61,2*08
$GNGSA,A,3,02,30,36,11,07,25,08,34,10,29,,,0.77,0.47,0.61,3*06
$GNGSA,A,3,35,24,26,44,29,45,41,,,,,,0.77,0.47,0.61,4*0B
$GPGSV,4,1,13,19,82,110,36,24,55,279,36,17,51,059,34,06,34,149,32,1*6E
$GPGSV,4,2,13,46,33,188,28,12,26,283,29,14,26,098,30,11,09,176,27,1*63
$GPGSV,4,3,13,15,07,235,25,13,05,203,20,03,04,062,17,02,04,029,23,1*6C
$GPGSV,4,4,13,32,02,344,,1*56
$GLGSV,2,1,07,75,74,350,33,84,55,055,19,85,53,168,30,74,42,112,,1*7F
$GLGSV,2,2,07,76,18,308,29,66,17,308,18,67,09,358,,1*45
$GAGSV,3,1,10,02,76,068,33,30,45,286,31,36,44,114,30,11,31,051,24,7*73
$GAGSV,3,2,10,07,27,280,24,25,24,094,23,08,17,226,27,34,17,166,21,7*7E
$GAGSV,3,3,10,10,12,030,25,29,10,331,17,7*79
$GBGSV,3,1,11,35,64,089,32,24,64,294,31,26,59,137,30,44,49,189,30,1*79
$GBGSV,3,2,11,12,25,199,24,29,14,044,23,25,11,304,23,45,06,127,18,1*70
$GBGSV,3,3,11,41,05,314,24,32,01,003,,34,01,212,14,1*47
$GNRMC,232632.000,A,4910.426152,N,12304.399782,W,0.02,132.56,070125,,,D,V*19
$GNVTG,132.56,T,,M,0.02,N,0.04,K,D*23
$PAIRLOG,Full*51
$GNGGA,232633.000,4910.426104,N,12304.399782,W,2,30,0.47,3.565,M,-16.816,M,,*45
