$GNRMC,232603.000,A,4910.427448,N,12304.405296,W,0.01,0.00,070125,,,D,V*16
$GNGGA,232603.000,4910.427448,N,12304.405296,W,2,42,0.49,23.017,M,-16.816,M,,*71
$GNVTG,0.00,T,,M,0.01,N,0.02,K,D*25
$GNGSA,A,3,19,24,17,06,12,14,11,15,13,02,,,0.80,0.49,0.63,1*0D
$GNGSA,A,3,75,85,,,,,,,,,,,0.80,0.49,0.63,2*0D
$GNGSA,A,3,02,30,36,11,07,25,08,34,10,29,,,0.80,0.49,0.63,3*02
$GNGSA,A,3,35,24,26,44,29,,,,,,,,0.80,0.49,0.63,4*0B
$GPGSV,4,1,13,19,82,113,38,24,54,280,37,17,52,059,35,44,33,171,31,1*6E
$GPGSV,4,2,13,06,33,149,34,12,26,283,32,14,26,098,31,11,08,176,26,1*6C
$GPGSV,4,3,13,15,07,235,28,13,06,204,24,02,05,030,24,03,04,062,17,1*6F
$GPGSV,4,4,13,32,02,344,,1*56
$GPGSV,1,1,04,24,54,280,28,06,33,149,22,14,26,098,18,11,08,176,18,8*6C
$GLGSV,1,1,02,75,74,348,31,85,54,167,26,1*7E
$GAGSV,3,1,10,02,76,067,35,30,45,286,32,36,44,114,32,11,31,051,28,7*77
$GAGSV,3,2,10,07,28,281,28,25,24,094,27,08,17,227,29,34,16,166,25,7*72
$GAGSV,3,3,10,10,13,030,26,29,10,332,24,7*78
$GAGSV,2,1,06,02,76,067,27,30,45,286,24,36,44,114,25,11,31,051,16,1*78
$GAGSV,2,2,06,07,28,281,22,08,17,227,19,1*74
$GBGSV,3,1,09,35,65,090,31,24,64,294,30,26,60,137,30,44,48,189,29,1*78
$GBGSV,3,2,09,12,26,200,21,29,14,044,22,25,11,304,21,41,06,315,19,1*79
$GBGSV,3,3,09,45,06,127,20,1*4E
$GBGSV,2,1,05,35,65,090,25,24,64,294,29,26,60,137,27,44,48,189,26,5*75
$GBGSV,2,2,05,29,14,044,14,5*4C
$GNGLL,4910.427448,N,12304.405296,W,232603.000,A,D*5B
$GNRMC,232604.000,A,4910.427478,N,12304.405374,W,0.01,0.00,070125,,,D,V*1F
$GNGGA,232604.000,4910.427478,N,12304.405374,W,2,42,0.49,23.045,M,-16.816,M,,*7F
$GNVTG,0.00,T,,M,0.01,N,0.02,K,D*25
$GNGSA,A,3,19,24,17,06,12,14,11,15,13,02,,,0.80,0.49,0.63,1*0D
$GNGSA,A,3,75,85,,,,,,,,,,,0.80,0.49,0.63,2*0D
$GNGSA,A,3,02,30,36,11,07,25,08,34,10,29,,,0.80,0.49,0.63,3*02
$GNGSA,A,3,24,35,26,44,29,,,,,,,,0.80,0.49,0.63,4*0B
$GPGSV,4,1,13,19,82,113,38,24,54,280,37,17,52,059,35,44,33,171,31,1*6E
$GPGSV,4,2,13,06,33,149,34,12,26,283,32,14,26,098,31,11,08,176,26,1*6C
$GPGSV,4,3,13,15,07,235,28,13,06,204,24,02,05,030,24,03,04,062,17,1*6F
$GPGSV,4,4,13,32,02,344,,1*56
$GPGSV,1,1,04,24,54,280,27,06,33,149,22,14,26,098,18,11,08,176,18,8*63
$GLGSV,1,1,03,75,74,348,31,84,55,053,,85,54,167,26,1*45
$GAGSV,3,1,10,02,76,067,35,30,45,286,32,36,44,114,32,11,31,051,28,7*77
$GAGSV,3,2,10,07,28,281,28,25,24,094,27,08,17,227,29,34,16,166,25,7*72
$GAGSV,3,3,10,10,13,030,26,29,10,332,24,7*78
$GAGSV,2,1,06,02,76,067,27,30,45,286,24,36,44,114,25,11,31,051,16,1*78
$GAGSV,2,2,06,07,28,281,22,08,17,227,19,1*74
$GBGSV,3,1,09,24,65,294,30,35,65,090,31,26,60,137,29,44,48,189,29,1*71
$GBGSV,3,2,09,12,26,200,21,29,14,044,22,25,11,304,21,41,06,315,19,1*79
$GBGSV,3,3,09,45,06,127,20,1*4E
$GBGSV,2,1,05,24,65,294,29,35,65,090,25,26,60,137,26,44,48,189,26,5*75
$GBGSV,2,2,05,29,14,044,14,5*4C
$GNGLL,4910.427478,N,12304.405374,W,232604.000,A,D*52
$GNRMC,232605.000,A,4910.427508,N,12304.405410,W,0.01,0.00,070125,,,D,V*1D
$GNGGA,232605.000,4910.427508,N,12304.405410,W,2,42,0.49,23.097,M,-16.817,M,,*73
$GNVTG,0.00,T,,M,0.01,N,0.02,K,D*25
$GNGSA,A,3,19,24,17,06,12,14,11,15,13,02,,,0.80,0.49,0.63,1*0D
$GNGSA,A,3,75,85,,,,,,,,,,,0.80,0.49,0.63,2*0D
$GNGSA,A,3,02,30,36,11,07,25,08,34,10,29,,,0.80,0.49,0.63,3*02
$GNGSA,A,3,24,35,26,44,29,,,,,,,,0.80,0.49,0.63,4*0B
$GPGSV,4,1,13,19,82,113,38,24,54,280,37,17,52,059,35,44,33,171,31,1*6E
$GPGSV,4,2,13,06,33,149,34,12,26,283,32,14,26,098,31,11,08,176,26,1*6C
$GPGSV,4,3,13,15,07,235,28,13,06,204,24,02,05,030,25,03,04,062,17,1*6E
$GPGSV,4,4,13,32,02,344,,1*56
$GPGSV,1,1,04,24,54,280,27,06,33,149,22,14,26,098,18,11,08,176,18,8*63
$GLGSV,1,1,04,75,74,348,31,84,55,053,,85,54,167,27,86,05,193,,1*73
$GAGSV,3,1,10,02,76,067,35,30,45,286,32,36,44,114,32,11,31,051,28,7*77
$GAGSV,3,2,10,07,28,281,28,25,24,094,27,08,17,227,29,34,16,166,25,7*72
$GAGSV,3,3,10,10,13,030,27,29,10,332,24,7*79
$GAGSV,2,1,06,02,76,067,27,30,45,286,24,36,44,114,25,11,31,051,16,1*78
$GAGSV,2,2,06,07,28,281,22,08,17,227,19,1*74
$GBGSV,3,1,10,24,65,294,29,35,65,090,30,26,60,137,28,44,48,189,28,1*70
$GBGSV,3,2,10,12,26,200,20,29,14,044,21,25,11,305,20,45,06,127,19,1*74
$GBGSV,3,3,10,41,06,315,18,32,01,003,,1*79
$GBGSV,2,1,05,24,65,294,29,35,65,090,25,26,60,137,26,44,48,189,26,5*75
$GBGSV,2,2,05,29,14,044,14,5*4C
$GNGLL,4910.427508,N,12304.405410,W,232605.000,A,D*50
$GNRMC,232606.000,A,4910.427538,N,12304.405404,W,0.01,0.00,070125,,,D,V*18
$GNGGA,232606.000,4910.427538,N,12304.405404,W,2,42,0.49,23.161,M,-16.817,M,,*7E
$GNVTG,0.00,T,,M,0.01,N,0.02,K,D*25
$GNGSA,A,3,19,24,17,06,12,14,11,15,13,02,,,0.80,0.49,0.63,1*0D
$GNGSA,A,3,75,85,,,,,,,,,,,0.80,0.49,0.63,2*0D
$GNGSA,A,3,02,30,36,11,07,25,08,34,10,29,,,0.80,0.49,0.63,3*02
$GNGSA,A,3,24,35,26,44,29,,,,,,,,0.80,0.49,0.63,4*0B
$GPGSV,4,1,13,19,82,113,38,24,54,280,37,17,52,059,35,44,33,171,32,1*6D
$GPGSV,4,2,13,06,33,149,34,12,26,283,32,14,26,098,32,11,08,176,27,1*6E
$GPGSV,4,3,13,15,07,235,28,13,06,204,24,02,05,030,25,03,04,062,16,1*6F
$GPGSV,4,4,13,32,02,344,,1*56
$GPGSV,1,1,04,24,54,280,27,06,33,149,22,14,26,098,18,11,08,176,18,8*63
$GLGSV,1,1,02,75,74,348,31,85,54,167,27,1*7F
$GAGSV,3,1,10,02,76,067,35,30,45,286,32,36,44,114,33,11,31,051,28,7*76
$GAGSV,3,2,10,07,28,281,28,25,24,094,27,08,17,227,29,34,16,166,26,7*71
$GAGSV,3,3,10,10,13,030,27,29,10,332,24,7*79
$GAGSV,2,1,06,02,76,067,26,30,45,286,24,36,44,114,25,11,31,051,16,1*79
$GAGSV,2,2,06,07,28,281,22,08,17,227,19,1*74
$GBGSV,3,1,10,24,65,294,28,35,65,090,29,26,59,137,26,44,48,189,27,1*72
$GBGSV,3,2,10,12,26,200,20,29,14,044,21,25,11,305,19,45,06,127,18,1*7F
$GBGSV,3,3,10,41,06,315,18,32,01,003,,1*79
$GBGSV,2,1,05,24,65,294,29,35,65,090,25,26,59,137,26,44,48,189,26,5*7F
$GBGSV,2,2,05,29,14,044,14,5*4C
$GNGLL,4910.427538,N,12304.405404,W,232606.000,A,D*55
$GNRMC,232607.000,A,4910.427514,N,12304.405284,W,0.01,0.00,070125,,,D,V*19
$GNGGA,232607.000,4910.427514,N,12304.405284,W,2,42,0.49,23.171,M,-16.816,M,,*7F
$GNVTG,0.00,T,,M,0.01,N,0.01,K,D*26
$GNGSA,A,3,19,24,17,06,12,14,11,15,13,02,,,0.80,0.49,0.63,1*0D
$GNGSA,A,3,75,85,,,,,,,,,,,0.80,0.49,0.63,2*0D
$GNGSA,A,3,02,30,36,11,07,25,08,34,10,29,,,0.80,0.49,0.63,3*02
$GNGSA,A,3,24,35,26,44,29,,,,,,,,0.80,0.49,0.63,4*0B
$GPGSV,4,1,13,19,82,113,38,24,54,280,37,17,52,059,35,44,33,171,32,1*6D
$GPGSV,4,2,13,06,33,149,34,12,26,283,32,14,26,098,32,11,08,176,27,1*6E
$GPGSV,4,3,13,15,07,235,28,13,06,204,24,02,05,030,25,03,04,062,16,1*6F
$GPGSV,4,4,13,32,02,344,,1*56
$GPGSV,1,1,04,24,54,280,26,06,33,149,21,14,26,098,18,11,08,176,17,8*6E
$GLGSV,1,1,03,75,74,348,31,84,55,053,,85,54,167,27,1*44
$GAGSV,3,1,10,02,76,067,36,30,45,286,32,36,44,114,33,11,31,051,28,7*75
$GAGSV,3,2,10,07,28,281,28,25,24,094,27,08,17,227,29,34,16,166,26,7*71
$GAGSV,3,3,10,10,13,030,27,29,10,332,24,7*79
$GAGSV,2,1,06,02,76,067,26,30,45,286,23,36,44,114,25,11,31,051,16,1*7E
$GAGSV,2,2,06,07,28,281,22,08,17,227,18,1*75
$GBGSV,3,1,11,24,65,294,28,35,65,090,29,26,59,137,25,44,48,189,27,1*70
$GBGSV,3,2,11,12,26,200,19,29,14,044,20,25,11,305,18,41,06,315,18,1*73
$GBGSV,3,3,11,45,06,127,17,34,01,212,,32,01,003,,1*47
$GBGSV,2,1,05,24,65,294,28,35,65,090,25,26,59,137,25,44,48,189,26,5*7D
$GBGSV,2,2,05,29,14,044,14,5*4C
$GNGLL,4910.427514,N,12304.405284,W,232607.000,A,D*54
$GNRMC,232608.000,A,4910.427496,N,12304.405308,W,0.01,0.00,070125,,,D,V*18
$GNGGA,232608.000,4910.427496,N,12304.405308,W,2,42,0.49,23.254,M,-16.817,M,,*7B
$GNVTG,0.00,T,,M,0.01,N,0.01,K,D*26
$GNGSA,A,3,19,24,17,06,12,14,11,15,13,02,,,0.80,0.49,0.63,1*0D
$GNGSA,A,3,75,85,,,,,,,,,,,0.80,0.49,0.63,2*0D
$GNGSA,A,3,02,30,36,11,07,25,08,34,10,29,,,0.80,0.49,0.63,3*02
$GNGSA,A,3,24,35,26,44,29,,,,,,,,0.80,0.49,0.63,4*0B
$GPGSV,4,1,13,19,82,113,38,24,54,280,37,17,52,059,35,44,33,171,32,1*6D
$GPGSV,4,2,13,06,33,149,34,12,26,283,31,14,26,098,31,11,08,176,27,1*6E
$GPGSV,4,3,13,15,07,235,27,13,06,204,24,02,05,030,25,03,04,062,16,1*60
$GPGSV,4,4,13,32,02,344,,1*56
$GPGSV,1,1,04,24,54,280,26,06,33,149,21,14,26,098,18,11,08,176,17,8*6E
$GLGSV,1,1,03,75,74,348,31,84,55,053,,85,54,167,27,1*44
$GAGSV,3,1,10,02,76,067,36,30,45,286,32,36,44,114,33,11,31,051,28,7*75
$GAGSV,3,2,10,07,28,281,28,25,24,094,27,08,17,227,29,34,16,166,26,7*71
$GAGSV,3,3,10,10,13,030,27,29,10,332,24,7*79
$GAGSV,2,1,06,02,76,067,26,30,45,286,23,36,44,114,25,11,31,051,16,1*7E
$GAGSV,2,2,06,07,28,281,22,08,17,227,18,1*75
$GBGSV,3,1,10,24,65,294,28,35,65,090,29,26,59,137,25,44,48,189,27,1*71
$GBGSV,3,2,10,12,26,200,19,29,14,044,19,25,11,305,18,45,06,127,16,1*71
$GBGSV,3,3,10,41,06,315,18,34,01,212,,1*7D
$GBGSV,2,1,05,24,65,294,28,35,65,090,25,26,59,137,25,44,48,189,26,5*7D
$GBGSV,2,2,05,29,14,044,14,5*4C
$GNGLL,4910.427496,N,12304.405308,W,232608.000,A,D*55
$GNRMC,232609.000,A,4910.427508,N,12304.405362,W,0.01,0.00,070125,,,D,V*13
$GNGGA,232609.000,4910.427508,N,12304.405362,W,2,42,0.49,23.322,M,-16.816,M,,*71
$GNVTG,0.00,T,,M,0.01,N,0.02,K,D*25
$GNGSA,A,3,19,24,17,06,12,14,11,15,13,02,,,0.80,0.49,0.63,1*0D
$GNGSA,A,3,75,85,,,,,,,,,,,0.80,0.49,0.63,2*0D
$GNGSA,A,3,02,30,36,11,07,25,08,34,10,29,,,0.80,0.49,0.63,3*02
$GNGSA,A,3,24,35,26,44,29,,,,,,,,0.80,0.49,0.63,4*0B
$GPGSV,4,1,13,19,82,113,38,24,54,280,37,17,52,059,35,44,33,171,32,1*6D
$GPGSV,4,2,13,06,33,149,34,12,26,283,31,14,26,098,31,11,08,176,27,1*6E
$GPGSV,4,3,13,15,07,235,27,13,06,204,24,02,05,030,25,03,04,062,16,1*60
$GPGSV,4,4,13,32,02,344,,1*56
$GPGSV,1,1,04,24,54,280,26,06,33,149,21,14,26,098,18,11,08,176,17,8*6E
$GLGSV,1,1,03,75,74,348,31,84,55,053,,85,54,167,28,1*4B
$GAGSV,3,1,10,02,76,067,36,30,45,286,32,36,44,114,32,11,31,051,28,7*74
$GAGSV,3,2,10,07,28,281,28,25,24,094,27,08,17,227,29,34,16,166,25,7*72
$GAGSV,3,3,10,10,13,030,26,29,10,332,23,7*7F
$GAGSV,2,1,06,02,76,067,26,30,45,286,23,36,44,114,25,11,31,051,16,1*7E
$GAGSV,2,2,06,07,28,281,22,08,17,227,18,1*75
$GBGSV,3,1,10,24,65,294,27,35,65,090,29,26,59,137,24,44,48,189,26,1*7E
$GBGSV,3,2,10,12,26,200,19,29,13,044,19,25,11,305,18,45,06,127,16,1*76
$GBGSV,3,3,10,41,06,315,17,34,01,212,,1*72
$GBGSV,2,1,05,24,65,294,28,35,65,090,25,26,59,137,25,44,48,189,26,5*7D
$GBGSV,2,2,05,29,13,044,14,5*4B
$GNGLL,4910.427508,N,12304.405362,W,232609.000,A,D*5E
$GNRMC,232610.000,A,4910.427508,N,12304.405362,W,0.01,0.00,070125,,,D,V*1B
$GNGGA,232610.000,4910.427508,N,12304.405362,W,2,42,0.49,23.357,M,-16.816,M,,*7B
$GNVTG,0.00,T,,M,0.01,N,0.02,K,D*25
$GNGSA,A,3,19,24,17,06,12,14,11,15,13,02,,,0.80,0.49,0.63,1*0D
$GNGSA,A,3,75,85,,,,,,,,,,,0.80,0.49,0.63,2*0D
$GNGSA,A,3,02,30,36,11,07,25,08,34,10,29,,,0.80,0.49,0.63,3*02
$GNGSA,A,3,24,35,26,44,29,,,,,,,,0.80,0.49,0.63,4*0B
$GPGSV,4,1,13,19,82,113,38,24,54,280,37,17,52,059,35,44,33,171,31,1*6E
$GPGSV,4,2,13,06,33,149,33,12,26,283,31,14,26,098,31,11,08,176,27,1*69
$GPGSV,4,3,13,15,07,235,26,13,06,204,24,02,05,030,25,03,04,062,16,1*61
$GPGSV,4,4,13,32,02,344,,1*56
$GPGSV,1,1,04,24,54,280,26,06,33,149,21,14,26,098,18,11,08,176,17,8*6E
$GLGSV,1,1,03,75,74,348,31,84,55,053,,85,54,167,28,1*4B
$GAGSV,3,1,10,02,76,067,36,30,45,286,32,36,44,114,32,11,31,051,28,7*74
$GAGSV,3,2,10,07,28,281,28,25,24,094,27,08,17,227,29,34,16,166,25,7*72
$GAGSV,3,3,10,10,13,030,26,29,10,332,23,7*7F
$GAGSV,2,1,06,02,76,067,26,30,45,286,23,36,44,114,25,11,31,051,16,1*7E
$GAGSV,2,2,06,07,28,281,22,08,17,227,18,1*75
$GBGSV,3,1,10,24,65,294,27,35,65,090,29,26,59,137,24,44,48,189,26,1*7E
$GBGSV,3,2,10,12,26,200,19,29,13,044,19,25,11,305,18,45,06,127,16,1*76
$GBGSV,3,3,10,41,06,315,16,34,01,212,,1*73
$GBGSV,2,1,05,24,65,294,28,35,65,090,25,26,59,137,25,44,48,189,26,5*7D
$GBGSV,2,2,05,29,13,044,14,5*4B
$GNGLL,4910.427508,N,12304.405362,W,232610.000,A,D*56
$GNRMC,232611.000,A,4910.427508,N,12304.405434,W,0.01,0.00,070125,,,D,V*1E
$GNGGA,232611.000,4910.427508,N,12304.405434,W,2,42,0.49,23.381,M,-16.816,M,,*75
$GNVTG,0.00,T,,M,0.01,N,0.02,K,D*25
$GNGSA,A,3,19,24,17,06,12,14,11,15,13,02,,,0.80,0.49,0.63,1*0D
$GNGSA,A,3,75,85,,,,,,,,,,,0.80,0.49,0.63,2*0D
$GNGSA,A,3,02,30,36,11,07,25,08,34,10,29,,,0.80,0.49,0.63,3*02
$GNGSA,A,3,24,35,26,44,29,,,,,,,,0.80,0.49,0.63,4*0B
$GPGSV,4,1,13,19,82,113,38,24,54,280,37,17,52,059,35,44,33,171,31,1*6E
$GPGSV,4,2,13,06,33,149,33,12,26,283,31,14,26,098,31,11,08,176,27,1*69
$GPGSV,4,3,13,15,07,235,26,13,06,204,23,02,05,030,24,03,04,062,16,1*67
$GPGSV,4,4,13,32,02,344,,1*56
$GPGSV,1,1,04,24,54,280,26,06,33,149,21,14,26,098,18,11,08,176,18,8*61
$GLGSV,1,1,02,75,74,348,31,85,54,167,28,1*70
$GAGSV,3,1,10,02,76,067,36,30,45,286,32,36,44,114,32,11,31,051,28,7*74
$GAGSV,3,2,10,07,28,281,28,25,24,094,27,08,17,227,29,34,16,166,25,7*72
$GAGSV,3,3,10,10,13,030,26,29,10,332,22,7*7E
$GAGSV,2,1,06,02,76,067,26,30,45,286,23,36,44,114,25,11,31,051,16,1*7E
$GAGSV,2,2,06,07,28,281,22,08,17,227,18,1*75
$GBGSV,3,1,10,24,65,294,26,35,65,090,29,26,59,137,24,44,48,189,26,1*7F
$GBGSV,3,2,10,12,26,200,19,29,13,044,19,25,11,305,18,45,06,127,16,1*76
$GBGSV,3,3,10,41,06,315,15,34,01,212,,1*70
$GBGSV,2,1,05,24,65,294,28,35,65,090,25,26,59,137,26,44,48,189,26,5*7E
$GBGSV,2,2,05,29,13,044,14,5*4B
$GNGLL,4910.427508,N,12304.405434,W,232611.000,A,D*53
$GNRMC,232612.000,A,4910.427502,N,12304.405464,W,0.01,0.00,070125,,,D,V*12
$GNGGA,232612.000,4910.427502,N,12304.405464,W,2,42,0.49,23.450,M,-16.816,M,,*72
$GNVTG,0.00,T,,M,0.01,N,0.02,K,D*25
$GNGSA,A,3,19,24,17,06,12,14,11,15,13,02,,,0.80,0.49,0.63,1*0D
$GNGSA,A,3,75,85,,,,,,,,,,,0.80,0.49,0.63,2*0D
$GNGSA,A,3,02,30,36,11,07,25,08,34,10,29,,,0.80,0.49,0.63,3*02
$GNGSA,A,3,24,35,26,44,29,,,,,,,,0.80,0.49,0.63,4*0B
$GPGSV,4,1,13,19,82,113,38,24,54,280,37,17,52,059,35,44,33,171,31,1*6E
$GPGSV,4,2,13,06,33,149,33,12,26,283,32,14,26,098,31,11,08,176,27,1*6A
$GPGSV,4,3,13,15,07,235,27,13,06,204,23,02,05,030,24,03,04,062,16,1*66
$GPGSV,4,4,13,32,02,344,,1*56
$GPGSV,1,1,04,24,54,280,26,06,33,149,21,14,26,098,19,11,08,176,18,8*60
$GLGSV,1,1,02,75,74,348,31,85,54,167,28,1*70
$GAGSV,3,1,10,02,76,067,36,30,45,286,32,36,44,114,32,11,31,051,28,7*74
$GAGSV,3,2,10,07,28,281,28,25,24,094,27,08,17,227,29,34,16,166,25,7*72
$GAGSV,3,3,10,10,13,030,26,29,10,332,22,7*7E
$GAGSV,2,1,06,02,76,067,26,30,45,286,23,36,44,114,25,11,31,051,16,1*7E
$GAGSV,2,2,06,07,28,281,22,08,17,227,18,1*75
$GBGSV,3,1,10,24,65,294,26,35,65,090,29,26,59,137,24,44,48,189,26,1*7F
$GBGSV,3,2,10,12,26,200,18,29,13,044,19,25,11,305,18,45,06,127,16,1*77
$GBGSV,3,3,10,41,06,315,15,34,01,212,,1*70
$GBGSV,2,1,05,24,65,294,28,35,65,090,25,26,59,137,26,44,48,189,26,5*7E
$GBGSV,2,2,05,29,13,044,14,5*4B
$GNGLL,4910.427502,N,12304.405464,W,232612.000,A,D*5F
$GNRMC,232613.000,A,4910.427478,N,12304.405494,W,0.01,0.00,070125,,,D,V*10
$GNGGA,232613.000,4910.427478,N,12304.405494,W,2,42,0.49,23.561,M,-16.817,M,,*72
$GNVTG,0.00,T,,M,0.01,N,0.02,K,D*25
$GNGSA,A,3,19,24,17,06,12,14,11,15,13,02,,,0.80,0.49,0.63,1*0D
$GNGSA,A,3,75,85,,,,,,,,,,,0.80,0.49,0.63,2*0D
$GNGSA,A,3,02,30,36,11,07,25,08,34,10,29,,,0.80,0.49,0.63,3*02
$GNGSA,A,3,24,35,26,44,29,,,,,,,,0.80,0.49,0.63,4*0B
$GPGSV,4,1,13,19,82,113,38,24,54,280,37,17,52,059,35,44,33,171,31,1*6E
$GPGSV,4,2,13,06,33,149,33,12,26,283,32,14,26,098,31,11,08,176,27,1*6A
$GPGSV,4,3,13,15,07,235,27,13,06,204,23,02,05,030,24,03,04,062,16,1*66
$GPGSV,4,4,13,32,02,344,,1*56
$GPGSV,1,1,04,24,54,280,26,06,33,149,21,14,26,098,19,11,08,176,18,8*60
$GLGSV,1,1,02,75,74,348,31,85,54,167,28,1*70
$GAGSV,3,1,10,02,76,067,36,30,45,286,32,36,44,114,32,11,31,051,28,7*74
$GAGSV,3,2,10,07,28,281,28,25,24,094,27,08,17,227,29,34,16,166,25,7*72
$GAGSV,3,3,10,10,13,030,26,29,10,332,22,7*7E
$GAGSV,2,1,06,02,76,067,26,30,45,286,23,36,44,114,25,11,31,051,16,1*7E
$GAGSV,2,2,06,07,28,281,22,08,17,227,18,1*75
$GBGSV,3,1,10,24,65,294,26,35,65,090,29,26,59,137,24,44,48,189,26,1*7F
$GBGSV,3,2,10,12,26,200,18,29,13,044,19,25,11,305,18,45,06,127,15,1*74
$GBGSV,3,3,10,41,06,315,15,34,01,212,,1*70
$GBGSV,2,1,05,24,65,294,28,35,65,090,25,26,59,137,26,44,48,189,26,5*7E
$GBGSV,2,2,05,29,13,044,14,5*4B
$GNGLL,4910.427478,N,12304.405494,W,232613.000,A,D*5D
$GNRMC,232614.000,A,4910.427436,N,12304.405332,W,0.01,0.00,070125,,,D,V*16
$GNGGA,232614.000,4910.427436,N,12304.405332,W,2,42,0.49,23.590,M,-16.816,M,,*7B
$GNVTG,0.00,T,,M,0.01,N,0.02,K,D*25
$GNGSA,A,3,19,24,17,06,12,14,11,15,13,02,,,0.80,0.49,0.63,1*0D
$GNGSA,A,3,75,85,,,,,,,,,,,0.80,0.49,0.63,2*0D
$GNGSA,A,3,02,30,36,11,07,25,08,34,10,29,,,0.80,0.49,0.63,3*02
$GNGSA,A,3,24,35,26,44,29,,,,,,,,0.80,0.49,0.63,4*0B
$GPGSV,4,1,13,19,82,113,38,24,54,280,37,17,52,059,35,44,33,171,31,1*6E
$GPGSV,4,2,13,06,33,149,33,12,26,283,32,14,26,098,31,11,08,176,27,1*6A
$GPGSV,4,3,13,15,07,235,27,13,06,204,23,02,05,030,24,03,04,062,16,1*66
$GPGSV,4,4,13,32,02,344,,1*56
$GPGSV,1,1,04,24,54,280,26,06,33,149,21,14,26,098,19,11,08,176,18,8*60
$GLGSV,1,1,02,75,74,348,31,85,54,167,28,1*70
$GAGSV,3,1,10,02,76,067,36,30,45,286,32,36,44,114,32,11,31,051,28,7*74
$GAGSV,3,2,10,07,28,281,28,25,24,094,27,08,17,227,29,34,16,166,25,7*72
$GAGSV,3,3,10,10,13,030,26,29,10,332,22,7*7E
$GAGSV,2,1,06,02,76,067,26,30,45,286,23,36,44,114,25,11,31,051,16,1*7E
$GAGSV,2,2,06,07,28,281,22,08,17,227,18,1*75
$GBGSV,3,1,10,24,65,294,26,35,65,090,29,26,59,137,24,44,48,189,26,1*7F
$GBGSV,3,2,10,12,26,200,18,29,13,044,19,25,11,305,18,45,06,127,15,1*74
$GBGSV,3,3,10,41,06,315,15,34,02,212,,1*73
$GBGSV,2,1,05,24,65,294,28,35,65,090,25,26,59,137,26,44,48,189,26,5*7E
$GBGSV,2,2,05,29,13,044,14,5*4B
$GNGLL,4910.427436,N,12304.405332,W,232614.000,A,D*5B
$GNRMC,232615.000,A,4910.427358,N,12304.405146,W,0.01,0.00,070125,,,D,V*19
$GNGGA,232615.000,4910.427358,N,12304.405146,W,2,42,0.49,23.633,M,-16.816,M,,*7E
$GNVTG,0.00,T,,M,0.01,N,0.03,K,D*24
$GNGSA,A,3,19,24,17,06,12,14,11,15,13,02,,,0.80,0.49,0.63,1*0D
$GNGSA,A,3,75,85,,,,,,,,,,,0.80,0.49,0.63,2*0D
$GNGSA,A,3,02,30,36,11,07,25,08,34,10,29,,,0.80,0.49,0.63,3*02
$GNGSA,A,3,24,35,26,44,29,,,,,,,,0.80,0.49,0.63,4*0B
$GPGSV,4,1,13,19,82,113,38,24,54,280,37,17,52,059,35,44,33,171,31,1*6E
$GPGSV,4,2,13,06,33,149,33,12,26,283,32,14,26,098,31,11,08,176,27,1*6A
$GPGSV,4,3,13,15,07,235,27,13,06,204,23,02,05,030,24,03,04,062,16,1*66
$GPGSV,4,4,13,32,02,344,,1*56
$GPGSV,1,1,04,24,54,280,26,06,33,149,21,14,26,098,19,11,08,176,18,8*60
$GLGSV,1,1,02,75,74,348,31,85,54,167,27,1*7F
$GAGSV,3,1,10,02,76,067,36,30,45,286,32,36,44,114,32,11,31,051,28,7*74
$GAGSV,3,2,10,07,28,281,28,25,24,094,27,08,17,227,29,34,16,166,25,7*72
$GAGSV,3,3,10,10,13,030,26,29,10,332,22,7*7E
$GAGSV,2,1,06,02,76,067,25,30,45,286,23,36,44,114,25,11,31,051,16,1*7D
$GAGSV,2,2,06,07,28,281,21,08,17,227,17,1*79
$GBGSV,3,1,09,24,65,294,27,35,64,088,30,26,59,137,25,44,48,189,27,1*76
$GBGSV,3,2,09,12,26,200,18,29,13,044,20,25,11,305,18,41,06,315,16,1*72
$GBGSV,3,3,09,45,06,127,16,1*4B
$GBGSV,2,1,05,24,65,294,28,35,64,088,25,26,59,137,26,44,48,189,25,5*75
$GBGSV,2,2,05,29,13,044,14,5*4B
$GNGLL,4910.427358,N,12304.405146,W,232615.000,A,D*54
$GNRMC,232616.000,A,4910.427208,N,12304.404858,W,0.02,0.00,070125,,,D,V*1A
$GNGGA,232616.000,4910.427208,N,12304.404858,W,2,42,0.49,23.543,M,-16.816,M,,*7A
$GNVTG,0.00,T,,M,0.02,N,0.04,K,D*20
$GNGSA,A,3,19,24,17,06,12,14,11,15,13,02,,,0.80,0.49,0.63,1*0D
$GNGSA,A,3,75,85,,,,,,,,,,,0.80,0.49,0.63,2*0D
$GNGSA,A,3,02,30,36,11,07,25,08,34,10,29,,,0.80,0.49,0.63,3*02
$GNGSA,A,3,24,35,26,44,29,,,,,,,,0.80,0.49,0.63,4*0B
$GPGSV,4,1,13,19,82,113,38,24,54,280,37,17,52,059,35,44,33,171,31,1*6E
$GPGSV,4,2,13,06,33,149,33,12,26,283,32,14,26,098,31,11,08,176,27,1*6A
$GPGSV,4,3,13,15,07,235,27,13,06,204,23,02,05,030,24,03,04,062,16,1*66
$GPGSV,4,4,13,32,02,344,,1*56
$GPGSV,1,1,04,24,54,280,26,06,33,149,21,14,26,098,19,11,08,176,18,8*60
$GLGSV,1,1,02,75,74,348,30,85,54,167,26,1*7F
$GAGSV,3,1,10,02,76,067,36,30,45,286,32,36,44,114,32,11,31,051,28,7*74
$GAGSV,3,2,10,07,28,281,28,25,24,094,27,08,17,227,29,34,16,166,25,7*72
$GAGSV,3,3,10,10,13,030,26,29,10,332,22,7*7E
$GAGSV,2,1,06,02,76,067,25,30,45,286,23,36,44,114,25,11,31,051,16,1*7D
$GAGSV,2,2,06,07,28,281,21,08,17,227,16,1*78
$GBGSV,3,1,09,24,65,294,27,35,64,088,30,26,59,137,25,44,48,189,27,1*76
$GBGSV,3,2,09,12,26,200,18,29,13,044,20,25,11,305,18,41,06,315,16,1*72
$GBGSV,3,3,09,45,06,127,16,1*4B
$GBGSV,2,1,05,24,65,294,28,35,64,088,25,26,59,137,25,44,48,189,25,5*76
$GBGSV,2,2,05,29,13,044,14,5*4B
$GNGLL,4910.427208,N,12304.404858,W,232616.000,A,D*54
$GNRMC,232617.000,A,4910.427160,N,12304.404714,W,0.02,0.00,070125,,,D,V*11
$GNGGA,232617.000,4910.427160,N,12304.404714,W,2,42,0.49,23.539,M,-16.816,M,,*7C
$GNVTG,0.00,T,,M,0.02,N,0.04,K,D*20
$GNGSA,A,3,19,24,17,06,12,14,11,15,13,02,,,0.80,0.49,0.63,1*0D
$GNGSA,A,3,75,85,,,,,,,,,,,0.80,0.49,0.63,2*0D
$GNGSA,A,3,02,30,36,11,07,25,08,34,10,29,,,0.80,0.49,0.63,3*02
$GNGSA,A,3,24,35,26,44,29,,,,,,,,0.80,0.49,0.63,4*0B
$GPGSV,4,1,13,19,82,113,38,24,54,280,37,17,52,059,35,44,33,171,31,1*6E
$GPGSV,4,2,13,06,33,149,33,12,26,283,32,14,26,098,31,11,08,176,27,1*6A
$GPGSV,4,3,13,15,07,235,27,13,06,204,23,02,05,030,24,03,04,062,16,1*66
$GPGSV,4,4,13,32,02,344,,1*56
$GPGSV,1,1,04,24,54,280,26,06,33,149,21,14,26,098,19,11,08,176,18,8*60
$GLGSV,1,1,02,75,74,348,30,85,54,167,26,1*7F
$GAGSV,3,1,10,02,76,067,36,30,45,286,33,36,44,114,32,11,31,051,28,7*75
$GAGSV,3,2,10,07,28,281,28,25,24,094,27,08,17,227,29,34,16,166,25,7*72
$GAGSV,3,3,10,10,13,030,26,29,10,332,22,7*7E
$GAGSV,2,1,06,02,76,067,25,30,45,286,23,36,44,114,25,11,31,051,16,1*7D
$GAGSV,2,2,06,07,28,281,21,08,17,227,16,1*78
$GBGSV,3,1,09,24,65,294,27,35,64,088,30,26,59,137,25,44,48,189,27,1*76
$GBGSV,3,2,09,12,26,200,18,29,13,044,21,25,11,305,18,41,06,315,16,1*73
$GBGSV,3,3,09,45,06,127,16,1*4B
$GBGSV,2,1,05,24,65,294,28,35,64,088,25,26,59,137,26,44,48,189,25,5*75
$GBGSV,2,2,05,29,13,044,14,5*4B
$GNGLL,4910.427160,N,12304.404714,W,232617.000,A,D*5F
$GNRMC,232618.000,A,4910.427106,N,12304.404606,W,0.02,0.00,070125,,,D,V*1C
$GNGGA,232618.000,4910.427106,N,12304.404606,W,2,42,0.49,23.441,M,-16.816,M,,*7F
$GNVTG,0.00,T,,M,0.02,N,0.04,K,D*20
$GNGSA,A,3,19,24,17,06,12,14,11,15,13,02,,,0.80,0.49,0.63,1*0D
$GNGSA,A,3,75,85,,,,,,,,,,,0.80,0.49,0.63,2*0D
$GNGSA,A,3,02,30,36,11,07,25,08,34,10,29,,,0.80,0.49,0.63,3*02
$GNGSA,A,3,24,35,26,44,29,,,,,,,,0.80,0.49,0.63,4*0B
$GPGSV,4,1,13,19,82,113,38,24,54,280,37,17,52,059,35,44,33,171,31,1*6E
$GPGSV,4,2,13,06,33,149,33,12,26,283,32,14,26,098,31,11,08,176,27,1*6A
$GPGSV,4,3,13,15,07,235,27,13,06,204,23,02,05,030,24,03,04,062,16,1*66
$GPGSV,4,4,13,32,02,344,,1*56
$GPGSV,1,1,04,24,54,280,26,06,33,149,21,14,26,098,19,11,08,176,18,8*60
$GLGSV,1,1,04,75,74,348,30,84,55,053,,85,54,167,26,86,05,193,,1*73
$GAGSV,3,1,10,02,76,067,36,30,45,286,33,36,44,114,32,11,31,051,28,7*75
$GAGSV,3,2,10,07,28,281,28,25,24,094,27,08,17,227,29,34,16,166,25,7*72
$GAGSV,3,3,10,10,13,030,26,29,10,332,21,7*7D
$GAGSV,2,1,06,02,76,067,25,30,45,286,23,36,44,114,25,11,31,051,16,1*7D
$GAGSV,2,2,06,07,28,281,21,08,17,227,15,1*7B
$GBGSV,3,1,10,24,65,294,27,35,64,088,30,26,59,137,24,44,48,189,26,1*7E
$GBGSV,3,2,10,12,26,200,18,29,13,044,21,25,11,305,18,45,06,127,16,1*7C
$GBGSV,3,3,10,41,06,315,16,34,02,212,,1*70
$GBGSV,2,1,05,24,65,294,28,35,64,088,25,26,59,137,26,44,48,189,25,5*75
$GBGSV,2,2,05,29,13,044,13,5*4C
$GNGLL,4910.427106,N,12304.404606,W,232618.000,A,D*52
$GNRMC,232619.000,A,4910.427094,N,12304.404444,W,0.02,0.00,070125,,,D,V*13
$GNGGA,232619.000,4910.427094,N,12304.404444,W,2,42,0.49,23.339,M,-16.817,M,,*79
$GNVTG,0.00,T,,M,0.02,N,0.04,K,D*20
$GNGSA,A,3,19,24,17,06,12,14,11,15,13,02,,,0.80,0.49,0.63,1*0D
$GNGSA,A,3,75,85,,,,,,,,,,,0.80,0.49,0.63,2*0D
$GNGSA,A,3,02,30,36,11,07,25,08,34,10,29,,,0.80,0.49,0.63,3*02
$GNGSA,A,3,24,35,26,44,29,,,,,,,,0.80,0.49,0.63,4*0B
$GPGSV,4,1,13,19,82,113,37,24,54,280,37,17,52,059,35,44,33,171,30,1*60
$GPGSV,4,2,13,06,33,149,33,12,26,283,32,14,26,098,31,11,08,176,26,1*6B
$GPGSV,4,3,13,15,07,235,26,13,06,204,23,02,05,030,24,03,04,062,16,1*67
$GPGSV,4,4,13,32,02,344,,1*56
$GPGSV,1,1,04,24,54,280,26,06,33,149,21,14,26,098,20,11,08,176,18,8*6A
$GLGSV,1,1,04,75,74,348,30,84,55,053,,85,54,167,26,86,05,193,,1*73
$GAGSV,3,1,10,02,76,067,36,30,45,286,33,36,44,114,32,11,31,051,27,7*7A
$GAGSV,3,2,10,07,28,281,28,25,24,094,27,08,17,227,29,34,16,166,25,7*72
$GAGSV,3,3,10,10,13,030,26,29,10,332,21,7*7D
$GAGSV,2,1,06,02,76,067,25,30,45,286,23,36,44,114,25,11,31,051,16,1*7D
$GAGSV,2,2,06,07,28,281,21,08,17,227,15,1*7B
$GBGSV,3,1,11,24,65,294,28,35,64,088,30,26,59,137,25,44,48,189,27,1*70
$GBGSV,3,2,11,12,26,200,18,29,13,044,21,25,11,305,18,41,06,315,16,1*7A
$GBGSV,3,3,11,45,06,127,16,34,02,212,,32,01,002,,1*44
$GBGSV,2,1,05,24,65,294,28,35,64,088,25,26,59,137,26,44,48,189,25,5*75
$GBGSV,2,2,05,29,13,044,13,5*4C
$GNGLL,4910.427094,N,12304.404444,W,232619.000,A,D*5D
$GNRMC,232620.000,A,4910.427010,N,12304.404294,W,0.02,0.00,070125,,,D,V*1E
$GNGGA,232620.000,4910.427010,N,12304.404294,W,2,42,0.49,23.303,M,-16.816,M,,*7C
$GNVTG,0.00,T,,M,0.02,N,0.04,K,D*20
$GNGSA,A,3,19,24,17,06,12,14,11,15,13,02,,,0.80,0.49,0.63,1*0D
$GNGSA,A,3,75,85,,,,,,,,,,,0.80,0.49,0.63,2*0D
$GNGSA,A,3,02,30,36,11,07,25,08,34,10,29,,,0.80,0.49,0.63,3*02
$GNGSA,A,3,24,35,26,44,29,,,,,,,,0.80,0.49,0.63,4*0B
$GPGSV,4,1,13,19,82,113,37,24,54,280,37,17,52,059,35,44,33,171,30,1*60
$GPGSV,4,2,13,06,33,149,33,12,26,283,32,14,26,098,31,11,08,176,26,1*6B
$GPGSV,4,3,13,15,07,235,26,13,06,204,22,02,05,030,24,03,04,062,16,1*66
$GPGSV,4,4,13,32,02,344,,1*56
$GPGSV,1,1,04,24,54,280,26,06,33,149,21,14,26,098,20,11,08,176,18,8*6A
$GLGSV,1,1,03,75,74,348,30,84,55,053,,85,54,167,26,1*44
$GAGSV,3,1,10,02,76,067,36,30,45,286,33,36,44,114,32,11,31,051,27,7*7A
$GAGSV,3,2,10,07,28,281,28,25,24,094,27,08,17,227,29,34,16,166,25,7*72
$GAGSV,3,3,10,10,13,030,26,29,10,332,21,7*7D
$GAGSV,2,1,06,02,76,067,25,30,45,286,23,36,44,114,25,11,31,051,16,1*7D
$GAGSV,2,2,06,07,28,281,21,08,17,227,15,1*7B
$GBGSV,3,1,11,24,65,294,28,35,64,088,30,26,59,137,26,44,48,189,27,1*73
$GBGSV,3,2,11,12,26,200,18,29,13,044,21,25,11,305,19,41,06,315,16,1*7B
$GBGSV,3,3,11,45,06,127,16,34,02,212,,32,01,002,,1*44
$GBGSV,2,1,05,24,65,294,27,35,64,088,25,26,59,137,26,44,48,189,25,5*7A
$GBGSV,2,2,05,29,13,044,13,5*4C
$GNGLL,4910.427010,N,12304.404294,W,232620.000,A,D*50
$GNRMC,232621.000,A,4910.426938,N,12304.404216,W,0.02,0.00,070125,,,D,V*17
$GNGGA,232621.000,4910.426938,N,12304.404216,W,2,42,0.49,23.249,M,-16.816,M,,*7A
$GNVTG,0.00,T,,M,0.02,N,0.04,K,D*20
$GNGSA,A,3,19,24,17,06,12,14,11,15,13,02,,,0.80,0.49,0.63,1*0D
$GNGSA,A,3,75,85,,,,,,,,,,,0.80,0.49,0.63,2*0D
$GNGSA,A,3,02,30,36,11,07,25,08,34,10,29,,,0.80,0.49,0.63,3*02
$GNGSA,A,3,24,35,26,44,29,,,,,,,,0.80,0.49,0.63,4*0B
$GPGSV,4,1,13,19,82,113,37,24,54,280,36,17,52,059,34,44,33,171,30,1*60
$GPGSV,4,2,13,06,33,149,32,12,26,283,32,14,26,098,31,11,08,176,26,1*6A
$GPGSV,4,3,13,15,07,235,26,13,06,204,22,02,05,030,24,03,04,062,15,1*65
$GPGSV,4,4,13,32,02,344,,1*56
$GPGSV,1,1,04,24,54,280,26,06,33,149,21,14,26,098,21,11,08,176,18,8*6B
$GLGSV,1,1,02,75,74,348,30,85,54,167,26,1*7F
$GAGSV,3,1,10,02,76,067,36,30,45,286,33,36,44,114,32,11,31,051,27,7*7A
$GAGSV,3,2,10,07,28,281,28,25,24,094,27,08,17,227,29,34,16,166,24,7*73
$GAGSV,3,3,10,10,13,030,26,29,10,332,20,7*7C
$GAGSV,2,1,06,02,76,067,25,30,45,286,23,36,44,114,25,11,31,051,16,1*7D
$GAGSV,2,2,06,07,28,281,21,08,17,227,15,1*7B
$GBGSV,3,1,11,24,65,294,28,35,64,088,30,26,59,137,26,44,48,189,27,1*73
$GBGSV,3,2,11,12,26,200,19,29,13,044,21,25,11,305,19,45,06,127,16,1*7D
$GBGSV,3,3,11,41,05,314,16,34,02,212,,32,01,002,,1*41
$GBGSV,2,1,05,24,65,294,27,35,64,088,25,26,59,137,26,44,48,189,25,5*7A
$GBGSV,2,2,05,29,13,044,13,5*4C
$GNGLL,4910.426938,N,12304.404216,W,232621.000,A,D*59
$GNRMC,232622.000,A,4910.426884,N,12304.404006,W,0.03,0.00,070125,,,D,V*10
$GNGGA,232622.000,4910.426884,N,12304.404006,W,2,42,0.49,23.126,M,-16.817,M,,*77
$GNVTG,0.00,T,,M,0.03,N,0.05,K,D*20
$GNGSA,A,3,19,24,17,06,12,14,11,15,13,02,,,0.80,0.49,0.63,1*0D
$GNGSA,A,3,75,85,,,,,,,,,,,0.80,0.49,0.63,2*0D
$GNGSA,A,3,02,30,36,11,07,25,08,34,10,29,,,0.80,0.49,0.63,3*02
$GNGSA,A,3,24,35,26,44,29,,,,,,,,0.80,0.49,0.63,4*0B
$GPGSV,4,1,13,19,82,113,37,24,54,280,36,17,52,059,33,44,33,171,30,1*67
$GPGSV,4,2,13,06,33,149,32,12,26,283,31,14,26,098,31,11,08,176,26,1*69
$GPGSV,4,3,13,15,07,235,26,13,06,204,22,02,05,030,24,03,04,062,15,1*65
$GPGSV,4,4,13,32,02,344,,1*56
$GPGSV,1,1,04,24,54,280,26,06,33,149,21,14,26,098,21,11,08,176,18,8*6B
$GLGSV,1,1,02,75,74,348,30,85,54,167,24,1*7D
$GAGSV,3,1,10,02,76,067,36,30,45,286,33,36,44,114,32,11,31,051,27,7*7A
$GAGSV,3,2,10,07,28,281,28,25,24,094,27,08,17,227,28,34,16,166,24,7*72
$GAGSV,3,3,10,10,13,030,25,29,10,332,20,7*7F
$GAGSV,2,1,06,02,76,067,25,30,45,286,23,36,44,114,25,11,31,051,16,1*7D
$GAGSV,2,2,06,07,28,281,21,08,17,227,16,1*78
$GBGSV,3,1,11,24,65,294,28,35,64,088,31,26,59,137,26,44,48,189,27,1*72
$GBGSV,3,2,11,12,26,200,19,29,13,044,21,25,11,305,19,45,06,127,16,1*7D
$GBGSV,3,3,11,41,05,314,16,34,02,212,,32,01,002,,1*41
$GBGSV,2,1,05,24,65,294,27,35,64,088,25,26,59,137,25,44,48,189,25,5*79
$GBGSV,2,2,05,29,13,044,13,5*4C
$GNGLL,4910.426884,N,12304.404006,W,232622.000,A,D*5F
$GNRMC,232623.000,A,4910.426860,N,12304.403856,W,0.02,0.00,070125,,,D,V*10
$GNGGA,232623.000,4910.426860,N,12304.403856,W,2,42,0.49,22.958,M,-16.816,M,,*77
$GNVTG,0.00,T,,M,0.02,N,0.04,K,D*20
$GNGSA,A,3,19,24,17,06,12,14,11,15,13,02,,,0.80,0.49,0.63,1*0D
$GNGSA,A,3,75,85,,,,,,,,,,,0.80,0.49,0.63,2*0D
$GNGSA,A,3,02,30,36,11,07,25,08,34,10,29,,,0.80,0.49,0.63,3*02
$GNGSA,A,3,24,35,26,44,29,,,,,,,,0.80,0.49,0.63,4*0B
$GPGSV,4,1,13,19,82,113,37,24,54,280,36,17,52,059,33,44,33,171,30,1*67
$GPGSV,4,2,13,06,33,149,32,12,26,283,31,14,26,098,31,11,08,176,26,1*69
$GPGSV,4,3,13,15,07,235,26,13,06,204,22,02,05,030,24,03,04,062,15,1*65
$GPGSV,4,4,13,32,02,344,,1*56
$GPGSV,1,1,04,24,54,280,26,06,33,149,21,14,26,098,21,11,08,176,18,8*6B
$GLGSV,1,1,02,75,74,348,30,85,54,167,25,1*7C
$GAGSV,3,1,10,02,76,067,36,30,45,286,33,36,44,114,32,11,31,051,27,7*7A
$GAGSV,3,2,10,07,28,281,28,25,24,094,27,08,17,227,28,34,16,166,24,7*72
$GAGSV,3,3,10,10,13,030,25,29,10,332,20,7*7F
$GAGSV,2,1,06,02,76,067,25,30,45,286,23,36,44,114,24,11,31,051,16,1*7C
$GAGSV,2,2,06,07,28,281,21,08,17,227,16,1*78
$GBGSV,3,1,11,24,65,294,28,35,64,088,30,26,59,137,26,44,48,189,27,1*73
$GBGSV,3,2,11,12,26,200,19,29,13,044,21,25,11,305,19,45,06,127,16,1*7D
$GBGSV,3,3,11,41,05,314,16,34,02,212,,32,01,002,,1*41
$GBGSV,2,1,05,24,65,294,27,35,64,088,25,26,59,137,25,44,48,189,25,5*79
$GBGSV,2,2,05,29,13,044,13,5*4C
$GNGLL,4910.426860,N,12304.403856,W,232623.000,A,D*5E
$GNRMC,232624.000,A,4910.426800,N,12304.403850,W,0.02,0.00,070125,,,D,V*17
$GNGGA,232624.000,4910.426800,N,12304.403850,W,2,42,0.49,22.855,M,-16.816,M,,*7C
$GNVTG,0.00,T,,M,0.02,N,0.04,K,D*20
$GNGSA,A,3,19,24,17,06,12,14,11,15,13,02,,,0.80,0.49,0.63,1*0D
$GNGSA,A,3,75,85,,,,,,,,,,,0.80,0.49,0.63,2*0D
$GNGSA,A,3,02,30,36,11,07,25,08,34,10,29,,,0.80,0.49,0.63,3*02
$GNGSA,A,3,24,35,26,44,29,,,,,,,,0.80,0.49,0.63,4*0B
$GPGSV,4,1,13,19,82,113,37,24,54,280,37,17,52,059,34,44,33,171,30,1*61
$GPGSV,4,2,13,06,33,149,32,12,26,283,32,14,26,098,32,11,08,176,26,1*69
$GPGSV,4,3,13,15,07,235,26,13,06,204,22,02,05,030,24,03,04,062,15,1*65
$GPGSV,4,4,13,32,02,344,,1*56
$GPGSV,1,1,04,24,54,280,27,06,33,149,22,14,26,098,21,11,08,176,19,8*68
$GLGSV,1,1,02,75,74,348,30,85,54,167,25,1*7C
$GAGSV,3,1,10,02,76,067,36,30,45,286,33,36,44,114,32,11,31,051,27,7*7A
$GAGSV,3,2,10,07,28,281,28,25,24,094,27,08,17,227,28,34,16,166,24,7*72
$GAGSV,3,3,10,10,13,030,26,29,10,332,20,7*7C
$GAGSV,2,1,06,02,76,067,25,30,45,286,24,36,44,114,24,11,31,051,16,1*7B
$GAGSV,2,2,06,07,28,281,21,08,17,227,16,1*78
$GBGSV,3,1,10,24,65,294,27,35,64,088,30,26,59,137,25,44,50,189,27,1*77
$GBGSV,3,2,10,12,26,200,19,29,13,044,20,25,11,305,18,45,06,127,16,1*7C
$GBGSV,3,3,10,41,05,314,16,32,01,002,,1*74
$GBGSV,2,1,05,24,65,294,27,35,64,088,26,26,59,137,25,44,50,189,26,5*70
$GBGSV,2,2,05,29,13,044,13,5*4C
$GNGLL,4910.426800,N,12304.403850,W,232624.000,A,D*59
$GNRMC,232625.000,A,4910.426710,N,12304.403856,W,0.02,0.00,070125,,,D,V*1E
$GNGGA,232625.000,4910.426710,N,12304.403856,W,2,42,0.49,22.776,M,-16.816,M,,*7B
$GNVTG,0.00,T,,M,0.02,N,0.04,K,D*20
$GNGSA,A,3,19,24,17,06,12,14,11,15,13,02,,,0.80,0.49,0.63,1*0D
$GNGSA,A,3,75,85,,,,,,,,,,,0.80,0.49,0.63,2*0D
$GNGSA,A,3,02,30,36,11,07,25,08,34,10,29,,,0.80,0.49,0.63,3*02
$GNGSA,A,3,24,35,26,44,29,,,,,,,,0.80,0.49,0.63,4*0B
$GPGSV,4,1,13,19,82,113,37,24,54,280,37,17,52,059,34,44,33,171,30,1*61
$GPGSV,4,2,13,06,33,149,32,12,26,283,32,14,26,098,32,11,08,176,26,1*69
$GPGSV,4,3,13,15,07,235,26,13,06,204,22,02,05,030,24,03,04,062,15,1*65
$GPGSV,4,4,13,32,02,344,,1*56
$GPGSV,1,1,04,24,54,280,27,06,33,149,22,14,26,098,21,11,08,176,19,8*68
$GLGSV,1,1,02,75,74,348,30,85,54,167,24,1*7D
$GAGSV,3,1,10,02,76,067,36,30,45,286,33,36,44,114,32,11,31,051,27,7*7A
$GAGSV,3,2,10,07,28,281,28,25,24,094,27,08,17,227,29,34,16,166,24,7*73
$GAGSV,3,3,10,10,13,030,26,29,10,332,20,7*7C
$GAGSV,2,1,06,02,76,067,25,30,45,286,24,36,44,114,24,11,31,051,16,1*7B
$GAGSV,2,2,06,07,28,281,21,08,17,227,16,1*78
$GBGSV,3,1,10,24,65,294,27,35,64,088,29,26,59,137,24,44,50,189,26,1*7F
$GBGSV,3,2,10,12,26,200,18,29,13,044,20,25,11,305,18,41,05,314,15,1*7B
$GBGSV,3,3,10,45,05,127,15,32,01,002,,1*71
$GBGSV,2,1,05,24,65,294,27,35,64,088,26,26,59,137,25,44,50,189,26,5*70
$GBGSV,2,2,05,29,13,044,12,5*4D
$GNGLL,4910.426710,N,12304.403856,W,232625.000,A,D*50
$GNRMC,232626.000,A,4910.426686,N,12304.403928,W,0.02,0.00,070125,,,D,V*1B
$GNGGA,232626.000,4910.426686,N,12304.403928,W,2,42,0.49,22.679,M,-16.816,M,,*70
$GNVTG,0.00,T,,M,0.02,N,0.04,K,D*20
$GNGSA,A,3,19,24,17,06,12,14,11,15,13,02,,,0.80,0.49,0.63,1*0D
$GNGSA,A,3,75,85,,,,,,,,,,,0.80,0.49,0.63,2*0D
$GNGSA,A,3,02,30,36,11,07,25,08,34,10,29,,,0.80,0.49,0.63,3*02
$GNGSA,A,3,24,35,26,44,29,,,,,,,,0.80,0.49,0.63,4*0B
$GPGSV,4,1,13,19,82,113,37,24,54,280,37,17,52,059,34,44,33,171,30,1*61
$GPGSV,4,2,13,06,33,149,32,12,26,283,32,14,26,098,32,11,08,176,26,1*69
$GPGSV,4,3,13,15,07,235,26,13,06,204,22,02,05,030,24,03,04,062,15,1*65
$GPGSV,4,4,13,32,02,344,,1*56
$GPGSV,1,1,04,24,54,280,27,06,33,149,22,14,26,098,21,11,08,176,19,8*68
$GLGSV,1,1,02,75,74,348,30,85,54,167,26,1*7F
$GAGSV,3,1,10,02,76,067,36,30,45,286,33,36,44,114,32,11,31,051,27,7*7A
$GAGSV,3,2,10,07,28,281,28,25,24,094,27,08,17,227,29,34,16,166,24,7*73
$GAGSV,3,3,10,10,13,030,26,29,10,332,21,7*7D
$GAGSV,2,1,06,02,76,067,25,30,45,286,24,36,44,114,24,11,31,051,16,1*7B
$GAGSV,2,2,06,07,28,281,21,08,17,227,16,1*78
$GBGSV,3,1,09,24,65,294,27,35,64,088,29,26,59,137,24,44,50,189,26,1*77
$GBGSV,3,2,09,12,26,200,18,29,13,044,20,25,11,305,18,41,05,314,15,1*73
$GBGSV,3,3,09,45,05,127,14,1*4A
$GBGSV,2,1,05,24,65,294,27,35,64,088,25,26,59,137,25,44,50,189,26,5*73
$GBGSV,2,2,05,29,13,044,13,5*4C
$GNGLL,4910.426686,N,12304.403928,W,232626.000,A,D*55
$GNRMC,232627.000,A,4910.426710,N,12304.403916,W,0.02,0.00,070125,,,D,V*19
$GNGGA,232627.000,4910.426710,N,12304.403916,W,2,42,0.49,22.645,M,-16.816,M,,*7D
$GNVTG,0.00,T,,M,0.02,N,0.03,K,D*27
$GNGSA,A,3,19,24,17,06,12,14,11,15,13,02,,,0.80,0.49,0.63,1*0D
$GNGSA,A,3,75,85,,,,,,,,,,,0.80,0.49,0.63,2*0D
$GNGSA,A,3,02,30,36,11,07,25,08,34,10,29,,,0.80,0.49,0.63,3*02
$GNGSA,A,3,24,35,26,44,29,,,,,,,,0.80,0.49,0.63,4*0B
$GPGSV,4,1,13,19,82,113,37,24,54,280,37,17,52,059,34,44,33,171,30,1*61
$GPGSV,4,2,13,06,33,149,32,12,26,283,32,14,26,098,32,11,08,176,27,1*68
$GPGSV,4,3,13,15,07,235,26,13,06,204,22,02,05,030,24,03,04,062,16,1*66
$GPGSV,4,4,13,32,02,344,,1*56
$GPGSV,1,1,04,24,54,280,27,06,33,149,22,14,26,098,21,11,08,176,19,8*68
$GLGSV,1,1,02,75,74,348,30,85,54,167,25,1*7C
$GAGSV,3,1,10,02,76,067,36,30,45,286,33,36,44,114,32,11,31,051,27,7*7A
$GAGSV,3,2,10,07,28,281,28,25,24,094,27,08,17,227,29,34,16,166,24,7*73
$GAGSV,3,3,10,10,13,030,26,29,10,332,21,7*7D
$GAGSV,2,1,06,02,76,067,25,30,45,286,24,36,44,114,25,11,31,051,16,1*7A
$GAGSV,2,2,06,07,28,281,21,08,17,227,16,1*78
$GBGSV,3,1,09,24,65,294,26,35,64,088,29,26,59,137,24,44,50,189,26,1*76
$GBGSV,3,2,09,12,26,200,18,29,13,044,20,25,11,305,17,41,05,314,15,1*7C
$GBGSV,3,3,09,45,05,127,13,1*4D
$GBGSV,2,1,05,24,65,294,27,35,64,088,25,26,59,137,25,44,50,189,26,5*73
$GBGSV,2,2,05,29,13,044,13,5*4C
$GNGLL,4910.426710,N,12304.403916,W,232627.000,A,D*57
$GNRMC,232628.000,A,4910.426734,N,12304.403946,W,0.02,0.00,070125,,,D,V*15
$GNGGA,232628.000,4910.426734,N,12304.403946,W,2,42,0.49,22.602,M,-16.817,M,,*73
$GNVTG,0.00,T,,M,0.02,N,0.03,K,D*27
$GNGSA,A,3,19,24,17,06,12,14,11,15,13,02,,,0.80,0.49,0.63,1*0D
$GNGSA,A,3,75,85,,,,,,,,,,,0.80,0.49,0.63,2*0D
$GNGSA,A,3,02,30,36,11,07,25,08,34,10,29,,,0.80,0.49,0.63,3*02
$GNGSA,A,3,24,35,26,44,29,,,,,,,,0.80,0.49,0.63,4*0B
$GPGSV,4,1,13,19,82,113,37,24,54,280,37,17,52,059,35,44,33,171,30,1*60
$GPGSV,4,2,13,06,33,149,32,12,26,283,32,14,26,098,32,11,08,176,27,1*68
$GPGSV,4,3,13,15,07,235,26,13,06,204,22,02,05,030,24,03,04,062,16,1*66
$GPGSV,4,4,13,32,02,344,,1*56
$GPGSV,1,1,04,24,54,280,27,06,33,149,21,14,26,098,21,11,08,176,18,8*6A
$GLGSV,1,1,02,75,74,348,30,85,54,167,25,1*7C
$GAGSV,3,1,10,02,76,067,36,30,45,286,33,36,44,114,32,11,31,051,27,7*7A
$GAGSV,3,2,10,07,28,281,28,25,24,094,27,08,17,227,29,34,16,166,24,7*73
$GAGSV,3,3,10,10,13,030,26,29,10,332,21,7*7D
$GAGSV,2,1,06,02,76,067,25,30,45,286,24,36,44,114,25,11,31,051,16,1*7A
$GAGSV,2,2,06,07,28,281,21,08,17,227,16,1*78
$GBGSV,3,1,09,24,65,294,26,35,64,088,29,26,59,137,24,44,50,189,26,1*76
$GBGSV,3,2,09,12,26,200,18,29,13,044,20,25,11,305,16,41,05,314,15,1*7D
$GBGSV,3,3,09,45,05,127,13,1*4D
$GBGSV,2,1,05,24,65,294,27,35,64,088,25,26,59,137,25,44,50,189,25,5*70
$GBGSV,2,2,05,29,13,044,13,5*4C
$GNGLL,4910.426734,N,12304.403946,W,232628.000,A,D*5B
$GNRMC,232629.000,A,4910.426692,N,12304.403988,W,0.01,0.00,070125,,,D,V*18
$GNGGA,232629.000,4910.426692,N,12304.403988,W,2,42,0.49,22.521,M,-16.816,M,,*7E
$GNVTG,0.00,T,,M,0.01,N,0.02,K,D*25
$GNGSA,A,3,19,24,17,06,12,14,11,15,13,02,,,0.80,0.49,0.63,1*0D
$GNGSA,A,3,75,85,,,,,,,,,,,0.80,0.49,0.63,2*0D
$GNGSA,A,3,02,30,36,11,07,25,08,34,10,29,,,0.80,0.49,0.63,3*02
$GNGSA,A,3,24,35,26,44,29,,,,,,,,0.80,0.49,0.63,4*0B
$GPGSV,4,1,13,19,82,113,37,24,54,280,37,17,52,059,35,44,33,171,31,1*61
$GPGSV,4,2,13,06,33,149,32,12,26,283,32,14,26,098,32,11,08,176,27,1*68
$GPGSV,4,3,13,15,07,235,26,13,06,204,22,02,05,030,24,03,04,062,16,1*66
$GPGSV,4,4,13,32,02,344,,1*56
$GPGSV,1,1,04,24,54,280,27,06,33,149,21,14,26,098,21,11,08,176,18,8*6A
$GLGSV,1,1,02,75,74,348,31,85,54,167,25,1*7D
$GAGSV,3,1,10,02,76,067,36,30,45,286,33,36,44,114,32,11,31,051,27,7*7A
$GAGSV,3,2,10,07,28,281,28,25,24,094,27,08,17,227,29,34,16,166,24,7*73
$GAGSV,3,3,10,10,13,030,26,29,10,332,21,7*7D
$GAGSV,2,1,06,02,76,067,25,30,45,286,24,36,44,114,24,11,31,051,16,1*7B
$GAGSV,2,2,06,07,28,281,20,08,17,227,16,1*79
$GBGSV,3,1,09,24,65,294,26,35,64,088,29,26,59,137,24,44,50,189,26,1*76
$GBGSV,3,2,09,12,26,200,18,29,13,044,20,25,11,305,17,41,05,314,16,1*7F
$GBGSV,3,3,09,45,05,127,13,1*4D
$GBGSV,2,1,05,24,65,294,27,35,64,088,25,26,59,137,25,44,50,189,25,5*70
$GBGSV,2,2,05,29,13,044,13,5*4C
$GNGLL,4910.426692,N,12304.403988,W,232629.000,A,D*55
$GNRMC,232630.000,A,4910.426674,N,12304.403988,W,0.01,0.00,070125,,,D,V*18
$GNGGA,232630.000,4910.426674,N,12304.403988,W,2,42,0.49,22.454,M,-16.816,M,,*7D
$GNVTG,0.00,T,,M,0.01,N,0.02,K,D*25
$GNGSA,A,3,19,24,17,06,12,14,11,15,13,02,,,0.80,0.49,0.63,1*0D
$GNGSA,A,3,75,85,,,,,,,,,,,0.80,0.49,0.63,2*0D
$GNGSA,A,3,02,30,36,11,07,25,08,34,10,29,,,0.80,0.49,0.63,3*02
$GNGSA,A,3,24,35,26,44,29,,,,,,,,0.80,0.49,0.63,4*0B
$GPGSV,4,1,13,19,82,113,37,24,54,280,37,17,52,059,35,44,33,171,31,1*61
$GPGSV,4,2,13,06,33,149,33,12,26,283,32,14,26,098,32,11,08,176,27,1*69
$GPGSV,4,3,13,15,07,235,26,13,06,204,22,02,05,030,24,03,04,062,16,1*66
$GPGSV,4,4,13,32,02,344,,1*56
$GPGSV,1,1,04,24,54,280,27,06,33,149,22,14,26,098,21,11,08,176,18,8*69
$GLGSV,1,1,02,75,74,348,31,85,54,167,25,1*7D
$GAGSV,3,1,10,02,76,067,36,30,45,286,33,36,44,114,32,11,31,051,27,7*7A
$GAGSV,3,2,10,07,28,281,28,25,24,094,27,08,17,227,29,34,16,166,24,7*73
$GAGSV,3,3,10,10,13,030,26,29,10,332,22,7*7E
$GAGSV,2,1,06,02,76,067,25,30,45,286,24,36,44,114,24,11,31,051,16,1*7B
$GAGSV,2,2,06,07,28,281,20,08,17,227,16,1*79
$GBGSV,3,1,09,24,65,294,26,35,64,088,29,26,59,137,24,44,50,189,26,1*76
$GBGSV,3,2,09,12,26,200,18,29,13,044,20,25,11,305,17,41,05,314,16,1*7F
$GBGSV,3,3,09,45,05,127,14,1*4A
$GBGSV,2,1,05,24,65,294,27,35,64,088,25,26,59,137,25,44,50,189,25,5*70
$GBGSV,2,2,05,29,13,044,12,5*4D
$GNGLL,4910.426674,N,12304.403988,W,232630.000,A,D*55
$GNRMC,232631.000,A,4910.426620,N,12304.403946,W,0.01,0.00,070125,,,D,V*1A
$GNGGA,232631.000,4910.426620,N,12304.403946,W,2,42,0.49,22.383,M,-16.817,M,,*73
$GNVTG,0.00,T,,M,0.01,N,0.02,K,D*25
$GNGSA,A,3,19,24,17,06,12,14,11,15,13,02,,,0.80,0.49,0.63,1*0D
$GNGSA,A,3,75,85,,,,,,,,,,,0.80,0.49,0.63,2*0D
$GNGSA,A,3,02,30,36,11,07,25,08,34,10,29,,,0.80,0.49,0.63,3*02
$GNGSA,A,3,24,35,26,44,29,,,,,,,,0.80,0.49,0.63,4*0B
$GPGSV,4,1,13,19,82,113,37,24,54,280,37,17,52,059,35,44,33,171,31,1*61
$GPGSV,4,2,13,06,33,149,33,12,26,283,32,14,26,098,32,11,08,176,27,1*69
$GPGSV,4,3,13,15,07,235,26,13,06,204,22,02,05,030,24,03,04,062,16,1*66
$GPGSV,4,4,13,32,02,344,,1*56
$GPGSV,1,1,04,24,54,280,27,06,33,149,22,14,26,098,21,11,08,176,18,8*69
$GLGSV,1,1,02,75,74,348,31,85,54,167,25,1*7D
$GAGSV,3,1,10,02,76,067,36,30,45,286,33,36,44,114,32,11,31,051,27,7*7A
$GAGSV,3,2,10,07,28,281,28,25,24,094,28,08,17,227,29,34,16,166,24,7*7C
$GAGSV,3,3,10,10,13,030,27,29,10,332,22,7*7F
$GAGSV,2,1,06,02,76,067,25,30,45,286,24,36,44,114,24,11,31,051,16,1*7B
$GAGSV,2,2,06,07,28,281,20,08,17,227,16,1*79
$GBGSV,3,1,09,24,65,294,26,35,64,088,29,26,59,137,24,44,50,189,26,1*76
$GBGSV,3,2,09,12,26,200,19,29,13,044,20,25,11,305,17,41,05,314,16,1*7E
$GBGSV,3,3,09,45,05,127,14,1*4A
$GBGSV,2,1,05,24,65,294,27,35,64,088,25,26,59,137,25,44,50,189,25,5*70
$GBGSV,2,2,05,29,13,044,12,5*4D
$GNGLL,4910.426620,N,12304.403946,W,232631.000,A,D*57
$GNRMC,232632.000,A,4910.426578,N,12304.403964,W,0.01,0.00,070125,,,D,V*17
$GNGGA,232632.000,4910.426578,N,12304.403964,W,2,42,0.49,22.286,M,-16.816,M,,*7B
$GNVTG,0.00,T,,M,0.01,N,0.02,K,D*25
$GNGSA,A,3,19,24,17,06,12,14,11,15,13,02,,,0.80,0.49,0.63,1*0D
$GNGSA,A,3,75,85,,,,,,,,,,,0.80,0.49,0.63,2*0D
$GNGSA,A,3,02,30,36,11,07,25,08,34,10,29,,,0.80,0.49,0.63,3*02
$GNGSA,A,3,24,35,26,44,29,,,,,,,,0.80,0.49,0.63,4*0B
$GPGSV,4,1,13,19,82,113,38,24,54,280,37,17,52,059,35,44,33,171,31,1*6E
$GPGSV,4,2,13,06,33,149,33,12,26,283,32,14,26,098,32,11,08,176,27,1*69
$GPGSV,4,3,13,15,07,235,26,13,06,204,22,02,05,030,24,03,04,062,17,1*67
$GPGSV,4,4,13,32,02,344,,1*56
$GPGSV,1,1,04,24,54,280,26,06,33,149,21,14,26,098,21,11,08,176,18,8*6B
$GLGSV,1,1,02,75,74,348,32,85,54,167,26,1*7D
$GAGSV,3,1,10,02,76,067,36,30,45,286,33,36,44,114,32,11,31,051,27,7*7A
$GAGSV,3,2,10,07,28,281,28,25,24,094,28,08,17,227,29,34,16,166,24,7*7C
$GAGSV,3,3,10,10,13,030,27,29,10,332,23,7*7E
$GAGSV,2,1,06,02,76,067,25,30,45,286,24,36,44,114,24,11,31,051,16,1*7B
$GAGSV,2,2,06,07,28,281,20,08,17,227,16,1*79
$GBGSV,3,1,09,24,65,294,26,35,64,088,29,26,59,137,24,44,50,189,26,1*76
$GBGSV,3,2,09,12,26,200,19,29,13,044,20,25,11,305,17,41,05,314,16,1*7E
$GBGSV,3,3,09,45,05,127,14,1*4A
$GBGSV,2,1,05,24,65,294,26,35,64,088,25,26,59,137,25,44,50,189,25,5*71
$GBGSV,2,2,05,29,13,044,11,5*4E
$GNGLL,4910.426578,N,12304.403964,W,232632.000,A,D*5A
$GNRMC,232633.000,A,4910.426518,N,12304.403970,W,0.01,0.00,070125,,,D,V*15
