$GNGGA,180701.000,4910.426644,N,12304.401726,W,2,28,0.52,8.625,M,-16.817,M,,*44
$GNGLL,4910.426644,N,12304.401726,W,180701.000,A,D*57
$GNGSA,A,3,04,09,16,03,26,07,06,31,11,,,,0.93,0.52,0.77,1*02
$GNGSA,A,3,68,78,67,79,85,,,,,,,,0.93,0.52,0.77,2*0C
$GNGSA,A,3,06,09,04,31,36,34,05,21,,,,,0.93,0.52,0.77,3*03
$GNGSA,A,3,32,23,20,37,25,41,,,,,,,0.93,0.52,0.77,4*0D
$GPGSV,3,1,12,04,82,060,37,09,63,298,37,16,46,101,36,03,36,173,34,1*66
$GPGSV,3,2,12,26,35,059,33,07,33,238,32,48,33,182,32,06,20,279,28,1*63
$GPGSV,3,3,12,31,19,059,31,11,14,318,27,29,03,016,20,20,02,328,27,1*68
$GLGSV,2,1,06,68,78,006,31,78,68,162,23,67,41,118,30,79,19,198,24,1*72
$GLGSV,2,2,06,84,14,292,,85,13,344,25,1*75
$GAGSV,3,1,10,06,79,075,34,09,72,305,34,04,52,096,31,31,37,150,29,7*77
$GAGSV,3,2,10,36,22,254,26,34,21,308,24,05,19,287,25,21,12,033,23,7*7E
$GAGSV,3,3,10,24,01,186,08,11,01,211,10,7*70
$GBGSV,3,1,09,32,81,179,40,23,71,118,39,20,36,306,38,37,36,204,36,1*70
$GBGSV,3,2,09,25,29,052,36,41,27,135,34,38,03,332,25,04,01,262,,1*7E
$GBGSV,3,3,09,35,01,338,,1*40
$GNRMC,180701.000,A,4910.426644,N,12304.401726,W,0.01,0.00,051224,,,D,V*1B
$GNVTG,0.00,T,,M,0.01,N,0.01,K,D*26
$GNGGA,180702.000,4910.426626,N,12304.401804,W,2,28,0.52,8.607,M,-16.816,M,,*4D
$GNGLL,4910.426626,N,12304.401804,W,180702.000,A,D*5F
$GNGSA,A,3,04,09,16,03,26,07,06,31,11,,,,0.92,0.52,0.76,1*02
$GNGSA,A,3,68,78,67,79,85,,,,,,,,0.92,0.52,0.76,2*0C
$GNGSA,A,3,06,09,04,31,36,34,05,21,,,,,0.92,0.52,0.76,3*03
$GNGSA,A,3,32,23,20,37,25,41,,,,,,,0.92,0.52,0.76,4*0D
$GPGSV,3,1,12,04,82,060,37,09,63,298,37,16,46,101,36,03,36,173,34,1*66
$GPGSV,3,2,12,26,35,059,33,07,33,238,32,48,33,182,32,06,20,279,28,1*63
$GPGSV,3,3,12,31,19,059,31,11,14,318,27,29,03,016,20,20,02,328,28,1*67
$GLGSV,2,1,06,68,78,006,31,78,68,162,23,67,41,118,29,79,19,198,24,1*7A
$GLGSV,2,2,06,84,14,292,,85,13,344,25,1*75
$GAGSV,3,1,10,06,79,075,34,09,72,305,34,04,52,096,31,31,37,150,29,7*77
$GAGSV,3,2,10,36,22,254,26,34,21,308,24,05,19,287,25,21,12,033,23,7*7E
$GAGSV,3,3,10,24,01,186,08,11,01,211,11,7*71
$GBGSV,3,1,09,32,81,179,40,23,71,118,39,20,36,306,38,37,36,204,36,1*70
$GBGSV,3,2,09,25,29,052,36,41,27,135,34,38,03,332,25,04,01,262,,1*7E
$GBGSV,3,3,09,35,01,338,,1*40
$GNRMC,180702.000,A,4910.426626,N,12304.401804,W,0.01,0.00,051224,,,D,V*13
$GNVTG,0.00,T,,M,0.01,N,0.01,K,D*26
$GNGGA,180703.000,4910.426626,N,12304.401792,W,2,28,0.52,8.568,M,-16.817,M,,*47
$GNGLL,4910.426626,N,12304.401792,W,180703.000,A,D*5E
$GNGSA,A,3,04,09,16,03,26,07,06,31,11,,,,0.93,0.52,0.77,1*02
$GNGSA,A,3,68,78,67,79,85,,,,,,,,0.93,0.52,0.77,2*0C
$GNGSA,A,3,06,09,04,31,36,34,05,21,,,,,0.93,0.52,0.77,3*03
$GNGSA,A,3,32,23,20,37,25,41,,,,,,,0.93,0.52,0.77,4*0D
$GPGSV,3,1,12,04,82,060,37,09,63,298,37,16,46,101,36,03,36,173,34,1*66
$GPGSV,3,2,12,26,35,059,33,07,33,238,32,48,33,182,32,06,20,279,28,1*63
$GPGSV,3,3,12,31,19,059,31,11,14,318,27,29,03,016,20,20,02,328,28,1*67
$GLGSV,2,1,06,68,78,006,31,78,68,162,23,67,41,118,28,79,19,198,24,1*7B
$GLGSV,2,2,06,84,14,292,,85,13,344,25,1*75
$GAGSV,3,1,10,06,79,075,34,09,72,305,34,04,52,096,31,31,37,150,29,7*77
$GAGSV,3,2,10,36,22,254,26,34,21,308,24,05,19,287,26,21,12,033,23,7*7D
$GAGSV,3,3,10,24,01,186,09,11,01,211,12,7*73
$GBGSV,3,1,09,32,81,179,40,23,71,118,39,20,36,306,38,37,36,204,36,1*70
$GBGSV,3,2,09,25,29,052,36,41,27,135,34,38,03,332,25,04,01,262,,1*7E
$GBGSV,3,3,09,35,01,338,,1*40
$GNRMC,180703.000,A,4910.426626,N,12304.401792,W,0.01,0.00,051224,,,D,V*12
$GNVTG,0.00,T,,M,0.01,N,0.01,K,D*26
$GNGGA,180704.000,4910.426620,N,12304.401774,W,2,28,0.52,8.568,M,-16.817,M,,*4E
$GNGLL,4910.426620,N,12304.401774,W,180704.000,A,D*57
$GNGSA,A,3,04,09,16,03,26,07,06,31,11,,,,0.92,0.52,0.76,1*02
$GNGSA,A,3,68,78,67,79,85,,,,,,,,0.92,0.52,0.76,2*0C
$GNGSA,A,3,06,09,04,31,36,34,05,21,,,,,0.92,0.52,0.76,3*03
$GNGSA,A,3,32,23,20,37,25,41,,,,,,,0.92,0.52,0.76,4*0D
$GPGSV,3,1,12,04,82,060,37,09,63,298,37,16,46,101,36,03,36,173,34,1*66
$GPGSV,3,2,12,26,35,059,33,07,33,238,32,48,33,182,32,06,20,279,27,1*6C
$GPGSV,3,3,12,31,19,059,31,11,14,318,27,29,03,016,20,20,02,328,27,1*68
$GLGSV,2,1,06,68,78,006,31,78,68,162,23,67,41,118,28,79,19,198,24,1*7B
$GLGSV,2,2,06,84,14,292,,85,13,344,25,1*75
$GAGSV,3,1,10,06,79,075,34,09,72,305,34,04,52,096,31,31,37,150,29,7*77
$GAGSV,3,2,10,36,22,254,26,34,21,308,24,05,19,287,26,21,12,033,23,7*7D
$GAGSV,3,3,10,24,01,186,10,11,01,211,12,7*7B
$GBGSV,3,1,09,32,81,179,40,23,71,118,39,20,36,306,38,37,36,204,36,1*70
$GBGSV,3,2,09,25,29,052,36,41,27,135,34,38,03,332,26,04,01,262,,1*7D
$GBGSV,3,3,09,35,01,338,,1*40
$GNRMC,180704.000,A,4910.426620,N,12304.401774,W,0.01,0.00,051224,,,D,V*1B
$GNVTG,0.00,T,,M,0.01,N,0.01,K,D*26
$GNGGA,180705.000,4910.426602,N,12304.401720,W,2,28,0.52,8.589,M,-16.816,M,,*40
$GNGLL,4910.426602,N,12304.401720,W,180705.000,A,D*57
$GNGSA,A,3,04,09,16,03,26,07,06,31,11,,,,0.92,0.52,0.76,1*02
$GNGSA,A,3,68,78,67,79,85,,,,,,,,0.92,0.52,0.76,2*0C
$GNGSA,A,3,06,09,04,31,36,34,05,21,,,,,0.92,0.52,0.76,3*03
$GNGSA,A,3,32,23,20,37,25,41,,,,,,,0.92,0.52,0.76,4*0D
$GPGSV,3,1,12,04,82,060,37,09,63,298,37,16,46,101,36,03,36,173,34,1*66
$GPGSV,3,2,12,26,35,059,33,07,33,238,32,48,33,182,32,06,20,279,27,1*6C
$GPGSV,3,3,12,31,19,059,31,11,14,318,27,29,03,016,20,20,02,328,27,1*68
$GLGSV,2,1,06,68,78,006,31,78,68,162,23,67,41,118,28,79,19,198,24,1*7B
$GLGSV,2,2,06,84,14,292,,85,13,344,25,1*75
$GAGSV,3,1,10,06,79,075,34,09,72,305,34,04,52,096,31,31,37,150,29,7*77
$GAGSV,3,2,10,36,22,254,26,34,21,308,24,05,19,287,26,21,12,033,23,7*7D
$GAGSV,3,3,10,24,01,186,10,11,01,211,12,7*7B
$GBGSV,3,1,09,32,81,179,40,23,71,118,39,20,36,306,38,37,36,204,36,1*70
$GBGSV,3,2,09,25,29,052,36,41,27,135,34,38,03,332,26,04,01,262,,1*7D
$GBGSV,3,3,09,35,01,338,,1*40
$GNRMC,180705.000,A,4910.426602,N,12304.401720,W,0.01,0.00,051224,,,D,V*1B
$GNVTG,0.00,T,,M,0.01,N,0.01,K,D*26
$GNGGA,180706.000,4910.426632,N,12304.401672,W,2,28,0.52,8.619,M,-16.816,M,,*4C
$GNGLL,4910.426632,N,12304.401672,W,180706.000,A,D*51
$GNGSA,A,3,04,09,16,03,26,07,06,31,11,,,,0.92,0.52,0.76,1*02
$GNGSA,A,3,68,78,67,79,85,,,,,,,,0.92,0.52,0.76,2*0C
$GNGSA,A,3,06,09,04,31,36,34,05,21,,,,,0.92,0.52,0.76,3*03
$GNGSA,A,3,32,23,20,37,25,41,,,,,,,0.92,0.52,0.76,4*0D
$GPGSV,3,1,12,04,82,060,37,09,63,298,37,16,46,101,36,03,36,173,34,1*66
$GPGSV,3,2,12,26,35,059,33,07,33,238,32,48,33,182,32,06,20,279,27,1*6C
$GPGSV,3,3,12,31,19,059,31,11,14,318,27,29,03,016,19,20,02,328,26,1*63
$GLGSV,2,1,06,68,78,006,31,78,68,162,23,67,41,118,28,79,19,198,24,1*7B
$GLGSV,2,2,06,84,14,292,,85,13,344,25,1*75
$GAGSV,3,1,11,06,79,075,34,09,72,305,34,04,52,096,31,31,37,150,29,7*76
$GAGSV,3,2,11,36,22,254,26,34,21,308,24,05,19,287,25,21,12,033,23,7*7F
$GAGSV,3,3,11,24,01,186,10,15,01,352,,11,01,211,12,7*4B
$GBGSV,3,1,09,32,81,179,40,23,71,118,39,20,36,306,38,37,36,204,36,1*70
$GBGSV,3,2,09,25,29,052,36,41,27,135,34,38,03,332,26,04,01,262,,1*7D
$GBGSV,3,3,09,35,01,338,,1*40
$GNRMC,180706.000,A,4910.426632,N,12304.401672,W,0.01,0.00,051224,,,D,V*1D
$GNVTG,0.00,T,,M,0.01,N,0.01,K,D*26
$GNGGA,180707.000,4910.426650,N,12304.401576,W,2,28,0.52,8.701,M,-16.817,M,,*47
$GNGLL,4910.426650,N,12304.401576,W,180707.000,A,D*53
$GNGSA,A,3,04,09,16,03,26,07,06,31,11,,,,0.92,0.52,0.76,1*02
$GNGSA,A,3,68,78,67,79,85,,,,,,,,0.92,0.52,0.76,2*0C
$GNGSA,A,3,06,09,04,31,36,34,05,21,,,,,0.92,0.52,0.76,3*03
$GNGSA,A,3,32,23,20,37,25,41,,,,,,,0.92,0.52,0.76,4*0D
$GPGSV,3,1,12,04,82,060,37,09,63,298,37,16,46,101,36,03,36,173,34,1*66
$GPGSV,3,2,12,26,35,059,33,07,33,238,32,48,33,182,32,06,20,279,27,1*6C
$GPGSV,3,3,12,31,19,059,31,11,14,318,27,29,03,016,19,20,02,328,26,1*63
$GLGSV,2,1,06,68,78,006,31,78,68,162,23,67,41,118,28,79,19,198,24,1*7B
$GLGSV,2,2,06,84,14,292,,85,13,344,25,1*75
$GAGSV,3,1,11,06,79,075,34,09,72,305,34,04,52,096,31,31,37,150,29,7*76
$GAGSV,3,2,11,36,22,254,26,34,21,308,24,05,19,287,25,21,12,033,23,7*7F
$GAGSV,3,3,11,24,01,186,11,15,01,352,,11,01,211,12,7*4A
$GBGSV,3,1,09,32,81,179,40,23,71,118,39,20,36,306,38,37,36,204,36,1*70
$GBGSV,3,2,09,25,29,052,36,41,27,135,34,38,03,332,26,04,01,262,,1*7D
$GBGSV,3,3,09,35,01,338,,1*40
$GNRMC,180707.000,A,4910.426650,N,12304.401576,W,0.02,0.00,051224,,,D,V*1C
$GNVTG,0.00,T,,M,0.02,N,0.03,K,D*27
$GNGGA,180708.000,4910.426668,N,12304.401588,W,2,28,0.52,8.748,M,-16.816,M,,*4E
$GNGLL,4910.426668,N,12304.401588,W,180708.000,A,D*56
$GNGSA,A,3,04,09,16,03,26,07,06,31,11,,,,0.92,0.52,0.76,1*02
$GNGSA,A,3,68,78,67,79,85,,,,,,,,0.92,0.52,0.76,2*0C
$GNGSA,A,3,06,09,04,31,36,34,05,21,,,,,0.92,0.52,0.76,3*03
$GNGSA,A,3,32,23,20,37,25,41,,,,,,,0.92,0.52,0.76,4*0D
$GPGSV,3,1,12,04,82,060,37,09,63,298,37,16,46,101,36,03,36,173,34,1*66
$GPGSV,3,2,12,26,35,059,32,07,33,238,32,48,33,182,32,06,20,279,26,1*6C
$GPGSV,3,3,12,31,19,059,31,11,14,318,26,29,03,016,18,20,02,328,26,1*63
$GLGSV,2,1,06,68,78,006,31,78,68,162,23,67,41,118,28,79,19,198,24,1*7B
$GLGSV,2,2,06,84,14,292,,85,13,344,25,1*75
$GAGSV,3,1,11,06,79,075,34,09,72,305,34,04,52,096,31,31,37,150,29,7*76
$GAGSV,3,2,11,36,22,254,26,34,21,308,24,05,19,287,25,21,12,033,23,7*7F
$GAGSV,3,3,11,24,01,186,11,15,01,352,,11,01,211,13,7*4B
$GBGSV,3,1,09,32,81,179,40,23,71,118,39,20,36,306,38,37,36,204,36,1*70
$GBGSV,3,2,09,25,29,052,36,41,27,135,34,38,03,332,26,04,01,262,,1*7D
$GBGSV,3,3,09,35,01,338,,1*40
$GNRMC,180708.000,A,4910.426668,N,12304.401588,W,0.02,0.00,051224,,,D,V*19
$GNVTG,0.00,T,,M,0.02,N,0.03,K,D*27
$GNGGA,180709.000,4910.426722,N,12304.401558,W,2,28,0.52,8.837,M,-16.816,M,,*4A
$GNGLL,4910.426722,N,12304.401558,W,180709.000,A,D*55
$GNGSA,A,3,04,09,16,03,26,07,06,31,11,,,,0.93,0.52,0.77,1*02
$GNGSA,A,3,68,78,67,79,85,,,,,,,,0.93,0.52,0.77,2*0C
$GNGSA,A,3,06,09,04,31,36,34,05,21,,,,,0.93,0.52,0.77,3*03
$GNGSA,A,3,32,23,20,37,25,41,,,,,,,0.93,0.52,0.77,4*0D
$GPGSV,3,1,12,04,82,060,37,09,63,298,37,16,46,101,36,03,36,173,34,1*66
$GPGSV,3,2,12,26,35,059,32,07,33,238,32,48,33,182,32,06,20,279,25,1*6F
$GPGSV,3,3,12,31,19,059,30,11,14,318,26,29,03,016,18,20,02,328,26,1*62
$GLGSV,2,1,06,68,78,006,31,78,68,162,23,67,41,118,28,79,19,198,24,1*7B
$GLGSV,2,2,06,84,14,292,,85,13,344,25,1*75
$GAGSV,3,1,11,06,79,075,34,09,72,305,34,04,52,096,31,31,37,150,29,7*76
$GAGSV,3,2,11,36,22,254,26,34,21,308,24,05,19,287,25,21,12,033,22,7*7E
$GAGSV,3,3,11,24,01,186,10,15,01,352,,11,01,211,12,7*4B
$GBGSV,3,1,09,32,81,179,40,23,71,118,39,20,36,306,38,37,36,204,36,1*70
$GBGSV,3,2,09,25,29,052,36,41,27,135,34,38,03,332,26,04,01,262,,1*7D
$GBGSV,3,3,09,35,01,338,,1*40
$GNRMC,180709.000,A,4910.426722,N,12304.401558,W,0.02,0.00,051224,,,D,V*1A
$GNVTG,0.00,T,,M,0.02,N,0.03,K,D*27
$GNGGA,180710.000,4910.426764,N,12304.401576,W,2,28,0.52,8.882,M,-16.817,M,,*43
$GNGLL,4910.426764,N,12304.401576,W,180710.000,A,D*53
$GNGSA,A,3,04,09,16,03,26,07,06,31,11,,,,0.92,0.52,0.76,1*02
$GNGSA,A,3,68,78,67,79,85,,,,,,,,0.92,0.52,0.76,2*0C
$GNGSA,A,3,06,09,04,31,36,34,05,21,,,,,0.92,0.52,0.76,3*03
$GNGSA,A,3,32,23,20,37,25,41,,,,,,,0.92,0.52,0.76,4*0D
$GPGSV,3,1,12,04,82,060,37,09,63,298,37,16,46,101,36,03,36,173,34,1*66
$GPGSV,3,2,12,26,35,059,32,07,33,238,32,48,33,182,32,06,20,279,25,1*6F
$GPGSV,3,3,12,31,19,059,30,11,14,318,26,29,03,016,18,20,02,328,26,1*62
$GLGSV,2,1,06,68,78,006,31,78,68,162,23,67,41,118,28,79,19,198,24,1*7B
$GLGSV,2,2,06,84,14,292,,85,13,344,26,1*76
$GAGSV,3,1,11,06,79,075,34,09,72,305,34,04,52,096,31,31,37,150,29,7*76
$GAGSV,3,2,11,36,22,254,26,34,21,308,24,05,19,287,25,21,12,033,22,7*7E
$GAGSV,3,3,11,24,01,186,10,15,01,352,,11,01,211,11,7*48
$GBGSV,3,1,09,32,81,179,40,23,71,118,39,20,36,306,38,37,36,204,36,1*70
$GBGSV,3,2,09,25,29,052,36,41,27,135,34,38,03,332,26,04,01,262,,1*7D
$GBGSV,3,3,09,35,01,338,,1*40
$GNRMC,180710.000,A,4910.426764,N,12304.401576,W,0.01,0.00,051224,,,D,V*1F
$GNVTG,0.00,T,,M,0.01,N,0.02,K,D*25
$GNGGA,180711.000,4910.426770,N,12304.401588,W,2,28,0.52,8.962,M,-16.816,M,,*48
$GNGLL,4910.426770,N,12304.401588,W,180711.000,A,D*56
$GNGSA,A,3,04,09,16,03,26,07,06,31,11,,,,0.92,0.52,0.76,1*02
$GNGSA,A,3,68,78,67,79,85,,,,,,,,0.92,0.52,0.76,2*0C
$GNGSA,A,3,06,09,04,31,36,34,05,21,,,,,0.92,0.52,0.76,3*03
$GNGSA,A,3,32,23,20,37,25,41,,,,,,,0.92,0.52,0.76,4*0D
$GPGSV,3,1,12,04,82,060,37,09,63,298,37,16,46,101,36,03,36,173,34,1*66
$GPGSV,3,2,12,26,35,059,32,07,33,238,32,48,33,182,32,06,20,279,25,1*6F
$GPGSV,3,3,12,31,19,059,30,11,14,318,26,29,03,016,18,20,02,328,26,1*62
$GLGSV,2,1,06,68,78,006,32,78,68,162,23,67,41,118,29,79,19,198,24,1*79
$GLGSV,2,2,06,84,14,292,,85,13,344,26,1*76
$GAGSV,3,1,11,06,79,075,34,09,72,305,34,04,52,096,31,31,37,150,29,7*76
$GAGSV,3,2,11,36,22,254,26,34,21,308,24,05,19,287,25,21,11,033,22,7*7D
$GAGSV,3,3,11,24,01,186,10,15,01,352,,11,01,211,10,7*49
$GBGSV,3,1,09,32,81,179,40,23,71,118,39,20,36,306,37,37,36,204,35,1*7C
$GBGSV,3,2,09,25,29,052,36,41,27,135,33,38,03,332,25,04,01,262,,1*79
$GBGSV,3,3,09,35,01,338,,1*40
$GNRMC,180711.000,A,4910.426770,N,12304.401588,W,0.01,0.00,051224,,,D,V*1A
$GNVTG,0.00,T,,M,0.01,N,0.02,K,D*25
$GNGGA,180712.000,4910.426788,N,12304.401600,W,2,28,0.52,9.000,M,-16.817,M,,*42
$GNGLL,4910.426788,N,12304.401600,W,180712.000,A,D*51
$GNGSA,A,3,04,09,16,03,26,07,06,31,11,,,,0.92,0.52,0.76,1*02
$GNGSA,A,3,68,78,67,79,85,,,,,,,,0.92,0.52,0.76,2*0C
$GNGSA,A,3,06,09,04,31,36,34,05,21,,,,,0.92,0.52,0.76,3*03
$GNGSA,A,3,32,23,20,37,25,41,,,,,,,0.92,0.52,0.76,4*0D
$GPGSV,3,1,12,04,82,060,37,09,63,298,37,16,46,101,36,03,36,173,34,1*66
$GPGSV,3,2,12,26,35,059,32,07,33,238,32,48,33,182,32,06,20,279,25,1*6F
$GPGSV,3,3,12,31,19,059,30,11,14,318,25,29,03,016,18,20,02,328,26,1*61
$GLGSV,2,1,06,68,78,006,32,78,68,162,23,67,41,118,29,79,19,198,24,1*79
$GLGSV,2,2,06,84,14,292,,85,13,344,26,1*76
$GAGSV,3,1,11,06,79,075,34,09,72,305,34,04,52,096,31,31,37,150,29,7*76
$GAGSV,3,2,11,36,22,254,26,34,21,308,24,05,19,287,25,21,11,033,22,7*7D
$GAGSV,3,3,11,24,01,186,11,15,01,352,,11,01,211,11,7*49
$GBGSV,3,1,09,32,81,179,39,23,71,118,39,20,36,306,37,37,36,204,35,1*72
$GBGSV,3,2,09,25,29,052,36,41,27,135,33,38,03,332,25,04,01,262,,1*79
$GBGSV,3,3,09,35,01,338,,1*40
$GNRMC,180712.000,A,4910.426788,N,12304.401600,W,0.01,0.00,051224,,,D,V*1D
$GNVTG,0.00,T,,M,0.01,N,0.01,K,D*26
$GNGGA,180713.000,4910.426764,N,12304.401498,W,2,28,0.52,9.090,M,-16.816,M,,*4A
$GNGLL,4910.426764,N,12304.401498,W,180713.000,A,D*51
$GNGSA,A,3,04,09,16,03,26,07,06,31,11,,,,0.92,0.52,0.76,1*02
$GNGSA,A,3,68,78,67,79,85,,,,,,,,0.92,0.52,0.76,2*0C
$GNGSA,A,3,06,09,04,31,36,34,05,21,,,,,0.92,0.52,0.76,3*03
$GNGSA,A,3,32,23,20,37,25,41,,,,,,,0.92,0.52,0.76,4*0D
$GPGSV,3,1,12,04,82,060,37,09,63,298,37,16,46,101,36,03,36,173,33,1*61
$GPGSV,3,2,12,26,35,059,32,07,33,238,32,48,33,182,32,06,20,279,25,1*6F
$GPGSV,3,3,12,31,19,059,29,11,14,318,25,29,03,016,18,20,02,328,25,1*6A
$GLGSV,2,1,06,68,78,006,32,78,68,162,23,67,41,118,29,79,19,198,24,1*79
$GLGSV,2,2,06,84,14,292,,85,13,344,27,1*77
$GAGSV,3,1,11,06,79,075,34,09,72,305,34,04,52,096,31,31,37,150,29,7*76
$GAGSV,3,2,11,36,22,254,25,34,21,308,24,05,19,287,24,21,11,033,22,7*7F
$GAGSV,3,3,11,24,01,186,11,15,01,352,,11,01,211,11,7*49
$GBGSV,3,1,09,32,81,179,39,23,71,118,39,20,36,306,37,37,36,204,35,1*72
$GBGSV,3,2,09,25,29,052,36,41,27,135,33,38,03,332,25,04,01,262,,1*79
$GBGSV,3,3,09,35,01,338,,1*40
$GNRMC,180713.000,A,4910.426764,N,12304.401498,W,0.01,0.00,051224,,,D,V*1D
$GNVTG,0.00,T,,M,0.01,N,0.02,K,D*25
$GNGGA,180714.000,4910.426776,N,12304.401450,W,2,28,0.52,9.154,M,-16.816,M,,*43
$GNGLL,4910.426776,N,12304.401450,W,180714.000,A,D*51
$GNGSA,A,3,04,09,16,03,26,07,06,31,11,,,,0.92,0.52,0.76,1*02
$GNGSA,A,3,68,78,67,79,85,,,,,,,,0.92,0.52,0.76,2*0C
$GNGSA,A,3,06,09,04,31,36,34,05,21,,,,,0.92,0.52,0.76,3*03
$GNGSA,A,3,32,23,20,37,25,41,,,,,,,0.92,0.52,0.76,4*0D
$GPGSV,3,1,12,04,82,060,37,09,63,298,37,16,46,101,36,03,36,173,34,1*66
$GPGSV,3,2,12,26,35,059,32,07,33,238,32,48,33,182,32,06,20,279,25,1*6F
$GPGSV,3,3,12,31,19,059,29,11,14,318,26,29,03,016,18,20,02,328,26,1*6A
$GLGSV,2,1,06,68,78,006,32,78,68,162,23,67,41,118,29,79,19,198,24,1*79
$GLGSV,2,2,06,84,14,292,,85,13,344,27,1*77
$GAGSV,3,1,11,06,79,075,34,09,72,305,34,04,52,096,31,31,37,150,29,7*76
$GAGSV,3,2,11,36,22,254,26,34,21,308,24,05,19,287,25,21,11,033,22,7*7D
$GAGSV,3,3,11,24,02,186,11,15,01,352,,11,01,211,11,7*4A
$GBGSV,3,1,09,32,81,179,39,23,71,118,39,20,36,306,37,37,36,204,35,1*72
$GBGSV,3,2,09,25,29,052,36,41,27,135,33,38,03,332,25,04,01,262,,1*79
$GBGSV,3,3,09,35,01,338,,1*40
$GNRMC,180714.000,A,4910.426776,N,12304.401450,W,0.01,0.00,051224,,,D,V*1D
$GNVTG,0.00,T,,M,0.01,N,0.03,K,D*24
$GNGGA,180715.000,4910.426824,N,12304.401426,W,2,28,0.52,9.156,M,-16.816,M,,*49
$GNGLL,4910.426824,N,12304.401426,W,180715.000,A,D*59
$GNGSA,A,3,04,09,16,03,26,07,06,31,11,,,,0.92,0.52,0.76,1*02
$GNGSA,A,3,68,78,67,79,85,,,,,,,,0.92,0.52,0.76,2*0C
$GNGSA,A,3,06,09,04,31,36,34,05,21,,,,,0.92,0.52,0.76,3*03
$GNGSA,A,3,32,23,20,37,25,41,,,,,,,0.92,0.52,0.76,4*0D
$GPGSV,3,1,12,04,82,060,38,09,63,298,38,16,46,101,37,03,36,173,34,1*67
$GPGSV,3,2,12,26,35,059,32,07,33,238,33,48,33,182,33,06,20,279,26,1*6C
$GPGSV,3,3,12,31,19,059,29,11,14,318,27,29,03,016,18,20,02,328,26,1*6B
$GLGSV,2,1,06,68,78,006,32,78,68,162,23,67,41,118,29,79,19,198,24,1*79
$GLGSV,2,2,06,84,14,292,,85,13,344,27,1*77
$GAGSV,3,1,11,06,79,075,34,09,72,305,34,04,52,096,32,31,37,150,30,7*7D
$GAGSV,3,2,11,36,22,254,26,34,21,308,24,05,19,287,25,21,11,033,22,7*7D
$GAGSV,3,3,11,24,02,186,11,15,01,352,,11,01,211,11,7*4A
$GBGSV,3,1,09,32,81,179,39,23,71,118,39,20,36,306,37,37,36,204,35,1*72
$GBGSV,3,2,09,25,29,052,36,41,27,135,33,38,03,332,25,04,01,262,,1*79
$GBGSV,3,3,09,35,01,338,,1*40
$GNRMC,180715.000,A,4910.426824,N,12304.401426,W,0.02,0.00,051224,,,D,V*16
$GNVTG,0.00,T,,M,0.02,N,0.04,K,D*20
$GNGGA,180716.000,4910.426812,N,12304.401408,W,2,28,0.52,9.198,M,-16.817,M,,*40
$GNGLL,4910.426812,N,12304.401408,W,180716.000,A,D*53
$GNGSA,A,3,04,09,16,03,26,07,06,31,11,,,,0.92,0.52,0.76,1*02
$GNGSA,A,3,68,78,67,79,85,,,,,,,,0.92,0.52,0.76,2*0C
$GNGSA,A,3,06,09,04,31,36,34,05,21,,,,,0.92,0.52,0.76,3*03
$GNGSA,A,3,32,23,20,37,25,41,,,,,,,0.92,0.52,0.76,4*0D
$GPGSV,3,1,12,04,82,060,38,09,63,298,38,16,46,101,37,03,36,173,35,1*66
$GPGSV,3,2,12,26,35,059,33,07,33,238,34,48,33,182,33,06,20,279,26,1*6A
$GPGSV,3,3,12,31,19,059,30,11,14,318,27,29,03,016,18,20,02,328,27,1*62
$GLGSV,2,1,06,68,78,006,32,78,68,162,23,67,41,118,29,79,19,198,24,1*79
$GLGSV,2,2,06,84,14,292,,85,13,344,27,1*77
$GAGSV,3,1,11,06,79,075,35,09,72,305,34,04,52,096,32,31,37,150,30,7*7C
$GAGSV,3,2,11,36,22,254,27,34,21,308,25,05,19,287,26,21,11,033,23,7*7F
$GAGSV,3,3,11,24,02,186,11,15,01,352,,11,01,211,11,7*4A
$GBGSV,3,1,09,32,81,179,40,23,71,118,39,20,36,306,38,37,36,204,35,1*73
$GBGSV,3,2,09,25,29,052,36,41,27,135,33,38,03,332,25,04,01,262,,1*79
$GBGSV,3,3,09,35,01,338,,1*40
$GNRMC,180716.000,A,4910.426812,N,12304.401408,W,0.02,0.00,051224,,,D,V*1C
$GNVTG,0.00,T,,M,0.02,N,0.04,K,D*20
$GNGGA,180717.000,4910.426776,N,12304.401342,W,2,28,0.52,9.258,M,-16.816,M,,*4B
$GNGLL,4910.426776,N,12304.401342,W,180717.000,A,D*56
$GNGSA,A,3,04,09,16,03,26,07,06,31,11,,,,0.92,0.52,0.76,1*02
$GNGSA,A,3,68,78,67,79,85,,,,,,,,0.92,0.52,0.76,2*0C
$GNGSA,A,3,06,09,04,31,36,34,05,21,,,,,0.92,0.52,0.76,3*03
$GNGSA,A,3,32,23,20,37,25,41,,,,,,,0.92,0.52,0.76,4*0D
$GPGSV,3,1,12,04,82,060,38,09,63,298,38,16,46,101,37,03,36,173,35,1*66
$GPGSV,3,2,12,26,35,059,33,07,33,238,34,48,33,182,33,06,20,279,26,1*6A
$GPGSV,3,3,12,31,19,059,30,11,14,318,27,29,03,016,18,20,02,328,25,1*60
$GLGSV,2,1,06,68,78,006,32,78,68,162,23,67,41,118,29,79,19,198,23,1*7E
$GLGSV,2,2,06,84,14,292,,85,13,344,27,1*77
$GAGSV,3,1,11,06,79,075,35,09,72,305,34,04,52,096,32,31,37,150,31,7*7D
$GAGSV,3,2,11,36,22,254,27,34,21,308,25,05,19,287,26,21,11,033,23,7*7F
$GAGSV,3,3,11,24,02,186,11,15,01,352,,11,01,211,12,7*49
$GBGSV,3,1,09,32,81,179,40,23,71,118,39,20,36,306,38,37,36,204,35,1*73
$GBGSV,3,2,09,25,29,052,36,41,27,135,33,38,03,332,25,04,01,262,,1*79
$GBGSV,3,3,09,35,01,338,,1*40
$GNRMC,180717.000,A,4910.426776,N,12304.401342,W,0.02,0.00,051224,,,D,V*19
$GNVTG,0.00,T,,M,0.02,N,0.04,K,D*20
$GNGGA,180718.000,4910.426776,N,12304.401222,W,2,28,0.52,9.277,M,-16.817,M,,*4F
$GNGLL,4910.426776,N,12304.401222,W,180718.000,A,D*5E
$GNGSA,A,3,04,09,16,03,26,07,06,31,11,,,,0.92,0.52,0.76,1*02
$GNGSA,A,3,68,78,67,79,85,,,,,,,,0.92,0.52,0.76,2*0C
$GNGSA,A,3,06,09,04,31,36,34,05,21,,,,,0.92,0.52,0.76,3*03
$GNGSA,A,3,32,23,20,37,25,41,,,,,,,0.92,0.52,0.76,4*0D
$GPGSV,3,1,12,04,82,060,38,09,63,298,38,16,46,101,37,03,36,173,35,1*66
$GPGSV,3,2,12,26,35,059,33,07,33,238,34,48,33,182,33,06,20,279,24,1*68
$GPGSV,3,3,12,31,19,059,30,11,14,318,26,29,03,016,18,20,02,328,26,1*62
$GLGSV,2,1,06,68,78,006,32,78,68,162,23,67,41,118,29,79,19,198,24,1*79
$GLGSV,2,2,06,84,14,292,,85,13,344,27,1*77
$GAGSV,3,1,11,06,79,075,34,09,72,305,34,04,52,096,32,31,37,150,30,7*7D
$GAGSV,3,2,11,36,22,254,27,34,21,308,25,05,19,287,26,21,11,033,23,7*7F
$GAGSV,3,3,11,24,02,186,11,15,01,352,,11,01,211,12,7*49
$GBGSV,3,1,09,32,81,179,40,23,71,118,39,20,36,306,38,37,36,204,35,1*73
$GBGSV,3,2,09,25,29,052,36,41,27,135,33,38,03,332,25,04,01,262,,1*79
$GBGSV,3,3,09,35,01,338,,1*40
$GNRMC,180718.000,A,4910.426776,N,12304.401222,W,0.02,0.00,051224,,,D,V*11
$GNVTG,0.00,T,,M,0.02,N,0.04,K,D*20
$GNGGA,180719.000,4910.426746,N,12304.401150,W,2,28,0.52,9.264,M,-16.816,M,,*48
$GNGLL,4910.426746,N,12304.401150,W,180719.000,A,D*5A
$GNGSA,A,3,04,09,16,03,26,07,06,31,11,,,,0.92,0.52,0.76,1*02
$GNGSA,A,3,68,78,67,79,85,,,,,,,,0.92,0.52,0.76,2*0C
$GNGSA,A,3,06,09,04,31,36,34,05,21,,,,,0.92,0.52,0.76,3*03
$GNGSA,A,3,32,23,20,37,25,41,,,,,,,0.92,0.52,0.76,4*0D
$GPGSV,3,1,12,04,82,060,37,09,63,298,37,16,46,101,36,03,36,173,34,1*66
$GPGSV,3,2,12,26,35,059,32,07,33,238,33,48,33,182,32,06,20,279,23,1*68
$GPGSV,3,3,12,31,19,059,29,11,14,318,24,29,03,016,18,20,02,328,25,1*6B
$GLGSV,2,1,06,68,78,006,32,78,68,162,23,67,41,118,29,79,19,198,24,1*79
$GLGSV,2,2,06,84,14,292,,85,13,344,27,1*77
$GAGSV,3,1,11,06,79,075,33,09,72,305,33,04,52,096,31,31,37,150,29,7*76
$GAGSV,3,2,11,36,22,254,26,34,21,308,25,05,19,287,26,21,11,033,22,7*7F
$GAGSV,3,3,11,24,02,186,11,15,01,352,,11,01,211,12,7*49
$GBGSV,3,1,09,32,81,179,40,23,71,118,39,20,36,306,38,37,36,204,35,1*73
$GBGSV,3,2,09,25,29,052,36,41,27,135,33,38,03,332,25,04,01,262,,1*79
$GBGSV,3,3,09,35,01,338,,1*40
$GNRMC,180719.000,A,4910.426746,N,12304.401150,W,0.02,0.00,051224,,,D,V*15
$GNVTG,0.00,T,,M,0.02,N,0.04,K,D*20
$GNGGA,180720.000,4910.426710,N,12304.401078,W,2,28,0.52,9.350,M,-16.816,M,,*4C
$GNGLL,4910.426710,N,12304.401078,W,180720.000,A,D*58
$GNGSA,A,3,04,09,16,03,26,07,06,31,11,,,,0.92,0.52,0.76,1*02
$GNGSA,A,3,68,78,67,79,85,,,,,,,,0.92,0.52,0.76,2*0C
$GNGSA,A,3,06,09,04,31,36,34,05,21,,,,,0.92,0.52,0.76,3*03
$GNGSA,A,3,32,23,20,37,25,41,,,,,,,0.92,0.52,0.76,4*0D
$GPGSV,3,1,12,04,82,060,37,09,63,298,37,16,46,101,36,03,36,173,33,1*61
$GPGSV,3,2,12,26,35,059,32,07,33,238,32,48,33,182,32,06,20,279,23,1*69
$GPGSV,3,3,12,31,19,059,29,11,14,318,24,29,03,016,18,20,02,328,25,1*6B
$GLGSV,2,1,06,68,78,006,32,78,68,162,23,67,41,118,29,79,19,198,24,1*79
$GLGSV,2,2,06,84,14,292,,85,13,344,27,1*77
$GAGSV,3,1,11,06,79,075,33,09,72,305,33,04,52,096,31,31,37,150,29,7*76
$GAGSV,3,2,11,36,22,254,26,34,21,308,25,05,19,287,25,21,11,033,21,7*7F
$GAGSV,3,3,11,24,02,186,11,15,01,352,,11,01,211,11,7*4A
$GBGSV,3,1,09,32,81,179,40,23,71,118,39,20,36,306,38,37,36,204,35,1*73
$GBGSV,3,2,09,25,29,052,36,41,27,135,33,38,03,332,24,04,01,262,,1*78
$GBGSV,3,3,09,35,01,338,,1*40
$GNRMC,180720.000,A,4910.426710,N,12304.401078,W,0.02,0.00,051224,,,D,V*17
$GNVTG,0.00,T,,M,0.02,N,0.04,K,D*20
$GNGGA,180721.000,4910.426716,N,12304.401024,W,2,28,0.52,9.384,M,-16.816,M,,*4B
$GNGLL,4910.426716,N,12304.401024,W,180721.000,A,D*56
$GNGSA,A,3,04,09,16,03,26,07,06,31,11,,,,0.92,0.52,0.76,1*02
$GNGSA,A,3,68,78,67,79,85,,,,,,,,0.92,0.52,0.76,2*0C
$GNGSA,A,3,06,09,04,31,36,34,05,21,,,,,0.92,0.52,0.76,3*03
$GNGSA,A,3,32,23,20,37,25,41,,,,,,,0.92,0.52,0.76,4*0D
$GPGSV,3,1,12,04,82,060,37,09,63,298,37,16,46,101,36,03,36,173,33,1*61
$GPGSV,3,2,12,26,35,059,32,07,33,238,32,48,33,182,32,06,20,279,24,1*6E
$GPGSV,3,3,12,31,19,059,29,11,14,318,25,29,03,016,18,20,02,328,26,1*69
$GLGSV,2,1,06,68,78,006,31,78,68,162,23,67,41,118,29,79,19,198,24,1*7A
$GLGSV,2,2,06,84,14,292,,85,13,344,27,1*77
$GAGSV,3,1,11,06,79,075,33,09,72,305,33,04,52,096,31,31,38,150,29,7*79
$GAGSV,3,2,11,36,22,254,26,34,21,308,25,05,19,287,25,21,11,033,21,7*7F
$GAGSV,3,3,11,24,02,186,11,15,01,352,,11,01,211,11,7*4A
$GBGSV,3,1,09,32,81,179,40,23,71,118,39,20,36,306,38,37,36,204,35,1*73
$GBGSV,3,2,09,25,29,052,36,41,27,135,33,38,03,332,24,04,01,262,,1*78
$GBGSV,3,3,09,35,01,338,,1*40
$GNRMC,180721.000,A,4910.426716,N,12304.401024,W,0.02,0.00,051224,,,D,V*19
$GNVTG,0.00,T,,M,0.02,N,0.04,K,D*20
$GNGGA,180722.000,4910.426662,N,12304.401018,W,2,28,0.52,9.369,M,-16.816,M,,*46
$GNGLL,4910.426662,N,12304.401018,W,180722.000,A,D*58
$GNGSA,A,3,04,09,16,03,26,07,06,31,11,,,,0.92,0.52,0.76,1*02
$GNGSA,A,3,68,78,67,79,85,,,,,,,,0.92,0.52,0.76,2*0C
$GNGSA,A,3,06,09,04,31,36,34,05,21,,,,,0.92,0.52,0.76,3*03
$GNGSA,A,3,32,23,20,37,25,41,,,,,,,0.92,0.52,0.76,4*0D
$GPGSV,3,1,12,04,82,060,38,09,63,298,37,16,46,101,36,03,36,173,34,1*69
$GPGSV,3,2,12,26,35,059,33,07,33,238,33,48,33,182,32,06,20,279,25,1*6F
$GPGSV,3,3,12,31,19,059,29,11,14,318,27,29,03,016,18,20,02,328,27,1*6A
$GLGSV,2,1,06,68,78,006,32,78,68,162,23,67,41,118,29,79,19,198,25,1*78
$GLGSV,2,2,06,84,14,292,,85,13,344,27,1*77
$GAGSV,3,1,11,06,79,075,34,09,72,305,33,04,52,096,32,31,38,150,30,7*75
$GAGSV,3,2,11,36,22,254,26,34,21,308,26,05,19,287,25,21,11,033,22,7*7F
$GAGSV,3,3,11,24,02,186,11,15,01,352,,11,01,211,11,7*4A
$GBGSV,3,1,09,32,81,179,40,23,71,118,39,20,36,306,38,37,36,204,35,1*73
$GBGSV,3,2,09,25,29,052,36,41,27,135,33,38,03,332,24,04,01,262,,1*78
$GBGSV,3,3,09,35,01,338,,1*40
$GNRMC,180722.000,A,4910.426662,N,12304.401018,W,0.02,0.00,051224,,,D,V*17
$GNVTG,0.00,T,,M,0.02,N,0.04,K,D*20
$GNGGA,180723.000,4910.426602,N,12304.401042,W,2,28,0.52,9.471,M,-16.817,M,,*41
$GNGLL,4910.426602,N,12304.401042,W,180723.000,A,D*50
$GNGSA,A,3,04,09,16,03,26,07,06,31,11,,,,0.92,0.52,0.76,1*02
$GNGSA,A,3,68,78,67,79,85,,,,,,,,0.92,0.52,0.76,2*0C
$GNGSA,A,3,06,09,04,31,36,34,05,21,,,,,0.92,0.52,0.76,3*03
$GNGSA,A,3,32,23,20,37,25,41,,,,,,,0.92,0.52,0.76,4*0D
$GPGSV,3,1,12,04,82,060,38,09,63,298,37,16,46,101,36,03,36,173,34,1*69
$GPGSV,3,2,12,26,35,059,33,07,33,238,33,48,33,182,32,06,20,279,24,1*6E
$GPGSV,3,3,12,31,19,059,29,11,14,318,27,29,03,016,18,20,02,328,27,1*6A
$GLGSV,2,1,06,68,78,006,32,78,68,162,23,67,41,118,29,79,19,198,24,1*79
$GLGSV,2,2,06,84,14,292,,85,13,344,27,1*77
$GAGSV,3,1,11,06,79,075,34,09,72,305,33,04,52,096,32,31,38,150,30,7*75
$GAGSV,3,2,11,36,22,254,26,34,21,308,26,05,19,287,26,21,11,033,22,7*7C
$GAGSV,3,3,11,24,02,186,11,15,01,352,,11,01,211,11,7*4A
$GBGSV,3,1,09,32,81,179,40,23,71,118,39,20,36,306,38,37,36,204,35,1*73
$GBGSV,3,2,09,25,29,052,36,41,27,135,33,38,03,332,24,04,01,262,,1*78
$GBGSV,3,3,09,35,01,338,,1*40
$GNRMC,180723.000,A,4910.426602,N,12304.401042,W,0.02,0.00,051224,,,D,V*1F
$GNVTG,0.00,T,,M,0.02,N,0.03,K,D*27
$GNGGA,180724.000,4910.426584,N,12304.401066,W,2,28,0.52,9.578,M,-16.816,M,,*44
$GNGLL,4910.426584,N,12304.401066,W,180724.000,A,D*5C
$GNGSA,A,3,04,09,16,03,26,07,06,31,11,,,,0.92,0.52,0.76,1*02
$GNGSA,A,3,68,78,67,79,85,,,,,,,,0.92,0.52,0.76,2*0C
$GNGSA,A,3,06,09,04,31,36,34,05,21,,,,,0.92,0.52,0.76,3*03
$GNGSA,A,3,32,23,20,37,25,41,,,,,,,0.92,0.52,0.76,4*0D
$GPGSV,3,1,12,04,82,060,38,09,63,298,37,16,46,101,36,03,36,173,34,1*69
$GPGSV,3,2,12,26,35,059,33,07,33,238,33,48,33,182,32,06,20,279,23,1*69
$GPGSV,3,3,12,31,19,059,29,11,14,318,26,29,03,016,18,20,02,328,27,1*6B
$GLGSV,2,1,06,68,78,006,31,78,68,162,24,67,41,118,29,79,19,198,24,1*7D
$GLGSV,2,2,06,84,14,292,,85,13,344,27,1*77
$GAGSV,3,1,11,06,79,075,33,09,72,305,33,04,52,096,32,31,38,150,29,7*7A
$GAGSV,3,2,11,36,22,254,26,34,21,307,26,05,19,287,26,21,11,033,22,7*73
$GAGSV,3,3,11,24,02,186,11,15,01,352,,11,01,211,10,7*4B
$GBGSV,3,1,09,32,81,179,40,23,71,118,39,20,36,306,38,37,36,204,35,1*73
$GBGSV,3,2,09,25,29,052,36,41,27,135,33,38,03,332,24,04,01,262,,1*78
$GBGSV,3,3,09,35,01,338,,1*40
$GNRMC,180724.000,A,4910.426584,N,12304.401066,W,0.02,0.00,051224,,,D,V*13
$GNVTG,0.00,T,,M,0.02,N,0.03,K,D*27
$GNGGA,180725.000,4910.426566,N,12304.401078,W,2,28,0.52,9.690,M,-16.816,M,,*43
$GNGLL,4910.426566,N,12304.401078,W,180725.000,A,D*5E
$GNGSA,A,3,04,09,16,03,26,07,06,31,11,,,,0.92,0.52,0.76,1*02
$GNGSA,A,3,68,78,67,79,85,,,,,,,,0.92,0.52,0.76,2*0C
$GNGSA,A,3,06,09,04,31,36,34,05,21,,,,,0.92,0.52,0.76,3*03
$GNGSA,A,3,32,23,20,37,25,41,,,,,,,0.92,0.52,0.76,4*0D
$GPGSV,3,1,12,04,82,060,38,09,63,298,37,16,46,101,36,03,36,173,34,1*69
$GPGSV,3,2,12,26,35,059,33,07,33,238,33,48,33,182,32,06,20,279,23,1*69
$GPGSV,3,3,12,31,19,059,29,11,14,318,26,29,03,016,18,20,02,328,27,1*6B
$GLGSV,2,1,06,68,78,006,32,78,68,162,25,67,41,118,29,79,19,198,24,1*7F
$GLGSV,2,2,06,84,14,292,,85,13,344,27,1*77
$GAGSV,3,1,11,06,79,075,33,09,72,305,33,04,52,096,32,31,38,150,29,7*7A
$GAGSV,3,2,11,36,22,254,26,34,21,307,25,05,19,287,26,21,11,033,22,7*70
$GAGSV,3,3,11,24,02,186,11,15,01,352,,11,01,211,09,7*43
$GBGSV,3,1,09,32,81,179,40,23,71,118,39,20,36,306,38,37,36,204,35,1*73
$GBGSV,3,2,09,25,29,052,36,41,27,135,33,38,03,332,24,04,01,262,,1*78
$GBGSV,3,3,09,35,01,338,,1*40
$GNRMC,180725.000,A,4910.426566,N,12304.401078,W,0.01,0.00,051224,,,D,V*12
$GNVTG,0.00,T,,M,0.01,N,0.03,K,D*24
$GNGGA,180726.000,4910.426530,N,12304.401072,W,2,28,0.52,9.809,M,-16.816,M,,*47
$GNGLL,4910.426530,N,12304.401072,W,180726.000,A,D*54
$GNGSA,A,3,04,09,16,03,26,07,06,31,11,,,,0.92,0.52,0.76,1*02
$GNGSA,A,3,68,78,67,79,85,,,,,,,,0.92,0.52,0.76,2*0C
$GNGSA,A,3,06,09,04,31,36,34,05,21,,,,,0.92,0.52,0.76,3*03
$GNGSA,A,3,32,23,20,37,25,41,,,,,,,0.92,0.52,0.76,4*0D
$GPGSV,3,1,12,04,82,060,38,09,63,298,37,16,46,101,36,03,36,173,34,1*69
$GPGSV,3,2,12,26,35,059,33,07,33,238,33,48,33,182,32,06,20,279,23,1*69
$GPGSV,3,3,12,31,19,059,29,11,14,318,26,29,03,016,18,20,02,328,27,1*6B
$GLGSV,2,1,06,68,78,006,32,78,68,162,25,67,41,118,29,79,19,198,24,1*7F
$GLGSV,2,2,06,84,14,292,,85,13,344,27,1*77
$GAGSV,3,1,11,06,79,075,33,09,72,305,33,04,52,096,32,31,38,150,29,7*7A
$GAGSV,3,2,11,36,21,253,26,34,21,307,25,05,19,287,26,21,11,033,22,7*74
$GAGSV,3,3,11,24,02,186,11,15,01,352,,11,01,211,09,7*43
$GBGSV,3,1,09,32,81,179,40,23,71,118,39,20,36,306,38,37,36,204,35,1*73
$GBGSV,3,2,09,25,29,052,36,41,27,135,33,38,03,332,24,04,01,262,,1*78
$GBGSV,3,3,09,35,01,338,,1*40
$GNRMC,180726.000,A,4910.426530,N,12304.401072,W,0.01,0.00,051224,,,D,V*18
$GNVTG,0.00,T,,M,0.01,N,0.02,K,D*25
$GNGGA,180727.000,4910.426512,N,12304.401090,W,2,28,0.52,10.011,M,-16.816,M,,*73
$GNGLL,4910.426512,N,12304.401090,W,180727.000,A,D*59
$GNGSA,A,3,04,09,16,03,26,07,06,31,11,,,,0.92,0.52,0.76,1*02
$GNGSA,A,3,68,78,67,79,85,,,,,,,,0.92,0.52,0.76,2*0C
$GNGSA,A,3,06,09,04,31,36,34,05,21,,,,,0.92,0.52,0.76,3*03
$GNGSA,A,3,32,23,20,37,25,41,,,,,,,0.92,0.52,0.76,4*0D
$GPGSV,3,1,12,04,82,060,38,09,63,298,37,16,46,101,36,03,36,173,34,1*69
$GPGSV,3,2,12,26,35,059,33,07,33,238,33,48,33,182,32,06,20,279,24,1*6E
$GPGSV,3,3,12,31,19,059,29,11,14,318,26,29,03,016,18,20,02,328,28,1*64
$GLGSV,2,1,06,68,78,006,31,78,68,162,25,67,41,118,29,79,19,198,24,1*7C
$GLGSV,2,2,06,84,14,292,,85,13,344,26,1*76
$GAGSV,3,1,11,06,79,075,34,09,72,305,33,04,52,096,32,31,38,150,29,7*7D
$GAGSV,3,2,11,36,21,253,26,34,21,307,25,05,19,287,26,21,11,033,22,7*74
$GAGSV,3,3,11,24,02,186,11,15,01,352,,11,01,211,09,7*43
$GBGSV,3,1,09,32,81,179,40,23,71,118,39,20,36,306,38,37,36,204,35,1*73
$GBGSV,3,2,09,25,29,052,36,41,27,135,32,38,03,332,24,04,01,262,,1*79
$GBGSV,3,3,09,35,01,338,,1*40
$GNRMC,180727.000,A,4910.426512,N,12304.401090,W,0.01,0.00,051224,,,D,V*15
$GNVTG,0.00,T,,M,0.01,N,0.03,K,D*24
$GNGGA,180728.000,4910.426488,N,12304.401054,W,2,28,0.52,10.145,M,-16.816,M,,*76
$GNGLL,4910.426488,N,12304.401054,W,180728.000,A,D*5C
$GNGSA,A,3,04,09,16,03,26,07,06,31,11,,,,0.92,0.52,0.76,1*02
$GNGSA,A,3,68,78,67,79,85,,,,,,,,0.92,0.52,0.76,2*0C
$GNGSA,A,3,06,09,04,31,36,34,05,21,,,,,0.92,0.52,0.76,3*03
$GNGSA,A,3,32,23,20,37,25,41,,,,,,,0.92,0.52,0.76,4*0D
$GPGSV,3,1,12,04,82,060,38,09,63,298,38,16,46,101,36,03,36,173,34,1*66
$GPGSV,3,2,12,26,35,059,33,07,33,238,33,48,33,182,32,06,20,279,24,1*6E
$GPGSV,3,3,12,31,19,059,29,11,14,318,26,29,03,016,18,20,02,328,28,1*64
$GLGSV,2,1,06,68,78,006,31,78,68,162,25,67,41,118,30,79,19,198,24,1*74
$GLGSV,2,2,06,84,14,292,,85,13,344,26,1*76
$GAGSV,3,1,11,06,79,075,34,09,72,305,33,04,52,096,32,31,38,150,30,7*75
$GAGSV,3,2,11,36,21,253,26,34,21,307,25,05,19,287,26,21,11,033,22,7*74
$GAGSV,3,3,11,24,02,186,11,15,01,352,,11,01,211,09,7*43
$GBGSV,3,1,09,32,81,179,40,23,71,118,39,20,36,306,38,37,36,204,35,1*73
$GBGSV,3,2,09,25,29,052,36,41,27,135,32,38,03,332,24,04,01,262,,1*79
$GBGSV,3,3,09,35,01,338,,1*40
$GNRMC,180728.000,A,4910.426488,N,12304.401054,W,0.01,0.00,051224,,,D,V*10
$GNVTG,0.00,T,,M,0.01,N,0.02,K,D*25
$GNGGA,180729.000,4910.426470,N,12304.401048,W,2,28,0.52,10.231,M,-16.817,M,,*7C
$GNGLL,4910.426470,N,12304.401048,W,180729.000,A,D*57
$GNGSA,A,3,04,09,16,03,26,07,06,31,11,,,,0.92,0.52,0.76,1*02
$GNGSA,A,3,68,78,67,79,85,,,,,,,,0.92,0.52,0.76,2*0C
$GNGSA,A,3,06,09,04,31,36,34,05,21,,,,,0.92,0.52,0.76,3*03
$GNGSA,A,3,32,23,20,37,25,41,,,,,,,0.92,0.52,0.76,4*0D
$GPGSV,3,1,12,04,82,060,38,09,63,298,38,16,46,101,37,03,36,173,34,1*67
$GPGSV,3,2,12,26,35,059,34,07,33,238,33,48,33,182,33,06,20,279,24,1*68
$GPGSV,3,3,12,31,19,059,29,11,14,318,26,29,03,016,18,20,02,328,28,1*64
$GLGSV,2,1,06,68,78,006,31,78,68,162,25,67,40,119,30,79,19,198,24,1*74
$GLGSV,2,2,06,84,14,292,,85,13,344,26,1*76
$GAGSV,3,1,11,06,79,075,34,09,72,305,33,04,52,096,32,31,38,150,30,7*75
$GAGSV,3,2,11,36,21,253,26,34,21,307,25,05,19,287,26,21,11,033,22,7*74
$GAGSV,3,3,11,24,02,186,11,15,01,352,,11,01,211,09,7*43
$GBGSV,3,1,09,32,81,179,40,23,71,118,39,20,36,306,38,37,36,204,35,1*73
