$GNGGA,004858.000,4910.427424,N,12304.398036,W,2,31,0.52,-3.426,M,-16.816,M,,*60
$GNGLL,4910.427424,N,12304.398036,W,004858.000,A,D*5D
$GNGSA,A,3,12,06,11,19,24,25,17,03,32,,,,0.92,0.52,0.75,1*07
$GNGSA,A,3,86,76,87,85,69,68,,,,,,,0.92,0.52,0.75,2*00
$GNGSA,A,3,24,12,10,25,11,33,31,03,08,,,,0.92,0.52,0.75,3*07
$GNGSA,A,3,35,26,24,29,44,45,39,,,,,,0.92,0.52,0.75,4*0E
$GPGSV,3,1,11,12,63,299,30,06,61,095,27,11,49,165,26,19,45,063,23,1*6F
$GPGSV,3,2,11,24,40,219,28,46,33,188,28,25,23,299,19,17,16,067,25,1*65
$GPGSV,3,3,11,03,09,027,15,32,08,312,23,20,04,152,,1*57
$GLGSV,2,1,07,86,69,050,36,76,61,141,36,87,56,209,34,85,14,037,27,1*73
$GLGSV,2,2,07,69,10,002,26,78,08,319,,68,06,316,18,1*4E
$GAGSV,3,1,10,24,71,111,30,12,60,103,26,10,55,152,28,25,53,298,28,7*74
$GAGSV,3,2,10,11,34,180,21,33,23,041,25,31,18,115,19,03,11,274,10,7*78
$GAGSV,3,3,10,08,11,322,19,02,03,296,17,7*7B
$GBGSV,3,1,11,35,77,198,35,26,71,221,31,24,37,305,31,29,37,057,30,1*7D
$GBGSV,3,2,11,44,29,226,24,45,27,152,27,39,12,330,22,12,06,226,16,1*76
$GBGSV,3,3,11,32,03,027,18,16,03,335,,06,01,335,,1*4B
$GNRMC,004858.000,A,4910.427424,N,12304.398036,W,0.01,329.93,090125,,,D,V*1C
$GNVTG,329.93,T,,M,0.01,N,0.03,K,D*26
$PAIRLOG,Full*51
$GNGGA,004859.000,4910.427370,N,12304.398180,W,2,30,0.54,-3.341,M,-16.816,M,,*6A
$GNGLL,4910.427370,N,12304.398180,W,004859.000,A,D*56
$GNGSA,A,3,12,06,11,19,24,25,17,03,32,,,,0.94,0.54,0.77,1*05
$GNGSA,A,3,86,76,87,85,69,68,,,,,,,0.94,0.54,0.77,2*02
$GNGSA,A,3,24,12,10,25,11,33,31,08,,,,,0.94,0.54,0.77,3*06
$GNGSA,A,3,35,26,24,29,44,45,39,,,,,,0.94,0.54,0.77,4*0C
$GPGSV,3,1,11,12,64,299,30,06,61,095,27,11,49,165,26,19,45,063,23,1*68
$GPGSV,3,2,11,24,40,219,27,46,33,188,28,25,23,299,19,17,16,067,25,1*6A
$GPGSV,3,3,11,03,09,027,16,32,08,312,23,20,04,152,,1*54
$GLGSV,2,1,07,86,69,050,36,76,61,141,35,87,56,209,34,85,14,037,27,1*70
$GLGSV,2,2,07,69,10,002,26,78,08,319,,68,06,316,19,1*4F
$GAGSV,3,1,10,24,71,111,30,12,60,103,26,10,55,152,28,25,53,298,28,7*74
$GAGSV,3,2,10,11,34,180,21,33,23,041,25,31,18,115,20,03,11,274,09,7*7A
$GAGSV,3,3,10,08,11,322,19,02,03,296,17,7*7B
$GBGSV,3,1,11,35,77,198,35,26,71,221,31,24,37,305,31,29,37,057,30,1*7D
$GBGSV,3,2,11,44,29,226,24,45,27,152,26,39,12,330,22,12,06,226,16,1*77
$GBGSV,3,3,11,32,03,027,18,16,03,335,,06,01,335,,1*4B
$GNRMC,004859.000,A,4910.427370,N,12304.398180,W,0.02,329.93,090125,,,D,V*14
$GNVTG,329.93,T,,M,0.02,N,0.03,K,D*25
$PAIRLOG,Full*51
$GNGGA,004900.000,4910.427298,N,12304.398438,W,2,31,0.52,-3.222,M,-16.816,M,,*65
$GNGLL,4910.427298,N,12304.398438,W,004900.000,A,D*5A
$GNGSA,A,3,12,06,11,19,24,25,17,03,32,,,,0.92,0.52,0.75,1*07
$GNGSA,A,3,86,76,87,85,69,68,,,,,,,0.92,0.52,0.75,2*00
$GNGSA,A,3,24,12,10,25,11,33,31,03,08,,,,0.92,0.52,0.75,3*07
$GNGSA,A,3,35,26,24,29,44,45,39,,,,,,0.92,0.52,0.75,4*0E
$GPGSV,3,1,11,12,64,299,31,06,61,095,28,11,49,165,26,19,45,063,24,1*61
$GPGSV,3,2,11,24,40,219,28,46,33,188,28,25,23,299,19,17,16,067,24,1*64
$GPGSV,3,3,11,03,09,027,16,32,08,312,22,20,04,152,,1*55
$GLGSV,2,1,07,86,69,050,36,76,61,141,35,87,56,209,34,85,14,037,27,1*70
$GLGSV,2,2,07,69,10,002,26,78,08,319,,68,06,316,20,1*45
$GAGSV,3,1,10,24,71,111,30,12,60,103,26,10,55,152,28,25,53,298,28,7*74
$GAGSV,3,2,10,11,34,180,21,33,23,041,25,31,18,115,20,03,11,274,09,7*7A
$GAGSV,3,3,10,08,11,322,19,02,03,296,17,7*7B
$GBGSV,3,1,11,35,77,198,35,26,71,221,31,24,37,305,31,29,37,057,30,1*7D
$GBGSV,3,2,11,44,29,226,24,45,27,152,26,39,12,330,22,12,06,226,16,1*77
$GBGSV,3,3,11,32,03,027,18,16,03,335,,06,01,335,,1*4B
$GNRMC,004900.000,A,4910.427298,N,12304.398438,W,0.02,329.93,090125,,,D,V*18
$GNVTG,329.93,T,,M,0.02,N,0.04,K,D*22
$PAIRLOG,Full*51
$GNGGA,004901.000,4910.427166,N,12304.398732,W,2,31,0.52,-3.193,M,-16.816,M,,*66
$GNGLL,4910.427166,N,12304.398732,W,004901.000,A,D*50
$GNGSA,A,3,12,06,11,19,24,25,17,03,32,,,,0.92,0.52,0.75,1*07
$GNGSA,A,3,86,76,87,85,69,68,,,,,,,0.92,0.52,0.75,2*00
$GNGSA,A,3,24,12,10,25,11,33,31,03,08,,,,0.92,0.52,0.75,3*07
$GNGSA,A,3,35,26,24,29,44,45,39,,,,,,0.92,0.52,0.75,4*0E
$GPGSV,3,1,11,12,64,299,32,06,61,095,29,11,49,165,27,19,45,063,26,1*60
$GPGSV,3,2,11,24,40,219,28,46,33,188,29,25,23,299,20,17,16,067,24,1*6F
$GPGSV,3,3,11,03,09,027,17,32,08,312,23,20,04,152,,1*55
$GLGSV,2,1,07,86,69,050,36,76,61,141,35,87,56,209,34,85,14,037,27,1*70
$GLGSV,2,2,07,69,10,002,26,78,08,319,,68,06,316,20,1*45
$GAGSV,3,1,10,24,71,111,30,12,60,103,27,10,55,152,29,25,53,298,29,7*75
$GAGSV,3,2,10,11,34,180,22,33,23,041,26,31,18,115,20,03,11,274,09,7*7A
$GAGSV,3,3,10,08,11,322,19,02,03,296,17,7*7B
$GBGSV,3,1,11,35,77,198,35,26,71,221,31,24,37,305,31,29,37,057,30,1*7D
$GBGSV,3,2,11,44,29,226,24,45,27,152,25,39,12,330,22,12,06,226,16,1*74
$GBGSV,3,3,11,32,03,027,18,16,03,335,,06,01,335,,1*4B
$GNRMC,004901.000,A,4910.427166,N,12304.398732,W,0.02,329.93,090125,,,D,V*12
$GNVTG,329.93,T,,M,0.02,N,0.04,K,D*22
$PAIRLOG,Full*51
$GNGGA,004902.000,4910.427004,N,12304.399020,W,2,31,0.52,-3.389,M,-16.816,M,,*6C
$GNGLL,4910.427004,N,12304.399020,W,004902.000,A,D*53
$GNGSA,A,3,12,06,11,19,24,25,17,03,32,,,,0.92,0.52,0.75,1*07
$GNGSA,A,3,86,76,87,85,69,68,,,,,,,0.92,0.52,0.75,2*00
$GNGSA,A,3,24,12,10,25,11,33,31,03,08,,,,0.92,0.52,0.75,3*07
$GNGSA,A,3,35,26,24,29,44,45,39,,,,,,0.92,0.52,0.75,4*0E
$GPGSV,3,1,11,12,64,299,32,06,61,095,29,11,49,165,27,19,45,063,27,1*61
$GPGSV,3,2,11,24,40,219,28,46,33,188,29,25,23,299,21,17,16,067,23,1*69
$GPGSV,3,3,11,03,09,027,17,32,08,312,23,20,04,152,,1*55
$GLGSV,2,1,07,86,69,050,36,76,61,141,35,87,56,209,34,85,14,037,27,1*70
$GLGSV,2,2,07,69,10,002,26,78,08,319,,68,06,316,20,1*45
$GAGSV,3,1,10,24,71,111,30,12,60,103,26,10,55,152,29,25,53,298,29,7*74
$GAGSV,3,2,10,11,34,180,22,33,23,041,25,31,18,115,20,03,11,274,10,7*71
$GAGSV,3,3,10,08,11,322,19,02,03,296,17,7*7B
$GBGSV,3,1,11,35,77,198,35,26,71,221,31,24,37,305,31,29,37,057,30,1*7D
$GBGSV,3,2,11,44,29,226,24,45,27,152,27,39,12,330,22,12,06,226,17,1*77
$GBGSV,3,3,11,32,03,027,18,16,03,335,,06,01,335,,1*4B
$GNRMC,004902.000,A,4910.427004,N,12304.399020,W,0.03,329.93,090125,,,D,V*10
$GNVTG,329.93,T,,M,0.03,N,0.05,K,D*22
$PAIRLOG,Full*51
$GNGGA,004903.000,4910.426938,N,12304.399134,W,2,31,0.52,-3.348,M,-16.816,M,,*63
$GNGLL,4910.426938,N,12304.399134,W,004903.000,A,D*51
$GNGSA,A,3,12,06,11,19,24,25,17,03,32,,,,0.92,0.52,0.75,1*07
$GNGSA,A,3,86,76,87,85,69,68,,,,,,,0.92,0.52,0.75,2*00
$GNGSA,A,3,24,12,10,25,11,33,31,03,08,,,,0.92,0.52,0.75,3*07
$GNGSA,A,3,35,26,24,29,44,45,39,,,,,,0.92,0.52,0.75,4*0E
$GPGSV,3,1,11,12,64,299,32,06,61,095,29,11,49,165,27,19,45,063,27,1*61
$GPGSV,3,2,11,24,40,219,28,46,33,188,29,25,23,299,21,17,16,067,25,1*6F
$GPGSV,3,3,11,03,09,027,17,32,08,312,23,20,04,152,,1*55
$GLGSV,2,1,07,86,69,050,36,76,61,141,35,87,56,209,34,85,14,037,27,1*70
$GLGSV,2,2,07,69,10,002,26,78,08,319,,68,06,316,20,1*45
$GAGSV,3,1,10,24,71,111,30,12,60,103,26,10,55,152,29,25,53,298,29,7*74
$GAGSV,3,2,10,11,34,180,22,33,23,041,25,31,18,115,20,03,11,274,10,7*71
$GAGSV,3,3,10,08,11,322,19,02,03,296,17,7*7B
$GBGSV,3,1,11,35,77,198,35,26,71,221,31,24,37,305,32,29,37,057,30,1*7E
$GBGSV,3,2,11,44,29,226,25,45,27,152,26,39,12,330,23,12,06,226,17,1*76
$GBGSV,3,3,11,32,03,027,19,16,03,335,,06,01,335,,1*4A
$GNRMC,004903.000,A,4910.426938,N,12304.399134,W,0.03,329.93,090125,,,D,V*12
$GNVTG,329.93,T,,M,0.03,N,0.05,K,D*22
$PAIRLOG,Full*51
$GNGGA,004904.000,4910.426872,N,12304.399284,W,2,31,0.52,-3.257,M,-16.816,M,,*6C
$GNGLL,4910.426872,N,12304.399284,W,004904.000,A,D*51
$GNGSA,A,3,12,06,11,19,24,25,17,03,32,,,,0.91,0.52,0.74,1*05
$GNGSA,A,3,86,76,87,85,69,68,,,,,,,0.91,0.52,0.74,2*02
$GNGSA,A,3,24,12,10,25,11,33,31,03,08,,,,0.91,0.52,0.74,3*05
$GNGSA,A,3,35,26,24,29,44,45,39,,,,,,0.91,0.52,0.74,4*0C
$GPGSV,3,1,11,12,64,299,32,06,61,095,28,11,49,165,27,19,45,063,27,1*60
$GPGSV,3,2,11,24,40,219,28,46,33,188,29,25,23,299,21,17,16,067,23,1*69
$GPGSV,3,3,11,03,09,027,17,32,08,312,23,20,04,152,,1*55
$GLGSV,2,1,07,86,69,050,36,76,61,141,35,87,56,209,34,85,14,037,27,1*70
$GLGSV,2,2,07,69,10,002,26,78,08,319,,68,06,316,20,1*45
$GAGSV,3,1,10,24,71,111,30,12,60,103,26,10,55,152,29,25,53,298,29,7*74
$GAGSV,3,2,10,11,34,180,22,33,23,041,25,31,18,115,19,03,11,274,10,7*7B
$GAGSV,3,3,10,08,11,322,19,02,03,296,17,7*7B
$GBGSV,3,1,11,35,77,198,36,26,71,221,32,24,37,305,32,29,37,057,30,1*7E
$GBGSV,3,2,11,44,29,226,25,45,27,152,26,39,12,330,23,12,06,226,17,1*76
$GBGSV,3,3,11,32,03,027,19,16,03,335,,06,01,335,,1*4A
$GNRMC,004904.000,A,4910.426872,N,12304.399284,W,0.02,329.93,090125,,,D,V*13
$GNVTG,329.93,T,,M,0.02,N,0.04,K,D*22
$PAIRLOG,Full*51
$GNGGA,004905.000,4910.426704,N,12304.399560,W,2,31,0.52,-3.129,M,-16.816,M,,*64
$GNGLL,4910.426704,N,12304.399560,W,004905.000,A,D*53
$GNGSA,A,3,12,06,11,19,24,25,17,03,32,,,,0.91,0.52,0.74,1*05
$GNGSA,A,3,86,76,87,85,69,68,,,,,,,0.91,0.52,0.74,2*02
$GNGSA,A,3,24,12,10,25,11,33,31,03,08,,,,0.91,0.52,0.74,3*05
$GNGSA,A,3,35,26,24,29,44,45,39,,,,,,0.91,0.52,0.74,4*0C
$GPGSV,3,1,11,12,64,299,31,06,61,095,25,11,49,165,27,19,45,063,27,1*6E
$GPGSV,3,2,11,24,40,219,28,46,33,188,29,25,23,299,21,17,16,067,22,1*68
$GPGSV,3,3,11,03,09,027,17,32,08,312,23,20,04,152,,1*55
$GLGSV,2,1,07,86,69,050,36,76,61,141,35,87,56,209,34,85,14,037,27,1*70
$GLGSV,2,2,07,69,10,002,26,78,08,319,,68,06,316,20,1*45
$GAGSV,3,1,10,24,71,111,29,12,60,103,25,10,55,152,29,25,53,298,28,7*7E
$GAGSV,3,2,10,11,34,180,21,33,23,041,25,31,18,115,19,03,11,274,10,7*78
$GAGSV,3,3,10,08,11,322,18,02,03,296,17,7*7A
$GBGSV,3,1,11,35,77,198,36,26,71,221,32,24,37,305,32,29,37,057,30,1*7E
$GBGSV,3,2,11,44,29,226,25,45,27,152,26,39,12,330,23,12,06,226,17,1*76
$GBGSV,3,3,11,32,03,027,19,16,03,335,,06,01,335,,1*4A
$GNRMC,004905.000,A,4910.426704,N,12304.399560,W,0.02,329.93,090125,,,D,V*11
$GNVTG,329.93,T,,M,0.02,N,0.04,K,D*22
$PAIRLOG,Full*51
$GNGGA,004906.000,4910.426596,N,12304.400010,W,2,31,0.52,-3.008,M,-16.816,M,,*69
$GNGLL,4910.426596,N,12304.400010,W,004906.000,A,D*5C
$GNGSA,A,3,12,06,11,19,24,25,17,03,32,,,,0.91,0.52,0.74,1*05
$GNGSA,A,3,86,76,87,85,69,68,,,,,,,0.91,0.52,0.74,2*02
$GNGSA,A,3,24,12,10,25,11,33,31,03,08,,,,0.91,0.52,0.74,3*05
$GNGSA,A,3,35,26,24,29,44,45,39,,,,,,0.91,0.52,0.74,4*0C
$GPGSV,3,1,11,12,64,299,32,06,61,095,29,11,49,165,28,19,45,063,28,1*61
$GPGSV,3,2,11,24,40,219,28,46,33,188,30,25,23,299,21,17,16,067,25,1*67
$GPGSV,3,3,11,03,09,027,17,32,08,312,23,20,04,152,,1*55
$GLGSV,2,1,07,86,69,050,36,76,61,141,35,87,56,209,34,85,14,037,27,1*70
$GLGSV,2,2,07,69,10,002,27,78,08,319,,68,06,316,20,1*44
$GAGSV,3,1,10,24,71,111,29,12,60,103,26,10,55,152,29,25,53,298,28,7*7D
$GAGSV,3,2,10,11,34,180,21,33,23,041,25,31,18,115,19,03,11,274,10,7*78
$GAGSV,3,3,10,08,11,322,19,02,03,296,17,7*7B
$GBGSV,3,1,11,35,77,198,36,26,71,221,32,24,37,305,32,29,37,057,30,1*7E
$GBGSV,3,2,11,44,29,226,25,45,27,152,26,39,12,330,23,12,06,226,17,1*76
$GBGSV,3,3,11,32,03,027,19,16,03,335,,06,01,335,,1*4A
$GNRMC,004906.000,A,4910.426596,N,12304.400010,W,0.03,329.93,090125,,,D,V*1F
$GNVTG,329.93,T,,M,0.03,N,0.05,K,D*22
$PAIRLOG,Full*51
$GNGGA,004907.000,4910.426530,N,12304.400274,W,2,31,0.52,-2.925,M,-16.816,M,,*63
$GNGLL,4910.426530,N,12304.400274,W,004907.000,A,D*51
$GNGSA,A,3,12,06,11,19,24,25,17,03,32,,,,0.91,0.52,0.74,1*05
$GNGSA,A,3,86,76,87,85,69,68,,,,,,,0.91,0.52,0.74,2*02
$GNGSA,A,3,24,12,10,25,11,33,31,03,08,,,,0.91,0.52,0.74,3*05
$GNGSA,A,3,35,26,24,29,44,45,39,,,,,,0.91,0.52,0.74,4*0C
$GPGSV,3,1,11,12,64,299,32,06,61,095,25,11,49,165,28,19,45,063,28,1*6D
$GPGSV,3,2,11,24,40,219,28,46,33,188,30,25,23,299,22,17,16,067,23,1*62
$GPGSV,3,3,11,03,09,027,17,32,08,312,23,20,04,152,,1*55
$GLGSV,2,1,07,86,69,050,36,76,61,141,35,87,56,209,34,85,14,037,27,1*70
$GLGSV,2,2,07,69,10,002,27,78,08,319,,68,06,316,20,1*44
$GAGSV,3,1,10,24,71,111,29,12,60,103,26,10,55,152,29,25,53,298,28,7*7D
$GAGSV,3,2,10,11,34,180,21,33,23,041,25,31,18,115,19,03,11,274,10,7*78
$GAGSV,3,3,10,08,11,322,19,02,03,296,17,7*7B
$GBGSV,3,1,11,35,77,198,36,26,71,221,32,24,37,305,32,29,37,057,30,1*7E
$GBGSV,3,2,11,44,29,226,25,45,27,152,25,39,12,330,23,12,06,226,17,1*75
$GBGSV,3,3,11,32,03,027,19,16,03,335,,06,01,335,,1*4A
$GNRMC,004907.000,A,4910.426530,N,12304.400274,W,0.03,329.93,090125,,,D,V*12
$GNVTG,329.93,T,,M,0.03,N,0.05,K,D*22
$PAIRLOG,Full*51
$GNGGA,004908.000,4910.426398,N,12304.400724,W,2,31,0.52,-2.701,M,-16.816,M,,*60
$GNGLL,4910.426398,N,12304.400724,W,004908.000,A,D*5A
$GNGSA,A,3,12,06,11,19,24,25,17,03,32,,,,0.91,0.52,0.74,1*05
$GNGSA,A,3,86,76,87,85,69,68,,,,,,,0.91,0.52,0.74,2*02
$GNGSA,A,3,24,12,10,25,11,33,31,03,08,,,,0.91,0.52,0.74,3*05
$GNGSA,A,3,35,26,24,29,44,45,39,,,,,,0.91,0.52,0.74,4*0C
$GPGSV,3,1,11,12,64,299,33,06,61,095,26,11,49,165,28,19,45,063,29,1*6E
$GPGSV,3,2,11,24,40,219,28,46,33,188,30,25,23,299,22,17,16,067,23,1*62
$GPGSV,3,3,11,03,09,027,17,32,08,312,23,20,04,152,,1*55
$GLGSV,2,1,07,86,69,050,36,76,61,141,35,87,56,209,34,85,14,037,28,1*7F
$GLGSV,2,2,07,69,10,002,27,78,08,319,,68,06,316,20,1*44
$GAGSV,3,1,10,24,71,111,30,12,60,103,26,10,55,152,29,25,53,298,28,7*75
$GAGSV,3,2,10,11,34,180,22,33,23,041,25,31,18,115,19,03,11,274,10,7*7B
$GAGSV,3,3,10,08,11,322,19,02,03,296,17,7*7B
$GBGSV,3,1,11,35,77,198,36,26,71,221,32,24,37,305,32,29,37,057,30,1*7E
$GBGSV,3,2,11,44,29,226,25,45,27,152,25,39,12,330,23,12,06,226,17,1*75
$GBGSV,3,3,11,32,03,027,19,16,03,335,,06,01,335,,1*4A
$GNRMC,004908.000,A,4910.426398,N,12304.400724,W,0.04,329.93,090125,,,D,V*1E
$GNVTG,329.93,T,,M,0.04,N,0.07,K,D*27
$PAIRLOG,Full*51
$GNGGA,004909.000,4910.426230,N,12304.401144,W,2,31,0.52,-2.688,M,-16.816,M,,*63
$GNGLL,4910.426230,N,12304.401144,W,004909.000,A,D*59
$GNGSA,A,3,12,06,11,19,24,25,17,03,32,,,,0.91,0.52,0.74,1*05
$GNGSA,A,3,86,76,87,85,69,68,,,,,,,0.91,0.52,0.74,2*02
$GNGSA,A,3,24,12,10,25,11,33,31,03,08,,,,0.91,0.52,0.74,3*05
$GNGSA,A,3,35,26,24,29,44,45,39,,,,,,0.91,0.52,0.74,4*0C
$GPGSV,3,1,11,12,64,299,33,06,61,095,29,11,49,165,29,19,45,063,30,1*68
$GPGSV,3,2,11,24,40,219,29,46,33,188,30,25,23,299,22,17,16,067,23,1*63
$GPGSV,3,3,11,03,09,027,17,32,08,312,23,20,04,152,,1*55
$GLGSV,2,1,07,86,69,050,36,76,61,141,35,87,56,209,33,85,14,037,27,1*77
$GLGSV,2,2,07,69,10,002,27,78,08,319,,68,06,316,20,1*44
$GAGSV,3,1,10,24,71,111,30,12,60,103,27,10,55,152,30,25,53,298,29,7*7D
$GAGSV,3,2,10,11,34,180,22,33,23,041,26,31,18,115,20,03,11,274,10,7*72
$GAGSV,3,3,10,08,11,322,19,02,03,296,17,7*7B
$GBGSV,3,1,11,35,77,198,35,26,71,221,31,24,37,305,31,29,37,057,29,1*75
$GBGSV,3,2,11,44,29,226,24,45,27,152,22,39,12,330,22,12,06,226,17,1*72
$GBGSV,3,3,11,32,03,027,19,16,03,335,,06,01,335,,1*4A
$GNRMC,004909.000,A,4910.426230,N,12304.401144,W,0.04,329.93,090125,,,D,V*1D
$GNVTG,329.93,T,,M,0.04,N,0.08,K,D*28
$PAIRLOG,Full*51
$GNGGA,004910.000,4910.426044,N,12304.401606,W,2,31,0.52,-2.772,M,-16.817,M,,*6E
$GNGLL,4910.426044,N,12304.401606,W,004910.000,A,D*51
$GNGSA,A,3,12,06,11,19,24,25,17,03,32,,,,0.91,0.52,0.74,1*05
$GNGSA,A,3,86,76,87,85,69,68,,,,,,,0.91,0.52,0.74,2*02
$GNGSA,A,3,24,12,10,25,11,33,31,03,08,,,,0.91,0.52,0.74,3*05
$GNGSA,A,3,35,26,24,29,44,45,39,,,,,,0.91,0.52,0.74,4*0C
$GPGSV,3,1,11,12,64,299,34,06,61,095,32,11,49,165,30,19,45,063,31,1*6C
$GPGSV,3,2,11,24,40,219,30,46,33,188,31,25,23,299,23,17,16,067,24,1*6C
$GPGSV,3,3,11,03,09,027,18,32,08,312,24,20,04,152,,1*5D
$GLGSV,2,1,07,86,69,050,36,76,61,141,35,87,56,209,33,85,14,037,26,1*76
$GLGSV,2,2,07,69,10,002,27,78,08,319,,68,06,316,20,1*44
$GAGSV,3,1,10,24,71,111,30,12,60,103,28,10,55,152,31,25,53,298,30,7*7B
$GAGSV,3,2,10,11,34,180,23,33,23,041,27,31,18,115,21,03,11,274,10,7*73
$GAGSV,3,3,10,08,11,322,20,02,03,296,17,7*71
$GBGSV,3,1,11,35,77,198,33,26,71,221,29,24,37,305,29,29,37,057,28,1*72
$GBGSV,3,2,11,44,29,226,23,45,27,152,21,39,12,330,21,12,06,226,17,1*75
$GBGSV,3,3,11,32,03,027,18,16,03,335,,06,01,335,,1*4B
$GNRMC,004910.000,A,4910.426044,N,12304.401606,W,0.05,329.93,090125,,,D,V*14
$GNVTG,329.93,T,,M,0.05,N,0.09,K,D*28
$PAIRLOG,Full*51
$GNGGA,004911.000,4910.425936,N,12304.401780,W,2,31,0.52,-2.758,M,-16.816,M,,*66
$GNGLL,4910.425936,N,12304.401780,W,004911.000,A,D*50
$GNGSA,A,3,12,06,11,19,24,25,17,03,32,,,,0.91,0.52,0.74,1*05
$GNGSA,A,3,86,76,87,85,69,68,,,,,,,0.91,0.52,0.74,2*02
$GNGSA,A,3,24,12,10,25,11,33,31,03,08,,,,0.91,0.52,0.74,3*05
$GNGSA,A,3,35,26,24,29,44,45,39,,,,,,0.91,0.52,0.74,4*0C
$GPGSV,3,1,11,12,64,299,34,06,61,095,27,11,49,165,30,19,45,063,31,1*68
$GPGSV,3,2,11,24,40,219,30,46,33,188,31,25,23,299,23,17,16,067,24,1*6C
$GPGSV,3,3,11,03,09,027,19,32,08,312,24,20,04,152,,1*5C
$GLGSV,2,1,07,86,69,050,36,76,61,141,35,87,56,209,33,85,14,037,26,1*76
$GLGSV,2,2,07,69,10,002,27,78,08,319,,68,06,316,20,1*44
$GAGSV,3,1,10,24,71,111,30,12,60,103,28,10,55,152,31,25,53,298,30,7*7B
$GAGSV,3,2,10,11,34,180,23,33,23,041,27,31,18,115,21,03,11,274,10,7*73
$GAGSV,3,3,10,08,11,322,20,02,03,296,17,7*71
$GBGSV,3,1,11,35,77,198,34,26,71,221,30,24,37,305,29,29,37,057,28,1*7D
$GBGSV,3,2,11,44,29,226,23,45,27,152,23,39,12,330,20,12,06,226,17,1*76
$GBGSV,3,3,11,32,03,027,18,16,03,335,,06,01,335,,1*4B
$GNRMC,004911.000,A,4910.425936,N,12304.401780,W,0.05,329.93,090125,,,D,V*15
$GNVTG,329.93,T,,M,0.05,N,0.09,K,D*28
$PAIRLOG,Full*51
$GNGGA,004912.000,4910.425840,N,12304.402002,W,2,31,0.52,-2.780,M,-16.816,M,,*6E
$GNGLL,4910.425840,N,12304.402002,W,004912.000,A,D*5D
$GNGSA,A,3,12,06,11,19,24,25,17,03,32,,,,0.91,0.52,0.74,1*05
$GNGSA,A,3,86,76,87,85,69,68,,,,,,,0.91,0.52,0.74,2*02
$GNGSA,A,3,24,12,10,25,11,33,31,03,08,,,,0.91,0.52,0.74,3*05
$GNGSA,A,3,35,26,24,29,44,45,39,,,,,,0.91,0.52,0.74,4*0C
$GPGSV,3,1,11,12,64,299,35,06,61,095,30,11,49,165,31,19,45,063,32,1*6D
$GPGSV,3,2,11,24,40,219,30,46,33,188,31,25,23,299,24,17,16,067,24,1*6B
$GPGSV,3,3,11,03,09,027,19,32,08,312,24,20,04,152,,1*5C
$GLGSV,2,1,07,86,69,050,36,76,61,141,35,87,56,209,33,85,14,037,26,1*76
$GLGSV,2,2,07,69,10,002,27,78,08,319,,68,06,316,20,1*44
$GAGSV,3,1,10,24,71,111,31,12,60,103,28,10,55,152,32,25,53,298,31,7*78
$GAGSV,3,2,10,11,34,180,23,33,23,041,27,31,18,115,22,03,11,274,10,7*70
$GAGSV,3,3,10,08,11,322,21,02,03,296,17,7*70
$GBGSV,3,1,11,35,77,198,35,26,71,221,31,24,37,305,30,29,37,057,29,1*74
$GBGSV,3,2,11,44,29,226,24,45,27,152,25,39,12,330,21,12,06,226,17,1*76
$GBGSV,3,3,11,32,03,027,19,16,03,335,,06,01,335,,1*4A
$GNRMC,004912.000,A,4910.425840,N,12304.402002,W,0.04,329.93,090125,,,D,V*19
$GNVTG,329.93,T,,M,0.04,N,0.07,K,D*27
$PAIRLOG,Full*51
$GNGGA,004913.000,4910.425828,N,12304.402200,W,2,31,0.52,-2.858,M,-16.816,M,,*6B
$GNGLL,4910.425828,N,12304.402200,W,004913.000,A,D*52
$GNGSA,A,3,12,06,11,19,24,25,17,03,32,,,,0.91,0.52,0.74,1*05
$GNGSA,A,3,86,76,87,85,69,68,,,,,,,0.91,0.52,0.74,2*02
$GNGSA,A,3,24,12,10,25,11,33,31,03,08,,,,0.91,0.52,0.74,3*05
$GNGSA,A,3,35,26,24,29,44,45,39,,,,,,0.91,0.52,0.74,4*0C
$GPGSV,3,1,11,12,64,299,35,06,61,095,30,11,49,165,31,19,45,063,31,1*6E
$GPGSV,3,2,11,24,40,219,30,46,33,188,31,25,23,299,24,17,16,067,24,1*6B
$GPGSV,3,3,11,03,09,027,19,32,08,312,24,20,04,152,,1*5C
$GLGSV,2,1,07,86,69,050,36,76,61,141,35,87,56,209,32,85,14,037,26,1*77
$GLGSV,2,2,07,69,10,002,26,78,08,319,,68,06,316,20,1*45
$GAGSV,3,1,10,24,71,111,31,12,60,103,28,10,55,152,32,25,53,298,30,7*79
$GAGSV,3,2,10,11,34,180,23,33,23,041,27,31,18,115,22,03,11,274,10,7*70
$GAGSV,3,3,10,08,11,322,21,02,03,296,17,7*70
$GBGSV,3,1,11,35,77,198,36,26,71,221,32,24,37,305,31,29,37,057,30,1*7D
$GBGSV,3,2,11,44,29,226,25,45,27,152,27,39,12,330,22,12,06,226,17,1*76
$GBGSV,3,3,11,32,03,027,20,16,03,335,,06,01,335,,1*40
$GNRMC,004913.000,A,4910.425828,N,12304.402200,W,0.03,329.93,090125,,,D,V*11
$GNVTG,329.93,T,,M,0.03,N,0.06,K,D*21
$PAIRLOG,Full*51
$GNGGA,004914.000,4910.425846,N,12304.402314,W,2,31,0.52,-2.915,M,-16.816,M,,*68
$GNGLL,4910.425846,N,12304.402314,W,004914.000,A,D*59
$GNGSA,A,3,12,06,11,19,24,25,17,03,32,,,,0.91,0.52,0.74,1*05
$GNGSA,A,3,86,76,87,85,69,68,,,,,,,0.91,0.52,0.74,2*02
$GNGSA,A,3,24,12,10,25,11,33,31,03,08,,,,0.91,0.52,0.74,3*05
$GNGSA,A,3,35,26,24,29,44,45,39,,,,,,0.91,0.52,0.74,4*0C
$GPGSV,3,1,11,12,64,299,35,06,61,095,30,11,49,165,31,19,45,063,31,1*6E
$GPGSV,3,2,11,24,40,219,30,46,33,188,31,25,23,299,24,17,16,067,23,1*6C
$GPGSV,3,3,11,03,09,027,19,32,08,312,24,20,04,152,16,1*5B
$GLGSV,2,1,07,86,69,050,36,76,61,141,35,87,56,209,32,85,14,037,26,1*77
$GLGSV,2,2,07,69,10,002,26,78,08,319,,68,06,316,20,1*45
$GAGSV,3,1,10,24,71,111,31,12,60,103,28,10,55,152,32,25,53,298,30,7*79
$GAGSV,3,2,10,11,34,180,23,33,23,041,27,31,18,115,22,03,11,274,10,7*70
$GAGSV,3,3,10,08,11,322,21,02,03,296,17,7*70
$GBGSV,3,1,11,35,77,198,36,26,71,221,32,24,37,305,31,29,37,057,30,1*7D
$GBGSV,3,2,11,44,29,226,25,45,27,152,25,39,12,330,23,12,06,226,17,1*75
$GBGSV,3,3,11,32,03,027,20,16,03,335,,06,01,335,,1*40
$GNRMC,004914.000,A,4910.425846,N,12304.402314,W,0.03,329.93,090125,,,D,V*1A
$GNVTG,329.93,T,,M,0.03,N,0.05,K,D*22
$PAIRLOG,Full*51
$GNGGA,004915.000,4910.425858,N,12304.402392,W,2,31,0.52,-2.982,M,-16.816,M,,*66
$GNGLL,4910.425858,N,12304.402392,W,004915.000,A,D*59
$GNGSA,A,3,12,06,11,19,24,25,17,03,32,,,,0.91,0.52,0.74,1*05
$GNGSA,A,3,86,76,87,85,69,68,,,,,,,0.91,0.52,0.74,2*02
$GNGSA,A,3,24,12,10,25,11,33,31,03,08,,,,0.91,0.52,0.74,3*05
$GNGSA,A,3,35,26,24,29,44,45,39,,,,,,0.91,0.52,0.74,4*0C
$GPGSV,3,1,11,12,64,299,34,06,61,095,28,11,49,165,30,19,45,063,30,1*66
$GPGSV,3,2,11,24,40,219,29,46,33,188,30,25,23,299,23,17,16,067,22,1*63
$GPGSV,3,3,11,03,09,027,19,32,08,312,23,20,04,152,15,1*5F
$GLGSV,2,1,07,86,69,050,36,76,61,141,35,87,56,209,31,85,14,037,26,1*74
$GLGSV,2,2,07,69,10,002,26,78,08,319,,68,06,316,20,1*45
$GAGSV,3,1,10,24,71,111,30,12,60,103,28,10,55,152,31,25,53,298,30,7*7B
$GAGSV,3,2,10,11,34,180,22,33,23,041,26,31,18,115,21,03,11,274,10,7*73
$GAGSV,3,3,10,08,11,322,20,02,03,296,17,7*71
$GBGSV,3,1,11,35,77,198,36,26,71,221,32,24,37,305,31,29,37,057,31,1*7C
$GBGSV,3,2,11,44,29,226,25,45,27,152,25,39,12,330,23,12,06,226,17,1*75
$GBGSV,3,3,11,32,03,027,20,16,03,335,,06,01,335,,1*40
$GNRMC,004915.000,A,4910.425858,N,12304.402392,W,0.02,329.93,090125,,,D,V*1B
$GNVTG,329.93,T,,M,0.02,N,0.04,K,D*22
$PAIRLOG,Full*51
$GNGGA,004916.000,4910.425864,N,12304.402356,W,2,31,0.52,-2.881,M,-16.817,M,,*61
$GNGLL,4910.425864,N,12304.402356,W,004916.000,A,D*5D
$GNGSA,A,3,12,06,11,19,24,25,17,03,32,,,,0.91,0.52,0.74,1*05
$GNGSA,A,3,86,76,87,85,69,68,,,,,,,0.91,0.52,0.74,2*02
$GNGSA,A,3,24,12,10,25,11,33,31,03,08,,,,0.91,0.52,0.74,3*05
$GNGSA,A,3,35,26,24,29,44,45,39,,,,,,0.91,0.52,0.74,4*0C
$GPGSV,3,1,11,12,64,299,34,06,61,095,28,11,49,165,30,19,45,063,30,1*66
$GPGSV,3,2,11,24,40,219,28,46,33,188,30,25,23,299,23,17,16,067,21,1*61
$GPGSV,3,3,11,03,09,027,19,32,08,312,22,20,04,152,15,1*5E
$GLGSV,2,1,07,86,69,050,35,76,61,141,35,87,56,209,31,85,14,037,25,1*74
$GLGSV,2,2,07,69,10,002,26,78,08,319,,68,06,316,21,1*44
$GAGSV,3,1,10,24,71,111,30,12,60,103,28,10,55,152,31,25,53,298,30,7*7B
$GAGSV,3,2,10,11,34,180,22,33,23,041,26,31,18,115,21,03,11,274,10,7*73
$GAGSV,3,3,10,08,11,322,20,02,03,296,17,7*71
$GBGSV,3,1,11,35,77,198,36,26,71,221,33,24,37,305,32,29,37,057,31,1*7E
$GBGSV,3,2,11,44,29,226,25,45,27,152,25,39,12,330,23,12,06,226,17,1*75
$GBGSV,3,3,11,32,03,027,20,16,03,335,,06,01,335,,1*40
$GNRMC,004916.000,A,4910.425864,N,12304.402356,W,0.02,329.93,090125,,,D,V*1F
$GNVTG,329.93,T,,M,0.02,N,0.04,K,D*22
$PAIRLOG,Full*51
$GNGGA,004917.000,4910.425930,N,12304.402368,W,2,31,0.52,-2.956,M,-16.817,M,,*66
$GNGLL,4910.425930,N,12304.402368,W,004917.000,A,D*51
$GNGSA,A,3,12,06,11,19,24,25,17,03,32,,,,0.91,0.52,0.74,1*05
$GNGSA,A,3,86,76,87,85,69,68,,,,,,,0.91,0.52,0.74,2*02
$GNGSA,A,3,24,12,10,25,11,33,31,03,08,,,,0.91,0.52,0.74,3*05
$GNGSA,A,3,35,26,24,29,44,45,39,,,,,,0.91,0.52,0.74,4*0C
$GPGSV,3,1,11,12,64,299,34,06,61,095,28,11,49,165,30,19,45,063,30,1*66
$GPGSV,3,2,11,24,40,219,28,46,33,188,30,25,23,299,23,17,16,067,20,1*60
$GPGSV,3,3,11,03,09,027,20,32,08,312,21,20,04,152,15,1*57
$GLGSV,2,1,07,86,69,050,35,76,61,141,35,87,56,209,31,85,14,037,25,1*74
$GLGSV,2,2,07,69,10,002,26,78,08,319,,68,06,316,21,1*44
$GAGSV,3,1,10,24,71,111,30,12,60,103,28,10,55,152,31,25,53,298,30,7*7B
$GAGSV,3,2,10,11,34,180,22,33,23,041,26,31,18,115,21,03,11,274,11,7*72
$GAGSV,3,3,10,08,11,322,20,02,03,296,17,7*71
$GBGSV,3,1,11,35,77,198,36,26,71,221,33,24,37,305,32,29,37,057,31,1*7E
$GBGSV,3,2,11,44,29,226,25,45,27,152,25,39,12,330,23,12,06,226,17,1*75
$GBGSV,3,3,11,32,03,027,20,16,03,335,,06,01,335,,1*40
$GNRMC,004917.000,A,4910.425930,N,12304.402368,W,0.02,329.93,090125,,,D,V*13
$GNVTG,329.93,T,,M,0.02,N,0.03,K,D*25
$PAIRLOG,Full*51
$GNGGA,004918.000,4910.425972,N,12304.402272,W,2,31,0.52,-2.985,M,-16.817,M,,*6B
$GNGLL,4910.425972,N,12304.402272,W,004918.000,A,D*52
$GNGSA,A,3,12,06,11,19,24,25,17,03,32,,,,0.91,0.52,0.74,1*05
$GNGSA,A,3,86,76,87,85,69,68,,,,,,,0.91,0.52,0.74,2*02
$GNGSA,A,3,24,12,10,25,11,33,31,03,08,,,,0.91,0.52,0.74,3*05
$GNGSA,A,3,35,26,24,29,44,45,39,,,,,,0.91,0.52,0.74,4*0C
$GPGSV,3,1,11,12,64,299,33,06,61,095,27,11,49,165,30,19,45,063,30,1*6E
$GPGSV,3,2,11,24,40,219,27,46,33,188,29,25,23,299,22,17,16,067,20,1*66
$GPGSV,3,3,11,03,09,027,20,32,08,312,20,20,04,152,15,1*56
$GLGSV,2,1,07,86,69,050,35,76,61,141,35,87,56,209,31,85,14,037,25,1*74
$GLGSV,2,2,07,69,10,002,26,78,08,319,,68,06,316,21,1*44
$GAGSV,3,1,10,24,71,111,29,12,60,103,27,10,55,152,30,25,53,298,29,7*75
$GAGSV,3,2,10,11,34,180,21,33,23,041,25,31,18,115,21,03,11,274,12,7*71
$GAGSV,3,3,10,08,11,322,19,02,03,296,17,7*7B
$GBGSV,3,1,11,35,77,198,36,26,71,221,32,24,37,305,32,29,37,057,30,1*7E
$GBGSV,3,2,11,44,29,226,25,45,27,152,25,39,12,330,23,12,06,226,17,1*75
$GBGSV,3,3,11,32,03,027,20,16,03,335,,06,01,335,,1*40
$GNRMC,004918.000,A,4910.425972,N,12304.402272,W,0.01,329.93,090125,,,D,V*13
$GNVTG,329.93,T,,M,0.01,N,0.02,K,D*27
$PAIRLOG,Full*51
$GNGGA,004919.000,4910.425972,N,12304.402260,W,2,31,0.52,-3.000,M,-16.816,M,,*6D
$GNGLL,4910.425972,N,12304.402260,W,004919.000,A,D*50
$GNGSA,A,3,12,06,11,19,24,25,17,03,32,,,,0.91,0.52,0.74,1*05
$GNGSA,A,3,86,76,87,85,69,68,,,,,,,0.91,0.52,0.74,2*02
$GNGSA,A,3,24,12,10,25,11,33,31,03,08,,,,0.91,0.52,0.74,3*05
$GNGSA,A,3,35,26,24,29,44,45,39,,,,,,0.91,0.52,0.74,4*0C
$GPGSV,3,1,11,12,64,299,32,06,61,095,26,11,49,165,29,19,45,063,30,1*66
$GPGSV,3,2,11,24,40,219,26,46,33,188,29,25,23,299,21,17,16,067,18,1*6F
$GPGSV,3,3,11,03,09,026,20,32,08,312,20,20,04,151,,1*50
$GLGSV,2,1,07,86,69,050,35,76,61,142,34,87,57,209,31,85,14,037,25,1*77
$GLGSV,2,2,07,69,10,001,26,78,08,319,,68,06,316,21,1*47
$GAGSV,3,1,10,24,71,111,29,12,61,103,26,10,55,152,30,25,53,298,28,7*74
$GAGSV,3,2,10,11,34,180,20,33,23,041,25,31,18,115,21,03,11,274,12,7*70
$GAGSV,3,3,10,08,10,322,19,02,03,296,17,7*7A
$GBGSV,3,1,11,35,77,198,36,26,71,220,33,24,37,305,31,29,37,057,30,1*7D
$GBGSV,3,2,11,44,29,226,25,45,27,152,24,39,12,330,23,12,06,226,17,1*74
$GBGSV,3,3,11,32,03,026,20,16,03,335,,06,01,335,,1*41
$GNRMC,004919.000,A,4910.425972,N,12304.402260,W,0.01,329.93,090125,,,D,V*11
$GNVTG,329.93,T,,M,0.01,N,0.02,K,D*27
$PAIRLOG,Full*51
$GNGGA,004920.000,4910.425984,N,12304.402218,W,2,31,0.52,-2.997,M,-16.817,M,,*66
$GNGLL,4910.425984,N,12304.402218,W,004920.000,A,D*5C
$GNGSA,A,3,12,06,11,19,24,25,17,03,32,,,,0.91,0.52,0.74,1*05
$GNGSA,A,3,86,76,87,85,69,68,,,,,,,0.91,0.52,0.74,2*02
$GNGSA,A,3,24,12,10,25,11,33,31,03,08,,,,0.91,0.52,0.74,3*05
$GNGSA,A,3,35,26,24,29,44,45,39,,,,,,0.91,0.52,0.74,4*0C
$GPGSV,3,1,11,12,64,299,31,06,61,095,25,11,49,165,28,19,45,063,30,1*67
$GPGSV,3,2,11,24,40,219,25,46,33,188,28,25,23,299,20,17,16,067,19,1*6D
$GPGSV,3,3,11,03,09,026,20,32,08,312,17,20,04,151,,1*54
$GLGSV,2,1,07,86,69,050,35,76,61,142,34,87,57,209,31,85,14,037,25,1*77
$GLGSV,2,2,07,69,10,001,26,78,08,319,,68,06,316,21,1*47
$GAGSV,3,1,10,24,71,111,28,12,61,103,25,10,55,152,29,25,53,298,28,7*7E
$GAGSV,3,2,10,11,34,180,20,33,23,041,25,31,18,115,21,03,11,274,12,7*70
$GAGSV,3,3,10,08,10,322,19,02,03,296,17,7*7A
$GBGSV,3,1,11,35,77,198,36,26,71,220,33,24,37,305,31,29,37,057,30,1*7D
$GBGSV,3,2,11,44,29,226,25,45,27,152,24,39,12,330,23,12,06,226,17,1*74
$GBGSV,3,3,11,32,03,026,20,16,03,335,,06,01,335,,1*41
$GNRMC,004920.000,A,4910.425984,N,12304.402218,W,0.01,329.93,090125,,,D,V*1D
$GNVTG,329.93,T,,M,0.01,N,0.03,K,D*26
$PAIRLOG,Full*51
$GNGGA,004921.000,4910.426014,N,12304.402146,W,2,31,0.52,-3.047,M,-16.817,M,,*69
$GNGLL,4910.426014,N,12304.402146,W,004921.000,A,D*56
$GNGSA,A,3,12,06,11,19,24,25,17,03,32,,,,0.91,0.52,0.74,1*05
$GNGSA,A,3,86,76,87,85,69,68,,,,,,,0.91,0.52,0.74,2*02
$GNGSA,A,3,24,12,10,25,11,33,31,03,08,,,,0.91,0.52,0.74,3*05
$GNGSA,A,3,35,26,24,29,44,45,39,,,,,,0.91,0.52,0.74,4*0C
$GPGSV,3,1,11,12,64,299,31,06,61,095,24,11,49,165,28,19,45,063,30,1*66
$GPGSV,3,2,11,24,40,219,25,46,33,188,28,25,23,299,20,17,16,067,18,1*6C
$GPGSV,3,3,11,03,09,026,20,32,08,312,17,20,04,151,,1*54
$GLGSV,2,1,07,86,69,050,35,76,61,142,35,87,57,209,31,85,14,037,25,1*76
$GLGSV,2,2,07,69,10,001,26,78,08,319,,68,06,316,20,1*46
$GAGSV,3,1,10,24,71,111,28,12,61,103,25,10,55,152,29,25,53,298,28,7*7E
$GAGSV,3,2,10,11,34,180,20,33,23,041,25,31,18,115,21,03,11,274,12,7*70
$GAGSV,3,3,10,08,10,322,19,02,03,296,17,7*7A
$GBGSV,3,1,11,35,77,198,36,26,71,220,32,24,37,305,31,29,37,057,30,1*7C
$GBGSV,3,2,11,44,29,226,25,45,27,152,24,39,12,330,23,12,06,226,17,1*74
$GBGSV,3,3,11,32,03,026,20,16,03,335,,06,01,335,,1*41
$GNRMC,004921.000,A,4910.426014,N,12304.402146,W,0.01,329.93,090125,,,D,V*17
$GNVTG,329.93,T,,M,0.01,N,0.03,K,D*26
$PAIRLOG,Full*51
$GNGGA,004922.000,4910.426026,N,12304.402158,W,2,31,0.52,-3.023,M,-16.816,M,,*67
$GNGLL,4910.426026,N,12304.402158,W,004922.000,A,D*5B
$GNGSA,A,3,12,06,11,19,24,25,17,03,32,,,,0.91,0.52,0.74,1*05
$GNGSA,A,3,86,76,87,85,69,68,,,,,,,0.91,0.52,0.74,2*02
$GNGSA,A,3,24,12,10,25,11,33,31,03,08,,,,0.91,0.52,0.74,3*05
$GNGSA,A,3,35,26,24,29,44,45,39,,,,,,0.91,0.52,0.74,4*0C
$GPGSV,3,1,11,12,64,299,31,06,61,095,23,11,49,165,28,19,45,063,29,1*69
$GPGSV,3,2,11,24,40,219,26,46,33,188,28,25,23,299,20,17,16,067,19,1*6E
$GPGSV,3,3,11,03,09,026,19,32,08,312,17,20,04,151,,1*5E
$GLGSV,2,1,07,86,69,050,35,76,61,142,36,87,57,209,31,85,14,037,24,1*74
$GLGSV,2,2,07,69,10,001,27,78,08,319,,68,06,316,20,1*47
$GAGSV,3,1,10,24,71,111,28,12,61,103,25,10,55,152,29,25,53,298,27,7*71
$GAGSV,3,2,10,11,34,180,20,33,23,041,25,31,18,115,21,03,11,274,12,7*70
$GAGSV,3,3,10,08,10,322,19,02,03,296,17,7*7A
$GBGSV,3,1,11,35,77,198,36,26,71,220,32,24,37,305,31,29,37,057,30,1*7C
$GBGSV,3,2,11,44,29,226,25,45,27,152,23,39,12,330,23,12,06,226,17,1*73
$GBGSV,3,3,11,32,03,026,20,16,03,335,,06,01,335,,1*41
$GNRMC,004922.000,A,4910.426026,N,12304.402158,W,0.01,329.93,090125,,,D,V*1A
$GNVTG,329.93,T,,M,0.01,N,0.02,K,D*27
$PAIRLOG,Full*51
$GNGGA,004923.000,4910.426050,N,12304.402092,W,2,31,0.52,-2.987,M,-16.816,M,,*66
$GNGLL,4910.426050,N,12304.402092,W,004923.000,A,D*5C
$GNGSA,A,3,12,06,11,19,24,25,17,03,32,,,,0.91,0.52,0.74,1*05
$GNGSA,A,3,86,76,87,85,69,68,,,,,,,0.91,0.52,0.74,2*02
$GNGSA,A,3,24,12,10,25,11,33,31,03,08,,,,0.91,0.52,0.74,3*05
$GNGSA,A,3,35,26,24,29,44,45,39,,,,,,0.91,0.52,0.74,4*0C
$GPGSV,3,1,11,12,64,299,31,06,61,095,23,11,49,165,28,19,45,063,29,1*69
$GPGSV,3,2,11,24,40,219,25,46,33,188,28,25,23,299,20,17,16,067,18,1*6C
$GPGSV,3,3,11,03,09,026,19,32,08,312,17,20,04,151,,1*5E
$GLGSV,2,1,07,86,69,050,35,76,61,142,36,87,57,209,31,85,14,037,24,1*74
$GLGSV,2,2,07,69,10,001,27,78,08,319,,68,06,316,20,1*47
$GAGSV,3,1,10,24,71,111,28,12,61,103,25,10,55,152,29,25,53,298,27,7*71
$GAGSV,3,2,10,11,34,180,20,33,23,041,25,31,18,115,21,03,11,274,13,7*71
$GAGSV,3,3,10,08,10,322,19,02,03,296,17,7*7A
$GBGSV,3,1,11,35,77,198,36,26,71,220,32,24,37,305,30,29,37,057,30,1*7D
$GBGSV,3,2,11,44,29,226,24,45,27,152,23,39,12,330,23,12,06,226,17,1*72
$GBGSV,3,3,11,32,03,026,20,16,03,335,,06,01,335,,1*41
$GNRMC,004923.000,A,4910.426050,N,12304.402092,W,0.01,329.93,090125,,,D,V*1D
$GNVTG,329.93,T,,M,0.01,N,0.03,K,D*26
$PAIRLOG,Full*51
$GNGGA,004924.000,4910.426038,N,12304.402140,W,2,31,0.52,-2.999,M,-16.816,M,,*6E
$GNGLL,4910.426038,N,12304.402140,W,004924.000,A,D*5B
$GNGSA,A,3,12,06,11,19,24,25,17,03,32,,,,0.91,0.52,0.74,1*05
$GNGSA,A,3,86,76,87,85,69,68,,,,,,,0.91,0.52,0.74,2*02
$GNGSA,A,3,24,12,10,25,11,33,31,03,08,,,,0.91,0.52,0.74,3*05
$GNGSA,A,3,35,26,24,29,44,45,39,,,,,,0.91,0.52,0.74,4*0C
$GPGSV,3,1,11,12,64,299,31,06,61,095,24,11,49,165,28,19,45,063,29,1*6E
$GPGSV,3,2,11,24,40,219,27,46,33,188,28,25,23,299,20,17,16,067,17,1*61
$GPGSV,3,3,11,03,09,026,19,32,08,312,17,20,04,151,,1*5E
$GLGSV,2,1,07,86,69,050,35,76,61,142,36,87,57,209,31,85,14,037,24,1*74
$GLGSV,2,2,07,69,10,001,27,78,08,319,,68,06,316,20,1*47
$GAGSV,3,1,10,24,71,111,28,12,61,103,25,10,55,152,29,25,53,298,28,7*7E
$GAGSV,3,2,10,11,34,180,20,33,23,041,25,31,18,115,22,03,11,274,13,7*72
$GAGSV,3,3,10,08,10,322,19,02,03,296,17,7*7A
$GBGSV,3,1,11,35,77,198,36,26,71,220,32,24,37,305,30,29,37,057,30,1*7D
$GBGSV,3,2,11,44,29,226,24,45,27,152,23,39,12,330,23,12,06,226,17,1*72
$GBGSV,3,3,11,32,03,026,20,16,03,335,,06,01,335,,1*41
$GNRMC,004924.000,A,4910.426038,N,12304.402140,W,0.01,329.93,090125,,,D,V*1A
$GNVTG,329.93,T,,M,0.01,N,0.03,K,D*26
$PAIRLOG,Full*51
$GNGGA,004925.000,4910.426104,N,12304.402026,W,2,31,0.52,-3.061,M,-16.816,M,,*6F
$GNGLL,4910.426104,N,12304.402026,W,004925.000,A,D*55
$GNGSA,A,3,12,06,11,19,24,25,17,03,32,,,,0.91,0.52,0.74,1*05
$GNGSA,A,3,86,76,87,85,69,68,,,,,,,0.91,0.52,0.74,2*02
$GNGSA,A,3,24,12,10,25,11,33,31,03,08,,,,0.91,0.52,0.74,3*05
$GNGSA,A,3,35,26,24,29,44,45,39,,,,,,0.91,0.52,0.74,4*0C
$GPGSV,3,1,11,12,64,299,30,06,61,094,24,11,49,165,28,19,45,063,28,1*6F
$GPGSV,3,2,11,24,40,219,25,46,33,188,28,25,23,299,20,17,16,067,19,1*6D
$GPGSV,3,3,11,03,09,026,19,32,08,312,17,20,04,151,,1*5E
$GLGSV,2,1,07,86,69,050,35,76,61,142,36,87,57,209,31,85,14,037,24,1*74
$GLGSV,2,2,07,69,10,001,26,78,08,319,,68,06,316,20,1*46
$GAGSV,3,1,10,24,71,111,28,12,61,103,25,10,55,152,29,25,53,298,28,7*7E
$GAGSV,3,2,10,11,34,180,20,33,23,041,25,31,18,115,22,03,11,274,13,7*72
$GAGSV,3,3,10,08,10,322,19,02,03,296,17,7*7A
$GBGSV,3,1,11,35,77,198,36,26,71,220,33,24,37,305,30,29,37,057,30,1*7C
$GBGSV,3,2,11,44,29,226,24,45,27,152,23,39,12,330,23,12,06,226,17,1*72
$GBGSV,3,3,11,32,03,026,20,16,03,335,,06,01,335,,1*41
$GNRMC,004925.000,A,4910.426104,N,12304.402026,W,0.02,329.93,090125,,,D,V*17
$GNVTG,329.93,T,,M,0.02,N,0.04,K,D*22
$PAIRLOG,Full*51
$GNGGA,004926.000,4910.426110,N,12304.402038,W,2,31,0.52,-3.118,M,-16.816,M,,*69
$GNGLL,4910.426110,N,12304.402038,W,004926.000,A,D*5C
$GNGSA,A,3,12,06,11,19,24,25,17,03,32,,,,0.91,0.52,0.74,1*05
$GNGSA,A,3,86,76,87,85,69,68,,,,,,,0.91,0.52,0.74,2*02
$GNGSA,A,3,24,12,10,25,11,33,31,03,08,,,,0.91,0.52,0.74,3*05
$GNGSA,A,3,35,26,24,29,44,45,39,,,,,,0.91,0.52,0.74,4*0C
$GPGSV,3,1,11,12,64,299,30,06,61,094,24,11,49,165,28,19,45,063,28,1*6F
$GPGSV,3,2,11,24,40,219,25,46,33,188,28,25,23,299,20,17,16,067,19,1*6D
$GPGSV,3,3,11,03,09,026,19,32,08,312,17,20,04,151,,1*5E
$GLGSV,2,1,07,86,69,050,35,76,61,142,36,87,57,209,31,85,14,037,24,1*74
$GLGSV,2,2,07,69,10,001,26,78,08,319,,68,06,316,20,1*46
$GAGSV,3,1,10,24,71,111,28,12,61,103,25,10,55,152,29,25,53,298,28,7*7E
$GAGSV,3,2,10,11,34,180,20,33,23,041,25,31,18,115,22,03,11,274,14,7*75
$GAGSV,3,3,10,08,10,322,19,02,03,296,17,7*7A
$GBGSV,3,1,11,35,77,198,36,26,71,220,33,24,37,305,30,29,37,057,30,1*7C
$GBGSV,3,2,11,44,29,226,24,45,27,152,23,39,12,330,23,12,06,226,17,1*72
$GBGSV,3,3,11,32,03,026,20,16,03,335,,06,01,335,,1*41
$GNRMC,004926.000,A,4910.426110,N,12304.402038,W,0.02,329.93,090125,,,D,V*1E
$GNVTG,329.93,T,,M,0.02,N,0.04,K,D*22
$PAIRLOG,Full*51
$GNGGA,004927.000,4910.426158,N,12304.401978,W,2,31,0.52,-3.179,M,-16.816,M,,*6D
$GNGLL,4910.426158,N,12304.401978,W,004927.000,A,D*5F
$GNGSA,A,3,12,06,11,19,24,25,17,03,32,,,,0.91,0.52,0.74,1*05
$GNGSA,A,3,86,76,87,85,69,68,,,,,,,0.91,0.52,0.74,2*02
$GNGSA,A,3,24,12,10,25,11,33,31,03,08,,,,0.91,0.52,0.74,3*05
$GNGSA,A,3,35,26,24,29,44,45,39,,,,,,0.91,0.52,0.74,4*0C
$GPGSV,3,1,11,12,64,299,30,06,61,094,25,11,49,165,28,19,45,063,28,1*6E
$GPGSV,3,2,11,24,40,219,27,46,33,188,28,25,23,299,21,17,16,067,19,1*6E
$GPGSV,3,3,11,03,09,026,20,32,08,312,17,20,04,151,,1*54
$GLGSV,2,1,07,86,69,050,35,76,61,142,36,87,57,209,31,85,14,037,24,1*74
