$GNRMC,004858.000,A,4910.418358,N,12304.402152,W,0.09,237.02,090125,,,D,V*15
$GNGGA,004858.000,4910.418358,N,12304.402152,W,2,46,0.54,6.724,M,-16.816,M,,*48
$GNVTG,237.02,T,,M,0.09,N,0.16,K,D*2C
$GNGSA,A,3,12,06,11,19,24,25,17,03,32,,,,0.93,0.54,0.76,1*03
$GNGSA,A,3,86,77,76,87,85,,,,,,,,0.93,0.54,0.76,2*05
$GNGSA,A,3,24,12,10,25,11,33,31,08,,,,,0.93,0.54,0.76,3*00
$GNGSA,A,3,35,26,29,24,44,45,39,,,,,,0.93,0.54,0.76,4*0A
$GPGSV,3,1,11,12,62,299,38,06,61,097,36,11,48,166,36,19,46,063,35,1*63
$GPGSV,3,2,11,24,41,220,34,46,33,188,33,25,22,299,29,17,17,066,22,1*6C
$GPGSV,3,3,11,03,09,028,18,32,08,313,31,20,03,152,21,1*53
$GPGSV,1,1,04,06,61,097,31,11,48,166,28,24,41,220,27,25,22,299,25,8*67
$GLGSV,2,1,08,86,70,051,24,77,66,317,22,76,61,141,28,87,56,208,25,1*74
$GLGSV,2,2,08,85,14,037,20,69,10,002,19,68,06,316,18,75,04,140,14,1*79
$GAGSV,3,1,10,24,71,110,34,12,60,105,30,10,54,152,33,25,52,298,32,7*71
$GAGSV,3,2,10,11,33,180,25,33,24,041,28,31,19,115,25,03,12,274,,7*7D
$GAGSV,3,3,10,08,11,323,25,02,02,296,19,7*7A
$GAGSV,2,1,06,24,71,110,28,12,60,105,24,10,54,152,27,25,52,298,26,1*79
$GAGSV,2,2,06,33,24,041,18,08,11,323,13,1*71
$GBGSV,3,1,09,35,77,198,30,26,71,221,30,29,38,057,29,24,37,305,27,1*70
$GBGSV,3,2,09,44,29,226,21,45,27,152,18,39,12,330,17,12,06,226,12,1*74
$GBGSV,3,3,09,32,03,027,17,1*4E
$GBGSV,2,1,07,35,77,198,26,26,71,221,26,29,38,057,20,24,37,305,25,5*70
$GBGSV,2,2,07,44,29,226,21,45,27,152,20,39,12,330,17,5*44
$GNGLL,4910.418358,N,12304.402152,W,004858.000,A,D*5A
$GNRMC,004859.000,A,4910.418322,N,12304.402086,W,0.09,237.02,090125,,,D,V*11
$GNGGA,004859.000,4910.418322,N,12304.402086,W,2,46,0.54,6.498,M,-16.816,M,,*48
$GNVTG,237.02,T,,M,0.09,N,0.17,K,D*2D
$GNGSA,A,3,12,06,11,19,24,25,17,03,32,,,,0.93,0.54,0.76,1*03
$GNGSA,A,3,86,77,76,87,85,,,,,,,,0.93,0.54,0.76,2*05
$GNGSA,A,3,24,12,10,25,11,33,31,08,,,,,0.93,0.54,0.76,3*00
$GNGSA,A,3,35,26,29,24,44,45,39,,,,,,0.93,0.54,0.76,4*0A
$GPGSV,3,1,11,12,62,299,38,06,61,097,36,11,48,166,36,19,46,063,35,1*63
$GPGSV,3,2,11,24,41,220,33,46,33,188,33,25,22,299,29,17,17,066,22,1*6B
$GPGSV,3,3,11,03,09,028,18,32,08,313,31,20,03,152,21,1*53
$GPGSV,1,1,04,06,61,097,31,11,48,166,28,24,41,220,27,25,22,299,25,8*67
$GLGSV,3,1,09,86,70,051,25,77,66,317,22,76,61,141,28,87,56,208,25,1*75
$GLGSV,3,2,09,85,14,037,20,69,10,002,19,78,08,319,,68,06,316,18,1*73
$GLGSV,3,3,09,75,04,140,14,1*47
$GAGSV,3,1,10,24,71,110,34,12,60,105,30,10,54,152,33,25,52,298,32,7*71
$GAGSV,3,2,10,11,33,180,25,33,24,041,28,31,19,115,25,03,12,274,,7*7D
$GAGSV,3,3,10,08,11,323,25,02,02,296,19,7*7A
$GAGSV,2,1,06,24,71,110,28,12,60,105,24,10,54,152,27,25,52,298,26,1*79
$GAGSV,2,2,06,33,24,041,18,08,11,323,14,1*76
$GBGSV,3,1,10,35,77,198,30,26,71,221,30,29,38,057,29,24,37,305,27,1*78
$GBGSV,3,2,10,44,29,226,21,45,27,152,18,39,12,330,17,12,06,226,12,1*7C
$GBGSV,3,3,10,16,03,335,,32,03,027,17,1*77
$GBGSV,2,1,07,35,77,198,26,26,71,221,26,29,38,057,20,24,37,305,25,5*70
$GBGSV,2,2,07,44,29,226,21,45,27,152,20,39,12,330,17,5*44
$GNGLL,4910.418322,N,12304.402086,W,004859.000,A,D*5E
$GNRMC,004900.000,A,4910.418280,N,12304.401954,W,0.10,237.02,090125,,,D,V*18
$GNGGA,004900.000,4910.418280,N,12304.401954,W,2,46,0.54,6.268,M,-16.817,M,,*41
$GNVTG,237.02,T,,M,0.10,N,0.18,K,D*2A
$GNGSA,A,3,12,06,11,19,24,25,17,03,32,,,,0.93,0.54,0.76,1*03
$GNGSA,A,3,86,77,76,87,85,,,,,,,,0.93,0.54,0.76,2*05
$GNGSA,A,3,24,12,10,25,11,33,31,08,,,,,0.93,0.54,0.76,3*00
$GNGSA,A,3,35,26,29,24,44,45,39,,,,,,0.93,0.54,0.76,4*0A
$GPGSV,3,1,11,12,62,299,38,06,61,097,36,11,48,166,36,19,46,063,35,1*63
$GPGSV,3,2,11,24,41,220,33,46,33,188,33,25,22,299,29,17,17,066,23,1*6A
$GPGSV,3,3,11,03,09,028,18,32,08,313,30,20,03,152,21,1*52
$GPGSV,1,1,04,06,61,097,31,11,48,166,28,24,41,220,27,25,22,299,25,8*67
$GLGSV,2,1,08,86,70,051,25,77,66,317,22,76,61,141,28,87,56,208,25,1*75
$GLGSV,2,2,08,85,14,037,20,69,10,002,19,68,06,316,18,75,04,140,14,1*79
$GAGSV,3,1,10,24,71,110,34,12,60,105,30,10,54,152,33,25,52,298,32,7*71
$GAGSV,3,2,10,11,33,180,25,33,24,041,28,31,19,115,25,03,12,274,,7*7D
$GAGSV,3,3,10,08,11,323,25,02,02,296,19,7*7A
$GAGSV,2,1,06,24,71,110,27,12,60,105,24,10,54,152,27,25,52,298,26,1*76
$GAGSV,2,2,06,33,24,041,18,08,11,323,14,1*76
$GBGSV,3,1,09,35,77,198,30,26,71,221,30,29,38,057,29,24,37,305,26,1*71
$GBGSV,3,2,09,44,29,226,21,45,27,152,18,39,12,330,17,12,06,226,12,1*74
$GBGSV,3,3,09,32,03,027,17,1*4E
$GBGSV,2,1,07,35,77,198,26,26,71,221,26,29,38,057,20,24,37,305,24,5*71
$GBGSV,2,2,07,44,29,226,21,45,27,152,20,39,12,330,17,5*44
$GNGLL,4910.418280,N,12304.401954,W,004900.000,A,D*5F
$GNRMC,004901.000,A,4910.418220,N,12304.401906,W,0.11,237.02,090125,,,D,V*15
$GNGGA,004901.000,4910.418220,N,12304.401906,W,2,46,0.54,6.033,M,-16.816,M,,*40
$GNVTG,237.02,T,,M,0.11,N,0.20,K,D*20
$GNGSA,A,3,12,06,11,19,24,25,17,03,32,,,,0.93,0.54,0.76,1*03
$GNGSA,A,3,86,77,76,87,85,,,,,,,,0.93,0.54,0.76,2*05
$GNGSA,A,3,24,12,10,25,11,33,31,08,,,,,0.93,0.54,0.76,3*00
$GNGSA,A,3,35,26,29,24,44,45,39,,,,,,0.93,0.54,0.76,4*0A
$GPGSV,3,1,11,12,62,299,38,06,61,097,37,11,48,166,36,19,46,063,35,1*62
$GPGSV,3,2,11,24,41,220,33,46,33,188,33,25,22,299,29,17,17,066,23,1*6A
$GPGSV,3,3,11,03,09,028,18,32,08,313,30,20,03,152,21,1*52
$GPGSV,1,1,04,06,61,097,30,11,48,166,28,24,41,220,27,25,22,299,25,8*66
$GLGSV,2,1,08,86,70,051,26,77,66,317,21,76,61,141,28,87,56,208,24,1*74
$GLGSV,2,2,08,85,14,037,20,69,10,002,19,68,06,316,18,75,04,140,14,1*79
$GAGSV,3,1,10,24,71,110,34,12,60,105,30,10,54,152,33,25,52,298,32,7*71
$GAGSV,3,2,10,11,33,180,25,33,24,041,28,31,19,115,26,03,12,274,,7*7E
$GAGSV,3,3,10,08,11,323,25,02,02,296,19,7*7A
$GAGSV,2,1,06,24,71,110,27,12,60,105,24,10,54,152,27,25,52,298,26,1*76
$GAGSV,2,2,06,33,24,041,19,08,11,323,14,1*77
$GBGSV,3,1,09,35,77,198,31,26,71,221,30,29,38,057,29,24,37,305,26,1*70
$GBGSV,3,2,09,44,29,226,21,45,27,152,18,39,12,330,17,12,06,226,12,1*74
$GBGSV,3,3,09,32,03,027,17,1*4E
$GBGSV,2,1,07,35,77,198,26,26,71,221,26,29,38,057,20,24,37,305,24,5*71
$GBGSV,2,2,07,44,29,226,21,45,27,152,20,39,12,330,17,5*44
$GNGLL,4910.418220,N,12304.401906,W,004901.000,A,D*53
$GNRMC,004902.000,A,4910.418184,N,12304.401876,W,0.11,237.02,090125,,,D,V*1D
$GNGGA,004902.000,4910.418184,N,12304.401876,W,2,46,0.54,5.942,M,-16.817,M,,*45
$GNVTG,237.02,T,,M,0.11,N,0.21,K,D*21
$GNGSA,A,3,12,06,11,19,24,25,17,03,32,,,,0.93,0.54,0.76,1*03
$GNGSA,A,3,86,77,76,87,85,,,,,,,,0.93,0.54,0.76,2*05
$GNGSA,A,3,24,12,10,25,11,33,31,08,,,,,0.93,0.54,0.76,3*00
$GNGSA,A,3,35,26,29,24,44,45,39,,,,,,0.93,0.54,0.76,4*0A
$GPGSV,3,1,11,12,62,299,38,06,61,097,37,11,48,166,36,19,46,063,35,1*62
$GPGSV,3,2,11,24,41,220,33,46,33,188,33,25,22,299,29,17,17,066,22,1*6B
$GPGSV,3,3,11,03,09,028,18,32,08,313,30,20,03,152,20,1*53
$GPGSV,1,1,04,06,61,097,30,11,48,166,28,24,41,220,27,25,22,299,25,8*66
$GLGSV,2,1,08,86,70,051,26,77,66,317,22,76,61,141,28,87,56,208,24,1*77
$GLGSV,2,2,08,85,14,037,20,69,10,002,19,68,06,316,18,75,04,140,14,1*79
$GAGSV,3,1,10,24,71,110,34,12,60,105,30,10,54,152,33,25,52,298,32,7*71
$GAGSV,3,2,10,11,33,180,25,33,24,041,28,31,19,115,26,03,12,274,,7*7E
$GAGSV,3,3,10,08,11,323,24,02,02,296,19,7*7B
$GAGSV,2,1,06,24,71,110,27,12,60,105,24,10,54,152,27,25,52,298,26,1*76
$GAGSV,2,2,06,33,24,041,19,08,11,323,13,1*70
$GBGSV,3,1,09,35,77,198,30,26,71,221,29,29,38,057,29,24,37,305,25,1*7A
$GBGSV,3,2,09,44,29,226,21,45,27,152,17,39,12,330,17,12,06,226,12,1*7B
$GBGSV,3,3,09,32,03,027,17,1*4E
$GBGSV,2,1,07,35,77,198,26,26,71,221,26,29,38,057,20,24,37,305,24,5*71
$GBGSV,2,2,07,44,29,226,21,45,27,152,20,39,12,330,17,5*44
$GNGLL,4910.418184,N,12304.401876,W,004902.000,A,D*5B
$GNRMC,004903.000,A,4910.418178,N,12304.401840,W,0.11,237.02,090125,,,D,V*1A
$GNGGA,004903.000,4910.418178,N,12304.401840,W,2,46,0.54,5.862,M,-16.816,M,,*40
$GNVTG,237.02,T,,M,0.11,N,0.21,K,D*21
$GNGSA,A,3,12,06,11,19,24,25,17,03,32,,,,0.93,0.54,0.76,1*03
$GNGSA,A,3,86,77,76,87,85,,,,,,,,0.93,0.54,0.76,2*05
$GNGSA,A,3,24,12,10,25,11,33,31,08,,,,,0.93,0.54,0.76,3*00
$GNGSA,A,3,35,26,29,24,44,45,39,,,,,,0.93,0.54,0.76,4*0A
$GPGSV,3,1,11,12,62,299,38,06,61,097,37,11,48,166,36,19,46,063,35,1*62
$GPGSV,3,2,11,24,41,220,33,46,33,188,33,25,22,299,29,17,17,066,21,1*68
$GPGSV,3,3,11,03,09,028,18,32,08,313,30,20,03,152,19,1*59
$GPGSV,1,1,04,06,61,097,30,11,48,166,28,24,41,220,28,25,22,299,25,8*69
$GLGSV,2,1,08,86,70,051,26,77,66,317,22,76,61,141,28,87,56,208,24,1*77
$GLGSV,2,2,08,85,14,037,19,69,10,002,19,68,06,316,18,75,04,140,15,1*72
$GAGSV,3,1,10,24,71,110,34,12,60,105,30,10,54,152,33,25,52,298,32,7*71
$GAGSV,3,2,10,11,33,180,25,33,24,041,28,31,19,115,26,03,12,274,,7*7E
$GAGSV,3,3,10,08,11,323,24,02,02,296,19,7*7B
$GAGSV,2,1,06,24,71,110,27,12,60,105,24,10,54,152,28,25,52,298,27,1*78
$GAGSV,2,2,06,33,24,041,19,08,11,323,13,1*70
$GBGSV,3,1,09,35,77,198,30,26,71,221,29,29,38,057,29,24,37,305,26,1*79
$GBGSV,3,2,09,44,29,226,21,45,27,152,17,39,12,330,17,12,06,226,11,1*78
$GBGSV,3,3,09,32,03,027,17,1*4E
$GBGSV,2,1,07,35,77,198,26,26,71,221,26,29,38,057,20,24,37,305,24,5*71
$GBGSV,2,2,07,44,29,226,21,45,27,152,20,39,12,330,17,5*44
$GNGLL,4910.418178,N,12304.401840,W,004903.000,A,D*5C
$GNRMC,004904.000,A,4910.418172,N,12304.401828,W,0.11,237.02,090125,,,D,V*19
$GNGGA,004904.000,4910.418172,N,12304.401828,W,2,44,0.55,5.580,M,-16.816,M,,*41
$GNVTG,237.02,T,,M,0.11,N,0.21,K,D*21
$GNGSA,A,3,12,06,11,19,24,25,17,03,32,,,,0.96,0.55,0.78,1*09
$GNGSA,A,3,86,77,76,87,85,,,,,,,,0.96,0.55,0.78,2*0F
$GNGSA,A,3,24,12,10,25,11,33,31,,,,,,0.96,0.55,0.78,3*02
$GNGSA,A,3,35,26,29,24,44,45,39,,,,,,0.96,0.55,0.78,4*00
$GPGSV,3,1,11,12,62,299,38,06,61,097,37,11,48,166,36,19,46,063,35,1*62
$GPGSV,3,2,11,24,41,220,33,46,33,188,33,25,22,299,29,17,17,066,23,1*6A
$GPGSV,3,3,11,03,09,028,19,32,08,313,30,20,03,152,19,1*58
$GPGSV,1,1,04,06,61,097,30,11,48,166,29,24,41,220,28,25,22,299,25,8*68
$GLGSV,2,1,08,86,70,051,26,77,66,317,22,76,61,141,28,87,56,208,24,1*77
$GLGSV,2,2,08,85,14,037,19,69,10,002,19,68,06,316,18,75,04,140,15,1*72
$GAGSV,3,1,10,24,71,110,34,12,60,105,30,10,54,152,33,25,52,298,32,7*71
$GAGSV,3,2,10,11,33,180,25,33,24,041,28,31,19,115,26,03,12,274,,7*7E
$GAGSV,3,3,10,08,11,323,,02,02,296,19,7*7D
$GAGSV,2,1,05,24,71,110,27,12,60,105,24,10,54,152,28,25,52,298,27,1*7B
$GAGSV,2,2,05,33,24,041,19,1*4B
$GBGSV,3,1,09,35,77,198,30,26,71,221,29,29,38,057,29,24,37,305,26,1*79
$GBGSV,3,2,09,44,29,226,21,45,27,152,17,39,12,330,17,12,06,226,11,1*78
$GBGSV,3,3,09,32,03,027,17,1*4E
$GBGSV,2,1,07,35,77,198,26,26,71,221,26,29,38,057,20,24,37,305,24,5*71
$GBGSV,2,2,07,44,29,226,21,45,27,152,20,39,12,330,17,5*44
$GNGLL,4910.418172,N,12304.401828,W,004904.000,A,D*5F
$GNRMC,004905.000,A,4910.418154,N,12304.401798,W,0.10,237.02,090125,,,D,V*19
$GNGGA,004905.000,4910.418154,N,12304.401798,W,2,44,0.55,5.235,M,-16.816,M,,*49
$GNVTG,237.02,T,,M,0.10,N,0.19,K,D*2B
$GNGSA,A,3,12,06,11,19,24,25,17,03,32,,,,0.96,0.55,0.78,1*09
$GNGSA,A,3,86,77,76,87,85,,,,,,,,0.96,0.55,0.78,2*0F
$GNGSA,A,3,24,12,10,25,11,33,31,,,,,,0.96,0.55,0.78,3*02
$GNGSA,A,3,35,26,29,24,44,45,39,,,,,,0.96,0.55,0.78,4*00
$GPGSV,3,1,11,12,62,299,38,06,61,097,37,11,48,166,36,19,46,063,35,1*62
$GPGSV,3,2,11,24,41,220,33,46,33,188,33,25,22,299,29,17,17,066,22,1*6B
$GPGSV,3,3,11,03,09,027,20,32,08,313,30,20,03,152,19,1*5D
$GPGSV,1,1,04,06,61,097,30,11,48,166,29,24,41,220,28,25,22,299,25,8*68
$GLGSV,2,1,08,86,70,051,26,77,66,317,20,76,61,141,28,87,56,208,24,1*75
$GLGSV,2,2,08,85,14,037,20,69,10,002,19,68,06,316,18,75,04,140,15,1*78
$GAGSV,3,1,10,24,71,110,34,12,60,105,31,10,54,152,33,25,52,298,32,7*70
$GAGSV,3,2,10,11,33,180,25,33,24,041,28,31,19,115,26,03,12,274,,7*7E
$GAGSV,3,3,10,08,11,323,,02,02,296,20,7*77
$GAGSV,2,1,05,24,71,110,27,12,60,105,24,10,54,152,28,25,52,298,27,1*7B
$GAGSV,2,2,05,33,24,041,19,1*4B
$GBGSV,3,1,09,35,77,198,30,26,71,221,29,29,38,057,29,24,37,305,27,1*78
$GBGSV,3,2,09,44,29,226,21,45,27,152,17,39,12,330,17,12,06,226,,1*78
$GBGSV,3,3,09,32,03,027,18,1*41
$GBGSV,2,1,07,35,77,198,26,26,71,221,26,29,38,057,20,24,37,305,24,5*71
$GBGSV,2,2,07,44,29,226,21,45,27,152,20,39,12,330,17,5*44
$GNGLL,4910.418154,N,12304.401798,W,004905.000,A,D*5E
$GNRMC,004906.000,A,4910.418076,N,12304.401798,W,0.10,237.02,090125,,,D,V*1B
$GNGGA,004906.000,4910.418076,N,12304.401798,W,2,45,0.54,5.219,M,-16.817,M,,*44
$GNVTG,237.02,T,,M,0.10,N,0.18,K,D*2A
$GNGSA,A,3,12,06,11,19,24,25,17,03,32,,,,0.93,0.54,0.76,1*03
$GNGSA,A,3,86,77,76,87,85,,,,,,,,0.93,0.54,0.76,2*05
$GNGSA,A,3,24,12,10,25,11,33,31,08,,,,,0.93,0.54,0.76,3*00
$GNGSA,A,3,35,26,29,24,44,45,39,,,,,,0.93,0.54,0.76,4*0A
$GPGSV,3,1,11,12,62,299,38,06,61,097,37,11,48,166,36,19,46,063,36,1*61
$GPGSV,3,2,11,24,41,220,34,46,33,188,33,25,22,299,30,17,17,066,23,1*65
$GPGSV,3,3,11,03,09,027,21,32,08,313,30,20,03,152,19,1*5C
$GPGSV,1,1,04,06,61,097,30,11,48,166,29,24,41,220,28,25,22,299,25,8*68
$GLGSV,2,1,08,86,70,051,26,77,66,317,22,76,61,141,28,87,56,208,24,1*77
$GLGSV,2,2,08,85,14,037,20,69,10,002,19,68,06,316,18,75,04,140,14,1*79
$GAGSV,3,1,10,24,71,110,35,12,60,105,31,10,54,152,34,25,52,298,33,7*77
$GAGSV,3,2,10,11,33,180,25,33,24,041,29,31,19,115,26,03,12,274,,7*7F
$GAGSV,3,3,10,08,11,323,25,02,02,296,20,7*70
$GAGSV,2,1,05,24,71,110,27,12,60,105,24,10,54,152,28,25,52,298,27,1*7B
$GAGSV,2,2,05,33,24,041,19,1*4B
$GBGSV,3,1,10,35,77,198,30,26,71,221,29,29,38,057,29,24,37,305,27,1*70
$GBGSV,3,2,10,44,29,226,20,45,27,152,17,39,12,330,17,12,06,226,,1*71
$GBGSV,3,3,10,16,03,335,,32,03,027,18,1*78
$GBGSV,2,1,07,35,77,198,26,26,71,221,26,29,38,057,21,24,37,305,24,5*70
$GBGSV,2,2,07,44,29,226,21,45,27,152,20,39,12,330,17,5*44
$GNGLL,4910.418076,N,12304.401798,W,004906.000,A,D*5C
$GNRMC,004907.000,A,4910.418076,N,12304.401750,W,0.09,237.02,090125,,,D,V*16
$GNGGA,004907.000,4910.418076,N,12304.401750,W,2,45,0.54,5.244,M,-16.816,M,,*48
$GNVTG,237.02,T,,M,0.09,N,0.16,K,D*2C
$GNGSA,A,3,12,06,11,19,24,25,17,03,32,,,,0.93,0.54,0.76,1*03
$GNGSA,A,3,86,77,76,87,85,,,,,,,,0.93,0.54,0.76,2*05
$GNGSA,A,3,24,12,10,25,11,33,31,08,,,,,0.93,0.54,0.76,3*00
$GNGSA,A,3,35,26,29,24,44,45,39,,,,,,0.93,0.54,0.76,4*0A
$GPGSV,3,1,11,12,62,299,38,06,61,097,37,11,48,166,36,19,46,063,36,1*61
$GPGSV,3,2,11,24,41,220,34,46,33,188,33,25,22,299,29,17,17,066,22,1*6C
$GPGSV,3,3,11,03,09,027,21,32,08,313,30,20,03,152,19,1*5C
$GPGSV,1,1,04,06,61,097,30,11,48,166,29,24,41,220,28,25,22,299,25,8*68
$GLGSV,2,1,08,86,70,051,25,77,66,317,23,76,61,141,28,87,56,208,24,1*75
$GLGSV,2,2,08,85,14,037,20,69,10,002,19,68,06,316,18,75,04,140,14,1*79
$GAGSV,3,1,10,24,71,110,34,12,60,105,31,10,54,152,34,25,52,298,33,7*76
$GAGSV,3,2,10,11,33,180,25,33,24,041,29,31,19,115,26,03,12,274,,7*7F
$GAGSV,3,3,10,08,11,323,25,02,02,296,20,7*70
$GAGSV,2,1,05,24,71,110,27,12,60,105,24,10,54,152,28,25,52,298,27,1*7B
$GAGSV,2,2,05,33,24,041,18,1*4A
$GBGSV,3,1,10,35,77,198,30,26,71,221,29,29,38,057,29,24,37,305,27,1*70
$GBGSV,3,2,10,44,29,226,20,45,27,152,17,39,12,330,17,12,06,226,,1*71
$GBGSV,3,3,10,16,03,335,,32,03,027,18,1*78
$GBGSV,2,1,07,35,77,198,26,26,71,221,26,29,38,057,21,24,37,305,24,5*70
$GBGSV,2,2,07,44,29,226,21,45,27,152,20,39,12,330,17,5*44
$GNGLL,4910.418076,N,12304.401750,W,004907.000,A,D*59
$GNRMC,004908.000,A,4910.418034,N,12304.401642,W,0.09,237.02,090125,,,D,V*1D
$GNGGA,004908.000,4910.418034,N,12304.401642,W,2,45,0.54,5.047,M,-16.816,M,,*42
$GNVTG,237.02,T,,M,0.09,N,0.16,K,D*2C
$GNGSA,A,3,12,06,11,19,24,25,17,03,32,,,,0.93,0.54,0.76,1*03
$GNGSA,A,3,86,77,76,87,85,,,,,,,,0.93,0.54,0.76,2*05
$GNGSA,A,3,24,12,10,25,11,33,31,08,,,,,0.93,0.54,0.76,3*00
$GNGSA,A,3,35,26,29,24,44,45,39,,,,,,0.93,0.54,0.76,4*0A
$GPGSV,3,1,11,12,62,299,38,06,61,095,37,11,48,166,36,19,46,063,36,1*63
$GPGSV,3,2,11,24,41,220,34,46,33,188,33,25,22,299,29,17,17,066,23,1*6D
$GPGSV,3,3,11,03,09,027,21,32,08,313,30,20,03,152,18,1*5D
$GPGSV,1,1,04,06,61,095,30,11,48,166,29,24,41,220,28,25,22,299,25,8*6A
$GLGSV,2,1,08,86,70,051,25,77,66,317,23,76,61,141,28,87,56,208,24,1*75
$GLGSV,2,2,08,85,14,037,20,69,10,002,19,68,06,316,17,75,04,140,14,1*76
$GAGSV,3,1,10,24,71,110,34,12,60,105,31,10,54,152,34,25,52,298,33,7*76
$GAGSV,3,2,10,11,33,180,25,33,24,041,28,31,19,115,26,03,12,274,,7*7E
$GAGSV,3,3,10,08,11,323,25,02,02,296,20,7*70
$GAGSV,2,1,05,24,71,110,27,12,60,105,24,10,54,152,28,25,52,298,27,1*7B
$GAGSV,2,2,05,33,24,041,18,1*4A
$GBGSV,3,1,10,35,77,198,29,26,71,221,28,29,38,057,28,24,37,305,26,1*79
$GBGSV,3,2,10,44,29,226,20,45,27,152,17,39,12,330,17,12,06,226,,1*71
$GBGSV,3,3,10,16,03,335,,32,03,027,18,1*78
$GBGSV,2,1,07,35,77,198,26,26,71,221,26,29,38,057,21,24,37,305,24,5*70
$GBGSV,2,2,07,44,29,226,21,45,27,152,20,39,12,330,18,5*4B
$GNGLL,4910.418034,N,12304.401642,W,004908.000,A,D*52
$GNRMC,004909.000,A,4910.418004,N,12304.401624,W,0.09,237.02,090125,,,D,V*1F
$GNGGA,004909.000,4910.418004,N,12304.401624,W,2,45,0.54,4.878,M,-16.816,M,,*45
$GNVTG,237.02,T,,M,0.09,N,0.16,K,D*2C
$GNGSA,A,3,12,06,11,19,24,25,17,03,32,,,,0.93,0.54,0.76,1*03
$GNGSA,A,3,86,77,76,87,85,,,,,,,,0.93,0.54,0.76,2*05
$GNGSA,A,3,24,12,10,25,11,33,31,08,,,,,0.93,0.54,0.76,3*00
$GNGSA,A,3,35,26,29,24,44,45,39,,,,,,0.93,0.54,0.76,4*0A
$GPGSV,3,1,11,12,62,299,38,06,61,095,37,11,48,166,36,19,46,063,36,1*63
$GPGSV,3,2,11,24,41,220,34,46,33,188,33,25,22,299,29,17,17,066,24,1*6A
$GPGSV,3,3,11,03,09,027,21,32,08,313,30,20,03,152,18,1*5D
$GPGSV,1,1,04,06,61,095,31,11,48,166,29,24,41,220,28,25,22,299,25,8*6B
$GLGSV,2,1,08,86,70,051,24,77,66,317,20,76,61,141,28,87,56,208,24,1*77
$GLGSV,2,2,08,85,14,037,20,69,10,002,19,68,06,316,17,75,04,140,14,1*76
$GAGSV,3,1,10,24,71,110,34,12,60,105,31,10,54,152,34,25,52,298,33,7*76
$GAGSV,3,2,10,11,33,180,25,33,24,041,28,31,19,115,25,03,12,274,,7*7D
$GAGSV,3,3,10,08,11,323,24,02,02,296,21,7*70
$GAGSV,2,1,05,24,71,110,27,12,60,105,24,10,54,152,28,25,52,298,27,1*7B
$GAGSV,2,2,05,33,24,041,18,1*4A
$GBGSV,3,1,10,35,77,198,29,26,71,221,28,29,38,057,28,24,37,305,26,1*79
$GBGSV,3,2,10,44,29,226,20,45,27,152,17,39,12,330,17,12,06,226,,1*71
$GBGSV,3,3,10,16,03,335,,32,03,027,18,1*78
$GBGSV,2,1,07,35,77,198,26,26,71,221,26,29,38,057,22,24,37,305,24,5*73
$GBGSV,2,2,07,44,29,226,21,45,27,152,20,39,12,330,18,5*4B
$GNGLL,4910.418004,N,12304.401624,W,004909.000,A,D*50
$GNRMC,004910.000,A,4910.417974,N,12304.401642,W,0.09,237.02,090125,,,D,V*16
$GNGGA,004910.000,4910.417974,N,12304.401642,W,2,45,0.54,4.635,M,-16.816,M,,*4B
$GNVTG,237.02,T,,M,0.09,N,0.16,K,D*2C
$GNGSA,A,3,12,06,11,19,24,25,17,03,32,,,,0.93,0.54,0.76,1*03
$GNGSA,A,3,86,77,76,87,85,,,,,,,,0.93,0.54,0.76,2*05
$GNGSA,A,3,24,12,10,25,11,33,31,08,,,,,0.93,0.54,0.76,3*00
$GNGSA,A,3,35,26,29,24,44,45,39,,,,,,0.93,0.54,0.76,4*0A
$GPGSV,3,1,11,12,62,299,38,06,61,095,37,11,48,166,36,19,46,063,36,1*63
$GPGSV,3,2,11,24,41,220,34,46,33,188,33,25,22,299,29,17,17,066,24,1*6A
$GPGSV,3,3,11,03,09,027,21,32,08,313,30,20,03,152,18,1*5D
$GPGSV,1,1,04,06,61,095,31,11,48,166,29,24,41,220,28,25,22,299,24,8*6A
$GLGSV,2,1,08,86,70,051,24,77,66,317,20,76,61,141,29,87,56,208,24,1*76
$GLGSV,2,2,08,85,14,037,20,69,10,002,19,68,06,316,17,75,04,140,14,1*76
$GAGSV,3,1,10,24,71,110,34,12,60,105,31,10,54,152,34,25,52,298,33,7*76
$GAGSV,3,2,10,11,33,180,25,33,24,041,28,31,19,115,25,03,12,274,,7*7D
$GAGSV,3,3,10,08,11,323,24,02,02,296,21,7*70
$GAGSV,2,1,05,24,71,110,27,12,60,105,24,10,54,152,27,25,52,298,26,1*75
$GAGSV,2,2,05,33,24,041,18,1*4A
$GBGSV,3,1,10,35,77,198,29,26,71,221,28,29,38,057,28,24,37,305,26,1*79
$GBGSV,3,2,10,44,29,226,20,45,27,152,16,39,12,330,17,12,06,226,,1*70
$GBGSV,3,3,10,16,03,335,,32,03,027,17,1*77
$GBGSV,2,1,07,35,77,198,26,26,71,221,26,29,38,057,21,24,37,305,24,5*70
$GBGSV,2,2,07,44,29,226,21,45,27,152,20,39,12,330,18,5*4B
$GNGLL,4910.417974,N,12304.401642,W,004910.000,A,D*59
$GNRMC,004911.000,A,4910.418034,N,12304.401642,W,0.09,237.02,090125,,,D,V*15
$GNGGA,004911.000,4910.418034,N,12304.401642,W,2,45,0.54,4.406,M,-16.816,M,,*4A
$GNVTG,237.02,T,,M,0.09,N,0.16,K,D*2C
$GNGSA,A,3,12,06,11,19,24,25,17,03,32,,,,0.93,0.54,0.76,1*03
$GNGSA,A,3,86,77,76,87,85,,,,,,,,0.93,0.54,0.76,2*05
$GNGSA,A,3,24,12,10,25,11,33,31,08,,,,,0.93,0.54,0.76,3*00
$GNGSA,A,3,35,26,29,24,44,45,39,,,,,,0.93,0.54,0.76,4*0A
$GPGSV,3,1,11,12,62,299,38,06,61,095,37,11,48,166,36,19,46,063,36,1*63
$GPGSV,3,2,11,24,41,220,34,46,33,188,32,25,22,299,29,17,17,066,23,1*6C
$GPGSV,3,3,11,03,09,027,21,32,08,313,30,20,03,152,18,1*5D
$GPGSV,1,1,04,06,61,095,31,11,48,166,28,24,41,220,27,25,22,299,24,8*64
$GLGSV,2,1,08,86,70,051,24,77,66,317,22,76,61,141,29,87,56,208,24,1*74
$GLGSV,2,2,08,85,14,037,19,69,10,002,19,68,06,316,17,75,04,140,14,1*7C
$GAGSV,3,1,10,24,71,110,34,12,60,105,31,10,54,152,34,25,52,298,33,7*76
$GAGSV,3,2,10,11,33,180,25,33,24,041,28,31,19,115,25,03,12,274,,7*7D
$GAGSV,3,3,10,08,11,323,24,02,02,296,20,7*71
$GAGSV,2,1,05,24,71,110,27,12,60,105,24,10,54,152,27,25,52,298,26,1*75
$GAGSV,2,2,05,33,24,041,18,1*4A
$GBGSV,3,1,10,35,77,198,30,26,71,221,28,29,38,057,28,24,37,305,27,1*70
$GBGSV,3,2,10,44,29,226,21,45,27,152,16,39,12,330,18,12,06,226,,1*7E
$GBGSV,3,3,10,16,03,335,,32,03,027,17,1*77
$GBGSV,2,1,07,35,77,198,26,26,71,221,26,29,38,057,20,24,37,305,24,5*71
$GBGSV,2,2,07,44,29,226,21,45,27,152,20,39,12,330,18,5*4B
$GNGLL,4910.418034,N,12304.401642,W,004911.000,A,D*5A
$GNRMC,004912.000,A,4910.418028,N,12304.401552,W,0.08,237.02,090125,,,D,V*18
$GNGGA,004912.000,4910.418028,N,12304.401552,W,2,45,0.54,4.223,M,-16.817,M,,*46
$GNVTG,237.02,T,,M,0.08,N,0.15,K,D*2E
$GNGSA,A,3,12,06,11,19,24,25,17,03,32,,,,0.93,0.54,0.76,1*03
$GNGSA,A,3,86,77,76,87,85,,,,,,,,0.93,0.54,0.76,2*05
$GNGSA,A,3,24,12,10,25,11,33,31,08,,,,,0.93,0.54,0.76,3*00
$GNGSA,A,3,35,26,29,24,44,45,39,,,,,,0.93,0.54,0.76,4*0A
$GPGSV,3,1,11,12,62,299,38,06,61,095,37,11,48,166,36,19,46,063,36,1*63
$GPGSV,3,2,11,24,41,220,34,46,33,188,32,25,22,299,29,17,17,066,23,1*6C
$GPGSV,3,3,11,03,09,027,22,32,08,313,30,20,03,152,18,1*5E
$GPGSV,1,1,04,06,61,095,31,11,48,166,28,24,41,220,27,25,22,299,24,8*64
$GLGSV,2,1,08,86,70,051,24,77,66,317,23,76,61,141,29,87,56,208,23,1*72
$GLGSV,2,2,08,85,14,037,19,69,10,002,19,68,06,316,18,75,04,140,14,1*73
$GAGSV,3,1,10,24,71,110,35,12,60,105,31,10,54,152,34,25,52,298,33,7*77
$GAGSV,3,2,10,11,33,180,25,33,24,041,28,31,19,115,25,03,12,274,,7*7D
$GAGSV,3,3,10,08,11,323,24,02,02,296,21,7*70
$GAGSV,2,1,05,24,71,110,27,12,60,105,24,10,54,152,28,25,52,298,26,1*7A
$GAGSV,2,2,05,33,24,041,18,1*4A
$GBGSV,3,1,10,35,77,198,31,26,71,221,29,29,38,057,29,24,37,305,28,1*7E
$GBGSV,3,2,10,44,29,226,22,45,27,152,17,39,12,330,19,12,06,226,,1*7D
$GBGSV,3,3,10,16,03,335,,32,03,027,17,1*77
$GBGSV,2,1,07,35,77,198,26,26,71,221,26,29,38,057,20,24,37,305,24,5*71
$GBGSV,2,2,07,44,29,226,21,45,27,152,20,39,12,330,18,5*4B
$GNGLL,4910.418028,N,12304.401552,W,004912.000,A,D*56
$GNRMC,004913.000,A,4910.417992,N,12304.401504,W,0.08,237.02,090125,,,D,V*1D
$GNGGA,004913.000,4910.417992,N,12304.401504,W,2,45,0.54,3.966,M,-16.816,M,,*4F
$GNVTG,237.02,T,,M,0.08,N,0.14,K,D*2F
$GNGSA,A,3,12,06,11,19,24,25,17,03,32,,,,0.93,0.54,0.76,1*03
$GNGSA,A,3,86,77,76,87,85,,,,,,,,0.93,0.54,0.76,2*05
$GNGSA,A,3,24,12,10,25,11,33,31,08,,,,,0.93,0.54,0.76,3*00
$GNGSA,A,3,35,26,29,24,44,45,39,,,,,,0.93,0.54,0.76,4*0A
$GPGSV,3,1,11,12,62,299,38,06,61,095,37,11,49,165,36,19,46,063,36,1*61
$GPGSV,3,2,11,24,41,220,34,46,33,188,33,25,22,299,30,17,17,066,23,1*65
$GPGSV,3,3,11,03,09,027,23,32,08,313,30,20,03,152,18,1*5F
$GPGSV,1,1,04,06,61,095,31,11,49,165,28,24,41,220,27,25,22,299,24,8*66
$GLGSV,2,1,08,86,70,051,24,77,66,317,23,76,61,141,29,87,56,208,23,1*72
$GLGSV,2,2,08,85,14,037,19,69,10,002,19,68,06,316,18,75,04,140,14,1*73
$GAGSV,3,1,10,24,71,110,35,12,60,105,31,10,54,152,34,25,52,298,33,7*77
$GAGSV,3,2,10,11,33,180,26,33,24,041,29,31,19,115,25,03,12,274,,7*7F
$GAGSV,3,3,10,08,11,323,24,02,02,296,21,7*70
$GAGSV,2,1,05,24,71,110,27,12,60,105,24,10,54,152,28,25,52,298,26,1*7A
$GAGSV,2,2,05,33,24,041,18,1*4A
$GBGSV,3,1,10,35,77,198,31,26,71,221,30,29,38,057,29,24,37,305,28,1*76
$GBGSV,3,2,10,44,29,226,22,45,27,152,18,39,12,330,19,12,06,226,,1*72
$GBGSV,3,3,10,16,03,335,,32,03,027,18,1*78
$GBGSV,2,1,07,35,77,198,26,26,71,221,26,29,38,057,20,24,37,305,24,5*71
$GBGSV,2,2,07,44,29,226,21,45,27,152,20,39,12,330,18,5*4B
$GNGLL,4910.417992,N,12304.401504,W,004913.000,A,D*53
$GNRMC,004914.000,A,4910.417980,N,12304.401498,W,0.08,237.02,090125,,,D,V*1D
$GNGGA,004914.000,4910.417980,N,12304.401498,W,2,45,0.54,3.905,M,-16.817,M,,*4B
$GNVTG,237.02,T,,M,0.08,N,0.14,K,D*2F
$GNGSA,A,3,12,06,11,19,24,25,17,03,32,,,,0.93,0.54,0.76,1*03
$GNGSA,A,3,86,77,76,87,85,,,,,,,,0.93,0.54,0.76,2*05
$GNGSA,A,3,24,12,10,25,11,33,31,08,,,,,0.93,0.54,0.76,3*00
$GNGSA,A,3,35,26,29,24,44,45,39,,,,,,0.93,0.54,0.76,4*0A
$GPGSV,3,1,11,12,64,299,38,06,61,095,37,11,49,165,36,19,46,063,36,1*67
$GPGSV,3,2,11,24,41,220,34,46,33,188,33,25,22,299,30,17,17,066,23,1*65
$GPGSV,3,3,11,03,09,027,23,32,08,313,30,20,03,152,17,1*50
$GPGSV,1,1,04,06,61,095,30,11,49,165,28,24,41,220,26,25,22,299,23,8*61
$GLGSV,2,1,08,86,70,051,24,77,66,317,23,76,61,141,29,87,56,208,23,1*72
$GLGSV,2,2,08,85,14,037,19,69,10,002,18,68,06,316,18,75,04,140,13,1*75
$GAGSV,3,1,10,24,71,110,34,12,60,105,30,10,54,152,34,25,52,298,33,7*77
$GAGSV,3,2,10,11,33,180,26,33,24,041,29,31,19,115,24,03,12,274,,7*7E
$GAGSV,3,3,10,08,11,323,23,02,02,296,21,7*77
$GAGSV,2,1,05,24,71,110,27,12,60,105,23,10,54,152,27,25,52,298,26,1*72
$GAGSV,2,2,05,33,24,041,18,1*4A
$GBGSV,3,1,10,35,77,198,31,26,71,221,30,29,38,057,29,24,37,305,28,1*76
$GBGSV,3,2,10,44,29,226,22,45,27,152,19,39,12,330,19,12,06,226,,1*73
$GBGSV,3,3,10,16,03,335,,32,03,027,18,1*78
$GBGSV,2,1,07,35,77,198,25,26,71,221,25,29,38,057,20,24,37,305,23,5*76
$GBGSV,2,2,07,44,29,226,21,45,27,152,19,39,12,330,18,5*41
$GNGLL,4910.417980,N,12304.401498,W,004914.000,A,D*53
$GNRMC,004915.000,A,4910.417962,N,12304.401438,W,0.07,237.02,090125,,,D,V*15
$GNGGA,004915.000,4910.417962,N,12304.401438,W,2,45,0.55,3.636,M,-16.816,M,,*43
$GNVTG,237.02,T,,M,0.07,N,0.13,K,D*27
$GNGSA,A,3,12,06,11,19,24,25,17,03,32,,,,0.94,0.55,0.76,1*05
$GNGSA,A,3,86,77,76,87,85,,,,,,,,0.94,0.55,0.76,2*03
$GNGSA,A,3,24,12,10,25,11,33,31,08,,,,,0.94,0.55,0.76,3*06
$GNGSA,A,3,35,26,29,24,44,45,39,,,,,,0.94,0.55,0.76,4*0C
$GPGSV,3,1,11,12,64,299,38,06,61,095,37,11,49,165,36,19,46,063,36,1*67
$GPGSV,3,2,11,24,41,220,34,46,33,188,33,25,22,299,30,17,17,066,23,1*65
$GPGSV,3,3,11,03,09,027,23,32,08,313,30,20,03,152,17,1*50
$GPGSV,1,1,04,06,61,095,30,11,49,165,28,24,41,220,26,25,22,299,23,8*61
$GLGSV,2,1,08,86,70,051,24,77,66,317,24,76,61,141,29,87,56,208,23,1*75
$GLGSV,2,2,08,85,14,037,19,69,10,002,18,68,06,316,18,75,04,140,13,1*75
$GAGSV,3,1,10,24,71,110,34,12,60,105,30,10,54,152,34,25,52,298,33,7*77
$GAGSV,3,2,10,11,33,180,25,33,24,041,29,31,19,115,24,03,12,274,,7*7D
$GAGSV,3,3,10,08,11,323,24,02,02,296,21,7*70
$GAGSV,2,1,05,24,71,110,26,12,60,105,23,10,54,152,27,25,52,298,26,1*73
$GAGSV,2,2,05,33,24,041,18,1*4A
$GBGSV,3,1,10,35,77,198,32,26,71,221,31,29,38,057,29,24,37,305,29,1*75
$GBGSV,3,2,10,44,29,226,22,45,27,152,19,39,12,330,19,12,06,226,,1*73
$GBGSV,3,3,10,16,03,335,,32,03,027,18,1*78
$GBGSV,2,1,07,35,77,198,25,26,71,221,25,29,38,057,19,24,37,305,22,5*7D
$GBGSV,2,2,07,44,29,226,20,45,27,152,19,39,12,330,17,5*4F
$GNGLL,4910.417962,N,12304.401438,W,004915.000,A,D*54
$GNRMC,004916.000,A,4910.417926,N,12304.401336,W,0.07,237.02,090125,,,D,V*1F
$GNGGA,004916.000,4910.417926,N,12304.401336,W,2,45,0.55,3.393,M,-16.816,M,,*43
$GNVTG,237.02,T,,M,0.07,N,0.13,K,D*27
$GNGSA,A,3,12,06,11,19,24,25,17,03,32,,,,0.94,0.55,0.76,1*05
$GNGSA,A,3,86,77,76,87,85,,,,,,,,0.94,0.55,0.76,2*03
$GNGSA,A,3,24,12,10,25,11,33,31,08,,,,,0.94,0.55,0.76,3*06
$GNGSA,A,3,35,26,29,24,44,45,39,,,,,,0.94,0.55,0.76,4*0C
$GPGSV,3,1,11,12,64,299,39,06,61,095,37,11,49,165,36,19,46,063,36,1*66
$GPGSV,3,2,11,24,41,220,34,46,33,188,33,25,22,299,30,17,17,066,23,1*65
$GPGSV,3,3,11,03,09,027,23,32,08,313,30,20,03,152,17,1*50
$GPGSV,1,1,04,06,61,095,30,11,49,165,28,24,41,220,26,25,22,299,23,8*61
$GLGSV,2,1,08,86,70,051,24,77,66,317,24,76,61,141,28,87,56,208,23,1*74
$GLGSV,2,2,08,85,14,037,19,69,10,002,18,68,06,316,18,75,04,140,13,1*75
$GAGSV,3,1,10,24,71,110,34,12,60,105,30,10,54,152,34,25,52,298,33,7*77
$GAGSV,3,2,10,11,33,180,26,33,24,041,29,31,19,115,25,03,12,274,,7*7F
$GAGSV,3,3,10,08,11,323,24,02,02,296,21,7*70
$GAGSV,2,1,05,24,71,110,26,12,60,105,23,10,54,152,27,25,52,298,26,1*73
$GAGSV,2,2,05,33,24,041,18,1*4A
$GBGSV,3,1,09,35,77,198,32,26,71,221,31,29,38,057,29,24,37,305,30,1*75
$GBGSV,3,2,09,44,29,226,23,45,27,152,19,39,12,330,19,32,03,027,19,1*76
$GBGSV,3,3,09,16,03,335,,1*4E
$GBGSV,2,1,07,35,77,198,25,26,71,221,25,29,38,057,19,24,37,305,22,5*7D
$GBGSV,2,2,07,44,29,226,20,45,27,152,19,39,12,330,17,5*4F
$GNGLL,4910.417926,N,12304.401336,W,004916.000,A,D*5E
$GNRMC,004917.000,A,4910.417830,N,12304.401258,W,0.07,237.02,090125,,,D,V*11
$GNGGA,004917.000,4910.417830,N,12304.401258,W,2,45,0.55,2.930,M,-16.816,M,,*4F
$GNVTG,237.02,T,,M,0.07,N,0.13,K,D*27
$GNGSA,A,3,12,06,11,19,24,25,17,03,32,,,,0.94,0.55,0.76,1*05
$GNGSA,A,3,86,77,76,87,85,,,,,,,,0.94,0.55,0.76,2*03
$GNGSA,A,3,24,12,10,25,11,33,31,08,,,,,0.94,0.55,0.76,3*06
$GNGSA,A,3,35,26,29,24,44,45,39,,,,,,0.94,0.55,0.76,4*0C
$GPGSV,3,1,11,12,64,299,39,06,61,095,37,11,49,165,36,19,46,063,36,1*66
$GPGSV,3,2,11,24,41,220,34,46,33,188,33,25,22,299,30,17,17,066,23,1*65
$GPGSV,3,3,11,03,09,027,25,32,08,313,30,20,03,152,17,1*56
$GPGSV,1,1,04,06,61,095,30,11,49,165,28,24,41,220,26,25,22,299,23,8*61
$GLGSV,2,1,08,86,70,051,24,77,66,317,24,76,61,141,28,87,56,208,23,1*74
$GLGSV,2,2,08,85,14,037,19,69,10,002,18,68,06,316,18,75,04,140,12,1*74
$GAGSV,3,1,10,24,71,110,34,12,60,105,31,10,54,152,34,25,52,298,33,7*76
$GAGSV,3,2,10,11,33,180,26,33,24,041,29,31,19,115,25,03,12,274,,7*7F
$GAGSV,3,3,10,08,11,323,24,02,02,296,21,7*70
$GAGSV,2,1,05,24,71,110,26,12,60,105,23,10,54,152,27,25,52,298,26,1*73
$GAGSV,2,2,05,33,24,041,19,1*4B
$GBGSV,3,1,09,35,77,198,32,26,71,221,31,29,38,057,29,24,37,305,30,1*75
$GBGSV,3,2,09,44,29,226,23,45,27,152,19,39,12,330,19,32,03,027,19,1*76
$GBGSV,3,3,09,16,03,335,,1*4E
$GBGSV,2,1,07,35,77,198,25,26,71,221,25,29,38,057,19,24,37,305,22,5*7D
$GBGSV,2,2,07,44,29,226,20,45,27,152,19,39,12,330,17,5*4F
$GNGLL,4910.417830,N,12304.401258,W,004917.000,A,D*50
$GNRMC,004918.000,A,4910.417758,N,12304.401240,W,0.07,237.02,090125,,,D,V*16
$GNGGA,004918.000,4910.417758,N,12304.401240,W,2,45,0.55,2.519,M,-16.816,M,,*4F
$GNVTG,237.02,T,,M,0.07,N,0.14,K,D*20
$GNGSA,A,3,12,06,11,19,24,25,17,03,32,,,,0.94,0.55,0.76,1*05
$GNGSA,A,3,86,77,76,87,85,,,,,,,,0.94,0.55,0.76,2*03
$GNGSA,A,3,24,12,10,25,11,33,31,08,,,,,0.94,0.55,0.76,3*06
$GNGSA,A,3,35,26,29,24,44,45,39,,,,,,0.94,0.55,0.76,4*0C
$GPGSV,3,1,11,12,64,299,39,06,61,095,37,11,49,165,36,19,46,063,36,1*66
$GPGSV,3,2,11,24,41,220,34,46,33,188,33,25,22,299,30,17,17,066,23,1*65
$GPGSV,3,3,11,03,09,027,24,32,08,313,30,20,03,152,17,1*57
$GPGSV,1,1,04,06,61,095,30,11,49,165,28,24,41,220,26,25,22,299,23,8*61
$GLGSV,2,1,08,86,70,051,24,77,66,317,23,76,61,141,28,87,56,208,24,1*74
$GLGSV,2,2,08,85,14,037,19,69,10,002,18,68,06,316,18,75,04,140,,1*77
$GAGSV,3,1,10,24,71,110,34,12,60,105,31,10,54,152,34,25,52,298,33,7*76
$GAGSV,3,2,10,11,33,180,26,33,24,041,29,31,19,115,25,03,12,274,,7*7F
$GAGSV,3,3,10,08,11,323,24,02,02,296,21,7*70
$GAGSV,2,1,05,24,71,110,26,12,60,105,23,10,54,152,27,25,52,298,26,1*73
$GAGSV,2,2,05,33,24,041,19,1*4B
$GBGSV,3,1,10,35,77,198,32,26,71,221,31,29,38,057,29,24,37,305,30,1*7D
$GBGSV,3,2,10,44,29,226,22,45,27,152,19,39,12,330,19,12,06,226,,1*73
$GBGSV,3,3,10,16,03,335,,32,03,027,19,1*79
$GBGSV,2,1,07,35,77,198,26,26,71,221,26,29,38,057,20,24,37,305,23,5*76
$GBGSV,2,2,07,44,29,226,20,45,27,152,19,39,12,330,17,5*4F
$GNGLL,4910.417758,N,12304.401240,W,004918.000,A,D*57
$GNRMC,004919.000,A,4910.417698,N,12304.401234,W,0.08,237.02,090125,,,D,V*16
$GNGGA,004919.000,4910.417698,N,12304.401234,W,2,45,0.55,2.088,M,-16.817,M,,*4C
$GNVTG,237.02,T,,M,0.08,N,0.14,K,D*2F
$GNGSA,A,3,12,06,11,19,24,25,17,03,32,,,,0.94,0.55,0.76,1*05
$GNGSA,A,3,86,77,76,87,85,,,,,,,,0.94,0.55,0.76,2*03
$GNGSA,A,3,24,12,10,25,11,33,31,08,,,,,0.94,0.55,0.76,3*06
$GNGSA,A,3,35,26,29,24,44,45,39,,,,,,0.94,0.55,0.76,4*0C
$GPGSV,3,1,11,12,64,299,39,06,61,095,37,11,49,165,36,19,46,063,36,1*66
$GPGSV,3,2,11,24,41,220,34,46,33,188,33,25,22,299,31,17,16,067,23,1*64
$GPGSV,3,3,11,03,09,027,24,32,08,313,30,20,03,152,17,1*57
$GPGSV,1,1,04,06,61,095,30,11,49,165,28,24,41,220,26,25,22,299,23,8*61
$GLGSV,2,1,08,86,70,051,24,77,66,317,23,76,61,141,28,87,56,208,24,1*74
$GLGSV,2,2,08,85,14,037,19,69,10,002,18,68,06,316,18,75,04,140,,1*77
$GAGSV,3,1,10,24,71,110,35,12,60,105,31,10,54,152,34,25,52,298,33,7*77
$GAGSV,3,2,10,11,33,180,26,33,24,041,29,31,19,115,25,03,12,274,,7*7F
$GAGSV,3,3,10,08,11,323,24,02,02,296,21,7*70
$GAGSV,2,1,05,24,71,110,27,12,60,105,23,10,54,152,27,25,52,298,26,1*72
$GAGSV,2,2,05,33,24,041,19,1*4B
$GBGSV,3,1,10,35,77,198,32,26,71,221,31,29,38,057,29,24,37,305,30,1*7D
$GBGSV,3,2,10,44,29,226,22,45,27,152,19,39,12,330,19,12,06,226,,1*73
$GBGSV,3,3,10,16,03,335,,32,03,027,19,1*79
$GBGSV,2,1,07,35,77,198,26,26,71,221,26,29,38,057,21,24,37,305,24,5*70
$GBGSV,2,2,07,44,29,226,20,45,27,152,19,39,12,330,17,5*4F
$GNGLL,4910.417698,N,12304.401234,W,004919.000,A,D*58
$GNRMC,004920.000,A,4910.417620,N,12304.401150,W,0.08,237.02,090125,,,D,V*1E
$GNGGA,004920.000,4910.417620,N,12304.401150,W,2,45,0.55,1.715,M,-16.816,M,,*45
$GNVTG,237.02,T,,M,0.08,N,0.15,K,D*2E
$GNGSA,A,3,12,06,11,19,24,25,17,03,32,,,,0.94,0.55,0.76,1*05
$GNGSA,A,3,86,77,76,87,85,,,,,,,,0.94,0.55,0.76,2*03
$GNGSA,A,3,24,12,10,25,11,33,31,08,,,,,0.94,0.55,0.76,3*06
$GNGSA,A,3,35,26,29,24,44,45,39,,,,,,0.94,0.55,0.76,4*0C
$GPGSV,3,1,11,12,64,299,39,06,61,095,37,11,49,165,36,19,46,063,36,1*66
$GPGSV,3,2,11,24,41,220,34,46,33,188,33,25,22,299,31,17,16,067,23,1*64
$GPGSV,3,3,11,03,09,027,23,32,08,313,30,20,03,152,17,1*50
$GPGSV,1,1,04,06,61,095,30,11,49,165,28,24,41,220,26,25,22,299,23,8*61
$GLGSV,2,1,08,86,70,051,24,77,66,317,23,76,61,141,28,87,56,208,24,1*74
$GLGSV,2,2,08,85,14,037,19,69,10,002,18,68,06,316,18,75,04,140,,1*77
$GAGSV,3,1,10,24,71,110,35,12,60,105,31,10,54,152,34,25,52,298,33,7*77
$GAGSV,3,2,10,11,33,180,26,33,24,041,29,31,19,115,25,03,12,274,,7*7F
$GAGSV,3,3,10,08,11,323,24,02,02,296,21,7*70
$GAGSV,2,1,05,24,71,110,27,12,60,105,23,10,54,152,27,25,52,298,26,1*72
$GAGSV,2,2,05,33,24,041,19,1*4B
$GBGSV,3,1,10,35,77,198,32,26,71,221,31,29,38,057,29,24,37,305,30,1*7D
$GBGSV,3,2,10,44,29,226,22,45,27,152,20,39,12,330,19,12,06,226,,1*79
$GBGSV,3,3,10,16,03,335,,32,03,027,19,1*79
$GBGSV,2,1,07,35,77,198,26,26,71,221,26,29,38,057,21,24,37,305,24,5*70
$GBGSV,2,2,07,44,29,226,20,45,27,152,19,39,12,330,17,5*4F
$GNGLL,4910.417620,N,12304.401150,W,004920.000,A,D*50
$GNRMC,004921.000,A,4910.417518,N,12304.401132,W,0.09,237.02,090125,,,D,V*12
$GNGGA,004921.000,4910.417518,N,12304.401132,W,2,45,0.55,1.499,M,-16.817,M,,*4E
$GNVTG,237.02,T,,M,0.09,N,0.16,K,D*2C
$GNGSA,A,3,12,06,11,19,24,25,17,03,32,,,,0.94,0.55,0.76,1*05
$GNGSA,A,3,86,77,76,87,85,,,,,,,,0.94,0.55,0.76,2*03
$GNGSA,A,3,24,12,10,25,11,33,31,08,,,,,0.94,0.55,0.76,3*06
$GNGSA,A,3,35,26,29,24,44,45,39,,,,,,0.94,0.55,0.76,4*0C
$GPGSV,3,1,11,12,64,299,40,06,61,095,37,11,49,165,36,19,45,063,36,1*6B
$GPGSV,3,2,11,24,41,220,34,46,33,188,33,25,22,299,31,17,16,067,23,1*64
$GPGSV,3,3,11,03,09,027,24,32,08,313,30,20,03,152,17,1*57
$GPGSV,1,1,04,06,61,095,30,11,49,165,29,24,41,220,26,25,22,299,23,8*60
$GLGSV,2,1,08,86,70,051,24,77,66,317,23,76,61,141,28,87,56,208,24,1*74
$GLGSV,2,2,08,85,14,037,19,69,10,002,18,68,06,316,18,75,04,140,,1*77
$GAGSV,3,1,10,24,71,110,35,12,60,105,31,10,54,152,34,25,52,298,34,7*70
$GAGSV,3,2,10,11,33,180,26,33,24,041,29,31,19,115,25,03,12,274,,7*7F
$GAGSV,3,3,10,08,11,323,24,02,02,296,21,7*70
$GAGSV,2,1,05,24,71,110,27,12,60,105,24,10,54,152,28,25,52,298,26,1*7A
$GAGSV,2,2,05,33,24,041,19,1*4B
$GBGSV,3,1,10,35,77,198,32,26,71,221,31,29,38,057,29,24,37,305,30,1*7D
$GBGSV,3,2,10,44,29,226,21,45,27,152,20,39,12,330,19,12,06,226,,1*7A
$GBGSV,3,3,10,16,03,335,,32,03,027,19,1*79
$GBGSV,2,1,07,35,77,198,26,26,71,221,26,29,38,057,21,24,37,305,24,5*70
$GBGSV,2,2,07,44,29,226,21,45,27,152,20,39,12,330,17,5*44
$GNGLL,4910.417518,N,12304.401132,W,004921.000,A,D*5D
$GNRMC,004922.000,A,4910.417458,N,12304.401072,W,0.09,237.02,090125,,,D,V*11
$GNGGA,004922.000,4910.417458,N,12304.401072,W,2,45,0.55,1.303,M,-16.817,M,,*49
$GNVTG,237.02,T,,M,0.09,N,0.17,K,D*2D
$GNGSA,A,3,12,06,11,19,24,25,17,03,32,,,,0.94,0.55,0.76,1*05
$GNGSA,A,3,86,77,76,87,85,,,,,,,,0.94,0.55,0.76,2*03
$GNGSA,A,3,24,12,10,25,11,33,31,08,,,,,0.94,0.55,0.76,3*06
$GNGSA,A,3,35,26,29,24,44,45,39,,,,,,0.94,0.55,0.76,4*0C
$GPGSV,3,1,11,12,64,299,39,06,61,095,36,11,49,165,36,19,45,063,35,1*67
$GPGSV,3,2,11,24,41,220,33,46,33,188,33,25,22,299,31,17,16,067,23,1*63
$GPGSV,3,3,11,03,09,027,22,32,08,313,29,20,04,151,17,1*5D
$GPGSV,1,1,04,06,61,095,30,11,49,165,29,24,41,220,26,25,22,299,23,8*60
$GLGSV,2,1,08,86,70,051,24,77,66,317,23,76,61,141,28,87,56,208,24,1*74
$GLGSV,2,2,08,85,14,037,20,69,10,002,18,68,06,316,18,75,04,140,,1*7D
$GAGSV,3,1,10,24,71,110,34,12,60,105,30,10,54,152,33,25,52,298,33,7*70
$GAGSV,3,2,10,11,33,180,25,33,24,041,29,31,19,115,24,03,12,274,,7*7D
$GAGSV,3,3,10,08,11,323,24,02,02,296,21,7*70
$GAGSV,2,1,05,24,71,110,27,12,60,105,24,10,54,152,28,25,52,298,26,1*7A
$GAGSV,2,2,05,33,24,041,19,1*4B
$GBGSV,3,1,10,35,77,198,32,26,71,221,31,29,38,057,29,24,37,305,30,1*7D
$GBGSV,3,2,10,44,29,226,21,45,27,152,20,39,12,330,19,12,06,226,,1*7A
$GBGSV,3,3,10,16,03,335,,32,03,027,19,1*79
$GBGSV,2,1,07,35,77,198,26,26,71,221,26,29,38,057,21,24,37,305,24,5*70
$GBGSV,2,2,07,44,29,226,21,45,27,152,20,39,12,330,17,5*44
$GNGLL,4910.417458,N,12304.401072,W,004922.000,A,D*5E
$GNRMC,004923.000,A,4910.417422,N,12304.400958,W,0.10,237.02,090125,,,D,V*15
$GNGGA,004923.000,4910.417422,N,12304.400958,W,2,45,0.55,0.924,M,-16.817,M,,*4B
$GNVTG,237.02,T,,M,0.10,N,0.18,K,D*2A
$GNGSA,A,3,12,06,11,19,24,25,17,03,32,,,,0.94,0.55,0.76,1*05
$GNGSA,A,3,86,77,76,87,85,,,,,,,,0.94,0.55,0.76,2*03
$GNGSA,A,3,24,12,10,25,11,33,31,08,,,,,0.94,0.55,0.76,3*06
$GNGSA,A,3,35,26,29,24,44,45,39,,,,,,0.94,0.55,0.76,4*0C
$GPGSV,3,1,11,12,64,299,39,06,61,095,36,11,49,165,36,19,45,063,35,1*67
$GPGSV,3,2,11,24,41,220,33,46,33,188,33,25,22,299,31,17,16,067,23,1*63
$GPGSV,3,3,11,03,09,027,24,32,08,313,29,20,04,151,17,1*5B
$GPGSV,1,1,04,06,61,095,30,11,49,165,29,24,41,220,26,25,22,299,23,8*60
$GLGSV,2,1,08,86,70,051,24,77,66,317,22,76,61,141,27,87,56,208,24,1*7A
$GLGSV,2,2,08,85,14,037,20,69,10,002,18,68,06,316,18,75,04,140,,1*7D
$GAGSV,3,1,10,24,71,110,34,12,60,105,30,10,54,152,33,25,52,298,33,7*70
$GAGSV,3,2,10,11,33,180,25,33,24,041,29,31,19,115,24,03,12,274,,7*7D
$GAGSV,3,3,10,08,11,323,24,02,02,296,21,7*70
$GAGSV,2,1,05,24,71,110,27,12,60,105,24,10,54,152,28,25,52,298,26,1*7A
$GAGSV,2,2,05,33,24,041,19,1*4B
$GBGSV,3,1,10,35,77,198,32,26,71,221,31,29,38,057,29,24,37,305,30,1*7D
$GBGSV,3,2,10,44,29,226,21,45,27,152,21,39,12,330,19,12,06,226,,1*7B
$GBGSV,3,3,10,16,03,335,,32,03,027,19,1*79
$GBGSV,2,1,07,35,77,198,26,26,71,221,26,29,38,057,21,24,37,305,24,5*70
$GBGSV,2,2,07,44,29,226,21,45,27,152,20,39,12,330,17,5*44
$GNGLL,4910.417422,N,12304.400958,W,004923.000,A,D*52
$GNRMC,004924.000,A,4910.417386,N,12304.400892,W,0.10,237.02,090125,,,D,V*1C
$GNGGA,004924.000,4910.417386,N,12304.400892,W,2,45,0.55,0.704,M,-16.817,M,,*4E
$GNVTG,237.02,T,,M,0.10,N,0.18,K,D*2A
$GNGSA,A,3,12,06,11,19,24,25,17,03,32,,,,0.94,0.55,0.76,1*05
$GNGSA,A,3,86,77,76,87,85,,,,,,,,0.94,0.55,0.76,2*03
$GNGSA,A,3,24,12,10,25,11,33,31,08,,,,,0.94,0.55,0.76,3*06
$GNGSA,A,3,35,26,29,24,44,45,39,,,,,,0.94,0.55,0.76,4*0C
$GPGSV,3,1,11,12,64,299,39,06,61,095,36,11,49,165,36,19,45,063,35,1*67
$GPGSV,3,2,11,24,41,220,33,46,33,188,33,25,22,299,31,17,16,067,23,1*63
$GPGSV,3,3,11,03,09,027,24,32,08,313,29,20,04,151,17,1*5B
$GPGSV,1,1,04,06,61,095,30,11,49,165,29,24,41,220,26,25,22,299,23,8*60
$GLGSV,2,1,08,86,70,051,24,77,66,317,22,76,61,141,27,87,56,208,24,1*7A
$GLGSV,2,2,08,85,14,037,20,69,10,002,18,68,06,316,17,75,04,140,,1*72
$GAGSV,3,1,10,24,71,110,34,12,60,105,30,10,54,152,33,25,52,298,33,7*70
$GAGSV,3,2,10,11,33,180,25,33,24,041,29,31,19,115,24,03,12,274,,7*7D
$GAGSV,3,3,10,08,11,323,23,02,02,296,21,7*77
$GAGSV,2,1,05,24,71,110,27,12,60,105,24,10,54,152,28,25,52,298,26,1*7A
$GAGSV,2,2,05,33,24,041,19,1*4B
$GBGSV,3,1,10,35,77,198,32,26,71,221,31,29,38,057,29,24,37,305,30,1*7D
$GBGSV,3,2,10,44,29,226,21,45,27,152,21,39,12,330,19,12,06,226,,1*7B
$GBGSV,3,3,10,16,03,335,,32,03,027,19,1*79
$GBGSV,2,1,07,35,77,198,26,26,71,221,25,29,38,057,21,24,37,305,24,5*73
$GBGSV,2,2,07,44,29,226,21,45,27,152,20,39,12,330,17,5*44
$GNGLL,4910.417386,N,12304.400892,W,004924.000,A,D*5B
$GNRMC,004925.000,A,4910.417350,N,12304.400946,W,0.10,237.02,090125,,,D,V*1E
$GNGGA,004925.000,4910.417350,N,12304.400946,W,2,45,0.55,0.426,M,-16.816,M,,*4E
$GNVTG,237.02,T,,M,0.10,N,0.18,K,D*2A
$GNGSA,A,3,12,06,11,19,24,25,17,03,32,,,,0.94,0.55,0.76,1*05
$GNGSA,A,3,86,77,76,87,85,,,,,,,,0.94,0.55,0.76,2*03
$GNGSA,A,3,24,12,10,25,11,33,31,08,,,,,0.94,0.55,0.76,3*06
$GNGSA,A,3,35,26,29,24,44,45,39,,,,,,0.94,0.55,0.76,4*0C
$GPGSV,3,1,11,12,64,299,39,06,61,095,36,11,49,165,36,19,45,063,34,1*66
$GPGSV,3,2,11,24,41,220,32,46,33,188,33,25,22,299,31,17,16,067,23,1*62
$GPGSV,3,3,11,03,09,027,24,32,08,313,28,20,04,151,17,1*5A
$GPGSV,1,1,04,06,61,095,30,11,49,165,29,24,41,220,26,25,22,299,23,8*60
$GLGSV,2,1,08,86,70,051,24,77,66,317,22,76,61,141,27,87,56,208,24,1*7A
$GLGSV,2,2,08,85,14,037,20,69,10,002,18,68,06,316,17,75,04,140,,1*72
$GAGSV,3,1,10,24,71,110,34,12,60,105,30,10,54,152,33,25,52,298,32,7*71
$GAGSV,3,2,10,11,33,180,25,33,24,041,29,31,19,115,24,03,12,274,,7*7D
$GAGSV,3,3,10,08,11,323,23,02,02,296,21,7*77
$GAGSV,2,1,05,24,71,110,27,12,60,105,24,10,54,152,28,25,52,298,26,1*7A
$GAGSV,2,2,05,33,24,041,19,1*4B
$GBGSV,3,1,10,35,77,198,32,26,71,221,31,29,38,057,29,24,37,305,30,1*7D
$GBGSV,3,2,10,44,29,226,22,45,27,152,21,39,12,330,19,12,06,226,,1*78
$GBGSV,3,3,10,16,03,335,,32,03,027,19,1*79
$GBGSV,2,1,07,35,77,198,26,26,71,221,25,29,38,057,21,24,37,305,24,5*73
$GBGSV,2,2,07,44,29,226,21,45,27,152,19,39,12,330,17,5*4E
$GNGLL,4910.417350,N,12304.400946,W,004925.000,A,D*59
$GNRMC,004926.000,A,4910.417356,N,12304.400880,W,0.10,237.02,090125,,,D,V*10
$GNGGA,004926.000,4910.417356,N,12304.400880,W,2,45,0.55,0.123,M,-16.816,M,,*40
$GNVTG,237.02,T,,M,0.10,N,0.18,K,D*2A
$GNGSA,A,3,12,06,11,19,24,25,17,03,32,,,,0.94,0.55,0.76,1*05
$GNGSA,A,3,86,77,76,87,85,,,,,,,,0.94,0.55,0.76,2*03
$GNGSA,A,3,24,12,10,25,11,33,31,08,,,,,0.94,0.55,0.76,3*06
$GNGSA,A,3,35,26,29,24,44,45,39,,,,,,0.94,0.55,0.76,4*0C
$GPGSV,3,1,11,12,64,299,39,06,61,095,36,11,49,165,36,19,45,063,34,1*66
$GPGSV,3,2,11,24,40,219,32,46,33,188,33,25,22,299,31,17,16,067,23,1*69
$GPGSV,3,3,11,03,09,027,24,32,08,313,28,20,04,151,17,1*5A
$GPGSV,1,1,04,06,61,095,31,11,49,165,29,24,40,219,26,25,22,299,23,8*6A
$GLGSV,2,1,08,86,70,051,25,77,66,317,22,76,61,141,26,87,56,208,24,1*7A
$GLGSV,2,2,08,85,14,037,20,69,10,002,18,68,06,316,18,75,04,140,,1*7D
$GAGSV,3,1,10,24,71,110,34,12,60,105,30,10,54,152,33,25,52,298,32,7*71
$GAGSV,3,2,10,11,33,180,25,33,24,041,29,31,19,115,24,03,12,274,,7*7D
$GAGSV,3,3,10,08,11,323,22,02,02,296,21,7*76
$GAGSV,2,1,05,24,71,110,27,12,60,105,24,10,54,152,28,25,52,298,26,1*7A
$GAGSV,2,2,05,33,24,041,19,1*4B
$GBGSV,3,1,10,35,77,198,32,26,71,221,31,29,38,057,29,24,37,305,30,1*7D
$GBGSV,3,2,10,44,29,226,22,45,27,152,21,39,12,330,19,12,06,226,,1*78
$GBGSV,3,3,10,16,03,335,,32,03,027,19,1*79
$GBGSV,2,1,07,35,77,198,26,26,71,221,25,29,38,057,21,24,37,305,24,5*73
$GBGSV,2,2,07,44,29,226,21,45,27,152,20,39,12,330,17,5*44
$GNGLL,4910.417356,N,12304.400880,W,004926.000,A,D*57
$GNRMC,004927.000,A,4910.417362,N,12304.400898,W,0.09,237.02,090125,,,D,V*17
$GNGGA,004927.000,4910.417362,N,12304.400898,W,2,45,0.55,-0.133,M,-16.816,M,,*63
$GNVTG,237.02,T,,M,0.09,N,0.17,K,D*2D
$GNGSA,A,3,12,06,11,19,24,25,17,03,32,,,,0.94,0.55,0.76,1*05
$GNGSA,A,3,86,77,76,87,85,,,,,,,,0.94,0.55,0.76,2*03
$GNGSA,A,3,24,12,10,25,11,33,31,08,,,,,0.94,0.55,0.76,3*06
$GNGSA,A,3,35,26,29,24,44,45,39,,,,,,0.94,0.55,0.76,4*0C
$GPGSV,3,1,11,12,64,299,39,06,61,095,36,11,49,165,36,19,45,063,34,1*66
$GPGSV,3,2,11,24,40,219,32,46,33,188,33,25,23,299,31,17,16,067,23,1*68
$GPGSV,3,3,11,03,09,027,25,32,08,313,28,20,04,151,17,1*5B
