$GNGGA,001225.000,4910.428366,N,12304.400058,W,2,32,0.49,5.922,M,-16.817,M,,*4F
$GNGLL,4910.428366,N,12304.400058,W,001225.000,A,D*58
$GNGSA,A,3,22,17,14,19,13,15,30,02,24,21,,,0.88,0.49,0.73,1*01
$GNGSA,A,3,73,80,72,71,,,,,,,,,0.88,0.49,0.73,2*04
$GNGSA,A,3,25,03,24,08,02,12,10,05,33,,,,0.88,0.49,0.73,3*05
$GNGSA,A,3,36,27,30,45,28,22,21,08,13,,,,0.88,0.49,0.73,4*0C
$GPGSV,3,1,12,22,82,024,35,17,70,144,36,14,62,071,35,19,44,192,34,1*6E
$GPGSV,3,2,12,13,41,224,34,46,33,188,31,15,32,267,31,30,30,137,29,1*69
$GPGSV,3,3,12,02,25,056,32,24,23,307,25,21,15,038,28,10,03,350,20,1*64
$GLGSV,2,1,07,73,72,358,24,83,47,117,,82,42,052,,74,34,299,,1*77
$GLGSV,2,2,07,80,33,088,22,72,30,298,21,71,21,243,25,1*46
$GAGSV,3,1,10,25,81,313,33,03,42,238,27,24,40,074,28,08,32,304,28,7*79
$GAGSV,3,2,10,02,30,265,27,12,28,074,23,10,27,101,24,11,18,129,19,7*74
$GAGSV,3,3,10,05,14,189,21,33,09,022,20,7*7A
$GBGSV,4,1,13,36,68,297,43,46,54,103,,27,48,082,41,30,42,158,39,1*75
$GBGSV,4,2,13,57,20,076,,45,18,290,33,28,18,040,35,22,16,262,34,1*77
$GBGSV,4,3,13,21,16,313,35,08,05,308,24,13,05,319,27,37,02,108,17,1*70
$GBGSV,4,4,13,29,01,194,18,1*4B
$GNRMC,001225.000,A,4910.428366,N,12304.400058,W,0.01,342.49,061224,,,D,V*1F
$GNVTG,342.49,T,,M,0.01,N,0.03,K,D*2C
$GNGGA,001226.000,4910.428432,N,12304.400064,W,2,32,0.49,5.936,M,-16.816,M,,*41
$GNGLL,4910.428432,N,12304.400064,W,001226.000,A,D*52
$GNGSA,A,3,22,17,14,19,13,15,30,02,24,21,,,0.88,0.49,0.73,1*01
$GNGSA,A,3,73,80,72,71,,,,,,,,,0.88,0.49,0.73,2*04
$GNGSA,A,3,25,03,24,08,02,12,10,05,33,,,,0.88,0.49,0.73,3*05
$GNGSA,A,3,36,27,30,45,28,22,21,08,13,,,,0.88,0.49,0.73,4*0C
$GPGSV,3,1,12,22,82,024,34,17,70,144,36,14,62,071,35,19,44,192,34,1*6F
$GPGSV,3,2,12,13,41,224,34,46,33,188,31,15,32,267,31,30,30,137,29,1*69
$GPGSV,3,3,12,02,25,056,32,24,23,307,26,21,15,038,28,10,03,350,20,1*67
$GLGSV,2,1,07,73,72,358,24,83,47,117,,82,42,052,,74,34,299,,1*77
$GLGSV,2,2,07,80,33,088,22,72,30,298,20,71,21,243,25,1*47
$GAGSV,3,1,10,25,81,313,33,03,42,238,27,24,40,074,28,08,32,304,28,7*79
$GAGSV,3,2,10,02,30,265,27,12,28,074,23,10,27,101,24,11,18,129,19,7*74
$GAGSV,3,3,10,05,14,189,21,33,09,022,19,7*70
$GBGSV,4,1,13,36,68,297,43,46,54,103,,27,48,082,41,30,42,158,39,1*75
$GBGSV,4,2,13,57,20,076,,45,18,290,33,28,18,040,35,22,16,262,34,1*77
$GBGSV,4,3,13,21,16,313,35,08,05,308,24,13,05,319,27,37,02,108,17,1*70
$GBGSV,4,4,13,29,01,194,18,1*4B
$GNRMC,001226.000,A,4910.428432,N,12304.400064,W,0.02,342.49,061224,,,D,V*16
$GNVTG,342.49,T,,M,0.02,N,0.03,K,D*2F
$GNGGA,001227.000,4910.428462,N,12304.400052,W,2,32,0.49,5.882,M,-16.816,M,,*4E
$GNGLL,4910.428462,N,12304.400052,W,001227.000,A,D*53
$GNGSA,A,3,22,17,14,19,13,15,30,02,24,21,,,0.88,0.49,0.73,1*01
$GNGSA,A,3,73,80,72,71,,,,,,,,,0.88,0.49,0.73,2*04
$GNGSA,A,3,25,03,24,08,02,12,10,05,33,,,,0.88,0.49,0.73,3*05
$GNGSA,A,3,36,27,30,45,28,22,21,08,13,,,,0.88,0.49,0.73,4*0C
$GPGSV,3,1,12,22,82,024,34,17,70,144,36,14,62,071,35,19,44,192,34,1*6F
$GPGSV,3,2,12,13,41,224,34,46,33,188,31,15,32,267,31,30,30,137,29,1*69
$GPGSV,3,3,12,02,25,056,32,24,23,307,25,21,15,038,28,10,03,350,20,1*64
$GLGSV,2,1,07,73,72,358,24,83,47,117,,82,42,052,,74,34,299,,1*77
$GLGSV,2,2,07,80,33,088,22,72,30,298,21,71,21,243,25,1*46
$GAGSV,3,1,10,25,81,313,33,03,42,238,27,24,40,074,27,08,32,304,28,7*76
$GAGSV,3,2,10,02,30,265,26,12,28,074,23,10,27,101,24,11,18,129,19,7*75
$GAGSV,3,3,10,05,14,189,21,33,09,022,19,7*70
$GBGSV,4,1,13,36,68,297,43,46,54,103,,27,48,082,41,30,42,158,39,1*75
$GBGSV,4,2,13,57,20,076,,45,18,290,33,28,18,040,35,22,16,262,34,1*77
$GBGSV,4,3,13,21,16,313,35,08,05,308,24,13,05,319,27,37,02,108,17,1*70
$GBGSV,4,4,13,29,01,194,18,1*4B
$GNRMC,001227.000,A,4910.428462,N,12304.400052,W,0.02,342.49,061224,,,D,V*17
$GNVTG,342.49,T,,M,0.02,N,0.03,K,D*2F
$PAIR010,0,1,2343,432765*3D
$GNGGA,001228.000,4910.428498,N,12304.400022,W,2,32,0.49,5.923,M,-16.816,M,,*49
$GNGLL,4910.428498,N,12304.400022,W,001228.000,A,D*5E
$GNGSA,A,3,22,17,14,19,13,15,30,02,24,21,,,0.88,0.49,0.73,1*01
$GNGSA,A,3,73,80,72,71,,,,,,,,,0.88,0.49,0.73,2*04
$GNGSA,A,3,25,03,24,08,02,12,10,05,33,,,,0.88,0.49,0.73,3*05
$GNGSA,A,3,36,27,30,28,45,22,21,08,13,,,,0.88,0.49,0.73,4*0C
$GPGSV,3,1,12,22,82,024,34,17,70,144,36,14,62,071,35,19,44,192,34,1*6F
$GPGSV,3,2,12,13,41,224,34,46,33,188,31,15,32,267,31,30,30,137,29,1*69
$GPGSV,3,3,12,02,25,056,32,24,23,307,26,21,15,038,28,10,03,350,20,1*67
$GLGSV,2,1,07,73,72,358,24,83,47,117,,82,42,052,,74,34,299,,1*77
$GLGSV,2,2,07,80,33,088,22,72,30,298,21,71,21,243,23,1*40
$GAGSV,3,1,10,25,81,313,33,03,42,238,27,24,40,074,27,08,32,304,28,7*76
$GAGSV,3,2,10,02,30,265,26,12,28,074,23,10,27,101,24,11,18,129,19,7*75
$GAGSV,3,3,10,05,14,189,21,33,09,022,19,7*70
$GBGSV,4,1,13,36,68,297,43,46,54,103,,27,48,082,41,30,42,158,39,1*75
$GBGSV,4,2,13,57,20,076,,28,18,040,35,45,18,290,33,22,16,262,34,1*77
$GBGSV,4,3,13,21,15,312,35,08,05,308,24,13,05,319,27,37,02,108,17,1*72
$GBGSV,4,4,13,29,01,194,18,1*4B
$GNRMC,001228.000,A,4910.428498,N,12304.400022,W,0.02,342.49,061224,,,D,V*1A
$GNVTG,342.49,T,,M,0.02,N,0.03,K,D*2F
$GNGGA,001229.000,4910.428582,N,12304.399974,W,2,32,0.49,5.825,M,-16.816,M,,*48
$GNGLL,4910.428582,N,12304.399974,W,001229.000,A,D*58
$GNGSA,A,3,22,17,14,19,13,15,30,02,24,21,,,0.88,0.49,0.73,1*01
$GNGSA,A,3,73,80,72,71,,,,,,,,,0.88,0.49,0.73,2*04
$GNGSA,A,3,25,03,24,08,02,12,10,05,33,,,,0.88,0.49,0.73,3*05
$GNGSA,A,3,36,27,30,28,45,22,21,08,13,,,,0.88,0.49,0.73,4*0C
$GPGSV,3,1,12,22,82,024,34,17,70,144,37,14,62,071,35,19,44,192,34,1*6E
$GPGSV,3,2,12,13,41,224,34,46,33,188,31,15,32,267,31,30,30,137,29,1*69
$GPGSV,3,3,12,02,25,056,32,24,23,307,26,21,15,038,29,10,03,350,20,1*66
$GLGSV,2,1,07,73,72,358,24,83,47,117,,82,42,052,,74,34,299,,1*77
$GLGSV,2,2,07,80,33,088,23,72,30,298,21,71,21,243,25,1*47
$GAGSV,3,1,10,25,81,313,33,03,42,238,27,24,40,074,27,08,32,304,28,7*76
$GAGSV,3,2,10,02,30,265,26,12,28,074,23,10,27,101,24,11,18,129,19,7*75
$GAGSV,3,3,10,05,14,189,21,33,09,022,19,7*70
$GBGSV,4,1,13,36,68,297,43,46,54,103,,27,48,082,41,30,42,158,39,1*75
$GBGSV,4,2,13,57,20,076,,28,18,040,35,45,18,290,33,22,16,261,34,1*74
$GBGSV,4,3,13,21,15,312,35,08,05,308,23,13,05,319,27,37,02,108,17,1*75
$GBGSV,4,4,13,29,01,194,18,1*4B
$GNRMC,001229.000,A,4910.428582,N,12304.399974,W,0.01,342.49,061224,,,D,V*1F
$GNVTG,342.49,T,,M,0.01,N,0.02,K,D*2D
$GNGGA,001230.000,4910.428582,N,12304.399968,W,2,32,0.49,5.748,M,-16.816,M,,*49
