$GNGGA,010051.000,4910.427958,N,12304.400184,W,2,32,0.44,1.900,M,-16.816,M,,*4E
$GNGLL,4910.427958,N,12304.400184,W,010051.000,A,D*51
$GNGSA,A,3,17,22,19,14,24,13,15,02,30,21,,,0.80,0.44,0.67,1*01
$GNGSA,A,3,79,80,88,71,,,,,,,,,0.80,0.44,0.67,2*0B
$GNGSA,A,3,21,06,04,13,31,09,26,15,,,,,0.80,0.44,0.67,3*02
$GNGSA,A,3,26,35,24,29,44,45,33,41,12,14,,,0.80,0.44,0.67,4*00
$GPGSV,4,1,13,17,71,083,37,22,67,070,34,19,65,190,35,06,59,115,,1*67
$GPGSV,4,2,13,14,44,084,34,24,40,302,34,48,33,182,29,13,24,212,31,1*61
$GPGSV,4,3,13,15,22,249,30,02,18,040,31,30,12,143,28,12,10,272,18,1*64
$GPGSV,4,4,13,21,05,027,23,1*54
$GLGSV,2,1,07,79,66,071,25,80,46,311,25,88,31,036,21,82,27,170,,1*70
$GLGSV,2,2,07,70,22,284,,71,18,334,21,78,17,105,,1*43
$GAGSV,3,1,11,21,39,082,28,06,36,271,27,04,33,239,25,13,33,068,26,7*79
$GAGSV,3,2,11,31,31,274,27,09,30,299,29,26,28,130,28,15,07,021,21,7*70
$GAGSV,3,3,11,19,03,190,11,05,01,341,,33,01,169,,7*4D
$GBGSV,3,1,10,26,78,121,38,35,60,132,36,24,46,297,37,29,29,049,34,1*74
$GBGSV,3,2,10,44,28,188,30,45,21,117,30,33,11,283,13,41,08,330,24,1*78
$GBGSV,3,3,10,12,07,196,24,14,06,259,14,1*73
$GNRMC,010051.000,A,4910.427958,N,12304.400184,W,0.01,0.00,041224,,,D,V*1C
$GNVTG,0.00,T,,M,0.01,N,0.03,K,D*24
$GNGGA,010052.000,4910.427994,N,12304.400130,W,2,32,0.44,1.933,M,-16.817,M,,*43
$GNGLL,4910.427994,N,12304.400130,W,010052.000,A,D*5D
$GNGSA,A,3,17,22,19,14,24,13,15,02,30,21,,,0.80,0.44,0.67,1*01
$GNGSA,A,3,79,80,88,71,,,,,,,,,0.80,0.44,0.67,2*0B
$GNGSA,A,3,21,06,04,13,31,09,26,15,,,,,0.80,0.44,0.67,3*02
$GNGSA,A,3,26,35,24,29,44,45,33,41,12,14,,,0.80,0.44,0.67,4*00
$GPGSV,4,1,13,17,71,083,36,22,67,070,34,19,65,190,35,06,59,115,,1*66
$GPGSV,4,2,13,14,44,084,34,24,40,302,34,48,33,182,29,13,24,212,31,1*61
$GPGSV,4,3,13,15,22,249,30,02,18,040,30,30,12,143,28,12,10,272,18,1*65
$GPGSV,4,4,13,21,05,027,23,1*54
$GLGSV,2,1,07,79,66,071,25,80,46,311,24,88,31,036,20,82,27,170,,1*70
$GLGSV,2,2,07,70,22,284,,71,18,334,21,78,17,105,,1*43
$GAGSV,3,1,11,21,39,082,28,06,36,271,26,04,33,239,25,13,33,068,26,7*78
$GAGSV,3,2,11,31,31,274,27,09,30,299,29,26,28,130,27,15,07,021,21,7*7F
$GAGSV,3,3,11,19,03,190,11,05,01,341,,33,01,169,,7*4D
$GBGSV,3,1,10,26,78,121,38,35,60,132,36,24,46,297,37,29,29,049,34,1*74
$GBGSV,3,2,10,44,28,188,30,45,21,117,30,33,11,283,12,41,08,330,24,1*79
$GBGSV,3,3,10,12,07,196,24,14,06,259,13,1*74
$GNRMC,010052.000,A,4910.427994,N,12304.400130,W,0.01,0.00,041224,,,D,V*10
$GNVTG,0.00,T,,M,0.01,N,0.02,K,D*25
$GNGGA,010053.000,4910.428054,N,12304.400070,W,2,32,0.44,2.001,M,-16.816,M,,*47
$GNGLL,4910.428054,N,12304.400070,W,010053.000,A,D*53
$GNGSA,A,3,17,22,19,14,24,13,15,02,30,21,,,0.80,0.44,0.67,1*01
$GNGSA,A,3,79,80,88,71,,,,,,,,,0.80,0.44,0.67,2*0B
$GNGSA,A,3,21,06,04,13,31,09,26,15,,,,,0.80,0.44,0.67,3*02
$GNGSA,A,3,26,35,24,29,44,45,33,41,12,14,,,0.80,0.44,0.67,4*00
$GPGSV,4,1,13,17,71,083,36,22,67,070,34,19,65,190,34,06,59,115,,1*67
$GPGSV,4,2,13,14,44,084,33,24,40,302,33,48,33,182,29,13,24,212,31,1*61
$GPGSV,4,3,13,15,22,249,30,02,18,040,30,30,12,143,28,12,10,272,18,1*65
$GPGSV,4,4,13,21,05,027,23,1*54
$GLGSV,2,1,07,79,66,071,25,80,46,311,24,88,31,036,20,82,27,170,,1*70
$GLGSV,2,2,07,70,22,284,,71,18,334,21,78,17,105,,1*43
$GAGSV,3,1,11,21,39,082,28,06,36,271,26,04,33,239,25,13,33,068,26,7*78
$GAGSV,3,2,11,31,31,274,27,09,30,299,29,26,28,130,27,15,07,021,21,7*7F
$GAGSV,3,3,11,19,03,190,11,05,01,341,,33,01,169,,7*4D
$GBGSV,3,1,10,26,78,121,38,35,60,132,36,24,46,297,37,29,29,049,34,1*74
$GBGSV,3,2,10,44,28,188,30,45,21,117,30,33,11,283,12,41,08,330,24,1*79
$GBGSV,3,3,10,12,07,196,24,14,06,259,14,1*73
$GNRMC,010053.000,A,4910.428054,N,12304.400070,W,0.01,0.00,041224,,,D,V*1E
$GNVTG,0.00,T,,M,0.01,N,0.03,K,D*24
$GNGGA,010054.000,4910.428114,N,12304.400016,W,2,32,0.44,2.030,M,-16.816,M,,*47
$GNGLL,4910.428114,N,12304.400016,W,010054.000,A,D*51
$GNGSA,A,3,17,22,19,14,24,13,15,02,30,21,,,0.80,0.44,0.67,1*01
$GNGSA,A,3,79,80,88,71,,,,,,,,,0.80,0.44,0.67,2*0B
$GNGSA,A,3,21,06,04,13,31,09,26,15,,,,,0.80,0.44,0.67,3*02
$GNGSA,A,3,26,35,24,29,44,45,33,41,12,14,,,0.80,0.44,0.67,4*00
$GPGSV,4,1,13,17,71,083,36,22,67,070,34,19,65,190,34,06,59,115,,1*67
$GPGSV,4,2,13,14,44,084,33,24,40,302,33,48,33,182,29,13,24,212,31,1*61
$GPGSV,4,3,13,15,22,249,30,02,18,040,30,30,12,143,28,12,10,272,18,1*65
$GPGSV,4,4,13,21,05,027,23,1*54
$GLGSV,2,1,07,79,66,071,26,80,46,311,25,88,31,036,20,82,27,170,,1*72
$GLGSV,2,2,07,70,22,284,,71,18,334,21,78,17,105,,1*43
$GAGSV,3,1,11,21,39,082,29,06,36,271,26,04,33,239,25,13,33,068,26,7*79
$GAGSV,3,2,11,31,31,274,27,09,30,299,29,26,28,130,27,15,07,021,21,7*7F
$GAGSV,3,3,11,19,03,189,10,05,01,341,,33,01,169,,7*44
$GBGSV,3,1,10,26,78,121,38,35,60,132,36,24,46,297,37,29,29,049,34,1*74
$GBGSV,3,2,10,44,28,188,30,45,21,117,30,33,11,283,11,41,08,330,24,1*7A
$GBGSV,3,3,10,12,07,196,24,14,06,259,14,1*73
$GNRMC,010054.000,A,4910.428114,N,12304.400016,W,0.02,0.00,041224,,,D,V*1F
$GNVTG,0.00,T,,M,0.02,N,0.03,K,D*27
$GNGGA,010055.000,4910.428120,N,12304.400028,W,2,32,0.44,1.969,M,-16.816,M,,*4A
$GNGLL,4910.428120,N,12304.400028,W,010055.000,A,D*5A
$GNGSA,A,3,17,22,19,14,24,13,15,02,30,21,,,0.80,0.44,0.67,1*01
$GNGSA,A,3,79,80,88,71,,,,,,,,,0.80,0.44,0.67,2*0B
$GNGSA,A,3,21,06,04,13,31,09,26,15,,,,,0.80,0.44,0.67,3*02
$GNGSA,A,3,26,35,24,29,44,45,33,41,12,14,,,0.80,0.44,0.67,4*00
$GPGSV,4,1,13,17,71,083,36,22,67,070,34,19,65,190,34,06,59,115,,1*67
$GPGSV,4,2,13,14,44,084,33,24,40,302,33,48,33,182,29,13,24,212,31,1*61
$GPGSV,4,3,13,15,22,249,30,02,18,040,30,30,12,143,28,12,10,272,18,1*65
$GPGSV,4,4,13,21,05,027,23,1*54
$GLGSV,2,1,07,79,66,071,26,80,46,311,25,88,31,036,20,82,27,170,,1*72
$GLGSV,2,2,07,70,22,284,,71,18,334,21,78,17,105,,1*43
$GAGSV,3,1,11,21,39,082,28,06,36,271,26,04,33,239,25,13,33,068,26,7*78
$GAGSV,3,2,11,31,31,274,27,09,30,299,28,26,28,130,27,15,07,021,20,7*7F
$GAGSV,3,3,11,19,03,189,10,05,01,341,,33,01,169,,7*44
$GBGSV,3,1,10,26,78,121,38,35,60,132,36,24,46,297,37,29,29,049,34,1*74
$GBGSV,3,2,10,44,28,188,30,45,21,117,29,33,11,283,13,41,08,330,24,1*70
$GBGSV,3,3,10,12,07,196,24,14,06,259,15,1*72
$GNRMC,010055.000,A,4910.428120,N,12304.400028,W,0.02,0.00,041224,,,D,V*14
$GNVTG,0.00,T,,M,0.02,N,0.03,K,D*27
$GNGGA,010056.000,4910.428138,N,12304.400010,W,2,32,0.44,1.840,M,-16.816,M,,*41
$GNGLL,4910.428138,N,12304.400010,W,010056.000,A,D*5B
$GNGSA,A,3,17,22,19,14,24,13,15,02,30,21,,,0.80,0.44,0.67,1*01
$GNGSA,A,3,79,80,88,71,,,,,,,,,0.80,0.44,0.67,2*0B
$GNGSA,A,3,21,06,04,13,31,09,26,15,,,,,0.80,0.44,0.67,3*02
$GNGSA,A,3,26,35,24,29,44,45,33,41,12,14,,,0.80,0.44,0.67,4*00
$GPGSV,4,1,13,17,71,083,36,22,67,070,34,19,65,190,34,06,59,115,25,1*60
$GPGSV,4,2,13,14,44,084,33,24,40,302,33,48,33,182,30,13,24,212,31,1*69
$GPGSV,4,3,13,15,22,249,30,02,18,040,30,30,12,143,28,12,10,272,18,1*65
$GPGSV,4,4,13,21,05,027,23,1*54
$GLGSV,2,1,06,79,66,071,27,80,46,311,25,88,31,036,20,70,22,284,,1*72
$GLGSV,2,2,06,71,18,334,22,78,17,105,,1*78
$GAGSV,3,1,11,21,38,082,28,06,36,271,26,04,33,239,25,13,33,068,25,7*7A
$GAGSV,3,2,11,31,31,274,27,09,30,299,28,26,28,130,27,15,07,021,20,7*7F
$GAGSV,3,3,11,19,03,189,10,05,01,341,,33,01,169,,7*44
$GBGSV,3,1,10,26,78,121,38,35,60,132,36,24,46,297,37,29,29,049,34,1*74
$GBGSV,3,2,10,44,28,188,30,45,21,117,29,33,11,283,13,41,08,330,24,1*70
$GBGSV,3,3,10,12,07,196,24,14,06,259,15,1*72
$GNRMC,010056.000,A,4910.428138,N,12304.400010,W,0.02,0.00,041224,,,D,V*15
$GNVTG,0.00,T,,M,0.02,N,0.03,K,D*27
$GNGGA,010057.000,4910.428126,N,12304.399980,W,2,32,0.44,1.693,M,-16.816,M,,*48
$GNGLL,4910.428126,N,12304.399980,W,010057.000,A,D*52
$GNGSA,A,3,17,22,19,14,24,13,15,02,30,21,,,0.80,0.44,0.67,1*01
$GNGSA,A,3,79,80,88,71,,,,,,,,,0.80,0.44,0.67,2*0B
$GNGSA,A,3,21,06,04,13,31,09,26,15,,,,,0.80,0.44,0.67,3*02
$GNGSA,A,3,26,35,24,29,44,45,33,41,12,14,,,0.80,0.44,0.67,4*00
$GPGSV,4,1,13,17,71,083,36,22,67,070,34,19,65,190,34,06,59,115,26,1*63
$GPGSV,4,2,13,14,44,084,33,24,40,302,33,48,33,182,30,13,24,212,31,1*69
$GPGSV,4,3,13,15,22,249,30,02,18,040,30,30,12,143,28,12,10,272,18,1*65
$GPGSV,4,4,13,21,05,027,23,1*54
$GLGSV,2,1,07,79,66,071,27,80,46,311,25,88,31,036,20,82,27,170,,1*73
$GLGSV,2,2,07,70,22,284,,71,18,334,22,78,17,105,,1*40
$GAGSV,3,1,11,21,38,082,28,06,36,271,26,04,33,239,25,13,33,068,25,7*7A
$GAGSV,3,2,11,31,31,274,27,09,30,299,28,26,28,130,26,15,07,021,20,7*7E
$GAGSV,3,3,11,19,03,189,10,05,01,341,,33,01,169,,7*44
$GBGSV,3,1,10,26,78,121,38,35,60,132,37,24,46,297,37,29,29,049,34,1*75
$GBGSV,3,2,10,44,28,188,30,45,21,117,29,33,11,283,14,41,08,330,24,1*77
$GBGSV,3,3,10,12,07,196,24,14,06,259,15,1*72
$GNRMC,010057.000,A,4910.428126,N,12304.399980,W,0.02,0.00,041224,,,D,V*1C
$GNVTG,0.00,T,,M,0.02,N,0.03,K,D*27
$GNGGA,010058.000,4910.428108,N,12304.399920,W,2,32,0.44,1.559,M,-16.816,M,,*44
$GNGLL,4910.428108,N,12304.399920,W,010058.000,A,D*5B
$GNGSA,A,3,17,22,19,14,24,13,15,02,30,21,,,0.80,0.44,0.67,1*01
$GNGSA,A,3,79,80,88,71,,,,,,,,,0.80,0.44,0.67,2*0B
$GNGSA,A,3,21,06,04,13,31,09,26,15,,,,,0.80,0.44,0.67,3*02
$GNGSA,A,3,26,35,24,29,44,45,33,41,12,14,,,0.80,0.44,0.67,4*00
$GPGSV,4,1,13,17,71,083,36,22,67,070,34,19,65,190,34,06,59,115,25,1*60
$GPGSV,4,2,13,14,44,084,33,24,40,302,33,48,33,182,30,13,24,212,31,1*69
$GPGSV,4,3,13,15,22,249,30,02,18,040,30,30,12,143,28,12,10,272,17,1*6A
$GPGSV,4,4,13,21,05,027,23,1*54
$GLGSV,2,1,07,79,66,071,27,80,46,311,26,88,31,036,20,82,27,170,,1*70
$GLGSV,2,2,07,70,22,284,,71,18,334,22,78,17,105,,1*40
$GAGSV,3,1,11,21,38,082,28,06,36,271,26,04,33,239,25,13,33,068,25,7*7A
$GAGSV,3,2,11,31,31,274,27,09,30,299,28,26,28,130,26,15,07,021,20,7*7E
$GAGSV,3,3,11,19,03,189,10,05,01,341,,33,01,169,,7*44
$GBGSV,3,1,10,26,78,121,38,35,60,132,37,24,46,297,37,29,29,049,34,1*75
$GBGSV,3,2,10,44,28,188,30,45,21,117,28,33,11,283,13,41,08,330,24,1*71
$GBGSV,3,3,10,12,07,196,24,14,06,259,16,1*71
$GNRMC,010058.000,A,4910.428108,N,12304.399920,W,0.01,0.00,041224,,,D,V*16
$GNVTG,0.00,T,,M,0.01,N,0.02,K,D*25
$GNGGA,010059.000,4910.428102,N,12304.399842,W,2,32,0.44,1.456,M,-16.817,M,,*45
$GNGLL,4910.428102,N,12304.399842,W,010059.000,A,D*55
$GNGSA,A,3,17,22,19,14,24,13,15,02,30,21,,,0.80,0.44,0.67,1*01
$GNGSA,A,3,79,80,88,71,,,,,,,,,0.80,0.44,0.67,2*0B
$GNGSA,A,3,21,06,04,13,31,09,26,15,,,,,0.80,0.44,0.67,3*02
$GNGSA,A,3,26,35,24,29,44,45,33,41,12,14,,,0.80,0.44,0.67,4*00
$GPGSV,4,1,13,17,71,083,36,22,67,070,34,19,65,190,34,06,59,115,25,1*60
$GPGSV,4,2,13,14,44,084,33,24,40,302,33,48,33,182,30,13,24,212,31,1*69
$GPGSV,4,3,13,15,22,249,30,02,18,040,30,30,12,143,28,12,10,272,17,1*6A
$GPGSV,4,4,13,21,05,027,23,1*54
$GLGSV,2,1,07,79,66,071,27,80,46,311,26,88,31,036,21,82,27,170,,1*71
$GLGSV,2,2,07,70,22,284,,71,18,334,22,78,17,105,,1*40
$GAGSV,3,1,11,21,38,082,28,06,36,271,26,04,33,239,25,13,33,068,26,7*79
$GAGSV,3,2,11,31,31,274,27,09,30,299,28,26,28,130,26,15,07,021,20,7*7E
$GAGSV,3,3,11,19,03,189,10,05,01,341,,33,01,169,,7*44
$GBGSV,3,1,10,26,78,121,38,35,60,132,37,24,46,297,37,29,29,049,34,1*75
$GBGSV,3,2,10,44,28,188,30,45,21,117,28,33,11,283,14,41,08,330,24,1*76
$GBGSV,3,3,10,12,07,196,24,14,06,259,15,1*72
$GNRMC,010059.000,A,4910.428102,N,12304.399842,W,0.01,0.00,041224,,,D,V*18
$GNVTG,0.00,T,,M,0.01,N,0.03,K,D*24
$GNGGA,010100.000,4910.428138,N,12304.399782,W,2,32,0.44,1.370,M,-16.816,M,,*40
$GNGLL,4910.428138,N,12304.399782,W,010100.000,A,D*52
$GNGSA,A,3,17,22,19,14,24,13,15,02,30,21,,,0.80,0.44,0.67,1*01
$GNGSA,A,3,79,80,88,71,,,,,,,,,0.80,0.44,0.67,2*0B
$GNGSA,A,3,21,06,04,13,31,09,26,15,,,,,0.80,0.44,0.67,3*02
$GNGSA,A,3,26,35,24,29,44,45,33,41,12,14,,,0.80,0.44,0.67,4*00
$GPGSV,4,1,13,17,71,083,36,22,67,070,34,19,65,190,34,06,59,115,26,1*63
$GPGSV,4,2,13,14,44,084,33,24,40,302,33,48,33,182,30,13,24,212,31,1*69
$GPGSV,4,3,13,15,22,249,30,02,18,040,30,30,12,143,28,12,10,272,17,1*6A
$GPGSV,4,4,13,21,05,027,23,1*54
$GLGSV,2,1,06,79,66,071,27,80,46,311,26,88,31,036,21,70,22,284,,1*70
$GLGSV,2,2,06,71,18,334,22,78,17,105,,1*78
$GAGSV,3,1,11,21,38,082,28,06,36,271,26,04,33,239,25,13,33,068,26,7*79
$GAGSV,3,2,11,31,31,274,26,09,30,299,28,26,28,130,26,15,07,021,20,7*7F
$GAGSV,3,3,11,19,03,189,10,05,01,341,,33,01,169,,7*44
$GBGSV,3,1,10,26,78,121,38,35,60,132,37,24,46,297,37,29,29,049,34,1*75
$GBGSV,3,2,10,44,28,188,30,45,21,117,29,33,11,283,13,41,08,330,25,1*71
$GBGSV,3,3,10,12,07,196,24,14,06,259,13,1*74
$GNRMC,010100.000,A,4910.428138,N,12304.399782,W,0.02,0.00,041224,,,D,V*1C
$GNVTG,0.00,T,,M,0.02,N,0.03,K,D*27
$GNGGA,010101.000,4910.428186,N,12304.399740,W,2,31,0.45,1.284,M,-16.816,M,,*42
$GNGLL,4910.428186,N,12304.399740,W,010101.000,A,D*58
$GNGSA,A,3,17,22,19,14,24,13,15,02,30,21,,,0.81,0.45,0.68,1*0E
$GNGSA,A,3,79,80,88,71,,,,,,,,,0.81,0.45,0.68,2*04
$GNGSA,A,3,21,06,04,13,31,09,26,15,,,,,0.81,0.45,0.68,3*0D
$GNGSA,A,3,26,35,24,29,44,45,41,12,14,,,,0.81,0.45,0.68,4*0F
$GPGSV,4,1,13,17,71,083,36,22,67,070,34,19,65,190,33,06,59,115,25,1*67
$GPGSV,4,2,13,14,44,084,33,24,40,302,33,48,33,182,29,13,24,212,31,1*61
$GPGSV,4,3,13,15,22,249,30,02,18,040,30,30,12,143,28,12,10,272,17,1*6A
$GPGSV,4,4,13,21,05,027,23,1*54
$GLGSV,2,1,07,79,66,071,27,80,46,311,26,88,31,036,21,82,27,170,,1*71
$GLGSV,2,2,07,70,22,284,,71,18,334,22,78,17,105,,1*40
$GAGSV,3,1,11,21,38,082,28,06,36,271,26,04,33,239,25,13,33,068,26,7*79
$GAGSV,3,2,11,31,31,274,26,09,30,299,28,26,28,130,26,15,07,021,20,7*7F
$GAGSV,3,3,11,19,03,189,10,05,01,341,,33,01,169,,7*44
$GBGSV,3,1,10,26,78,121,38,35,60,132,37,24,46,297,37,29,29,049,34,1*75
$GBGSV,3,2,10,44,28,188,30,45,21,117,29,33,11,283,,41,08,330,25,1*73
$GBGSV,3,3,10,12,07,196,24,14,06,259,15,1*72
$GNRMC,010101.000,A,4910.428186,N,12304.399740,W,0.02,0.00,041224,,,D,V*16
$GNVTG,0.00,T,,M,0.02,N,0.03,K,D*27
$PAIR010,0,1,2343,262879*3C
$GNGGA,010102.000,4910.428204,N,12304.399656,W,2,31,0.45,1.198,M,-16.816,M,,*40
$GNGLL,4910.428204,N,12304.399656,W,010102.000,A,D*54
$GNGSA,A,3,17,22,19,14,24,13,15,02,30,21,,,0.81,0.45,0.68,1*0E
$GNGSA,A,3,79,80,88,71,,,,,,,,,0.81,0.45,0.68,2*04
$GNGSA,A,3,21,06,04,13,31,09,26,15,,,,,0.81,0.45,0.68,3*0D
$GNGSA,A,3,26,35,24,29,44,45,41,12,14,,,,0.81,0.45,0.68,4*0F
$GPGSV,4,1,13,17,71,083,35,22,67,070,34,19,65,190,33,06,59,115,25,1*64
$GPGSV,4,2,13,14,44,084,33,24,40,302,33,48,33,182,29,13,24,212,30,1*60
$GPGSV,4,3,13,15,22,249,30,02,18,040,30,30,12,143,28,12,10,272,17,1*6A
$GPGSV,4,4,13,21,05,027,23,1*54
$GLGSV,2,1,07,79,66,071,26,80,46,311,26,88,31,036,21,82,27,170,,1*70
$GLGSV,2,2,07,70,22,284,,71,18,334,22,78,17,105,,1*40
$GAGSV,3,1,11,21,38,082,28,06,36,271,26,04,33,239,25,13,33,068,26,7*79
$GAGSV,3,2,11,31,31,274,26,09,30,299,28,26,28,130,26,15,07,021,20,7*7F
$GAGSV,3,3,11,19,03,189,10,05,01,341,,33,01,169,,7*44
$GBGSV,3,1,10,26,78,121,38,35,60,132,37,24,46,297,37,29,29,049,34,1*75
$GBGSV,3,2,10,44,28,188,30,45,21,117,29,33,11,283,,41,08,330,25,1*73
$GBGSV,3,3,10,12,07,196,24,14,06,259,14,1*73
$GNRMC,010102.000,A,4910.428204,N,12304.399656,W,0.02,0.00,041224,,,D,V*1A
$GNVTG,0.00,T,,M,0.02,N,0.04,K,D*20
$GNGGA,010103.000,4910.428162,N,12304.399620,W,2,31,0.45,1.140,M,-16.816,M,,*46
$GNGLL,4910.428162,N,12304.399620,W,010103.000,A,D*57
$GNGSA,A,3,17,22,19,14,24,13,15,02,30,21,,,0.81,0.45,0.68,1*0E
$GNGSA,A,3,79,80,88,71,,,,,,,,,0.81,0.45,0.68,2*04
$GNGSA,A,3,21,06,04,13,31,09,26,15,,,,,0.81,0.45,0.68,3*0D
$GNGSA,A,3,26,35,24,29,44,45,41,12,14,,,,0.81,0.45,0.68,4*0F
$GPGSV,4,1,13,17,71,083,35,22,67,070,34,19,65,190,33,06,59,115,25,1*64
$GPGSV,4,2,13,14,44,084,33,24,40,302,33,48,33,182,29,13,24,212,30,1*60
$GPGSV,4,3,13,15,22,249,30,02,18,040,30,30,12,143,28,12,10,272,17,1*6A
$GPGSV,4,4,13,21,05,027,23,1*54
$GLGSV,2,1,07,79,66,071,25,80,46,311,26,88,31,036,21,82,27,170,,1*73
$GLGSV,2,2,07,70,22,284,,71,18,334,22,78,17,105,,1*40
$GAGSV,3,1,11,21,38,082,28,06,36,271,26,04,33,239,25,13,33,068,26,7*79
$GAGSV,3,2,11,31,31,274,26,09,30,299,28,26,28,130,26,15,07,021,19,7*75
$GAGSV,3,3,11,19,03,189,10,05,01,341,,33,01,169,,7*44
$GBGSV,3,1,10,26,78,121,38,35,60,132,37,24,46,297,37,29,29,049,34,1*75
$GBGSV,3,2,10,44,28,188,30,45,21,117,29,33,11,283,,41,08,330,25,1*73
$GBGSV,3,3,10,12,07,196,24,14,06,259,13,1*74
$GNRMC,010103.000,A,4910.428162,N,12304.399620,W,0.02,0.00,041224,,,D,V*19
$GNVTG,0.00,T,,M,0.02,N,0.03,K,D*27
$GNGGA,010104.000,4910.428126,N,12304.399542,W,2,31,0.45,1.057,M,-16.816,M,,*41
$GNGLL,4910.428126,N,12304.399542,W,010104.000,A,D*57
$GNGSA,A,3,17,22,19,14,24,13,15,02,30,21,,,0.81,0.45,0.68,1*0E
$GNGSA,A,3,79,80,88,71,,,,,,,,,0.81,0.45,0.68,2*04
$GNGSA,A,3,21,06,04,13,31,09,26,15,,,,,0.81,0.45,0.68,3*0D
$GNGSA,A,3,26,35,24,29,44,45,41,12,14,,,,0.81,0.45,0.68,4*0F
$GPGSV,4,1,13,17,71,083,35,22,67,070,34,19,65,190,33,06,59,115,24,1*65
$GPGSV,4,2,13,14,44,084,33,24,40,302,33,48,33,182,29,13,24,212,30,1*60
$GPGSV,4,3,13,15,22,249,30,02,18,040,30,30,12,143,28,12,10,272,17,1*6A
$GPGSV,4,4,13,21,05,027,23,1*54
$GLGSV,2,1,07,79,66,071,25,80,46,311,25,88,31,036,21,82,27,170,,1*70
$GLGSV,2,2,07,70,22,284,,71,18,334,21,78,17,105,,1*43
$GAGSV,3,1,11,21,38,082,28,06,36,271,26,04,33,239,25,13,33,068,26,7*79
$GAGSV,3,2,11,31,31,274,26,09,30,299,28,26,28,130,26,15,07,021,19,7*75
$GAGSV,3,3,11,19,03,189,10,05,01,341,,33,01,169,,7*44
$GBGSV,3,1,10,26,78,121,38,35,60,132,37,24,46,297,37,29,29,049,34,1*75
$GBGSV,3,2,10,44,28,188,30,45,21,117,29,33,11,283,,41,08,330,25,1*73
$GBGSV,3,3,10,12,07,196,24,14,06,259,14,1*73
$GNRMC,010104.000,A,4910.428126,N,12304.399542,W,0.02,0.00,041224,,,D,V*19
$GNVTG,0.00,T,,M,0.02,N,0.03,K,D*27
$GNGGA,010105.000,4910.428084,N,12304.399518,W,2,31,0.45,1.023,M,-16.816,M,,*45
$GNGLL,4910.428084,N,12304.399518,W,010105.000,A,D*50
$GNGSA,A,3,17,22,19,14,24,13,15,02,30,21,,,0.81,0.45,0.68,1*0E
$GNGSA,A,3,79,80,88,71,,,,,,,,,0.81,0.45,0.68,2*04
$GNGSA,A,3,21,06,04,13,31,09,26,15,,,,,0.81,0.45,0.68,3*0D
$GNGSA,A,3,26,35,24,29,44,45,41,12,14,,,,0.81,0.45,0.68,4*0F
$GPGSV,4,1,13,17,71,083,35,22,67,070,34,19,65,190,33,06,59,115,25,1*64
$GPGSV,4,2,13,14,44,084,33,24,40,302,33,48,33,182,29,13,24,212,30,1*60
$GPGSV,4,3,13,15,22,249,30,02,18,040,30,30,12,143,28,12,10,272,17,1*6A
$GPGSV,4,4,13,21,05,027,23,1*54
$GLGSV,2,1,07,79,66,071,25,80,46,311,25,88,31,036,20,82,27,170,,1*71
$GLGSV,2,2,07,70,22,284,,71,18,334,20,78,17,105,,1*42
$GAGSV,3,1,11,21,38,082,28,06,36,271,26,04,33,239,25,13,33,068,26,7*79
$GAGSV,3,2,11,31,31,274,26,09,30,299,28,26,28,130,26,15,07,021,19,7*75
$GAGSV,3,3,11,19,03,189,10,05,01,341,,33,01,169,,7*44
$GBGSV,3,1,10,26,78,121,38,35,60,132,37,24,46,297,37,29,29,049,34,1*75
$GBGSV,3,2,10,44,28,188,30,45,21,117,29,33,11,283,,41,08,330,25,1*73
$GBGSV,3,3,10,12,07,196,24,14,06,259,14,1*73
$GNRMC,010105.000,A,4910.428084,N,12304.399518,W,0.02,0.00,041224,,,D,V*1E
$GNVTG,0.00,T,,M,0.02,N,0.03,K,D*27
$GNGGA,010106.000,4910.427994,N,12304.399506,W,2,31,0.45,0.965,M,-16.816,M,,*44
$GNGLL,4910.427994,N,12304.399506,W,010106.000,A,D*5B
$GNGSA,A,3,17,22,19,14,24,13,15,02,30,21,,,0.81,0.45,0.68,1*0E
$GNGSA,A,3,79,80,88,71,,,,,,,,,0.81,0.45,0.68,2*04
$GNGSA,A,3,21,06,04,13,31,09,26,15,,,,,0.81,0.45,0.68,3*0D
$GNGSA,A,3,26,35,24,29,44,45,41,12,14,,,,0.81,0.45,0.68,4*0F
$GPGSV,4,1,13,17,71,083,35,22,67,070,34,19,65,190,33,06,59,115,25,1*64
$GPGSV,4,2,13,14,44,084,33,24,40,302,33,48,33,182,29,13,24,212,30,1*60
$GPGSV,4,3,13,15,22,249,30,02,18,040,30,30,12,143,28,12,10,272,17,1*6A
$GPGSV,4,4,13,21,05,027,23,1*54
$GLGSV,2,1,06,79,66,071,26,80,46,311,26,88,31,036,20,70,22,284,,1*70
$GLGSV,2,2,06,71,18,334,20,78,17,105,,1*7A
$GAGSV,3,1,11,21,38,082,28,06,36,271,26,04,33,239,25,13,33,068,26,7*79
$GAGSV,3,2,11,31,31,274,26,09,30,299,28,26,28,130,26,15,07,021,19,7*75
$GAGSV,3,3,11,19,03,189,10,05,01,341,,33,01,169,,7*44
$GBGSV,3,1,10,26,78,121,38,35,60,132,37,24,46,297,37,29,29,049,34,1*75
$GBGSV,3,2,10,44,28,188,30,45,21,117,29,33,11,283,,41,08,330,25,1*73
$GBGSV,3,3,10,12,07,196,24,14,06,259,13,1*74
$GNRMC,010106.000,A,4910.427994,N,12304.399506,W,0.02,0.00,041224,,,D,V*15
$GNVTG,0.00,T,,M,0.02,N,0.03,K,D*27
$GNGGA,010107.000,4910.427952,N,12304.399518,W,2,31,0.45,0.919,M,-16.817,M,,*4A
$GNGLL,4910.427952,N,12304.399518,W,010107.000,A,D*5F
$GNGSA,A,3,17,22,19,14,24,13,15,02,30,21,,,0.81,0.45,0.68,1*0E
$GNGSA,A,3,79,80,88,71,,,,,,,,,0.81,0.45,0.68,2*04
$GNGSA,A,3,21,06,04,13,31,09,26,15,,,,,0.81,0.45,0.68,3*0D
$GNGSA,A,3,26,35,24,29,44,45,41,12,14,,,,0.81,0.45,0.68,4*0F
$GPGSV,4,1,13,17,71,083,35,22,67,070,34,19,65,190,33,06,59,115,25,1*64
$GPGSV,4,2,13,14,44,084,33,24,40,302,33,48,33,182,29,13,24,212,30,1*60
$GPGSV,4,3,13,15,22,249,30,02,18,040,30,30,12,143,28,12,10,272,17,1*6A
$GPGSV,4,4,13,21,05,027,23,1*54
$GLGSV,2,1,07,79,66,071,27,80,46,311,26,88,31,036,20,82,27,170,,1*70
$GLGSV,2,2,07,70,22,284,,71,18,334,21,78,17,105,,1*43
$GAGSV,3,1,11,21,38,082,28,06,36,271,26,04,33,239,25,13,33,068,26,7*79
$GAGSV,3,2,11,31,31,274,26,09,30,299,27,26,28,130,26,15,07,021,19,7*7A
$GAGSV,3,3,11,19,03,189,10,05,01,341,,33,01,169,,7*44
$GBGSV,3,1,10,26,78,121,38,35,60,132,37,24,46,297,37,29,29,049,34,1*75
$GBGSV,3,2,10,44,28,188,30,45,21,117,29,33,11,283,,41,08,330,25,1*73
$GBGSV,3,3,10,12,07,196,24,14,06,259,14,1*73
$GNRMC,010107.000,A,4910.427952,N,12304.399518,W,0.02,0.00,041224,,,D,V*11
$GNVTG,0.00,T,,M,0.02,N,0.04,K,D*20
$GNGGA,010108.000,4910.427904,N,12304.399506,W,2,31,0.45,0.774,M,-16.816,M,,*4D
$GNGLL,4910.427904,N,12304.399506,W,010108.000,A,D*5C
$GNGSA,A,3,17,22,19,14,24,13,15,02,30,21,,,0.81,0.45,0.68,1*0E
$GNGSA,A,3,79,80,88,71,,,,,,,,,0.81,0.45,0.68,2*04
$GNGSA,A,3,21,06,04,13,31,09,26,15,,,,,0.81,0.45,0.68,3*0D
$GNGSA,A,3,26,35,24,29,44,45,41,12,14,,,,0.81,0.45,0.68,4*0F
$GPGSV,4,1,13,17,71,083,35,22,67,070,34,19,65,190,33,06,59,115,26,1*67
$GPGSV,4,2,13,14,44,084,33,24,40,302,33,48,33,182,28,13,24,212,30,1*61
$GPGSV,4,3,13,15,22,249,30,02,18,040,30,30,12,143,28,12,10,272,18,1*65
$GPGSV,4,4,13,21,05,027,22,1*55
$GLGSV,2,1,07,79,66,071,26,80,46,311,26,88,31,036,20,82,27,170,,1*71
$GLGSV,2,2,07,70,22,284,,71,18,334,21,78,17,105,,1*43
$GAGSV,3,1,11,21,38,082,28,06,36,271,26,04,33,239,25,13,33,068,26,7*79
$GAGSV,3,2,11,31,31,274,26,09,30,299,27,26,28,130,26,15,07,021,19,7*7A
$GAGSV,3,3,11,19,03,189,09,05,01,341,,33,01,168,,7*4D
$GBGSV,3,1,10,26,78,121,38,35,60,132,37,24,46,297,37,29,29,049,34,1*75
$GBGSV,3,2,10,44,28,188,30,45,21,117,29,33,11,283,,41,08,330,25,1*73
$GBGSV,3,3,10,12,07,196,24,14,06,259,12,1*75
$GNRMC,010108.000,A,4910.427904,N,12304.399506,W,0.02,0.00,041224,,,D,V*12
$GNVTG,0.00,T,,M,0.02,N,0.03,K,D*27
$GNGGA,010109.000,4910.427886,N,12304.399482,W,2,31,0.45,0.735,M,-16.816,M,,*4F
$GNGLL,4910.427886,N,12304.399482,W,010109.000,A,D*5B
$GNGSA,A,3,17,22,19,14,24,13,15,02,30,21,,,0.81,0.45,0.68,1*0E
$GNGSA,A,3,79,80,88,71,,,,,,,,,0.81,0.45,0.68,2*04
$GNGSA,A,3,21,06,04,13,31,09,26,15,,,,,0.81,0.45,0.68,3*0D
$GNGSA,A,3,26,35,24,29,44,45,41,12,14,,,,0.81,0.45,0.68,4*0F
$GPGSV,4,1,13,17,71,083,35,22,67,070,34,19,65,190,33,06,59,115,26,1*67
$GPGSV,4,2,13,14,44,084,33,24,40,302,33,48,33,182,28,13,24,212,31,1*60
$GPGSV,4,3,13,15,22,249,30,02,18,040,30,30,12,143,28,12,10,272,18,1*65
$GPGSV,4,4,13,21,05,027,24,1*53
$GLGSV,2,1,07,79,66,071,25,80,46,311,26,88,31,036,20,82,27,170,,1*72
$GLGSV,2,2,07,70,22,284,,71,18,334,21,78,17,105,,1*43
$GAGSV,3,1,11,21,38,082,29,06,36,271,26,04,33,239,25,13,33,068,26,7*78
$GAGSV,3,2,11,31,31,274,26,09,30,299,27,26,28,130,26,15,07,021,19,7*7A
$GAGSV,3,3,11,19,03,189,09,05,01,341,,33,01,168,,7*4D
$GBGSV,3,1,10,26,78,121,38,35,60,132,37,24,46,297,37,29,29,049,34,1*75
$GBGSV,3,2,10,44,28,188,30,45,21,117,29,33,11,283,,41,08,330,25,1*73
$GBGSV,3,3,10,12,07,196,24,14,06,259,13,1*74
$GNRMC,010109.000,A,4910.427886,N,12304.399482,W,0.02,0.00,041224,,,D,V*15
$GNVTG,0.00,T,,M,0.02,N,0.03,K,D*27
$GNGGA,010110.000,4910.427886,N,12304.399446,W,2,31,0.45,0.697,M,-16.817,M,,*47
$GNGLL,4910.427886,N,12304.399446,W,010110.000,A,D*5B
$GNGSA,A,3,17,22,19,14,24,13,15,02,30,21,,,0.81,0.45,0.68,1*0E
$GNGSA,A,3,79,80,88,71,,,,,,,,,0.81,0.45,0.68,2*04
$GNGSA,A,3,21,06,04,13,31,09,26,15,,,,,0.81,0.45,0.68,3*0D
$GNGSA,A,3,26,35,24,29,44,45,41,12,14,,,,0.81,0.45,0.68,4*0F
$GPGSV,4,1,13,17,71,083,35,22,67,070,34,19,65,190,33,06,59,115,25,1*64
$GPGSV,4,2,13,14,44,084,33,24,40,302,33,48,33,182,28,13,24,212,31,1*60
$GPGSV,4,3,13,15,22,249,30,02,18,040,30,30,12,143,28,12,10,272,18,1*65
$GPGSV,4,4,13,21,05,027,22,1*55
$GLGSV,2,1,07,79,66,071,26,80,46,311,27,88,31,036,20,82,27,170,,1*70
$GLGSV,2,2,07,70,22,284,,71,18,334,22,78,17,105,,1*40
$GAGSV,3,1,11,21,38,082,29,06,36,271,25,04,33,239,25,13,33,068,26,7*7B
$GAGSV,3,2,11,31,31,274,26,09,30,299,27,26,28,130,26,15,07,021,19,7*7A
$GAGSV,3,3,11,19,03,189,09,05,01,341,,33,01,168,,7*4D
$GBGSV,3,1,10,26,78,121,38,35,60,132,37,24,46,297,37,29,29,049,34,1*75
$GBGSV,3,2,10,44,28,188,30,45,21,117,29,33,11,283,,41,08,330,25,1*73
$GBGSV,3,3,10,12,07,196,24,14,06,259,13,1*74
$GNRMC,010110.000,A,4910.427886,N,12304.399446,W,0.02,0.00,041224,,,D,V*15
$GNVTG,0.00,T,,M,0.02,N,0.03,K,D*27
$GNGGA,010111.000,4910.427886,N,12304.399410,W,2,31,0.45,0.698,M,-16.817,M,,*4A
$GNGLL,4910.427886,N,12304.399410,W,010111.000,A,D*59
$GNGSA,A,3,17,22,19,14,24,13,15,02,30,21,,,0.81,0.45,0.68,1*0E
$GNGSA,A,3,79,80,88,71,,,,,,,,,0.81,0.45,0.68,2*04
$GNGSA,A,3,21,06,04,13,31,09,26,15,,,,,0.81,0.45,0.68,3*0D
$GNGSA,A,3,26,35,24,29,44,45,41,12,14,,,,0.81,0.45,0.68,4*0F
$GPGSV,4,1,13,17,71,083,35,22,67,070,34,19,65,190,33,06,59,115,25,1*64
$GPGSV,4,2,13,14,44,084,33,24,40,302,33,48,33,182,28,13,24,212,30,1*61
$GPGSV,4,3,13,15,22,249,30,02,18,040,30,30,12,143,28,12,10,272,18,1*65
$GPGSV,4,4,13,21,05,027,22,1*55
$GLGSV,2,1,07,79,66,071,26,80,46,311,27,88,31,036,21,82,27,170,,1*71
$GLGSV,2,2,07,70,22,284,,71,18,334,22,78,17,105,,1*40
$GAGSV,3,1,11,21,38,082,29,06,36,271,24,04,33,239,25,13,33,068,26,7*7A
$GAGSV,3,2,11,31,31,274,25,09,30,299,27,26,28,130,26,15,07,021,19,7*79
$GAGSV,3,3,11,19,03,189,09,05,01,341,,33,01,168,,7*4D
$GBGSV,3,1,10,26,78,121,38,35,60,132,37,24,46,297,37,29,29,049,34,1*75
$GBGSV,3,2,10,44,28,188,30,45,21,117,29,33,11,283,,41,08,330,25,1*73
$GBGSV,3,3,10,12,07,196,24,14,06,259,14,1*73
$GNRMC,010111.000,A,4910.427886,N,12304.399410,W,0.01,0.00,041224,,,D,V*14
$GNVTG,0.00,T,,M,0.01,N,0.02,K,D*25
$GNGGA,010112.000,4910.427892,N,12304.399290,W,2,31,0.45,0.677,M,-16.816,M,,*42
$GNGLL,4910.427892,N,12304.399290,W,010112.000,A,D*51
$GNGSA,A,3,17,22,19,14,24,13,15,02,30,21,,,0.81,0.45,0.68,1*0E
$GNGSA,A,3,79,80,88,71,,,,,,,,,0.81,0.45,0.68,2*04
$GNGSA,A,3,21,06,04,13,31,09,26,15,,,,,0.81,0.45,0.68,3*0D
$GNGSA,A,3,26,35,24,29,44,45,41,12,14,,,,0.81,0.45,0.68,4*0F
$GPGSV,4,1,13,17,71,083,35,22,67,070,34,19,65,190,33,06,59,115,25,1*64
$GPGSV,4,2,13,14,44,084,33,24,40,302,33,48,33,182,28,13,24,212,30,1*61
$GPGSV,4,3,13,15,22,249,30,02,18,040,30,30,12,143,29,12,10,272,18,1*64
$GPGSV,4,4,13,21,05,027,22,1*55
$GLGSV,2,1,06,79,66,071,27,80,46,311,27,88,31,036,21,70,22,284,,1*71
$GLGSV,2,2,06,71,18,334,22,78,17,105,,1*78
$GAGSV,3,1,11,21,38,082,29,06,36,271,24,04,33,239,25,13,33,068,26,7*7A
$GAGSV,3,2,11,31,31,274,25,09,30,299,27,26,28,130,26,15,07,021,19,7*79
$GAGSV,3,3,11,19,03,189,10,05,01,341,,33,01,168,,7*45
$GBGSV,3,1,10,26,78,121,38,35,60,132,37,24,46,297,37,29,29,049,34,1*75
$GBGSV,3,2,10,44,28,188,30,45,21,117,29,33,11,283,,41,08,330,25,1*73
$GBGSV,3,3,10,12,07,196,24,14,06,259,14,1*73
$GNRMC,010112.000,A,4910.427892,N,12304.399290,W,0.01,0.00,041224,,,D,V*1C
$GNVTG,0.00,T,,M,0.01,N,0.02,K,D*25
$GNGGA,010113.000,4910.427880,N,12304.399176,W,2,31,0.45,0.711,M,-16.816,M,,*4A
$GNGLL,4910.427880,N,12304.399176,W,010113.000,A,D*58
$GNGSA,A,3,17,22,19,14,24,13,15,02,30,21,,,0.81,0.45,0.68,1*0E
$GNGSA,A,3,79,80,88,71,,,,,,,,,0.81,0.45,0.68,2*04
$GNGSA,A,3,21,06,04,13,31,09,26,15,,,,,0.81,0.45,0.68,3*0D
$GNGSA,A,3,26,35,24,29,44,45,41,12,14,,,,0.81,0.45,0.68,4*0F
$GPGSV,4,1,13,17,71,083,35,22,67,070,34,19,65,190,33,06,59,115,25,1*64
$GPGSV,4,2,13,14,44,084,33,24,40,302,33,48,33,182,28,13,24,212,30,1*61
$GPGSV,4,3,13,15,22,249,30,02,18,040,30,30,12,143,29,12,10,272,18,1*64
$GPGSV,4,4,13,21,05,027,22,1*55
$GLGSV,2,1,07,79,66,071,27,80,46,311,27,88,31,036,21,82,27,170,,1*70
$GLGSV,2,2,07,70,22,284,,71,18,334,22,78,17,105,,1*40
$GAGSV,3,1,11,21,38,082,29,06,36,271,24,04,33,239,25,13,33,068,26,7*7A
$GAGSV,3,2,11,31,31,274,25,09,30,299,27,26,28,130,26,15,07,021,19,7*79
$GAGSV,3,3,11,19,03,189,10,05,01,341,,33,01,168,,7*45
$GBGSV,3,1,10,26,78,121,38,35,60,132,37,24,46,297,37,29,29,049,34,1*75
$GBGSV,3,2,10,44,28,188,30,45,21,117,29,33,11,283,,41,08,330,25,1*73
$GBGSV,3,3,10,12,07,196,24,14,06,259,15,1*72
$GNRMC,010113.000,A,4910.427880,N,12304.399176,W,0.01,0.00,041224,,,D,V*15
$GNVTG,0.00,T,,M,0.01,N,0.02,K,D*25
$GNGGA,010114.000,4910.427874,N,12304.399146,W,2,31,0.45,0.733,M,-16.816,M,,*45
$GNGLL,4910.427874,N,12304.399146,W,010114.000,A,D*57
$GNGSA,A,3,17,22,19,14,24,13,15,02,30,21,,,0.81,0.45,0.68,1*0E
$GNGSA,A,3,79,80,88,71,,,,,,,,,0.81,0.45,0.68,2*04
$GNGSA,A,3,21,06,04,13,31,09,26,15,,,,,0.81,0.45,0.68,3*0D
$GNGSA,A,3,26,35,24,29,44,45,41,12,14,,,,0.81,0.45,0.68,4*0F
$GPGSV,4,1,13,17,71,083,35,22,67,070,34,19,65,190,33,06,59,115,25,1*64
$GPGSV,4,2,13,14,44,084,33,24,40,302,33,48,33,182,29,13,24,212,30,1*60
$GPGSV,4,3,13,15,22,249,30,02,18,040,30,30,12,143,29,12,10,272,18,1*64
$GPGSV,4,4,13,21,05,027,22,1*55
$GLGSV,2,1,07,79,66,071,27,80,46,311,27,88,31,036,21,82,27,170,,1*70
$GLGSV,2,2,07,70,22,284,,71,18,334,22,78,17,105,,1*40
$GAGSV,3,1,11,21,38,082,29,06,36,271,24,04,33,239,25,13,33,068,26,7*7A
$GAGSV,3,2,11,31,31,274,25,09,30,299,27,26,28,130,26,15,07,021,19,7*79
$GAGSV,3,3,11,19,03,189,10,05,01,341,,33,01,168,,7*45
$GBGSV,3,1,10,26,78,121,38,35,60,132,37,24,46,297,37,29,29,049,34,1*75
$GBGSV,3,2,10,44,28,188,31,45,21,117,29,33,11,283,,41,08,330,25,1*72
$GBGSV,3,3,10,12,07,196,24,14,06,259,14,1*73
$GNRMC,010114.000,A,4910.427874,N,12304.399146,W,0.01,0.00,041224,,,D,V*1A
$GNVTG,0.00,T,,M,0.01,N,0.02,K,D*25
$GNGGA,010115.000,4910.427874,N,12304.399074,W,2,31,0.45,0.695,M,-16.816,M,,*49
$GNGLL,4910.427874,N,12304.399074,W,010115.000,A,D*56
$GNGSA,A,3,17,22,19,14,24,13,15,02,30,21,,,0.81,0.45,0.68,1*0E
$GNGSA,A,3,79,80,88,71,,,,,,,,,0.81,0.45,0.68,2*04
$GNGSA,A,3,21,06,04,13,31,09,26,15,,,,,0.81,0.45,0.68,3*0D
$GNGSA,A,3,26,35,24,29,44,45,41,12,14,,,,0.81,0.45,0.68,4*0F
$GPGSV,4,1,13,17,71,083,35,22,67,070,34,19,65,190,34,06,59,115,25,1*63
$GPGSV,4,2,13,14,44,084,33,24,40,302,33,48,33,182,30,13,24,212,30,1*68
$GPGSV,4,3,13,15,22,249,30,02,18,040,30,30,12,143,29,12,10,272,19,1*65
$GPGSV,4,4,13,21,05,027,23,1*54
$GLGSV,2,1,07,79,66,071,27,80,46,311,26,88,31,036,20,82,27,170,,1*70
$GLGSV,2,2,07,70,22,284,,71,18,334,22,78,17,105,,1*40
$GAGSV,3,1,11,21,38,082,29,06,36,271,24,04,33,239,25,13,33,068,26,7*7A
$GAGSV,3,2,11,31,31,274,25,09,30,299,27,26,28,130,26,15,07,021,19,7*79
$GAGSV,3,3,11,19,03,189,10,05,01,341,,33,01,168,,7*45
$GBGSV,3,1,10,26,78,121,38,35,60,132,37,24,46,297,37,29,29,049,34,1*75
$GBGSV,3,2,10,44,28,188,31,45,21,117,29,33,11,283,,41,08,330,25,1*72
$GBGSV,3,3,10,12,07,196,24,14,06,259,13,1*74
$GNRMC,010115.000,A,4910.427874,N,12304.399074,W,0.01,0.00,041224,,,D,V*1B
$GNVTG,0.00,T,,M,0.01,N,0.03,K,D*24
$GNGGA,010116.000,4910.427856,N,12304.399038,W,2,31,0.45,0.683,M,-16.816,M,,*45
$GNGLL,4910.427856,N,12304.399038,W,010116.000,A,D*5D
$GNGSA,A,3,17,22,19,14,24,13,15,02,30,21,,,0.81,0.45,0.68,1*0E
$GNGSA,A,3,79,80,88,71,,,,,,,,,0.81,0.45,0.68,2*04
$GNGSA,A,3,21,06,04,13,31,09,26,15,,,,,0.81,0.45,0.68,3*0D
$GNGSA,A,3,26,35,24,29,44,45,41,12,14,,,,0.81,0.45,0.68,4*0F
$GPGSV,4,1,13,17,71,083,35,22,67,070,35,19,65,190,34,06,59,115,25,1*62
$GPGSV,4,2,13,14,44,084,33,24,40,302,33,48,33,182,30,13,24,212,30,1*68
$GPGSV,4,3,13,15,22,249,30,02,18,040,30,30,12,143,29,12,10,272,19,1*65
$GPGSV,4,4,13,21,05,027,23,1*54
$GLGSV,2,1,06,79,66,071,27,80,46,311,26,88,31,036,20,82,27,170,,1*71
$GLGSV,2,2,06,71,18,334,22,78,17,105,,1*78
$GAGSV,3,1,11,21,38,082,29,06,36,271,24,04,33,239,25,13,33,068,26,7*7A
$GAGSV,3,2,11,31,31,274,26,09,30,299,27,26,28,130,26,15,07,021,19,7*7A
$GAGSV,3,3,11,19,03,189,10,05,01,341,,33,01,168,,7*45
$GBGSV,3,1,10,26,78,121,38,35,60,132,37,24,46,297,37,29,29,049,34,1*75
$GBGSV,3,2,10,44,28,188,31,45,21,117,29,33,11,283,,41,08,330,25,1*72
$GBGSV,3,3,10,12,07,196,24,14,06,259,14,1*73
$GNRMC,010116.000,A,4910.427856,N,12304.399038,W,0.01,0.00,041224,,,D,V*10
$GNVTG,0.00,T,,M,0.01,N,0.03,K,D*24
$GNGGA,010117.000,4910.427772,N,12304.398972,W,2,31,0.45,0.641,M,-16.816,M,,*45
$GNGLL,4910.427772,N,12304.398972,W,010117.000,A,D*53
$GNGSA,A,3,17,22,19,14,24,13,15,02,30,21,,,0.81,0.45,0.68,1*0E
$GNGSA,A,3,79,80,88,71,,,,,,,,,0.81,0.45,0.68,2*04
$GNGSA,A,3,21,06,04,13,31,09,26,15,,,,,0.81,0.45,0.68,3*0D
$GNGSA,A,3,26,35,24,29,44,45,41,12,14,,,,0.81,0.45,0.68,4*0F
$GPGSV,4,1,13,17,71,083,35,22,67,070,35,19,65,190,34,06,59,115,25,1*62
$GPGSV,4,2,13,14,44,084,33,24,40,302,33,48,33,182,30,13,24,212,30,1*68
$GPGSV,4,3,13,15,22,249,30,02,18,040,30,30,12,143,29,12,10,272,19,1*65
$GPGSV,4,4,13,21,05,027,23,1*54
$GLGSV,2,1,07,79,66,071,27,80,46,311,26,88,31,036,20,82,27,170,,1*70
$GLGSV,2,2,07,70,21,283,,71,18,334,23,78,17,105,,1*45
$GAGSV,3,1,11,21,38,082,29,06,36,271,24,04,33,239,25,13,33,068,26,7*7A
$GAGSV,3,2,11,31,31,274,26,09,30,299,27,26,28,130,26,15,07,021,19,7*7A
$GAGSV,3,3,11,19,03,189,10,05,01,341,,33,01,168,,7*45
$GBGSV,3,1,10,26,78,121,38,35,60,132,37,24,46,297,37,29,29,049,34,1*75
$GBGSV,3,2,10,44,28,188,31,45,21,117,29,33,11,283,,41,08,330,25,1*72
$GBGSV,3,3,10,12,07,196,24,14,06,259,16,1*71
$GNRMC,010117.000,A,4910.427772,N,12304.398972,W,0.02,0.00,041224,,,D,V*1D
$GNVTG,0.00,T,,M,0.02,N,0.03,K,D*27
$GNGGA,010118.000,4910.427724,N,12304.398948,W,2,31,0.45,0.674,M,-16.816,M,,*46
$GNGLL,4910.427724,N,12304.398948,W,010118.000,A,D*56
$GNGSA,A,3,17,22,19,14,24,13,15,02,30,21,,,0.81,0.45,0.68,1*0E
$GNGSA,A,3,79,80,88,71,,,,,,,,,0.81,0.45,0.68,2*04
$GNGSA,A,3,21,06,04,13,31,09,26,15,,,,,0.81,0.45,0.68,3*0D
$GNGSA,A,3,26,35,24,29,44,45,41,12,14,,,,0.81,0.45,0.68,4*0F
$GPGSV,4,1,13,17,71,083,35,22,67,070,35,19,65,190,34,06,59,115,25,1*62
$GPGSV,4,2,13,14,44,084,33,24,40,302,33,48,33,182,30,13,24,212,30,1*68
$GPGSV,4,3,13,15,22,249,30,02,18,040,30,30,12,143,29,12,10,272,19,1*65
$GPGSV,4,4,13,21,05,027,23,1*54
$GLGSV,2,1,07,79,66,071,27,80,46,311,26,88,31,036,21,82,27,170,,1*71
$GLGSV,2,2,07,70,21,283,,71,18,333,23,78,17,105,,1*42
$GAGSV,3,1,11,21,38,082,29,06,36,271,24,04,33,239,25,13,33,068,26,7*7A
$GAGSV,3,2,11,31,31,274,26,09,30,299,27,26,28,130,27,15,07,021,19,7*7B
$GAGSV,3,3,11,19,03,189,10,05,01,341,,33,01,168,,7*45
$GBGSV,3,1,10,26,78,121,38,35,60,132,37,24,46,297,37,29,29,049,34,1*75
$GBGSV,3,2,10,44,28,188,31,45,21,117,29,33,11,283,,41,08,330,25,1*72
$GBGSV,3,3,10,12,07,196,24,14,06,259,15,1*72
$GNRMC,010118.000,A,4910.427724,N,12304.398948,W,0.02,0.00,041224,,,D,V*18
$GNVTG,0.00,T,,M,0.02,N,0.03,K,D*27
$GNGGA,010119.000,4910.427694,N,12304.398948,W,2,31,0.45,0.755,M,-16.816,M,,*4F
$GNGLL,4910.427694,N,12304.398948,W,010119.000,A,D*5D
$GNGSA,A,3,17,22,19,14,24,13,15,02,30,21,,,0.81,0.45,0.68,1*0E
$GNGSA,A,3,79,80,88,71,,,,,,,,,0.81,0.45,0.68,2*04
$GNGSA,A,3,21,06,04,13,31,09,26,15,,,,,0.81,0.45,0.68,3*0D
$GNGSA,A,3,26,35,24,29,44,45,41,12,14,,,,0.81,0.45,0.68,4*0F
$GPGSV,4,1,13,17,71,083,35,22,67,070,35,19,65,190,34,06,59,115,25,1*62
$GPGSV,4,2,13,14,44,084,33,24,40,302,33,48,33,182,30,13,24,212,30,1*68
$GPGSV,4,3,13,15,22,249,30,02,18,040,31,30,12,143,29,12,10,272,19,1*64
$GPGSV,4,4,13,21,05,027,23,1*54
$GLGSV,2,1,06,79,66,071,28,80,46,311,26,88,31,036,21,70,21,283,,1*7B
$GLGSV,2,2,06,71,18,333,23,78,17,105,,1*7E
$GAGSV,3,1,11,21,38,082,29,06,36,271,24,04,33,239,25,13,33,068,27,7*7B
$GAGSV,3,2,11,31,31,274,26,09,30,299,27,26,28,130,27,15,07,021,19,7*7B
$GAGSV,3,3,11,19,03,189,10,05,01,341,,33,01,168,,7*45
$GBGSV,3,1,10,26,78,121,38,35,60,132,37,24,46,297,37,29,29,049,34,1*75
$GBGSV,3,2,10,44,28,188,31,45,21,117,29,33,11,283,,41,08,330,26,1*71
$GBGSV,3,3,10,12,07,196,24,14,06,259,15,1*72
$GNRMC,010119.000,A,4910.427694,N,12304.398948,W,0.01,0.00,041224,,,D,V*10
$GNVTG,0.00,T,,M,0.01,N,0.03,K,D*24
$GNGGA,010120.000,4910.427652,N,12304.398900,W,2,31,0.45,0.799,M,-16.816,M,,*43
$GNGLL,4910.427652,N,12304.398900,W,010120.000,A,D*51
$GNGSA,A,3,17,22,19,14,24,13,15,02,30,21,,,0.81,0.45,0.68,1*0E
$GNGSA,A,3,79,80,88,71,,,,,,,,,0.81,0.45,0.68,2*04
$GNGSA,A,3,21,06,04,13,31,09,26,15,,,,,0.81,0.45,0.68,3*0D
$GNGSA,A,3,26,35,24,29,44,45,41,12,14,,,,0.81,0.45,0.68,4*0F
$GPGSV,4,1,13,17,71,083,35,22,67,070,35,19,65,190,34,06,59,115,25,1*62
$GPGSV,4,2,13,14,44,084,34,24,40,302,33,48,33,182,30,13,24,212,30,1*6F
$GPGSV,4,3,13,15,22,249,30,02,18,040,31,30,12,143,29,12,10,272,19,1*64
$GPGSV,4,4,13,21,05,027,23,1*54
$GLGSV,2,1,07,79,66,071,28,80,46,311,26,88,31,036,22,82,27,170,,1*7D
$GLGSV,2,2,07,70,21,283,,71,18,333,23,78,17,105,,1*42
$GAGSV,3,1,11,21,38,082,29,06,36,271,24,04,33,239,25,13,33,068,27,7*7B
$GAGSV,3,2,11,31,31,274,26,09,30,299,27,26,28,130,27,15,07,021,19,7*7B
$GAGSV,3,3,11,19,03,189,10,05,01,341,,33,01,168,,7*45
$GBGSV,3,1,10,26,78,121,38,35,60,132,37,24,46,297,37,29,29,049,34,1*75
$GBGSV,3,2,10,44,28,188,31,45,21,117,29,33,11,283,,41,08,330,26,1*71
$GBGSV,3,3,10,12,07,196,24,14,06,259,15,1*72
$GNRMC,010120.000,A,4910.427652,N,12304.398900,W,0.02,0.00,041224,,,D,V*1F
$GNVTG,0.00,T,,M,0.02,N,0.03,K,D*27
