$GNGGA,183148.000,4910.426561,N,12304.402917,W,1,29,0.66,9.335,M,-16.816,M,,*46
$GNRMC,183148.000,A,4910.426561,N,12304.402917,W,0.003,126.46,151024,,,A,V*2B
$GNGLL,4910.426561,N,12304.402917,W,183148.000,A,A*51
$GNVTG,126.46,T,,M,0.003,N,0.005,K,A*22
$GNGSA,A,3,02,03,04,10,12,17,19,21,25,28,31,32,1.18,0.66,0.98,1*0C
$GNGSA,A,3,71,72,,,,,,,,,,,1.18,0.66,0.98,2*08
$GNGSA,A,3,03,05,09,15,34,36,,,,,,,1.18,0.66,0.98,3*03
$GNGSA,A,3,19,20,23,29,32,35,37,40,44,,,,1.18,0.66,0.98,4*0A
$GNGSA,A,3,,,,,,,,,,,,,1.18,0.66,0.98,5*0C
$GPGSV,4,1,14,02,47,233,23,03,47,301,29,04,19,250,17,10,06,118,19,1*65
$GPGSV,4,2,14,12,04,020,15,17,11,304,17,19,07,329,20,21,39,210,23,1*6F
$GPGSV,4,3,14,25,14,055,17,26,,,15,28,57,086,25,31,52,155,27,1*52
$GPGSV,4,4,14,32,29,067,24,44,33,172,26,1*6C
$GPGSV,1,1,04,03,47,301,25,04,19,250,16,28,57,086,24,32,29,067,14,8*6E
$GLGSV,1,1,02,71,62,038,19,72,48,293,20,1*78
$GAGSV,2,1,06,03,36,249,20,05,86,357,25,09,32,064,20,15,40,304,21,7*7C
$GAGSV,2,2,06,34,55,221,24,36,17,173,18,7*7A
$GAGSV,2,1,05,03,36,249,19,05,86,357,23,09,32,064,17,15,40,304,19,1*7A
$GAGSV,2,2,05,34,55,221,21,1*45
$GBGSV,3,1,11,07,01,312,17,10,03,327,19,19,40,283,36,20,80,028,41,1*7D
$GBGSV,3,2,11,23,25,052,32,29,19,229,31,32,27,090,33,35,25,291,34,1*7E
$GBGSV,3,3,11,37,38,113,37,40,11,303,29,44,07,333,28,1*4F
$GBGSV,1,1,03,19,40,283,21,20,80,028,19,37,38,113,20,5*41
$GQGSV,1,1,00,1*65
$GQGSV,1,1,00,8*6C
$GNGGA,183149.000,4910.426561,N,12304.402919,W,1,29,0.68,9.335,M,-16.816,M,,*47
$GNRMC,183149.000,A,4910.426561,N,12304.402919,W,0.003,126.46,151024,,,A,V*24
$GNGLL,4910.426561,N,12304.402919,W,183149.000,A,A*5E
$GNVTG,126.46,T,,M,0.003,N,0.006,K,A*21
$GNGSA,A,3,02,03,04,10,12,17,19,21,25,28,31,32,1.22,0.68,1.01,1*0A
$GNGSA,A,3,71,72,,,,,,,,,,,1.22,0.68,1.01,2*0E
$GNGSA,A,3,03,05,09,15,34,36,,,,,,,1.22,0.68,1.01,3*05
$GNGSA,A,3,19,20,23,29,32,35,37,40,44,,,,1.22,0.68,1.01,4*0C
$GNGSA,A,3,,,,,,,,,,,,,1.22,0.68,1.01,5*0A
$GPGSV,4,1,14,02,47,233,25,03,47,301,29,04,19,250,17,10,06,118,21,1*68
$GPGSV,4,2,14,12,04,020,14,17,11,304,17,19,07,329,20,21,39,210,25,1*68
$GPGSV,4,3,14,25,14,055,17,26,,,17,28,57,086,28,31,52,155,29,1*53
$GPGSV,4,4,14,32,29,067,26,44,33,172,25,1*6D
$GPGSV,1,1,04,03,47,301,25,04,19,250,16,28,57,086,24,32,29,067,15,8*6F
$GLGSV,1,1,02,71,62,038,20,72,48,293,19,1*78
$GAGSV,2,1,06,03,36,249,20,05,86,357,24,09,32,064,21,15,40,304,22,7*7F
$GAGSV,2,2,06,34,55,221,25,36,17,173,19,7*7A
$GAGSV,2,1,05,03,36,249,19,05,86,357,20,09,32,064,17,15,40,304,22,1*71
$GAGSV,2,2,05,34,55,221,23,1*47
$GBGSV,3,1,11,07,01,312,17,10,03,327,20,19,40,283,36,20,80,028,41,1*77
$GBGSV,3,2,11,23,25,052,32,29,19,229,30,32,27,090,33,35,25,291,34,1*7F
$GBGSV,3,3,11,37,38,113,36,40,11,303,30,44,07,333,28,1*46
$GBGSV,1,1,03,19,40,283,19,20,80,028,19,37,38,113,20,5*4A
$GQGSV,1,1,00,1*65
$GQGSV,1,1,00,8*6C
$GNGGA,183150.000,4910.426560,N,12304.402920,W,1,29,0.66,9.337,M,-16.816,M,,*48
$GNRMC,183150.000,A,4910.426560,N,12304.402920,W,0.007,126.46,151024,,,A,V*23
$GNGLL,4910.426560,N,12304.402920,W,183150.000,A,A*5D
$GNVTG,126.46,T,,M,0.007,N,0.014,K,A*26
$GNGSA,A,3,02,03,04,10,12,17,19,21,25,28,31,32,1.17,0.66,0.97,1*0C
$GNGSA,A,3,71,72,,,,,,,,,,,1.17,0.66,0.97,2*08
$GNGSA,A,3,03,05,09,15,34,36,,,,,,,1.17,0.66,0.97,3*03
$GNGSA,A,3,19,20,23,29,32,35,37,40,44,,,,1.17,0.66,0.97,4*0A
$GNGSA,A,3,,,,,,,,,,,,,1.17,0.66,0.97,5*0C
$GPGSV,4,1,14,02,47,233,27,03,47,301,29,04,19,250,18,10,06,118,22,1*66
$GPGSV,4,2,14,12,04,020,14,17,11,304,18,19,07,329,23,21,39,210,24,1*65
$GPGSV,4,3,14,25,14,055,17,26,,,17,28,57,086,28,31,52,155,29,1*53
$GPGSV,4,4,14,32,29,067,25,44,33,172,25,1*6E
$GPGSV,1,1,04,03,47,301,22,04,19,250,15,28,57,086,23,32,29,067,14,8*6D
$GLGSV,1,1,02,71,62,038,21,72,48,293,19,1*79
$GAGSV,2,1,06,03,36,249,21,05,86,357,27,09,32,064,22,15,40,304,21,7*7D
$GAGSV,2,2,06,34,55,221,24,36,17,173,19,7*7B
$GAGSV,2,1,05,03,36,249,17,05,86,357,19,09,32,064,14,15,40,304,19,1*7E
$GAGSV,2,2,05,34,55,221,21,1*45
$GBGSV,3,1,11,07,01,312,17,10,03,327,21,19,40,283,36,20,80,028,41,1*76
$GBGSV,3,2,11,23,25,052,31,29,19,229,29,32,27,090,33,35,25,291,34,1*74
$GBGSV,3,3,11,37,38,113,37,40,11,303,29,44,07,333,27,1*40
$GBGSV,1,1,03,19,40,283,19,20,80,028,19,37,38,113,18,5*41
$GQGSV,1,1,00,1*65
$GQGSV,1,1,00,8*6C
$GNGGA,183151.000,4910.426559,N,12304.402920,W,1,29,0.60,9.337,M,-16.816,M,,*45
$GNRMC,183151.000,A,4910.426559,N,12304.402920,W,0.004,126.46,151024,,,A,V*2B
$GNGLL,4910.426559,N,12304.402920,W,183151.000,A,A*56
$GNVTG,126.46,T,,M,0.004,N,0.008,K,A*28
$GNGSA,A,3,02,03,04,10,12,17,19,21,25,28,31,32,1.08,0.60,0.90,1*03
$GNGSA,A,3,71,72,,,,,,,,,,,1.08,0.60,0.90,2*07
$GNGSA,A,3,03,05,09,15,34,36,,,,,,,1.08,0.60,0.90,3*0C
$GNGSA,A,3,19,20,23,29,32,35,37,40,44,,,,1.08,0.60,0.90,4*05
$GNGSA,A,3,,,,,,,,,,,,,1.08,0.60,0.90,5*03
$GPGSV,4,1,14,02,47,233,29,03,47,301,31,04,19,250,19,10,06,118,22,1*60
$GPGSV,4,2,14,12,04,020,15,17,11,304,19,19,07,329,24,21,39,210,27,1*61
$GPGSV,4,3,14,25,14,055,17,26,,,17,28,57,086,29,31,52,155,30,1*5A
$GPGSV,4,4,14,32,29,067,28,44,33,172,25,1*63
$GPGSV,1,1,04,03,47,301,24,04,19,250,15,28,57,086,24,32,29,067,14,8*6C
$GLGSV,1,1,02,71,62,039,20,72,48,293,19,1*79
$GAGSV,2,1,06,03,36,249,21,05,86,358,28,09,32,064,24,15,40,304,23,7*79
$GAGSV,2,2,06,34,55,221,27,36,17,173,19,7*78
$GAGSV,2,1,05,03,36,249,18,05,86,358,22,09,32,064,17,15,40,304,19,1*75
$GAGSV,2,2,05,34,55,221,22,1*46
$GBGSV,3,1,11,07,01,312,18,10,03,327,20,19,40,283,36,20,80,028,41,1*78
$GBGSV,3,2,11,23,25,052,33,29,19,229,30,32,27,090,33,35,25,291,35,1*7F
$GBGSV,3,3,11,37,38,113,37,40,11,303,30,44,07,333,27,1*48
$GBGSV,1,1,03,19,40,283,19,20,80,028,20,37,38,113,19,5*4A
$GQGSV,1,1,00,1*65
$GQGSV,1,1,00,8*6C
$GNGGA,183152.000,4910.426559,N,12304.402918,W,1,29,0.63,9.339,M,-16.817,M,,*41
$GNRMC,183152.000,A,4910.426559,N,12304.402918,W,0.002,126.46,151024,,,A,V*25
$GNGLL,4910.426559,N,12304.402918,W,183152.000,A,A*5E
$GNVTG,126.46,T,,M,0.002,N,0.004,K,A*22
$GNGSA,A,3,02,03,04,10,12,17,19,21,25,28,31,32,1.11,0.63,0.91,1*09
$GNGSA,A,3,71,72,,,,,,,,,,,1.11,0.63,0.91,2*0D
$GNGSA,A,3,03,05,09,15,34,36,,,,,,,1.11,0.63,0.91,3*06
$GNGSA,A,3,19,20,23,29,32,35,37,40,44,,,,1.11,0.63,0.91,4*0F
$GNGSA,A,3,,,,,,,,,,,,,1.11,0.63,0.91,5*09
$GPGSV,4,1,14,02,47,233,30,03,47,301,32,04,19,250,22,10,06,118,23,1*62
$GPGSV,4,2,14,12,04,020,17,17,11,304,21,19,07,329,24,21,39,210,28,1*67
$GPGSV,4,3,14,25,14,055,18,26,,,17,28,57,086,31,31,52,155,30,1*5C
$GPGSV,4,4,14,32,29,067,29,44,33,172,26,1*61
$GPGSV,1,1,04,03,47,301,24,04,19,250,17,28,57,086,26,32,29,067,14,8*6C
$GLGSV,1,1,02,71,62,039,20,72,48,293,19,1*79
$GAGSV,2,1,06,03,36,249,24,05,86,358,29,09,32,064,24,15,40,304,23,7*7D
$GAGSV,2,2,06,34,55,221,27,36,17,173,20,7*72
$GAGSV,2,1,05,03,36,249,18,05,86,358,21,09,32,064,17,15,40,304,21,1*7D
$GAGSV,2,2,05,34,55,221,22,1*46
$GBGSV,3,1,11,07,01,312,19,10,03,327,20,19,40,283,37,20,80,028,42,1*7B
$GBGSV,3,2,11,23,25,052,32,29,19,229,30,32,27,090,33,35,25,291,34,1*7F
$GBGSV,3,3,11,37,38,113,37,40,11,303,30,44,07,333,28,1*47
$GBGSV,1,1,03,19,40,283,20,20,80,028,21,37,38,113,21,5*4A
$GQGSV,1,1,00,1*65
$GQGSV,1,1,00,8*6C
$GNGGA,183153.000,4910.426556,N,12304.402911,W,1,29,0.66,9.341,M,-16.816,M,,*4D
$GNRMC,183153.000,A,4910.426556,N,12304.402911,W,0.013,126.46,151024,,,A,V*22
$GNGLL,4910.426556,N,12304.402911,W,183153.000,A,A*59
$GNVTG,126.46,T,,M,0.013,N,0.024,K,A*20
$GNGSA,A,3,02,03,04,10,12,17,19,21,25,28,31,32,1.20,0.66,1.01,1*06
$GNGSA,A,3,71,72,,,,,,,,,,,1.20,0.66,1.01,2*02
$GNGSA,A,3,03,05,09,15,34,36,,,,,,,1.20,0.66,1.01,3*09
$GNGSA,A,3,19,20,23,29,32,35,37,40,44,,,,1.20,0.66,1.01,4*00
$GNGSA,A,3,,,,,,,,,,,,,1.20,0.66,1.01,5*06
$GPGSV,4,1,14,02,47,233,30,03,47,301,32,04,19,250,22,10,06,118,23,1*62
$GPGSV,4,2,14,12,04,020,17,17,11,304,22,19,07,329,26,21,39,210,29,1*67
$GPGSV,4,3,14,25,14,055,22,26,,,19,28,57,086,32,31,52,155,31,1*59
$GPGSV,4,4,14,32,29,067,30,44,33,172,26,1*69
$GPGSV,1,1,04,03,47,301,24,04,19,250,17,28,57,086,24,32,29,067,15,8*6F
$GLGSV,1,1,02,71,62,039,20,72,48,293,19,1*79
$GAGSV,2,1,06,03,36,249,25,05,86,358,30,09,32,064,24,15,40,304,24,7*73
$GAGSV,2,2,06,34,55,221,28,36,17,173,21,7*7C
$GAGSV,2,1,05,03,36,249,19,05,86,358,23,09,32,064,17,15,40,304,21,1*7E
$GAGSV,2,2,05,34,55,221,23,1*47
$GBGSV,3,1,11,07,01,312,18,10,03,327,20,19,40,283,37,20,80,028,42,1*7A
$GBGSV,3,2,11,23,25,052,32,29,19,229,32,32,27,090,32,35,25,291,35,1*7D
$GBGSV,3,3,11,37,38,113,37,40,11,303,29,44,07,333,28,1*4F
$GBGSV,1,1,03,19,40,283,19,20,80,028,21,37,38,113,20,5*41
$GQGSV,1,1,00,1*65
$GQGSV,1,1,00,8*6C
$GNGGA,183154.000,4910.426553,N,12304.402907,W,1,29,0.62,9.346,M,-16.816,M,,*4B
$GNRMC,183154.000,A,4910.426553,N,12304.402907,W,0.005,126.46,151024,,,A,V*20
$GNGLL,4910.426553,N,12304.402907,W,183154.000,A,A*5C
$GNVTG,126.46,T,,M,0.005,N,0.010,K,A*20
$GNGSA,A,3,02,03,04,10,12,17,19,21,25,28,31,32,1.13,0.62,0.94,1*0F
$GNGSA,A,3,71,72,,,,,,,,,,,1.13,0.62,0.94,2*0B
$GNGSA,A,3,03,05,09,15,34,36,,,,,,,1.13,0.62,0.94,3*00
$GNGSA,A,3,19,20,23,29,32,35,37,40,44,,,,1.13,0.62,0.94,4*09
$GNGSA,A,3,,,,,,,,,,,,,1.13,0.62,0.94,5*0F
$GPGSV,4,1,14,02,47,233,30,03,47,301,33,04,19,250,22,10,06,118,23,1*63
$GPGSV,4,2,14,12,04,020,17,17,11,304,21,19,07,329,25,21,39,210,28,1*66
$GPGSV,4,3,14,25,14,055,20,26,,,18,28,57,086,31,31,52,155,31,1*59
$GPGSV,4,4,14,32,29,067,29,44,33,172,26,1*61
$GPGSV,1,1,04,03,47,301,24,04,19,250,16,28,57,086,23,32,29,067,17,8*6B
$GLGSV,1,1,02,71,62,039,20,72,48,293,18,1*78
$GAGSV,2,1,06,03,36,249,25,05,86,358,28,09,32,064,24,15,40,304,25,7*7B
$GAGSV,2,2,06,34,55,221,28,36,17,173,20,7*7D
$GAGSV,2,1,05,03,36,249,19,05,86,358,21,09,32,064,16,15,40,304,19,1*76
$GAGSV,2,2,05,34,55,221,24,1*40
$GBGSV,3,1,11,07,01,312,18,10,03,327,20,19,40,283,36,20,80,028,42,1*7B
$GBGSV,3,2,11,23,25,052,31,29,19,229,30,32,27,090,33,35,25,291,34,1*7C
$GBGSV,3,3,11,37,38,113,37,40,11,303,30,44,07,333,28,1*47
$GBGSV,1,1,03,19,40,283,20,20,80,028,20,37,38,113,20,5*4A
$GQGSV,1,1,00,1*65
$GQGSV,1,1,00,8*6C
$GNGGA,183155.000,4910.426551,N,12304.402902,W,1,29,0.65,9.350,M,-16.816,M,,*4D
$GNRMC,183155.000,A,4910.426551,N,12304.402902,W,0.009,126.46,151024,,,A,V*2A
$GNGLL,4910.426551,N,12304.402902,W,183155.000,A,A*5A
$GNVTG,126.46,T,,M,0.009,N,0.017,K,A*2B
$GNGSA,A,3,02,03,04,10,12,17,19,21,25,28,31,32,1.16,0.65,0.96,1*0F
$GNGSA,A,3,71,72,,,,,,,,,,,1.16,0.65,0.96,2*0B
$GNGSA,A,3,03,05,09,15,34,36,,,,,,,1.16,0.65,0.96,3*00
$GNGSA,A,3,19,20,23,29,32,35,37,40,44,,,,1.16,0.65,0.96,4*09
$GNGSA,A,3,,,,,,,,,,,,,1.16,0.65,0.96,5*0F
$GPGSV,4,1,14,02,47,233,27,03,47,301,31,04,19,250,19,10,06,118,20,1*6C
$GPGSV,4,2,14,12,04,020,17,17,11,304,20,19,07,329,22,21,39,210,25,1*6D
$GPGSV,4,3,14,25,14,055,18,26,,,17,28,57,085,27,31,52,155,28,1*51
$GPGSV,4,4,14,32,29,067,25,44,33,172,26,1*6D
$GPGSV,1,1,04,03,47,301,22,04,19,250,17,28,57,085,24,32,29,067,15,8*6A
$GLGSV,1,1,02,71,62,039,22,72,48,293,19,1*7B
$GAGSV,2,1,06,03,36,249,21,05,86,358,27,09,32,064,23,15,40,304,21,7*73
$GAGSV,2,2,06,34,55,221,25,36,17,173,20,7*70
$GAGSV,2,1,05,03,36,249,18,05,86,358,20,09,32,064,15,15,40,304,21,1*7E
$GAGSV,2,2,05,34,55,221,22,1*46
$GBGSV,3,1,11,07,01,312,19,10,03,327,19,19,40,283,36,20,80,028,41,1*73
$GBGSV,3,2,11,23,25,052,31,29,19,229,31,32,27,090,33,35,25,291,34,1*7D
$GBGSV,3,3,11,37,38,113,37,40,11,303,28,44,07,333,29,1*4F
$GBGSV,1,1,03,19,40,283,19,20,80,028,20,37,38,113,20,5*40
$GQGSV,1,1,00,1*65
$GQGSV,1,1,00,8*6C
$GNGGA,183156.000,4910.426548,N,12304.402895,W,1,29,0.65,9.352,M,-16.816,M,,*4B
$GNRMC,183156.000,A,4910.426548,N,12304.402895,W,0.011,126.46,151024,,,A,V*27
$GNGLL,4910.426548,N,12304.402895,W,183156.000,A,A*5E
$GNVTG,126.46,T,,M,0.011,N,0.020,K,A*26
$GNGSA,A,3,02,03,04,10,12,17,19,21,25,28,31,32,1.10,0.65,0.88,1*06
$GNGSA,A,3,71,72,,,,,,,,,,,1.10,0.65,0.88,2*02
$GNGSA,A,3,03,05,09,15,34,36,,,,,,,1.10,0.65,0.88,3*09
$GNGSA,A,3,19,20,23,29,32,35,37,40,44,,,,1.10,0.65,0.88,4*00
$GNGSA,A,3,,,,,,,,,,,,,1.10,0.65,0.88,5*06
$GPGSV,4,1,13,02,47,233,29,03,47,301,30,04,19,250,18,10,06,118,21,1*64
$GPGSV,4,2,13,12,04,020,16,17,11,304,18,19,07,329,23,21,39,210,25,1*61
$GPGSV,4,3,13,25,14,055,17,28,57,085,29,31,52,155,30,32,29,067,28,1*6D
$GPGSV,4,4,13,44,33,172,26,1*56
$GPGSV,1,1,04,03,47,301,25,04,19,250,16,28,57,085,24,32,29,067,15,8*6C
$GLGSV,1,1,02,71,62,039,20,72,48,293,20,1*73
$GAGSV,2,1,06,03,36,249,22,05,86,358,28,09,32,064,22,15,40,304,23,7*7C
$GAGSV,2,2,06,34,55,221,26,36,17,173,18,7*78
$GAGSV,2,1,05,03,36,249,17,05,86,358,21,09,32,064,13,15,40,304,20,1*77
$GAGSV,2,2,05,34,55,221,23,1*47
$GBGSV,3,1,11,07,01,312,18,10,03,327,19,19,40,283,36,20,80,028,41,1*72
$GBGSV,3,2,11,23,25,052,31,29,19,229,30,32,27,090,32,35,25,291,35,1*7C
$GBGSV,3,3,11,37,38,113,37,40,11,303,28,44,07,333,28,1*4E
$GBGSV,1,1,03,19,40,283,20,20,80,028,20,37,38,113,20,5*4A
$GQGSV,1,1,00,1*65
$GQGSV,1,1,00,8*6C
$GNGGA,183157.000,4910.426544,N,12304.402890,W,1,29,0.56,9.355,M,-16.816,M,,*44
$GNRMC,183157.000,A,4910.426544,N,12304.402890,W,0.007,126.46,151024,,,A,V*28
$GNGLL,4910.426544,N,12304.402890,W,183157.000,A,A*56
$GNVTG,126.46,T,,M,0.007,N,0.013,K,A*21
$GNGSA,A,3,02,03,04,10,12,17,19,21,25,28,31,32,0.98,0.56,0.80,1*0F
$GNGSA,A,3,71,72,,,,,,,,,,,0.98,0.56,0.80,2*0B
$GNGSA,A,3,03,05,09,15,34,36,,,,,,,0.98,0.56,0.80,3*00
$GNGSA,A,3,19,20,23,29,32,35,37,40,44,,,,0.98,0.56,0.80,4*09
$GNGSA,A,3,,,,,,,,,,,,,0.98,0.56,0.80,5*0F
$GPGSV,4,1,13,02,47,233,28,03,47,301,30,04,19,250,18,10,06,118,21,1*65
$GPGSV,4,2,13,12,04,020,16,17,11,304,19,19,07,329,23,21,39,210,25,1*60
$GPGSV,4,3,13,25,14,055,19,28,57,085,28,31,52,155,29,32,29,067,27,1*65
$GPGSV,4,4,13,44,33,172,26,1*56
$GPGSV,1,1,04,03,47,301,23,04,19,250,17,28,57,085,23,32,29,067,13,8*6A
$GLGSV,1,1,02,71,62,039,19,72,48,293,18,1*72
$GAGSV,2,1,06,03,36,249,21,05,86,358,26,09,32,064,22,15,40,304,23,7*71
$GAGSV,2,2,06,34,55,221,25,36,17,173,20,7*70
$GAGSV,2,1,05,03,36,249,18,05,86,358,20,09,32,064,15,15,40,304,20,1*7F
$GAGSV,2,2,05,34,55,221,21,1*45
$GBGSV,3,1,11,07,01,312,18,10,03,327,19,19,40,283,36,20,80,028,41,1*72
$GBGSV,3,2,11,23,25,052,31,29,19,229,30,32,27,090,33,35,25,291,34,1*7C
$GBGSV,3,3,11,37,38,113,37,40,11,303,29,44,07,333,29,1*4E
$GBGSV,1,1,03,19,40,283,19,20,80,028,19,37,38,113,19,5*40
$GQGSV,1,1,00,1*65
$GQGSV,1,1,00,8*6C
$GNGGA,183158.000,4910.426542,N,12304.402886,W,1,29,0.55,9.355,M,-16.816,M,,*49
$GNRMC,183158.000,A,4910.426542,N,12304.402886,W,0.001,126.46,151024,,,A,V*20
$GNGLL,4910.426542,N,12304.402886,W,183158.000,A,A*58
$GNVTG,126.46,T,,M,0.001,N,0.002,K,A*27
$GNGSA,A,3,02,03,04,10,12,17,19,21,25,28,31,32,0.97,0.55,0.80,1*03
$GNGSA,A,3,71,72,,,,,,,,,,,0.97,0.55,0.80,2*07
$GNGSA,A,3,03,05,09,15,34,36,,,,,,,0.97,0.55,0.80,3*0C
$GNGSA,A,3,19,20,23,29,32,35,37,40,44,,,,0.97,0.55,0.80,4*05
$GNGSA,A,3,,,,,,,,,,,,,0.97,0.55,0.80,5*03
$GPGSV,4,1,13,02,47,233,28,03,47,301,30,04,19,250,20,10,06,118,22,1*6D
$GPGSV,4,2,13,12,04,020,15,17,11,304,19,19,07,329,22,21,39,210,26,1*61
$GPGSV,4,3,13,25,14,055,18,28,57,085,29,31,52,155,30,32,29,067,25,1*6F
$GPGSV,4,4,13,44,33,172,26,1*56
$GPGSV,1,1,04,03,47,301,23,04,19,250,17,28,57,085,23,32,29,067,16,8*6F
$GLGSV,1,1,02,71,62,039,20,72,48,293,18,1*78
$GAGSV,2,1,06,03,36,249,23,05,86,358,27,09,32,064,21,15,40,304,23,7*71
$GAGSV,2,2,06,34,55,221,27,36,17,173,18,7*79
$GAGSV,2,1,05,03,36,249,19,05,86,358,20,09,32,064,16,15,40,304,21,1*7C
$GAGSV,2,2,05,34,55,221,23,1*47
$GBGSV,3,1,11,07,01,312,18,10,03,327,19,19,40,283,36,20,80,028,41,1*72
$GBGSV,3,2,11,23,25,052,33,29,19,229,30,32,27,090,32,35,25,291,34,1*7F
$GBGSV,3,3,11,37,38,113,36,40,11,303,29,44,07,333,29,1*4F
$GBGSV,1,1,03,19,40,283,20,20,80,028,20,37,38,113,20,5*4A
$GQGSV,1,1,00,1*65
$GQGSV,1,1,00,8*6C
$GNGGA,183159.000,4910.426539,N,12304.402883,W,1,29,0.55,9.356,M,-16.816,M,,*42
$GNRMC,183159.000,A,4910.426539,N,12304.402883,W,0.017,126.46,151024,,,A,V*2F
$GNGLL,4910.426539,N,12304.402883,W,183159.000,A,A*50
$GNVTG,126.46,T,,M,0.017,N,0.031,K,A*20
$GNGSA,A,3,02,03,04,10,12,17,19,21,25,28,31,32,0.97,0.55,0.80,1*03
$GNGSA,A,3,71,72,,,,,,,,,,,0.97,0.55,0.80,2*07
$GNGSA,A,3,03,05,09,15,34,36,,,,,,,0.97,0.55,0.80,3*0C
$GNGSA,A,3,19,20,23,29,32,35,37,40,44,,,,0.97,0.55,0.80,4*05
$GNGSA,A,3,,,,,,,,,,,,,0.97,0.55,0.80,5*03
$GPGSV,4,1,13,02,47,233,29,03,47,301,31,04,19,250,20,10,06,118,20,1*6F
$GPGSV,4,2,13,12,04,020,17,17,11,304,18,19,07,329,21,21,39,210,25,1*62
$GPGSV,4,3,13,25,14,055,17,28,57,085,29,31,52,155,29,32,29,067,27,1*6A
$GPGSV,4,4,13,44,33,172,26,1*56
$GPGSV,1,1,04,03,47,301,23,04,19,250,16,28,57,085,25,32,29,067,16,8*68
$GLGSV,1,1,02,71,62,039,20,72,48,293,17,1*77
$GAGSV,2,1,06,03,36,249,22,05,86,358,27,09,32,064,21,15,40,304,22,7*71
$GAGSV,2,2,06,34,55,220,28,36,17,173,18,7*77
$GAGSV,2,1,05,03,36,249,18,05,86,358,21,09,32,064,16,15,40,304,20,1*7D
$GAGSV,2,2,05,34,55,220,22,1*47
$GBGSV,3,1,11,07,01,312,18,10,03,327,19,19,40,283,36,20,80,028,42,1*71
$GBGSV,3,2,11,23,25,052,31,29,19,229,30,32,27,090,31,35,25,291,34,1*7E
$GBGSV,3,3,11,37,38,113,37,40,11,303,29,44,07,333,28,1*4F
$GBGSV,1,1,03,19,40,283,20,20,80,028,21,37,38,113,20,5*4B
$GQGSV,1,1,00,1*65
$GQGSV,1,1,00,8*6C
$GNGGA,183200.000,4910.426535,N,12304.402881,W,1,29,0.50,9.361,M,-16.817,M,,*43
$GNRMC,183200.000,A,4910.426535,N,12304.402881,W,0.014,126.46,151024,,,A,V*2D
$GNGLL,4910.426535,N,12304.402881,W,183200.000,A,A*51
$GNVTG,126.46,T,,M,0.014,N,0.025,K,A*26
$GNGSA,A,3,02,03,04,10,12,17,19,21,25,28,31,32,0.90,0.50,0.75,1*0B
$GNGSA,A,3,71,72,,,,,,,,,,,0.90,0.50,0.75,2*0F
$GNGSA,A,3,03,05,09,15,34,36,,,,,,,0.90,0.50,0.75,3*04
$GNGSA,A,3,19,20,23,29,32,35,37,40,44,,,,0.90,0.50,0.75,4*0D
$GNGSA,A,3,,,,,,,,,,,,,0.90,0.50,0.75,5*0B
$GPGSV,4,1,13,02,47,233,28,03,47,301,29,04,19,250,17,10,06,118,20,1*63
$GPGSV,4,2,13,12,04,020,17,17,11,304,19,19,07,329,20,21,39,210,24,1*63
$GPGSV,4,3,13,25,14,055,17,28,57,085,28,31,52,155,27,32,29,067,24,1*66
$GPGSV,4,4,13,44,33,172,26,1*56
$GPGSV,1,1,04,03,47,301,23,04,19,250,13,28,57,085,23,32,29,067,15,8*68
$GLGSV,1,1,02,71,62,039,22,72,48,293,19,1*7B
$GAGSV,2,1,06,03,36,249,22,05,86,358,25,09,32,064,20,15,40,304,21,7*71
$GAGSV,2,2,06,34,55,220,25,36,17,173,16,7*74
$GAGSV,2,1,05,03,36,249,17,05,86,358,21,09,32,064,15,15,40,304,18,1*7A
$GAGSV,2,2,05,34,55,220,20,1*45
$GBGSV,3,1,11,07,01,312,18,10,03,327,18,19,40,283,36,20,80,028,41,1*73
$GBGSV,3,2,11,23,25,052,32,29,19,229,30,32,27,090,32,35,25,291,34,1*7E
$GBGSV,3,3,11,37,38,113,37,40,11,303,29,44,07,333,28,1*4F
$GBGSV,1,1,03,19,40,283,18,20,80,028,20,37,38,113,20,5*41
$GQGSV,1,1,00,1*65
$GQGSV,1,1,00,8*6C
$GNGGA,183201.000,4910.426531,N,12304.402867,W,1,29,0.57,9.362,M,-16.817,M,,*4A
$GNRMC,183201.000,A,4910.426531,N,12304.402867,W,0.024,126.46,151024,,,A,V*23
$GNGLL,4910.426531,N,12304.402867,W,183201.000,A,A*5C
$GNVTG,126.46,T,,M,0.024,N,0.045,K,A*23
$GNGSA,A,3,02,03,04,10,12,17,19,21,25,28,31,32,1.06,0.57,0.90,1*09
$GNGSA,A,3,71,72,,,,,,,,,,,1.06,0.57,0.90,2*0D
$GNGSA,A,3,03,05,09,15,34,36,,,,,,,1.06,0.57,0.90,3*06
$GNGSA,A,3,19,20,23,29,32,35,37,40,44,,,,1.06,0.57,0.90,4*0F
$GNGSA,A,3,,,,,,,,,,,,,1.06,0.57,0.90,5*09
$GPGSV,4,1,14,02,47,233,27,03,47,301,27,04,19,250,17,10,06,118,19,1*6F
$GPGSV,4,2,14,12,04,020,16,17,11,304,17,19,07,329,19,21,39,210,23,1*66
$GPGSV,4,3,14,25,14,055,17,26,,,12,28,57,085,27,31,52,155,26,1*55
$GPGSV,4,4,14,32,29,067,24,44,33,172,26,1*6C
$GPGSV,1,1,04,03,47,301,23,04,19,250,12,28,57,085,23,32,29,067,16,8*6A
$GLGSV,1,1,02,71,62,039,22,72,48,293,18,1*7A
$GAGSV,2,1,06,03,36,249,20,05,86,359,25,09,32,064,20,15,40,304,19,7*79
$GAGSV,2,2,06,34,55,220,24,36,17,173,18,7*7B
$GAGSV,2,1,05,03,36,249,17,05,86,359,19,09,32,064,14,15,40,304,19,1*70
$GAGSV,2,2,05,34,55,220,22,1*47
$GBGSV,3,1,11,07,01,312,17,10,03,327,18,19,40,283,36,20,80,028,42,1*7F
$GBGSV,3,2,11,23,25,052,32,29,19,229,31,32,27,090,31,35,25,291,34,1*7C
$GBGSV,3,3,11,37,38,113,37,40,11,303,29,44,07,333,29,1*4E
$GBGSV,1,1,03,19,40,283,18,20,80,028,20,37,38,113,19,5*4B
$GQGSV,1,1,00,1*65
$GQGSV,1,1,00,8*6C
$GNGGA,183202.000,4910.426528,N,12304.402855,W,1,28,0.56,9.363,M,-16.816,M,,*40
$GNRMC,183202.000,A,4910.426528,N,12304.402855,W,0.013,126.46,151024,,,A,V*2D
$GNGLL,4910.426528,N,12304.402855,W,183202.000,A,A*56
$GNVTG,126.46,T,,M,0.013,N,0.024,K,A*20
$GNGSA,A,3,02,03,04,10,12,17,19,21,25,28,31,32,1.05,0.56,0.89,1*03
$GNGSA,A,3,71,72,,,,,,,,,,,1.05,0.56,0.89,2*07
$GNGSA,A,3,03,05,09,15,34,,,,,,,,1.05,0.56,0.89,3*09
$GNGSA,A,3,19,20,23,29,32,35,37,40,44,,,,1.05,0.56,0.89,4*05
$GNGSA,A,3,,,,,,,,,,,,,1.05,0.56,0.89,5*03
$GPGSV,4,1,14,02,47,233,27,03,47,301,28,04,19,250,17,10,06,118,20,1*6A
$GPGSV,4,2,14,12,04,020,15,17,11,304,16,19,07,329,20,21,39,210,23,1*6E
$GPGSV,4,3,14,25,14,055,17,26,,,14,28,57,085,28,31,52,155,28,1*52
$GPGSV,4,4,14,32,29,067,24,44,33,172,25,1*6F
$GPGSV,1,1,04,03,47,301,24,04,19,250,16,28,57,085,25,32,29,067,17,8*6E
$GLGSV,1,1,02,71,62,039,21,72,48,293,19,1*78
$GAGSV,2,1,05,03,36,249,20,05,86,359,25,09,32,064,19,15,40,304,21,7*7B
$GAGSV,2,2,05,34,55,220,25,7*46
$GAGSV,2,1,05,03,36,249,17,05,86,359,20,09,32,064,15,15,40,304,21,1*70
$GAGSV,2,2,05,34,55,220,22,1*47
$GBGSV,3,1,11,07,01,312,17,10,03,327,18,19,40,283,36,20,80,028,42,1*7F
$GBGSV,3,2,11,23,25,052,32,29,19,229,30,32,27,090,33,35,25,291,35,1*7E
$GBGSV,3,3,11,37,38,113,37,40,11,303,29,44,07,333,30,1*46
$GBGSV,1,1,03,19,40,283,20,20,80,028,22,37,38,113,19,5*42
$GQGSV,1,1,00,1*65
$GQGSV,1,1,00,8*6C
$GNGGA,183203.000,4910.426525,N,12304.402843,W,1,28,0.62,9.363,M,-16.816,M,,*4C
$GNRMC,183203.000,A,4910.426525,N,12304.402843,W,0.011,126.46,151024,,,A,V*24
$GNGLL,4910.426525,N,12304.402843,W,183203.000,A,A*5D
$GNVTG,126.46,T,,M,0.011,N,0.021,K,A*27
$GNGSA,A,3,02,03,04,10,12,17,19,21,25,28,31,32,1.10,0.62,0.91,1*09
$GNGSA,A,3,71,72,,,,,,,,,,,1.10,0.62,0.91,2*0D
$GNGSA,A,3,03,05,09,15,34,,,,,,,,1.10,0.62,0.91,3*03
$GNGSA,A,3,19,20,23,29,32,35,37,40,44,,,,1.10,0.62,0.91,4*0F
$GNGSA,A,3,,,,,,,,,,,,,1.10,0.62,0.91,5*09
$GPGSV,4,1,14,02,47,233,27,03,47,301,29,04,19,250,18,10,06,118,20,1*64
$GPGSV,4,2,14,12,04,020,17,17,11,304,17,19,07,329,20,21,39,210,23,1*6D
$GPGSV,4,3,14,25,14,055,17,26,,,14,28,57,085,28,31,52,155,25,1*5F
$GPGSV,4,4,14,32,29,067,24,44,33,172,25,1*6F
$GPGSV,1,1,04,03,47,301,24,04,19,250,15,28,57,085,24,32,29,067,17,8*6C
$GLGSV,1,1,02,71,62,039,22,72,48,293,20,1*71
$GAGSV,2,1,05,03,36,249,18,05,86,359,25,09,32,064,19,15,40,304,22,7*73
$GAGSV,2,2,05,34,55,220,24,7*47
$GAGSV,2,1,05,03,36,249,18,05,86,359,21,09,32,064,11,15,40,304,20,1*7B
$GAGSV,2,2,05,34,55,220,22,1*47
$GBGSV,3,1,11,07,01,312,17,10,03,327,18,19,40,283,37,20,80,028,42,1*7E
$GBGSV,3,2,11,23,25,052,33,29,19,229,32,32,27,090,33,35,25,291,35,1*7D
$GBGSV,3,3,11,37,38,113,37,40,11,303,30,44,07,333,29,1*46
$GBGSV,1,1,03,19,40,283,19,20,80,028,20,37,38,113,20,5*40
$GQGSV,1,1,00,1*65
$GQGSV,1,1,00,8*6C
$GNGGA,183204.000,4910.426523,N,12304.402834,W,1,28,0.58,9.365,M,-16.817,M,,*43
$GNRMC,183204.000,A,4910.426523,N,12304.402834,W,0.002,126.46,151024,,,A,V*27
$GNGLL,4910.426523,N,12304.402834,W,183204.000,A,A*5C
$GNVTG,126.46,T,,M,0.002,N,0.004,K,A*22
$GNGSA,A,3,02,03,04,10,12,17,19,21,25,28,31,32,1.02,0.58,0.84,1*07
$GNGSA,A,3,71,72,,,,,,,,,,,1.02,0.58,0.84,2*03
$GNGSA,A,3,03,05,09,15,34,,,,,,,,1.02,0.58,0.84,3*0D
$GNGSA,A,3,19,20,23,29,32,35,37,40,44,,,,1.02,0.58,0.84,4*01
$GNGSA,A,3,,,,,,,,,,,,,1.02,0.58,0.84,5*07
$GPGSV,4,1,14,02,47,233,27,03,47,301,30,04,19,250,19,10,06,118,21,1*6C
$GPGSV,4,2,14,12,04,020,18,17,11,304,18,19,07,329,22,21,39,210,26,1*6A
$GPGSV,4,3,14,25,14,055,18,26,,,13,28,57,085,29,31,52,155,27,1*54
$GPGSV,4,4,14,32,29,067,25,44,33,172,25,1*6E
$GPGSV,1,1,04,03,47,301,22,04,19,250,14,28,57,085,23,32,29,067,15,8*6E
$GLGSV,1,1,02,71,62,039,21,72,48,293,19,1*78
$GAGSV,2,1,05,03,36,249,20,05,86,359,26,09,32,064,21,15,40,304,21,7*73
$GAGSV,2,2,05,34,55,220,25,7*46
$GAGSV,2,1,05,03,36,249,17,05,86,359,22,09,32,064,15,15,40,304,20,1*73
$GAGSV,2,2,05,34,55,220,22,1*47
$GBGSV,3,1,11,07,01,312,17,10,03,327,17,19,40,283,37,20,80,028,41,1*72
$GBGSV,3,2,11,23,25,052,33,29,19,229,31,32,27,090,32,35,25,291,34,1*7E
$GBGSV,3,3,11,37,38,113,37,40,11,303,29,44,07,333,30,1*46
$GBGSV,1,1,03,19,40,283,19,20,80,028,20,37,38,113,21,5*41
$GQGSV,1,1,00,1*65
$GQGSV,1,1,00,8*6C
$GNGGA,183205.000,4910.426522,N,12304.402823,W,1,28,0.57,9.364,M,-16.816,M,,*4A
$GNRMC,183205.000,A,4910.426522,N,12304.402823,W,0.017,126.46,151024,,,A,V*25
$GNGLL,4910.426522,N,12304.402823,W,183205.000,A,A*5A
$GNVTG,126.46,T,,M,0.017,N,0.032,K,A*23
$GNGSA,A,3,02,03,04,10,12,17,19,21,25,28,31,32,1.01,0.57,0.83,1*0C
$GNGSA,A,3,71,72,,,,,,,,,,,1.01,0.57,0.83,2*08
$GNGSA,A,3,03,05,09,15,34,,,,,,,,1.01,0.57,0.83,3*06
$GNGSA,A,3,19,20,23,29,32,35,37,40,44,,,,1.01,0.57,0.83,4*0A
$GNGSA,A,3,,,,,,,,,,,,,1.01,0.57,0.83,5*0C
$GPGSV,4,1,14,02,47,233,28,03,47,301,28,04,19,250,19,10,06,118,20,1*6B
$GPGSV,4,2,14,12,04,020,17,17,11,304,19,19,07,329,22,21,39,210,24,1*66
$GPGSV,4,3,14,25,14,055,18,26,,,17,28,57,085,29,31,52,155,28,1*5F
$GPGSV,4,4,14,32,29,067,25,44,33,172,26,1*6D
$GPGSV,1,1,04,03,47,301,23,04,19,250,15,28,57,085,24,32,29,067,14,8*68
$GLGSV,1,1,02,71,62,039,21,72,48,293,18,1*79
$GAGSV,2,1,05,03,36,249,20,05,86,359,26,09,32,064,19,15,40,304,21,7*78
$GAGSV,2,2,05,34,55,220,25,7*46
$GAGSV,2,1,05,03,36,249,17,05,86,359,19,09,32,064,11,15,40,304,18,1*74
$GAGSV,2,2,05,34,55,220,22,1*47
$GBGSV,3,1,11,07,01,312,17,10,03,327,18,19,40,283,36,20,80,028,42,1*7F
$GBGSV,3,2,11,23,25,052,32,29,19,229,31,32,27,090,33,35,25,291,35,1*7F
$GBGSV,3,3,11,37,38,113,37,40,11,303,30,44,07,333,29,1*46
$GBGSV,1,1,03,19,40,283,18,20,80,028,19,37,38,113,18,5*40
$GQGSV,1,1,00,1*65
$GQGSV,1,1,00,8*6C
$GNGGA,183206.000,4910.426521,N,12304.402812,W,1,28,0.62,9.363,M,-16.816,M,,*49
$GNRMC,183206.000,A,4910.426521,N,12304.402812,W,0.007,126.46,151024,,,A,V*26
$GNGLL,4910.426521,N,12304.402812,W,183206.000,A,A*58
$GNVTG,126.46,T,,M,0.007,N,0.012,K,A*20
$GNGSA,A,3,02,03,04,10,12,17,19,21,25,28,31,32,1.10,0.62,0.91,1*09
$GNGSA,A,3,71,72,,,,,,,,,,,1.10,0.62,0.91,2*0D
$GNGSA,A,3,03,05,09,15,34,,,,,,,,1.10,0.62,0.91,3*03
$GNGSA,A,3,19,20,23,29,32,35,37,40,44,,,,1.10,0.62,0.91,4*0F
$GNGSA,A,3,,,,,,,,,,,,,1.10,0.62,0.91,5*09
$GPGSV,4,1,14,02,47,233,28,03,47,301,28,04,19,250,19,10,06,118,20,1*6B
$GPGSV,4,2,14,12,04,020,17,17,11,304,17,19,07,329,20,21,39,210,24,1*6A
$GPGSV,4,3,14,25,14,055,17,26,,,17,28,57,085,28,31,52,155,27,1*5E
$GPGSV,4,4,14,32,29,067,25,44,33,172,26,1*6D
$GPGSV,2,1,05,03,47,301,24,04,19,250,15,25,14,055,15,28,57,085,24,8*65
$GPGSV,2,2,05,32,29,067,16,8*54
$GLGSV,1,1,02,71,62,039,22,72,48,293,20,1*71
$GAGSV,2,1,05,03,36,249,20,05,86,359,26,09,32,064,21,15,40,304,21,7*73
$GAGSV,2,2,05,34,55,220,25,7*46
$GAGSV,2,1,05,03,36,249,19,05,86,359,21,09,32,064,14,15,40,304,21,1*7E
$GAGSV,2,2,05,34,55,220,23,1*46
$GBGSV,3,1,11,07,01,312,17,10,03,327,17,19,40,283,36,20,80,028,42,1*70
$GBGSV,3,2,11,23,25,052,34,29,19,229,31,32,27,090,34,35,25,291,35,1*7E
$GBGSV,3,3,11,37,38,113,37,40,11,303,30,44,07,333,30,1*4E
$GBGSV,1,1,03,19,40,283,20,20,80,028,20,37,38,113,20,5*4A
$GQGSV,1,1,00,1*65
$GQGSV,1,1,00,8*6C
$GNGGA,183207.000,4910.426520,N,12304.402806,W,1,29,0.69,9.360,M,-16.817,M,,*44
$GNRMC,183207.000,A,4910.426520,N,12304.402806,W,0.011,126.46,151024,,,A,V*24
$GNGLL,4910.426520,N,12304.402806,W,183207.000,A,A*5D
$GNVTG,126.46,T,,M,0.011,N,0.021,K,A*27
$GNGSA,A,3,02,03,04,10,12,17,19,21,25,28,31,32,1.29,0.69,1.08,1*09
$GNGSA,A,3,71,72,,,,,,,,,,,1.29,0.69,1.08,2*0D
$GNGSA,A,3,03,05,09,15,34,36,,,,,,,1.29,0.69,1.08,3*06
$GNGSA,A,3,19,20,23,29,32,35,37,40,44,,,,1.29,0.69,1.08,4*0F
$GNGSA,A,3,,,,,,,,,,,,,1.29,0.69,1.08,5*09
$GPGSV,4,1,14,02,47,233,28,03,47,301,27,04,19,250,18,10,06,118,19,1*6F
$GPGSV,4,2,14,12,04,020,17,17,11,304,14,19,07,329,20,21,39,210,23,1*6E
$GPGSV,4,3,14,25,14,055,17,26,,,15,28,57,085,27,31,52,155,25,1*51
$GPGSV,4,4,14,32,29,067,24,44,33,172,26,1*6C
$GPGSV,1,1,04,03,47,301,24,04,19,250,17,28,57,085,23,32,29,067,17,8*69
$GLGSV,1,1,02,71,62,039,22,72,48,293,18,1*7A
$GAGSV,2,1,06,03,36,249,20,05,86,359,24,09,32,064,19,15,40,304,18,7*73
$GAGSV,2,2,06,34,55,220,24,36,17,173,17,7*74
$GAGSV,1,1,04,03,36,249,18,05,86,359,20,15,40,304,21,34,55,220,24,1*72
$GBGSV,3,1,11,07,01,312,17,10,03,327,17,19,40,283,36,20,80,028,42,1*70
$GBGSV,3,2,11,23,25,052,32,29,19,229,30,32,27,090,33,35,25,291,34,1*7F
$GBGSV,3,3,11,37,38,113,38,40,11,303,29,44,07,333,29,1*41
$GBGSV,1,1,03,19,40,283,20,20,80,028,19,37,38,113,20,5*40
$GQGSV,1,1,00,1*65
$GQGSV,1,1,00,8*6C
$GNGGA,183208.000,4910.426519,N,12304.402801,W,1,28,0.64,9.357,M,-16.816,M,,*4F
