$GNGGA,183148.000,4910.427802,N,12304.401054,W,2,26,0.53,4.512,M,-16.817,M,,*47
$GNGLL,4910.427802,N,12304.401054,W,183148.000,A,D*50
$GNGSA,A,3,28,31,02,03,21,32,04,25,17,10,,,0.99,0.53,0.84,1*04
$GNGSA,A,3,73,80,,,,,,,,,,,0.99,0.53,0.84,2*04
$GNGSA,A,3,05,34,15,03,09,36,,,,,,,0.99,0.53,0.84,3*00
$GNGSA,A,3,20,19,37,32,23,35,29,40,,,,,0.99,0.53,0.84,4*09
$GPGSV,3,1,10,28,58,088,31,31,52,156,28,02,48,233,28,03,47,301,29,1*60
$GPGSV,3,2,10,21,39,210,28,32,31,067,26,04,20,250,23,25,14,056,24,1*65
$GPGSV,3,3,10,17,11,305,22,10,06,118,21,1*69
$GLGSV,2,1,07,72,48,292,,87,46,270,,73,36,106,20,80,28,040,18,1*7F
$GLGSV,2,2,07,86,25,212,,70,20,077,,74,14,147,,1*46
$GAGSV,2,1,06,05,87,342,28,34,56,222,27,15,40,305,24,03,35,249,23,7*7B
$GAGSV,2,2,06,09,33,064,23,36,18,173,20,7*74
$GBGSV,2,1,08,20,81,025,37,19,40,283,29,37,38,114,31,32,28,090,25,1*77
$GBGSV,2,2,08,23,26,053,28,35,26,292,28,29,20,230,25,40,11,304,23,1*7B
$GNRMC,183148.000,A,4910.427802,N,12304.401054,W,0.10,159.63,151024,,,D,V*17
$GNVTG,159.63,T,,M,0.10,N,0.19,K,D*27
$GNGGA,183149.000,4910.427694,N,12304.400964,W,2,26,0.53,4.460,M,-16.816,M,,*49
$GNGLL,4910.427694,N,12304.400964,W,183149.000,A,D*5B
$GNGSA,A,3,28,31,02,03,21,32,04,25,17,10,,,0.99,0.53,0.84,1*04
$GNGSA,A,3,73,80,,,,,,,,,,,0.99,0.53,0.84,2*04
$GNGSA,A,3,05,34,15,03,09,36,,,,,,,0.99,0.53,0.84,3*00
$GNGSA,A,3,20,19,37,32,35,23,29,40,,,,,0.99,0.53,0.84,4*09
$GPGSV,4,1,14,28,58,088,31,31,52,156,28,02,48,233,28,03,47,301,29,1*63
$GPGSV,4,2,14,21,39,210,27,51,31,159,,32,31,067,26,04,20,250,21,1*67
$GPGSV,4,3,14,25,14,056,22,17,11,305,22,19,08,330,,10,06,118,21,1*6B
$GPGSV,4,4,14,12,04,020,,26,04,140,,1*61
$GLGSV,2,1,08,71,63,037,,87,46,270,,73,36,106,20,80,28,040,18,1*77
$GLGSV,2,2,08,86,25,212,,70,20,077,,88,20,333,,74,14,147,,1*78
$GAGSV,3,1,09,05,87,342,28,34,56,222,27,15,40,305,24,03,35,249,22,7*74
$GAGSV,3,2,09,09,33,064,23,36,18,173,20,31,15,069,,06,11,066,,7*75
$GAGSV,3,3,09,24,06,117,,7*4D
$GBGSV,3,1,12,20,81,025,37,19,40,283,29,37,38,114,31,32,28,090,25,1*7D
$GBGSV,3,2,12,35,26,292,28,23,26,053,28,58,23,052,,29,20,230,25,1*78
$GBGSV,3,3,12,46,12,166,,40,11,304,23,31,08,341,,44,07,334,,1*78
$GNRMC,183149.000,A,4910.427694,N,12304.400964,W,0.09,159.63,151024,,,D,V*14
$GNVTG,159.63,T,,M,0.09,N,0.17,K,D*21
$GNGGA,183150.000,4910.427712,N,12304.400898,W,2,26,0.53,4.563,M,-16.816,M,,*4E
$GNGLL,4910.427712,N,12304.400898,W,183150.000,A,D*5E
$GNGSA,A,3,28,31,02,03,21,32,04,25,17,10,,,0.99,0.53,0.84,1*04
$GNGSA,A,3,73,80,,,,,,,,,,,0.99,0.53,0.84,2*04
$GNGSA,A,3,05,34,15,03,09,36,,,,,,,0.99,0.53,0.84,3*00
$GNGSA,A,3,20,19,37,32,23,35,29,40,,,,,0.99,0.53,0.84,4*09
$GPGSV,3,1,11,28,58,088,31,31,52,156,28,02,48,233,28,03,47,301,28,1*60
$GPGSV,3,2,11,21,39,210,27,51,31,159,,32,31,067,26,04,20,250,22,1*66
$GPGSV,3,3,11,25,14,056,23,17,11,305,22,10,06,118,21,1*58
$GLGSV,3,1,09,71,63,037,,72,48,292,,87,46,270,,73,36,106,21,1*79
$GLGSV,3,2,09,80,28,040,18,86,25,212,,88,20,333,,70,20,077,,1*73
$GLGSV,3,3,09,74,14,147,,1*45
$GAGSV,2,1,06,05,87,342,28,34,56,222,27,15,40,305,23,03,35,249,22,7*7D
$GAGSV,2,2,06,09,33,064,23,36,18,173,20,7*74
$GBGSV,2,1,08,20,81,025,37,19,40,283,29,37,38,114,31,32,28,090,24,1*76
$GBGSV,2,2,08,23,26,053,28,35,26,292,28,29,20,230,24,40,11,304,22,1*7B
$GNRMC,183150.000,A,4910.427712,N,12304.400898,W,0.09,159.63,151024,,,D,V*11
$GNVTG,159.63,T,,M,0.09,N,0.16,K,D*20
$GNGGA,183151.000,4910.427730,N,12304.400808,W,2,26,0.53,4.606,M,-16.816,M,,*46
$GNGLL,4910.427730,N,12304.400808,W,183151.000,A,D*56
$GNGSA,A,3,28,31,02,03,21,32,04,25,17,10,,,0.99,0.53,0.84,1*04
$GNGSA,A,3,73,80,,,,,,,,,,,0.99,0.53,0.84,2*04
$GNGSA,A,3,05,34,15,03,09,36,,,,,,,0.99,0.53,0.84,3*00
$GNGSA,A,3,20,19,37,32,23,35,29,40,,,,,0.99,0.53,0.84,4*09
$GPGSV,3,1,11,28,58,088,31,31,52,156,28,02,48,233,29,03,47,301,29,1*60
$GPGSV,3,2,11,21,39,210,27,51,31,159,,32,31,067,26,04,20,250,22,1*66
$GPGSV,3,3,11,25,14,056,23,17,11,305,22,10,06,118,20,1*59
$GLGSV,2,1,08,71,63,037,,87,46,270,,73,36,106,21,80,28,040,18,1*76
$GLGSV,2,2,08,86,25,212,,88,20,333,,70,20,077,,74,14,147,,1*78
$GAGSV,2,1,06,05,87,342,28,34,56,222,27,15,40,305,23,03,35,249,22,7*7D
$GAGSV,2,2,06,09,33,064,23,36,18,173,20,7*74
$GBGSV,2,1,08,20,81,025,37,19,40,283,29,37,38,114,31,32,28,090,24,1*76
$GBGSV,2,2,08,23,26,053,28,35,26,292,28,29,20,230,24,40,11,304,22,1*7B
$GNRMC,183151.000,A,4910.427730,N,12304.400808,W,0.09,159.63,151024,,,D,V*19
$GNVTG,159.63,T,,M,0.09,N,0.16,K,D*20
$GNGGA,183152.000,4910.427718,N,12304.400682,W,2,26,0.53,4.730,M,-16.817,M,,*46
$GNGLL,4910.427718,N,12304.400682,W,183152.000,A,D*53
$GNGSA,A,3,28,31,02,03,21,32,04,25,17,10,,,0.99,0.53,0.84,1*04
$GNGSA,A,3,73,80,,,,,,,,,,,0.99,0.53,0.84,2*04
$GNGSA,A,3,05,34,15,03,09,36,,,,,,,0.99,0.53,0.84,3*00
$GNGSA,A,3,20,19,37,32,35,23,29,40,,,,,0.99,0.53,0.84,4*09
$GPGSV,4,1,14,28,58,088,31,31,52,156,28,02,48,233,29,03,47,301,29,1*62
$GPGSV,4,2,14,21,39,210,27,51,31,159,,32,31,067,27,04,20,250,22,1*65
$GPGSV,4,3,14,25,14,055,23,17,11,305,22,19,08,330,,10,06,118,20,1*68
$GPGSV,4,4,14,12,04,020,,26,04,140,,1*61
$GLGSV,2,1,08,71,63,037,,87,46,270,,73,36,106,21,80,28,040,18,1*76
$GLGSV,2,2,08,86,25,212,,70,20,077,,88,20,333,,74,14,147,,1*78
$GAGSV,3,1,09,05,87,342,28,34,56,222,27,15,40,305,23,03,35,249,22,7*73
$GAGSV,3,2,09,09,33,064,23,36,18,173,20,31,15,069,,06,11,066,,7*75
$GAGSV,3,3,09,24,06,117,,7*4D
$GBGSV,3,1,12,20,81,025,37,19,40,283,29,37,38,114,31,32,28,090,24,1*7C
$GBGSV,3,2,12,35,26,292,28,23,26,053,28,58,23,052,,29,20,230,24,1*79
$GBGSV,3,3,12,46,12,166,,40,11,304,22,31,08,341,,44,07,334,,1*79
$GNRMC,183152.000,A,4910.427718,N,12304.400682,W,0.09,159.63,151024,,,D,V*1C
$GNVTG,159.63,T,,M,0.09,N,0.17,K,D*21
$GNGGA,183153.000,4910.427742,N,12304.400580,W,2,26,0.53,4.713,M,-16.817,M,,*48
$GNGLL,4910.427742,N,12304.400580,W,183153.000,A,D*5C
$GNGSA,A,3,28,31,02,03,21,32,04,25,17,10,,,0.99,0.53,0.84,1*04
$GNGSA,A,3,73,80,,,,,,,,,,,0.99,0.53,0.84,2*04
$GNGSA,A,3,05,34,15,03,09,36,,,,,,,0.99,0.53,0.84,3*00
$GNGSA,A,3,20,19,37,32,35,23,29,40,,,,,0.99,0.53,0.84,4*09
$GPGSV,4,1,14,28,58,088,31,31,52,156,28,02,48,233,29,03,47,301,29,1*62
$GPGSV,4,2,14,21,39,210,27,51,31,159,,32,31,067,27,04,20,250,22,1*65
$GPGSV,4,3,14,25,14,055,22,17,11,305,22,19,08,330,,10,06,118,20,1*69
$GPGSV,4,4,14,26,05,139,,12,04,020,,1*6E
$GLGSV,2,1,08,71,63,037,,87,46,270,,73,36,106,21,80,28,040,18,1*76
$GLGSV,2,2,08,86,25,212,,70,20,077,,88,20,333,,74,14,147,,1*78
$GAGSV,3,1,09,05,87,342,28,34,56,222,27,15,40,305,23,03,35,249,22,7*73
$GAGSV,3,2,09,09,33,064,23,36,18,173,20,31,15,069,,06,11,066,,7*75
$GAGSV,3,3,09,24,06,117,,7*4D
$GBGSV,3,1,12,20,81,025,37,19,40,283,29,37,38,114,31,32,28,090,24,1*7C
$GBGSV,3,2,12,35,26,292,28,23,26,053,28,58,23,052,,29,20,230,24,1*79
$GBGSV,3,3,12,46,12,166,,40,11,304,22,31,08,341,,44,07,334,,1*79
$GNRMC,183153.000,A,4910.427742,N,12304.400580,W,0.13,159.63,151024,,,D,V*18
$GNVTG,159.63,T,,M,0.13,N,0.24,K,D*2A
$GNGGA,183154.000,4910.427724,N,12304.400676,W,2,27,0.51,4.735,M,-16.816,M,,*43
$GNGLL,4910.427724,N,12304.400676,W,183154.000,A,D*51
$GNGSA,A,3,28,31,02,03,21,32,04,25,17,19,10,,0.95,0.51,0.80,1*06
$GNGSA,A,3,73,80,,,,,,,,,,,0.95,0.51,0.80,2*0E
$GNGSA,A,3,05,34,15,03,09,36,,,,,,,0.95,0.51,0.80,3*0A
$GNGSA,A,3,20,19,37,32,23,35,29,40,,,,,0.95,0.51,0.80,4*03
$GPGSV,4,1,14,28,58,088,31,31,52,156,28,02,48,233,29,03,47,301,29,1*62
$GPGSV,4,2,14,21,39,210,28,51,31,159,,32,31,067,27,04,20,250,22,1*6A
$GPGSV,4,3,14,25,14,055,23,17,11,305,22,19,08,330,18,10,06,118,20,1*61
$GPGSV,4,4,14,26,05,139,,12,04,020,,1*6E
$GLGSV,3,1,09,71,63,037,,72,48,292,,87,46,270,,73,36,106,21,1*79
$GLGSV,3,2,09,80,28,040,18,86,25,212,,70,20,077,,88,20,333,,1*73
$GLGSV,3,3,09,74,14,147,,1*45
$GAGSV,3,1,09,05,87,342,28,34,56,222,27,15,40,305,23,03,35,249,22,7*73
$GAGSV,3,2,09,09,33,064,23,36,18,173,20,31,15,069,,06,11,066,,7*75
$GAGSV,3,3,09,24,06,117,,7*4D
$GBGSV,3,1,12,20,81,025,37,19,40,283,29,37,38,114,31,32,28,090,24,1*7C
$GBGSV,3,2,12,23,26,053,28,35,26,292,28,58,23,052,,29,20,230,24,1*79
$GBGSV,3,3,12,46,12,166,,40,11,304,22,31,08,341,,44,07,334,,1*79
$GNRMC,183154.000,A,4910.427724,N,12304.400676,W,0.24,159.63,151024,,,D,V*11
$GNVTG,159.63,T,,M,0.24,N,0.44,K,D*28
$GNGGA,183155.000,4910.427736,N,12304.400652,W,2,28,0.49,4.731,M,-16.816,M,,*45
$GNGLL,4910.427736,N,12304.400652,W,183155.000,A,D*55
$GNGSA,A,3,28,31,02,03,21,32,04,25,17,19,10,26,0.89,0.49,0.75,1*0C
$GNGSA,A,3,73,80,,,,,,,,,,,0.89,0.49,0.75,2*00
$GNGSA,A,3,05,34,15,03,09,36,,,,,,,0.89,0.49,0.75,3*04
$GNGSA,A,3,20,19,37,32,35,23,29,40,,,,,0.89,0.49,0.75,4*0D
$GPGSV,4,1,14,28,58,086,31,31,52,156,29,02,48,233,29,03,47,301,29,1*6D
$GPGSV,4,2,14,21,39,210,28,51,31,159,,32,31,067,27,04,20,250,22,1*6A
$GPGSV,4,3,14,25,14,055,23,17,11,305,23,19,08,330,20,10,06,118,21,1*6A
$GPGSV,4,4,14,26,05,139,19,12,04,020,,1*66
$GLGSV,2,1,06,71,63,037,,72,48,292,,73,36,106,21,80,28,040,18,1*70
$GLGSV,2,2,06,86,25,212,,70,20,077,,1*73
$GAGSV,3,1,09,05,87,342,28,34,56,222,27,15,40,305,23,03,35,249,23,7*72
$GAGSV,3,2,09,09,33,064,23,36,18,173,20,31,15,069,,06,11,066,,7*75
$GAGSV,3,3,09,24,06,117,,7*4D
$GBGSV,3,1,12,20,81,025,37,19,40,283,29,37,38,114,31,32,28,090,24,1*7C
$GBGSV,3,2,12,35,26,292,28,23,26,053,28,58,23,052,,29,20,230,25,1*78
$GBGSV,3,3,12,46,12,166,,40,11,304,22,31,08,341,,44,07,334,,1*79
$GNRMC,183155.000,A,4910.427736,N,12304.400652,W,0.17,159.63,151024,,,D,V*15
$GNVTG,159.63,T,,M,0.17,N,0.31,K,D*2A
$GNGGA,183156.000,4910.427712,N,12304.400646,W,2,28,0.49,4.700,M,-16.816,M,,*47
$GNGLL,4910.427712,N,12304.400646,W,183156.000,A,D*55
$GNGSA,A,3,28,31,02,03,21,32,04,25,17,19,10,26,0.89,0.49,0.75,1*0C
$GNGSA,A,3,73,80,,,,,,,,,,,0.89,0.49,0.75,2*00
$GNGSA,A,3,05,34,15,03,09,36,,,,,,,0.89,0.49,0.75,3*04
$GNGSA,A,3,20,19,37,32,35,23,29,40,,,,,0.89,0.49,0.75,4*0D
$GPGSV,4,1,13,28,58,086,31,31,52,156,30,02,48,233,30,03,47,301,29,1*6A
$GPGSV,4,2,13,21,39,210,29,32,31,067,28,04,20,250,23,25,14,055,23,1*6A
$GPGSV,4,3,13,17,11,305,23,19,08,330,23,10,06,118,21,26,05,139,19,1*6F
$GPGSV,4,4,13,12,04,020,,1*53
$GLGSV,1,1,04,73,36,106,21,80,28,040,18,86,25,212,,70,20,077,,1*7B
$GAGSV,3,1,09,05,87,342,29,34,56,222,27,15,40,305,24,03,35,249,24,7*73
$GAGSV,3,2,09,09,33,064,24,36,18,173,20,31,15,069,16,06,11,066,,7*75
$GAGSV,3,3,09,24,06,117,,7*4D
$GBGSV,3,1,12,20,81,025,37,19,40,283,29,37,38,114,31,32,28,090,24,1*7C
$GBGSV,3,2,12,35,26,292,28,23,26,053,28,58,23,052,,29,20,230,25,1*78
$GBGSV,3,3,12,46,12,166,,40,11,304,22,31,08,341,,44,07,334,,1*79
$GNRMC,183156.000,A,4910.427712,N,12304.400646,W,0.10,159.63,151024,,,D,V*12
$GNVTG,159.63,T,,M,0.10,N,0.19,K,D*27
$GNGGA,183157.000,4910.427670,N,12304.400598,W,2,26,0.53,4.663,M,-16.816,M,,*42
$GNGLL,4910.427670,N,12304.400598,W,183157.000,A,D*51
$GNGSA,A,3,28,31,02,03,21,32,04,25,17,10,,,0.99,0.53,0.84,1*04
$GNGSA,A,3,73,80,,,,,,,,,,,0.99,0.53,0.84,2*04
$GNGSA,A,3,05,34,15,03,09,36,,,,,,,0.99,0.53,0.84,3*00
$GNGSA,A,3,20,19,37,32,35,23,29,40,,,,,0.99,0.53,0.84,4*09
$GPGSV,3,1,11,28,58,086,31,31,52,156,31,02,48,233,30,03,47,301,30,1*66
$GPGSV,3,2,11,21,39,210,30,51,31,159,,32,31,067,29,04,20,250,24,1*69
$GPGSV,3,3,11,25,14,055,24,17,11,305,24,10,06,118,22,1*59
$GLGSV,1,1,04,73,36,106,21,80,28,040,17,86,25,212,,70,20,077,,1*74
$GAGSV,2,1,06,05,87,342,29,34,56,222,28,15,40,305,24,03,35,249,24,7*72
$GAGSV,2,2,06,09,33,064,24,36,18,173,21,7*72
$GBGSV,2,1,08,20,81,025,37,19,40,283,29,37,38,114,31,32,28,090,24,1*76
$GBGSV,2,2,08,35,26,292,28,23,26,053,28,29,20,230,25,40,11,304,22,1*7A
$GNRMC,183157.000,A,4910.427670,N,12304.400598,W,0.09,159.63,151024,,,D,V*1E
$GNVTG,159.63,T,,M,0.09,N,0.17,K,D*21
$GNGGA,183158.000,4910.427796,N,12304.400604,W,2,26,0.53,4.539,M,-16.817,M,,*4F
