$GNGGA,191035.000,4910.426872,N,12304.399962,W,2,30,0.50,16.764,M,-16.817,M,,*77
$GNGLL,4910.426872,N,12304.399962,W,191035.000,A,D*54
$GNGSA,A,3,09,07,04,16,20,30,27,26,11,08,03,,0.78,0.50,0.59,1*01
$GNGSA,A,3,69,68,79,67,,,,,,,,,0.78,0.50,0.59,2*0A
$GNGSA,A,3,09,31,06,05,04,24,34,15,,,,,0.78,0.50,0.59,3*0C
$GNGSA,A,3,37,20,23,32,19,38,25,,,,,,0.78,0.50,0.59,4*00
$GPGSV,4,1,13,09,87,147,36,07,58,258,32,04,56,117,31,16,40,060,30,1*62
$GPGSV,4,2,13,46,33,188,29,20,22,315,27,30,21,254,27,27,15,101,24,1*69
$GPGSV,4,3,13,26,13,044,23,11,10,292,23,08,07,132,21,03,07,173,21,1*61
$GPGSV,4,4,13,06,03,257,,1*53
$GLGSV,2,1,07,78,67,047,15,69,63,321,24,68,61,139,31,79,54,212,28,1*7D
$GLGSV,2,2,07,67,11,140,18,86,09,004,,80,03,216,17,1*49
$GAGSV,3,1,09,09,84,098,29,31,59,129,28,06,58,115,27,05,39,298,24,7*78
$GAGSV,3,2,09,04,32,116,23,24,24,187,21,34,13,286,15,15,09,335,17,7*77
$GAGSV,3,3,09,36,02,239,10,7*44
$GBGSV,4,1,13,37,64,212,36,20,59,292,37,23,57,064,37,32,52,166,36,1*77
$GBGSV,4,2,13,19,14,316,27,38,12,333,28,46,11,227,,25,07,053,24,1*7A
$GBGSV,4,3,13,08,06,342,21,12,03,020,22,34,02,046,,41,02,146,17,1*7C
$GBGSV,4,4,13,04,01,262,,1*47
$GNRMC,191035.000,A,4910.426872,N,12304.399962,W,0.01,0.00,051224,,,D,V*18
$GNVTG,0.00,T,,M,0.01,N,0.03,K,D*24
$GNGGA,191036.000,4910.426908,N,12304.400028,W,2,30,0.50,16.695,M,-16.816,M,,*76
$GNGLL,4910.426908,N,12304.400028,W,191036.000,A,D*5B
$GNGSA,A,3,09,07,04,16,20,30,27,26,11,08,03,,0.78,0.50,0.59,1*01
$GNGSA,A,3,69,68,79,67,,,,,,,,,0.78,0.50,0.59,2*0A
$GNGSA,A,3,09,31,06,05,04,24,34,15,,,,,0.78,0.50,0.59,3*0C
$GNGSA,A,3,37,20,23,32,19,38,25,,,,,,0.78,0.50,0.59,4*00
$GPGSV,4,1,13,09,87,147,36,07,58,258,32,04,56,117,31,16,40,060,30,1*62
$GPGSV,4,2,13,46,33,188,28,20,22,315,27,30,21,254,27,27,15,101,22,1*6E
$GPGSV,4,3,13,26,13,044,23,11,10,292,22,08,07,132,21,03,07,173,20,1*61
$GPGSV,4,4,13,06,03,257,,1*53
$GLGSV,2,1,07,78,67,047,15,69,63,321,26,68,61,139,31,79,54,212,28,1*7F
$GLGSV,2,2,07,67,11,140,18,86,09,004,,80,03,216,17,1*49
$GAGSV,3,1,09,09,84,098,29,31,59,129,28,06,58,115,27,05,39,298,24,7*78
$GAGSV,3,2,09,04,32,116,23,24,24,187,21,34,13,286,15,15,09,335,16,7*76
$GAGSV,3,3,09,36,02,239,09,7*4C
$GBGSV,4,1,13,37,64,212,36,20,59,292,37,23,57,064,37,32,52,166,36,1*77
$GBGSV,4,2,13,19,14,316,27,38,12,333,28,46,11,227,,25,07,053,24,1*7A
$GBGSV,4,3,13,08,06,342,21,12,03,020,22,34,02,046,,41,02,146,17,1*7C
$GBGSV,4,4,13,04,01,262,,1*47
$GNRMC,191036.000,A,4910.426908,N,12304.400028,W,0.01,0.00,051224,,,D,V*17
$GNVTG,0.00,T,,M,0.01,N,0.03,K,D*24
$PAIR010,0,1,2343,414654*3A
$GNGGA,191037.000,4910.426908,N,12304.400028,W,2,30,0.50,16.660,M,-16.816,M,,*7D
$GNGLL,4910.426908,N,12304.400028,W,191037.000,A,D*5A
$GNGSA,A,3,09,07,04,16,20,30,27,26,11,08,03,,0.78,0.50,0.59,1*01
$GNGSA,A,3,69,68,79,67,,,,,,,,,0.78,0.50,0.59,2*0A
$GNGSA,A,3,09,31,06,05,04,24,34,15,,,,,0.78,0.50,0.59,3*0C
$GNGSA,A,3,37,20,23,32,19,38,25,,,,,,0.78,0.50,0.59,4*00
$GPGSV,4,1,13,09,87,147,36,07,58,258,32,04,56,117,31,16,40,060,30,1*62
$GPGSV,4,2,13,46,33,188,28,20,22,315,27,30,21,254,27,27,15,101,23,1*6F
$GPGSV,4,3,13,26,13,044,23,11,10,292,22,08,07,132,20,03,07,173,20,1*60
$GPGSV,4,4,13,06,03,257,,1*53
$GLGSV,2,1,07,78,67,047,15,69,63,321,26,68,61,139,31,79,54,212,28,1*7F
$GLGSV,2,2,07,67,11,140,18,86,09,004,,80,03,216,17,1*49
$GAGSV,3,1,09,09,84,098,29,31,59,129,28,06,58,115,27,05,39,298,24,7*78
$GAGSV,3,2,09,04,32,116,23,24,24,187,21,34,13,286,15,15,09,335,16,7*76
$GAGSV,3,3,09,36,02,239,08,7*4D
$GBGSV,4,1,13,37,64,212,36,20,59,292,37,23,57,064,37,32,52,166,36,1*77
$GBGSV,4,2,13,19,14,316,27,38,12,333,28,46,11,227,,25,07,053,24,1*7A
$GBGSV,4,3,13,08,06,342,21,12,03,020,22,34,02,046,,41,02,146,17,1*7C
$GBGSV,4,4,13,04,01,262,,1*47
$GNRMC,191037.000,A,4910.426908,N,12304.400028,W,0.01,0.00,051224,,,D,V*16
$GNVTG,0.00,T,,M,0.01,N,0.02,K,D*25
$GNGGA,191038.000,4910.426914,N,12304.400034,W,2,30,0.50,16.581,M,-16.816,M,,*7E
$GNGLL,4910.426914,N,12304.400034,W,191038.000,A,D*55
$GNGSA,A,3,09,07,04,16,20,30,27,26,11,08,03,,0.78,0.50,0.59,1*01
$GNGSA,A,3,69,68,79,67,,,,,,,,,0.78,0.50,0.59,2*0A
$GNGSA,A,3,09,31,06,05,04,24,34,15,,,,,0.78,0.50,0.59,3*0C
$GNGSA,A,3,37,20,23,32,19,38,25,,,,,,0.78,0.50,0.59,4*00
$GPGSV,4,1,13,09,87,147,36,07,58,258,32,04,56,117,31,16,40,060,30,1*62
$GPGSV,4,2,13,46,33,188,28,20,22,315,27,30,21,254,27,27,15,101,23,1*6F
$GPGSV,4,3,13,26,13,044,23,11,10,292,22,08,07,132,20,03,07,173,20,1*60
$GPGSV,4,4,13,06,03,257,15,1*57
$GLGSV,2,1,07,78,67,047,15,69,63,321,26,68,61,139,31,79,54,212,28,1*7F
$GLGSV,2,2,07,67,11,140,19,86,09,004,,80,03,216,17,1*48
$GAGSV,3,1,09,09,84,100,29,31,59,129,28,06,58,115,26,05,39,298,24,7*79
$GAGSV,3,2,09,04,32,116,23,24,24,187,21,34,13,286,15,15,09,335,16,7*76
$GAGSV,3,3,09,36,02,239,09,7*4C
$GBGSV,4,1,13,37,64,212,36,20,59,292,37,23,57,064,37,32,52,166,36,1*77
$GBGSV,4,2,13,19,14,316,27,38,12,333,28,46,11,227,,25,07,053,24,1*7A
$GBGSV,4,3,13,08,06,342,21,12,03,020,22,34,02,046,,41,02,146,17,1*7C
$GBGSV,4,4,13,04,01,262,,1*47
$GNRMC,191038.000,A,4910.426914,N,12304.400034,W,0.01,0.00,051224,,,D,V*19
$GNVTG,0.00,T,,M,0.01,N,0.01,K,D*26
$GNGGA,191039.000,4910.426902,N,12304.400034,W,2,30,0.50,16.505,M,-16.816,M,,*74
$GNGLL,4910.426902,N,12304.400034,W,191039.000,A,D*53
$GNGSA,A,3,09,07,04,16,20,30,27,26,11,08,03,,0.78,0.50,0.59,1*01
$GNGSA,A,3,69,68,79,67,,,,,,,,,0.78,0.50,0.59,2*0A
$GNGSA,A,3,09,31,06,05,04,24,34,15,,,,,0.78,0.50,0.59,3*0C
$GNGSA,A,3,37,20,23,32,19,38,25,,,,,,0.78,0.50,0.59,4*00
$GPGSV,4,1,13,09,87,147,36,07,58,258,32,04,56,117,31,16,40,060,30,1*62
$GPGSV,4,2,13,46,33,188,28,20,22,315,26,30,21,254,27,27,15,101,23,1*6E
$GPGSV,4,3,13,26,13,044,22,11,10,292,21,08,07,132,22,03,07,173,20,1*60
$GPGSV,4,4,13,06,03,257,14,1*56
$GLGSV,2,1,07,78,67,047,15,69,63,321,26,68,61,139,31,79,54,212,28,1*7F
$GLGSV,2,2,07,67,11,140,19,86,09,004,,80,03,216,17,1*48
$GAGSV,3,1,09,09,84,100,29,31,59,129,28,06,58,115,26,05,39,298,24,7*79
$GAGSV,3,2,09,04,32,116,22,24,24,187,20,34,13,286,15,15,09,335,15,7*75
$GAGSV,3,3,09,36,02,239,09,7*4C
$GBGSV,4,1,13,37,64,212,36,20,59,292,37,23,57,064,37,32,52,166,36,1*77
$GBGSV,4,2,13,19,14,316,27,38,12,333,28,46,11,227,,25,07,053,24,1*7A
$GBGSV,4,3,13,08,06,342,21,12,03,020,22,34,02,046,,41,02,146,17,1*7C
$GBGSV,4,4,13,04,01,262,,1*47
$GNRMC,191039.000,A,4910.426902,N,12304.400034,W,0.01,0.00,051224,,,D,V*1F
$GNVTG,0.00,T,,M,0.01,N,0.02,K,D*25
$GNGGA,191040.000,4910.426872,N,12304.400028,W,2,30,0.50,16.430,M,-16.816,M,,*76
$GNGLL,4910.426872,N,12304.400028,W,191040.000,A,D*56
$GNGSA,A,3,09,07,04,16,20,30,27,26,11,08,03,,0.78,0.50,0.59,1*01
$GNGSA,A,3,69,68,79,67,,,,,,,,,0.78,0.50,0.59,2*0A
$GNGSA,A,3,09,31,06,05,04,24,34,15,,,,,0.78,0.50,0.59,3*0C
$GNGSA,A,3,37,20,23,32,19,38,25,,,,,,0.78,0.50,0.59,4*00
$GPGSV,4,1,13,09,87,147,36,07,58,258,32,04,56,117,31,16,40,060,30,1*62
$GPGSV,4,2,13,46,33,188,28,20,22,315,26,30,21,254,27,27,15,101,23,1*6E
$GPGSV,4,3,13,26,13,044,22,11,10,292,22,08,07,132,22,03,07,173,20,1*63
$GPGSV,4,4,13,06,03,257,,1*53
$GLGSV,2,1,07,78,67,047,15,69,63,321,26,68,61,139,31,79,54,212,28,1*7F
$GLGSV,2,2,07,67,11,140,19,86,09,004,,80,03,216,18,1*47
$GAGSV,3,1,09,09,84,100,29,31,59,129,28,06,58,115,26,05,39,298,24,7*79
$GAGSV,3,2,09,04,32,116,22,24,24,187,20,34,13,286,15,15,09,335,16,7*76
$GAGSV,3,3,09,36,02,239,09,7*4C
$GBGSV,4,1,13,37,64,212,36,20,59,292,37,23,57,064,37,32,52,166,36,1*77
$GBGSV,4,2,13,19,14,316,27,38,12,333,28,46,11,227,,25,07,053,24,1*7A
$GBGSV,4,3,13,08,06,342,21,12,03,020,21,34,02,046,,41,02,146,17,1*7F
$GBGSV,4,4,13,04,01,262,,1*47
$GNRMC,191040.000,A,4910.426872,N,12304.400028,W,0.01,0.00,051224,,,D,V*1A
$GNVTG,0.00,T,,M,0.01,N,0.01,K,D*26
$GNGGA,191041.000,4910.426890,N,12304.400016,W,2,30,0.50,16.394,M,-16.817,M,,*7E
$GNGLL,4910.426890,N,12304.400016,W,191041.000,A,D*56
$GNGSA,A,3,09,07,04,16,20,30,27,26,11,08,03,,0.78,0.50,0.59,1*01
$GNGSA,A,3,69,68,79,67,,,,,,,,,0.78,0.50,0.59,2*0A
$GNGSA,A,3,09,31,06,05,04,24,34,15,,,,,0.78,0.50,0.59,3*0C
$GNGSA,A,3,37,20,23,32,19,38,25,,,,,,0.78,0.50,0.59,4*00
$GPGSV,4,1,13,09,87,147,36,07,58,258,32,04,56,117,31,16,40,060,30,1*62
$GPGSV,4,2,13,46,33,188,28,20,22,315,26,30,21,254,27,27,15,101,23,1*6E
$GPGSV,4,3,13,26,13,044,22,11,10,292,22,08,07,132,21,03,07,173,20,1*60
$GPGSV,4,4,13,06,03,257,,1*53
$GLGSV,2,1,07,78,67,047,15,69,63,321,26,68,61,139,31,79,54,212,28,1*7F
$GLGSV,2,2,07,67,11,140,20,86,09,004,,80,03,216,18,1*4D
$GAGSV,3,1,09,09,84,100,29,31,59,129,28,06,58,115,26,05,39,298,24,7*79
$GAGSV,3,2,09,04,32,116,22,24,24,187,20,34,13,286,15,15,09,335,16,7*76
$GAGSV,3,3,09,36,02,239,09,7*4C
$GBGSV,4,1,13,37,64,212,36,20,59,292,37,23,57,064,37,32,52,166,36,1*77
$GBGSV,4,2,13,19,14,316,27,38,12,333,28,46,11,227,,25,07,053,24,1*7A
$GBGSV,4,3,13,08,06,342,21,12,03,020,21,34,02,046,,41,02,146,16,1*7E
$GBGSV,4,4,13,04,01,262,,1*47
$GNRMC,191041.000,A,4910.426890,N,12304.400016,W,0.01,0.00,051224,,,D,V*1A
$GNVTG,0.00,T,,M,0.01,N,0.02,K,D*25
$GNGGA,191042.000,4910.426914,N,12304.399986,W,2,30,0.50,16.370,M,-16.816,M,,*7C
$GNGLL,4910.426914,N,12304.399986,W,191042.000,A,D*5F
$GNGSA,A,3,09,07,04,16,20,30,27,26,11,08,03,,0.78,0.50,0.59,1*01
$GNGSA,A,3,69,68,79,67,,,,,,,,,0.78,0.50,0.59,2*0A
$GNGSA,A,3,09,31,06,05,04,24,34,15,,,,,0.78,0.50,0.59,3*0C
$GNGSA,A,3,37,20,23,32,19,38,25,,,,,,0.78,0.50,0.59,4*00
$GPGSV,4,1,13,09,87,147,36,07,58,258,32,04,56,117,31,16,40,060,30,1*62
$GPGSV,4,2,13,46,33,188,28,20,22,315,26,30,21,254,27,27,15,101,22,1*6F
$GPGSV,4,3,13,26,13,044,22,11,10,292,23,08,07,132,21,03,07,173,21,1*60
$GPGSV,4,4,13,06,03,257,,1*53
$GLGSV,2,1,07,78,67,047,15,69,63,321,26,68,61,139,31,79,54,212,28,1*7F
$GLGSV,2,2,07,67,11,140,20,86,09,004,,80,03,216,19,1*4C
$GAGSV,3,1,09,09,84,100,28,31,59,129,28,06,58,115,26,05,39,298,24,7*78
$GAGSV,3,2,09,04,32,116,22,24,24,187,20,34,13,286,15,15,09,335,16,7*76
$GAGSV,3,3,09,36,02,239,09,7*4C
$GBGSV,4,1,13,37,64,212,36,20,59,292,37,23,57,064,37,32,52,166,36,1*77
$GBGSV,4,2,13,19,14,316,27,38,12,333,28,46,11,227,,25,07,053,24,1*7A
$GBGSV,4,3,13,08,06,342,21,12,03,020,21,34,02,046,,41,02,146,16,1*7E
$GBGSV,4,4,13,04,01,262,,1*47
$GNRMC,191042.000,A,4910.426914,N,12304.399986,W,0.01,0.00,051224,,,D,V*13
$GNVTG,0.00,T,,M,0.01,N,0.02,K,D*25
$GNGGA,191043.000,4910.426908,N,12304.400004,W,2,30,0.50,16.287,M,-16.817,M,,*7C
$GNGLL,4910.426908,N,12304.400004,W,191043.000,A,D*57
$GNGSA,A,3,09,07,04,16,20,30,27,26,11,08,03,,0.78,0.50,0.59,1*01
$GNGSA,A,3,69,68,79,67,,,,,,,,,0.78,0.50,0.59,2*0A
$GNGSA,A,3,09,31,06,05,04,24,34,15,,,,,0.78,0.50,0.59,3*0C
$GNGSA,A,3,37,20,23,32,19,38,25,,,,,,0.78,0.50,0.59,4*00
$GPGSV,4,1,13,09,87,147,36,07,58,258,32,04,56,117,31,16,40,060,30,1*62
$GPGSV,4,2,13,46,33,188,28,20,22,315,26,30,21,254,27,27,15,101,23,1*6E
$GPGSV,4,3,13,26,13,044,21,11,10,292,23,08,07,132,20,03,07,173,21,1*62
$GPGSV,4,4,13,06,03,257,,1*53
$GLGSV,2,1,07,78,67,047,15,69,63,321,26,68,61,139,31,79,54,212,28,1*7F
$GLGSV,2,2,07,67,11,140,20,86,09,004,,80,03,216,18,1*4D
$GAGSV,3,1,09,09,84,100,28,31,59,129,28,06,58,115,26,05,39,298,24,7*78
$GAGSV,3,2,09,04,32,116,22,24,24,187,20,34,13,286,15,15,09,335,16,7*76
$GAGSV,3,3,09,36,02,239,09,7*4C
$GBGSV,4,1,13,37,64,212,36,20,59,292,37,23,57,064,37,32,52,166,36,1*77
$GBGSV,4,2,13,19,14,316,27,38,12,333,28,46,11,227,,25,07,053,24,1*7A
$GBGSV,4,3,13,08,06,342,21,12,03,020,21,34,02,046,,41,02,146,16,1*7E
$GBGSV,4,4,13,04,01,262,,1*47
$GNRMC,191043.000,A,4910.426908,N,12304.400004,W,0.02,0.00,051224,,,D,V*18
$GNVTG,0.00,T,,M,0.02,N,0.03,K,D*27
$GNGGA,191044.000,4910.426848,N,12304.400004,W,2,30,0.50,16.164,M,-16.816,M,,*71
$GNGLL,4910.426848,N,12304.400004,W,191044.000,A,D*55
$GNGSA,A,3,09,07,04,16,20,30,27,26,11,08,03,,0.78,0.50,0.59,1*01
$GNGSA,A,3,69,68,79,67,,,,,,,,,0.78,0.50,0.59,2*0A
$GNGSA,A,3,09,31,06,05,04,24,34,15,,,,,0.78,0.50,0.59,3*0C
$GNGSA,A,3,37,20,23,32,19,38,25,,,,,,0.78,0.50,0.59,4*00
$GPGSV,4,1,13,09,87,147,36,07,58,258,32,04,56,117,31,16,40,060,30,1*62
$GPGSV,4,2,13,46,33,188,28,20,22,315,26,30,21,254,27,27,15,101,23,1*6E
$GPGSV,4,3,13,26,13,044,24,11,10,292,23,08,07,132,21,03,07,173,21,1*66
$GPGSV,4,4,13,06,03,257,,1*53
$GLGSV,2,1,06,78,67,047,14,69,63,321,26,68,61,139,31,79,54,212,28,1*7F
