$GNGGA,004407.000,4910.426878,N,12304.400628,W,2,30,0.51,0.669,M,-16.816,M,,*48
$GNGLL,4910.426878,N,12304.400628,W,004407.000,A,D*50
$GNGSA,A,3,06,12,19,24,11,17,03,32,,,,,0.85,0.51,0.68,1*09
$GNGSA,A,3,84,75,85,73,66,,,,,,,,0.85,0.51,0.68,2*02
$GNGSA,A,3,21,13,15,27,26,04,06,09,,,,,0.85,0.51,0.68,3*0B
$GNGSA,A,3,34,25,11,12,23,43,44,24,39,,,,0.85,0.51,0.68,4*0A
$GPGSV,3,1,10,06,60,109,36,12,57,298,35,19,51,062,34,24,45,225,34,1*64
$GPGSV,3,2,10,11,42,168,34,25,42,301,,46,33,188,31,17,22,064,24,1*6A
$GPGSV,3,3,10,03,10,032,27,32,09,318,28,1*6B
$GLGSV,2,1,07,84,75,060,21,74,61,136,,75,60,320,35,85,45,206,29,1*77
$GLGSV,2,2,07,73,16,138,26,83,11,034,,66,09,324,21,1*41
$GAGSV,3,1,09,21,86,056,32,13,57,131,31,15,36,051,29,27,32,111,28,7*77
$GAGSV,3,2,09,26,21,185,26,04,15,289,23,06,13,314,24,09,08,336,19,7*7D
$GAGSV,3,3,09,19,04,236,20,7*43
$GBGSV,3,1,12,34,80,119,33,25,69,189,33,11,64,203,30,12,55,060,29,1*77
$GBGSV,3,2,12,23,45,301,31,43,41,219,30,44,29,055,27,24,20,146,26,1*72
$GBGSV,3,3,12,39,10,330,19,19,02,018,17,48,01,354,,16,01,334,,1*7E
$GNRMC,004407.000,A,4910.426878,N,12304.400628,W,0.12,40.82,070125,,,D,V*21
$GNVTG,40.82,T,,M,0.12,N,0.22,K,D*1B
$PAIRLOG,Full*51
$GNGGA,004408.000,4910.426914,N,12304.400724,W,2,30,0.51,0.469,M,-16.817,M,,*42
$GNGLL,4910.426914,N,12304.400724,W,004408.000,A,D*59
$GNGSA,A,3,06,12,19,24,11,17,03,32,,,,,0.85,0.51,0.68,1*09
$GNGSA,A,3,84,75,85,73,66,,,,,,,,0.85,0.51,0.68,2*02
$GNGSA,A,3,21,13,15,27,26,04,06,09,,,,,0.85,0.51,0.68,3*0B
$GNGSA,A,3,34,25,11,12,23,43,44,24,39,,,,0.85,0.51,0.68,4*0A
$GPGSV,3,1,10,06,60,109,36,12,57,298,35,19,51,062,34,24,45,225,34,1*64
$GPGSV,3,2,10,11,42,168,34,25,42,301,,46,33,188,31,17,22,064,24,1*6A
$GPGSV,3,3,10,03,10,032,27,32,09,318,26,1*65
$GLGSV,2,1,07,84,75,060,21,74,61,136,,75,60,320,35,85,45,206,29,1*77
$GLGSV,2,2,07,73,16,138,26,83,11,034,,66,09,324,21,1*41
$GAGSV,3,1,09,21,86,056,32,13,57,131,30,15,36,051,29,27,32,111,27,7*79
$GAGSV,3,2,09,26,21,185,26,04,15,289,22,06,13,314,24,09,08,336,19,7*7C
$GAGSV,3,3,09,19,04,236,20,7*43
$GBGSV,3,1,12,34,80,119,33,25,69,189,33,11,64,203,30,12,55,060,29,1*77
$GBGSV,3,2,12,23,45,301,31,43,41,219,30,44,29,055,27,24,20,146,26,1*72
$GBGSV,3,3,12,39,10,330,19,19,02,018,17,48,01,354,,16,01,334,,1*7E
$GNRMC,004408.000,A,4910.426914,N,12304.400724,W,0.12,40.82,070125,,,D,V*28
$GNVTG,40.82,T,,M,0.12,N,0.23,K,D*1A
$PAIRLOG,Full*51
$GNGGA,004409.000,4910.426980,N,12304.400814,W,2,30,0.51,0.244,M,-16.817,M,,*4B
$GNGLL,4910.426980,N,12304.400814,W,004409.000,A,D*59
$GNGSA,A,3,06,12,19,24,11,17,03,32,,,,,0.85,0.51,0.68,1*09
$GNGSA,A,3,84,75,85,73,66,,,,,,,,0.85,0.51,0.68,2*02
$GNGSA,A,3,21,13,15,27,26,04,06,09,,,,,0.85,0.51,0.68,3*0B
$GNGSA,A,3,34,25,11,12,23,43,44,24,39,,,,0.85,0.51,0.68,4*0A
$GPGSV,3,1,10,06,60,109,36,12,57,298,35,19,51,062,34,24,45,225,33,1*63
$GPGSV,3,2,10,11,42,168,34,25,42,301,,46,33,188,31,17,22,064,24,1*6A
$GPGSV,3,3,10,03,10,032,27,32,09,318,26,1*65
$GLGSV,2,1,07,84,75,060,21,74,61,136,,75,60,320,35,85,45,206,29,1*77
$GLGSV,2,2,07,73,16,138,26,83,10,034,,66,09,324,21,1*40
$GAGSV,3,1,09,21,86,056,32,13,57,131,30,15,36,051,29,27,32,111,27,7*79
$GAGSV,3,2,09,26,21,185,26,04,15,289,22,06,13,314,24,09,08,336,19,7*7C
$GAGSV,3,3,09,19,04,236,20,7*43
$GBGSV,3,1,12,34,80,119,33,25,69,189,33,11,64,203,30,12,55,060,29,1*77
$GBGSV,3,2,12,23,45,301,31,43,41,219,30,44,29,055,27,24,20,146,26,1*72
$GBGSV,3,3,12,39,10,330,20,19,02,018,17,48,01,354,,16,01,334,,1*74
$GNRMC,004409.000,A,4910.426980,N,12304.400814,W,0.13,40.82,070125,,,D,V*29
$GNVTG,40.82,T,,M,0.13,N,0.24,K,D*1C
$PAIRLOG,Full*51
$GNGGA,004410.000,4910.426992,N,12304.400922,W,2,30,0.51,0.008,M,-16.816,M,,*4F
$GNGLL,4910.426992,N,12304.400922,W,004410.000,A,D*56
$GNGSA,A,3,06,12,19,24,11,17,03,32,,,,,0.85,0.51,0.68,1*09
$GNGSA,A,3,84,75,85,73,66,,,,,,,,0.85,0.51,0.68,2*02
$GNGSA,A,3,21,13,15,27,26,04,06,09,,,,,0.85,0.51,0.68,3*0B
$GNGSA,A,3,34,25,11,12,23,43,44,24,39,,,,0.85,0.51,0.68,4*0A
$GPGSV,3,1,10,06,60,109,36,12,57,298,35,19,51,062,34,24,45,225,33,1*63
$GPGSV,3,2,10,11,42,168,34,25,42,301,,46,33,188,31,17,22,064,24,1*6A
$GPGSV,3,3,10,03,10,032,27,32,09,318,28,1*6B
$GLGSV,2,1,07,84,73,056,21,74,61,136,,75,60,320,35,85,45,206,29,1*74
$GLGSV,2,2,07,73,16,138,26,83,10,034,,66,09,324,22,1*43
$GAGSV,3,1,09,21,86,056,32,13,57,131,30,15,36,051,29,27,32,111,27,7*79
$GAGSV,3,2,09,26,21,185,26,04,15,289,22,06,13,314,24,09,08,336,18,7*7D
$GAGSV,3,3,09,19,04,236,20,7*43
$GBGSV,3,1,12,34,80,119,33,25,69,189,33,11,64,203,30,12,55,060,29,1*77
$GBGSV,3,2,12,23,45,301,31,43,41,219,30,44,29,055,27,24,20,146,26,1*72
$GBGSV,3,3,12,39,10,330,20,19,02,018,17,48,01,354,,16,01,334,,1*74
$GNRMC,004410.000,A,4910.426992,N,12304.400922,W,0.14,40.82,070125,,,D,V*21
$GNVTG,40.82,T,,M,0.14,N,0.25,K,D*1A
$PAIRLOG,Full*51
$GNGGA,004411.000,4910.427004,N,12304.400988,W,2,30,0.51,-0.190,M,-16.817,M,,*65
$GNGLL,4910.427004,N,12304.400988,W,004411.000,A,D*50
$GNGSA,A,3,06,12,19,24,11,17,03,32,,,,,0.85,0.51,0.68,1*09
$GNGSA,A,3,84,75,85,73,66,,,,,,,,0.85,0.51,0.68,2*02
$GNGSA,A,3,21,13,15,27,26,04,06,09,,,,,0.85,0.51,0.68,3*0B
$GNGSA,A,3,34,25,11,12,23,43,44,24,39,,,,0.85,0.51,0.68,4*0A
$GPGSV,3,1,10,06,60,109,36,12,57,298,35,19,51,062,34,24,45,225,33,1*63
$GPGSV,3,2,10,11,42,168,34,25,42,301,,46,33,188,31,17,22,064,24,1*6A
$GPGSV,3,3,10,03,10,032,27,32,09,318,27,1*64
$GLGSV,2,1,07,84,73,056,22,74,61,136,,75,60,320,35,85,46,206,29,1*74
$GLGSV,2,2,07,73,16,138,26,83,10,034,,66,09,324,22,1*43
$GAGSV,3,1,09,21,86,056,32,13,57,131,30,15,36,051,29,27,32,111,27,7*79
$GAGSV,3,2,09,26,21,185,26,04,15,289,22,06,13,314,24,09,08,336,18,7*7D
$GAGSV,3,3,09,19,04,236,20,7*43
$GBGSV,3,1,12,34,80,119,33,25,69,189,33,11,64,203,29,12,55,060,29,1*7F
$GBGSV,3,2,12,23,45,301,31,43,41,219,30,44,29,055,26,24,20,146,24,1*71
$GBGSV,3,3,12,39,10,330,20,19,02,018,17,48,01,354,,16,01,334,,1*74
$GNRMC,004411.000,A,4910.427004,N,12304.400988,W,0.14,40.82,070125,,,D,V*27
$GNVTG,40.82,T,,M,0.14,N,0.26,K,D*19
$PAIRLOG,Full*51
$GNGGA,004412.000,4910.426980,N,12304.401102,W,2,30,0.51,-0.429,M,-16.816,M,,*6F
$GNGLL,4910.426980,N,12304.401102,W,004412.000,A,D*5C
$GNGSA,A,3,06,12,19,24,11,17,03,32,,,,,0.85,0.51,0.68,1*09
$GNGSA,A,3,84,75,85,73,66,,,,,,,,0.85,0.51,0.68,2*02
$GNGSA,A,3,21,13,15,27,26,04,06,09,,,,,0.85,0.51,0.68,3*0B
$GNGSA,A,3,34,25,11,12,23,43,44,24,39,,,,0.85,0.51,0.68,4*0A
$GPGSV,3,1,10,06,60,109,36,12,57,298,35,19,51,062,34,24,45,225,33,1*63
$GPGSV,3,2,10,11,42,168,34,25,42,301,,46,33,188,31,17,22,064,24,1*6A
$GPGSV,3,3,10,03,10,032,26,32,09,318,27,1*65
$GLGSV,2,1,07,84,73,056,22,74,61,136,,75,60,320,35,85,46,206,29,1*74
$GLGSV,2,2,07,73,16,138,26,83,10,034,,66,09,324,22,1*43
$GAGSV,3,1,09,21,86,056,32,13,57,131,30,15,36,051,29,27,32,111,27,7*79
$GAGSV,3,2,09,26,21,185,26,04,15,289,22,06,13,314,24,09,08,336,18,7*7D
$GAGSV,3,3,09,19,04,236,20,7*43
$GBGSV,3,1,12,34,80,119,33,25,69,189,33,11,64,203,29,12,55,060,29,1*7F
$GBGSV,3,2,12,23,45,301,31,43,41,219,30,44,29,055,26,24,20,146,25,1*70
$GBGSV,3,3,12,39,10,330,19,19,02,018,17,48,01,354,,16,01,334,,1*7E
$GNRMC,004412.000,A,4910.426980,N,12304.401102,W,0.14,40.82,070125,,,D,V*2B
$GNVTG,40.82,T,,M,0.14,N,0.25,K,D*1A
$PAIRLOG,Full*51
$GNGGA,004413.000,4910.427004,N,12304.401222,W,2,30,0.51,-0.653,M,-16.816,M,,*64
$GNGLL,4910.427004,N,12304.401222,W,004413.000,A,D*58
$GNGSA,A,3,06,12,19,24,11,17,03,32,,,,,0.85,0.51,0.68,1*09
$GNGSA,A,3,84,75,85,73,66,,,,,,,,0.85,0.51,0.68,2*02
$GNGSA,A,3,21,13,15,27,26,04,06,09,,,,,0.85,0.51,0.68,3*0B
$GNGSA,A,3,34,25,11,12,23,43,44,24,39,,,,0.85,0.51,0.68,4*0A
$GPGSV,3,1,10,06,60,109,36,12,57,298,35,19,51,062,34,24,45,225,33,1*63
$GPGSV,3,2,10,11,42,168,34,25,42,301,,46,33,188,31,17,22,064,24,1*6A
$GPGSV,3,3,10,03,10,032,26,32,09,318,28,1*6A
$GLGSV,2,1,07,84,73,056,22,74,61,136,,75,60,320,35,85,46,206,29,1*74
$GLGSV,2,2,07,73,16,138,26,83,10,034,,66,09,324,22,1*43
$GAGSV,3,1,09,21,86,056,32,13,57,131,30,15,36,051,29,27,32,111,27,7*79
$GAGSV,3,2,09,26,21,185,26,04,15,289,22,06,13,314,24,09,08,336,18,7*7D
$GAGSV,3,3,09,19,04,236,20,7*43
$GBGSV,3,1,12,34,80,119,33,25,69,189,33,11,64,203,29,12,55,060,29,1*7F
$GBGSV,3,2,12,23,45,301,31,43,41,219,30,44,29,055,26,24,20,146,26,1*73
$GBGSV,3,3,12,39,10,330,19,19,02,018,16,48,01,354,,16,01,334,,1*7F
$GNRMC,004413.000,A,4910.427004,N,12304.401222,W,0.13,40.82,070125,,,D,V*28
$GNVTG,40.82,T,,M,0.13,N,0.25,K,D*1D
$PAIRLOG,Full*51
$GNGGA,004414.000,4910.427028,N,12304.401414,W,2,30,0.51,-0.797,M,-16.817,M,,*66
$GNGLL,4910.427028,N,12304.401414,W,004414.000,A,D*52
$GNGSA,A,3,06,12,19,24,11,17,03,32,,,,,0.85,0.51,0.68,1*09
$GNGSA,A,3,84,75,85,73,66,,,,,,,,0.85,0.51,0.68,2*02
$GNGSA,A,3,21,13,15,27,26,04,06,09,,,,,0.85,0.51,0.68,3*0B
$GNGSA,A,3,34,25,11,12,23,43,44,24,39,,,,0.85,0.51,0.68,4*0A
$GPGSV,3,1,10,06,60,109,36,12,57,298,35,19,51,062,34,24,45,225,33,1*63
$GPGSV,3,2,10,11,42,168,34,25,42,301,,46,33,188,31,17,22,064,24,1*6A
$GPGSV,3,3,10,03,10,032,26,32,09,318,27,1*65
$GLGSV,2,1,07,84,73,056,22,74,61,136,,75,60,320,35,85,46,206,30,1*7C
$GLGSV,2,2,07,73,16,138,26,83,10,034,,66,09,324,21,1*40
$GAGSV,3,1,09,21,86,056,32,13,57,131,29,15,36,051,28,27,32,111,27,7*70
$GAGSV,3,2,09,26,21,185,26,04,15,289,21,06,13,314,24,09,08,336,18,7*7E
$GAGSV,3,3,09,19,04,236,20,7*43
$GBGSV,3,1,12,34,80,119,33,25,69,189,33,11,64,203,29,12,55,060,29,1*7F
$GBGSV,3,2,12,23,45,301,31,43,41,219,30,44,29,055,26,24,20,146,25,1*70
$GBGSV,3,3,12,39,10,330,19,19,02,018,16,48,01,354,,16,01,334,,1*7F
$GNRMC,004414.000,A,4910.427028,N,12304.401414,W,0.13,40.82,070125,,,D,V*22
$GNVTG,40.82,T,,M,0.13,N,0.25,K,D*1D
$PAIRLOG,Full*51
$GNGGA,004415.000,4910.427058,N,12304.401504,W,2,30,0.51,-1.067,M,-16.816,M,,*68
$GNGLL,4910.427058,N,12304.401504,W,004415.000,A,D*54
$GNGSA,A,3,06,12,19,24,11,17,03,32,,,,,0.85,0.51,0.68,1*09
$GNGSA,A,3,84,75,85,73,66,,,,,,,,0.85,0.51,0.68,2*02
$GNGSA,A,3,21,13,15,27,26,04,06,09,,,,,0.85,0.51,0.68,3*0B
$GNGSA,A,3,34,25,11,12,23,43,44,24,39,,,,0.85,0.51,0.68,4*0A
$GPGSV,3,1,10,06,60,109,36,12,57,298,35,19,51,062,34,24,45,225,33,1*63
$GPGSV,3,2,10,11,42,168,34,25,42,301,,46,33,188,31,17,22,064,24,1*6A
$GPGSV,3,3,10,03,10,032,26,32,09,318,27,1*65
$GLGSV,2,1,07,84,73,056,22,74,61,136,,75,60,320,35,85,46,206,30,1*7C
$GLGSV,2,2,07,73,16,138,26,83,10,034,,66,09,324,21,1*40
$GAGSV,3,1,09,21,86,056,32,13,57,131,29,15,36,051,28,27,32,111,27,7*70
$GAGSV,3,2,09,26,21,185,26,04,15,289,22,06,13,314,24,09,08,336,18,7*7D
$GAGSV,3,3,09,19,04,236,20,7*43
$GBGSV,3,1,12,34,80,119,33,25,69,189,33,11,64,203,29,12,55,060,29,1*7F
$GBGSV,3,2,12,23,45,301,31,43,41,219,30,44,29,055,26,24,20,146,25,1*70
$GBGSV,3,3,12,39,10,330,19,19,02,018,16,48,01,354,,16,01,334,,1*7F
$GNRMC,004415.000,A,4910.427058,N,12304.401504,W,0.13,40.82,070125,,,D,V*24
$GNVTG,40.82,T,,M,0.13,N,0.25,K,D*1D
$PAIRLOG,Full*51
$GNGGA,004416.000,4910.427094,N,12304.401582,W,2,30,0.51,-1.268,M,-16.817,M,,*69
$GNGLL,4910.427094,N,12304.401582,W,004416.000,A,D*59
$GNGSA,A,3,06,12,19,24,11,17,03,32,,,,,0.85,0.51,0.68,1*09
$GNGSA,A,3,84,75,85,73,66,,,,,,,,0.85,0.51,0.68,2*02
$GNGSA,A,3,21,13,15,27,26,04,06,09,,,,,0.85,0.51,0.68,3*0B
$GNGSA,A,3,34,25,11,12,23,43,44,24,39,,,,0.85,0.51,0.68,4*0A
$GPGSV,3,1,10,06,60,109,36,12,57,298,35,19,51,062,34,24,45,225,33,1*63
$GPGSV,3,2,10,11,42,168,33,25,42,301,,46,33,188,31,17,22,064,24,1*6D
$GPGSV,3,3,10,03,10,032,26,32,09,318,27,1*65
$GLGSV,2,1,07,84,73,056,21,74,61,136,,75,60,320,35,85,46,206,30,1*7F
$GLGSV,2,2,07,73,16,138,27,83,10,034,,66,09,324,20,1*40
$GAGSV,3,1,09,21,86,056,32,13,57,131,29,15,36,051,28,27,32,111,28,7*7F
$GAGSV,3,2,09,26,21,185,26,04,15,289,22,06,13,314,24,09,08,336,18,7*7D
$GAGSV,3,3,09,19,04,236,20,7*43
$GBGSV,3,1,12,34,80,119,33,25,69,189,33,11,64,203,29,12,55,060,29,1*7F
$GBGSV,3,2,12,23,45,301,31,43,41,219,30,44,29,055,26,24,20,146,25,1*70
$GBGSV,3,3,12,39,10,330,19,19,02,018,16,48,01,354,,16,01,334,,1*7F
$GNRMC,004416.000,A,4910.427094,N,12304.401582,W,0.13,40.82,070125,,,D,V*29
$GNVTG,40.82,T,,M,0.13,N,0.24,K,D*1C
$PAIRLOG,Full*51
$GNGGA,004417.000,4910.427118,N,12304.401738,W,2,30,0.51,-1.477,M,-16.816,M,,*67
$GNGLL,4910.427118,N,12304.401738,W,004417.000,A,D*5E
$GNGSA,A,3,06,12,19,24,11,17,03,32,,,,,0.85,0.51,0.68,1*09
$GNGSA,A,3,84,75,85,73,66,,,,,,,,0.85,0.51,0.68,2*02
$GNGSA,A,3,21,13,15,27,26,04,06,09,,,,,0.85,0.51,0.68,3*0B
$GNGSA,A,3,34,25,11,12,23,43,44,24,39,,,,0.85,0.51,0.68,4*0A
$GPGSV,3,1,10,06,60,109,36,12,57,298,35,19,51,062,33,24,45,225,33,1*64
$GPGSV,3,2,10,11,42,168,33,25,42,301,,46,33,188,31,17,22,064,25,1*6C
$GPGSV,3,3,10,03,10,032,26,32,09,318,27,1*65
$GLGSV,2,1,07,84,73,056,21,74,61,136,,75,60,320,35,85,46,206,30,1*7F
$GLGSV,2,2,07,73,16,138,27,83,10,034,,66,09,324,20,1*40
$GAGSV,3,1,09,21,86,056,32,13,57,131,29,15,36,051,28,27,32,111,28,7*7F
$GAGSV,3,2,09,26,21,185,25,04,15,289,22,06,13,314,24,09,08,336,18,7*7E
$GAGSV,3,3,09,19,04,236,20,7*43
$GBGSV,3,1,12,34,80,119,33,25,69,189,33,11,64,203,29,12,55,060,29,1*7F
$GBGSV,3,2,12,23,45,301,31,43,41,219,30,44,29,055,26,24,20,146,25,1*70
$GBGSV,3,3,12,39,10,330,19,19,02,018,16,48,01,354,,16,01,334,,1*7F
$GNRMC,004417.000,A,4910.427118,N,12304.401738,W,0.13,40.82,070125,,,D,V*2E
$GNVTG,40.82,T,,M,0.13,N,0.25,K,D*1D
$PAIRLOG,Full*51
$GNGGA,004418.000,4910.427112,N,12304.401828,W,2,30,0.51,-1.742,M,-16.816,M,,*69
$GNGLL,4910.427112,N,12304.401828,W,004418.000,A,D*55
$GNGSA,A,3,06,12,19,24,11,17,03,32,,,,,0.85,0.51,0.68,1*09
$GNGSA,A,3,84,75,85,73,66,,,,,,,,0.85,0.51,0.68,2*02
$GNGSA,A,3,21,13,15,27,26,04,06,09,,,,,0.85,0.51,0.68,3*0B
$GNGSA,A,3,34,25,11,12,23,43,44,24,39,,,,0.85,0.51,0.68,4*0A
$GPGSV,3,1,10,06,60,109,36,12,57,298,35,19,51,062,33,24,45,225,33,1*64
$GPGSV,3,2,10,11,42,168,33,25,42,301,,46,33,188,31,17,22,064,24,1*6D
$GPGSV,3,3,10,03,10,032,25,32,09,318,26,1*67
$GLGSV,2,1,07,84,73,056,21,74,61,136,,75,60,320,35,85,46,206,30,1*7F
$GLGSV,2,2,07,73,16,138,27,83,10,034,,66,09,324,19,1*4A
$GAGSV,3,1,09,21,86,056,31,13,57,131,29,15,36,051,28,27,32,111,28,7*7C
$GAGSV,3,2,09,26,21,185,25,04,15,289,22,06,13,314,24,09,08,336,18,7*7E
$GAGSV,3,3,09,19,04,236,20,7*43
$GBGSV,3,1,12,34,80,119,33,25,69,189,33,11,64,203,29,12,55,060,29,1*7F
$GBGSV,3,2,12,23,45,301,31,43,41,219,29,44,29,055,26,24,20,146,24,1*79
$GBGSV,3,3,12,39,10,330,19,19,02,018,16,48,01,354,,16,01,334,,1*7F
$GNRMC,004418.000,A,4910.427112,N,12304.401828,W,0.13,40.82,070125,,,D,V*25
$GNVTG,40.82,T,,M,0.13,N,0.25,K,D*1D
$PAIRLOG,Full*51
$GNGGA,004419.000,4910.427112,N,12304.401906,W,2,30,0.51,-2.116,M,-16.816,M,,*61
$GNGLL,4910.427112,N,12304.401906,W,004419.000,A,D*59
$GNGSA,A,3,06,12,19,24,11,17,03,32,,,,,0.85,0.51,0.68,1*09
$GNGSA,A,3,84,75,85,73,66,,,,,,,,0.85,0.51,0.68,2*02
$GNGSA,A,3,21,13,15,27,26,04,06,09,,,,,0.85,0.51,0.68,3*0B
$GNGSA,A,3,34,25,11,12,23,43,44,24,39,,,,0.85,0.51,0.68,4*0A
$GPGSV,3,1,10,06,60,109,36,12,57,298,35,19,51,062,33,24,45,225,33,1*64
$GPGSV,3,2,10,11,42,168,32,25,42,301,,46,33,188,30,17,22,064,24,1*6D
$GPGSV,3,3,10,03,10,032,25,32,09,318,25,1*64
$GLGSV,2,1,07,84,73,056,21,74,61,136,,75,60,320,35,85,46,206,30,1*7F
$GLGSV,2,2,07,73,16,138,27,83,10,034,,66,09,324,19,1*4A
$GAGSV,3,1,09,21,86,056,31,13,57,131,29,15,36,051,27,27,32,111,28,7*73
$GAGSV,3,2,09,26,21,185,25,04,15,289,21,06,13,314,24,09,08,336,18,7*7D
$GAGSV,3,3,09,19,04,236,19,7*49
$GBGSV,3,1,12,34,80,119,33,25,69,189,33,11,64,203,29,12,55,060,29,1*7F
$GBGSV,3,2,12,23,45,301,31,43,41,219,29,44,29,055,26,24,20,146,25,1*78
$GBGSV,3,3,12,39,10,330,19,19,02,018,16,48,01,354,,16,01,334,,1*7F
$GNRMC,004419.000,A,4910.427112,N,12304.401906,W,0.13,40.82,070125,,,D,V*29
$GNVTG,40.82,T,,M,0.13,N,0.25,K,D*1D
$PAIRLOG,Full*51
$GNGGA,004420.000,4910.427106,N,12304.402044,W,2,30,0.51,-2.470,M,-16.816,M,,*67
$GNGLL,4910.427106,N,12304.402044,W,004420.000,A,D*5A
$GNGSA,A,3,06,12,19,24,11,17,03,32,,,,,0.85,0.51,0.68,1*09
$GNGSA,A,3,84,75,85,73,66,,,,,,,,0.85,0.51,0.68,2*02
$GNGSA,A,3,21,13,15,27,26,04,06,09,,,,,0.85,0.51,0.68,3*0B
$GNGSA,A,3,34,25,11,12,23,43,44,24,39,,,,0.85,0.51,0.68,4*0A
$GPGSV,3,1,10,06,60,109,36,12,57,298,35,19,51,062,33,24,45,225,33,1*64
$GPGSV,3,2,10,11,42,168,32,25,42,301,,46,33,188,30,17,22,064,25,1*6C
$GPGSV,3,3,10,03,10,032,25,32,09,318,25,1*64
$GLGSV,2,1,07,84,73,056,21,74,61,136,,75,60,320,35,85,46,206,30,1*7F
$GLGSV,2,2,07,73,16,138,26,83,10,034,,66,09,324,18,1*4A
$GAGSV,3,1,09,21,86,056,31,13,57,131,29,15,36,051,27,27,32,111,28,7*73
$GAGSV,3,2,09,26,21,185,25,04,15,289,21,06,13,314,24,09,08,336,18,7*7D
$GAGSV,3,3,09,19,04,236,19,7*49
$GBGSV,3,1,12,34,80,119,33,25,69,189,33,11,64,203,29,12,55,060,29,1*7F
$GBGSV,3,2,12,23,45,301,31,43,41,219,29,44,29,055,26,24,20,146,25,1*78
$GBGSV,3,3,12,39,10,330,19,19,02,018,16,48,01,354,,16,01,334,,1*7F
$GNRMC,004420.000,A,4910.427106,N,12304.402044,W,0.14,40.82,070125,,,D,V*2D
$GNVTG,40.82,T,,M,0.14,N,0.25,K,D*1A
$PAIRLOG,Full*51
$GNGGA,004421.000,4910.427118,N,12304.402140,W,2,31,0.51,-2.799,M,-16.816,M,,*69
$GNGLL,4910.427118,N,12304.402140,W,004421.000,A,D*51
$GNGSA,A,3,06,12,19,24,11,17,03,32,,,,,0.84,0.51,0.67,1*07
$GNGSA,A,3,84,74,75,85,73,66,,,,,,,0.84,0.51,0.67,2*0F
$GNGSA,A,3,21,13,15,27,26,04,06,09,,,,,0.84,0.51,0.67,3*05
$GNGSA,A,3,34,25,11,12,23,43,44,24,39,,,,0.84,0.51,0.67,4*04
$GPGSV,3,1,10,06,60,109,36,12,57,298,35,19,51,062,33,24,45,225,33,1*64
$GPGSV,3,2,10,11,42,168,32,25,42,301,,46,33,188,30,17,22,064,25,1*6C
$GPGSV,3,3,10,03,10,032,24,32,09,318,26,1*66
$GLGSV,2,1,07,84,73,056,21,74,61,136,20,75,60,320,35,85,46,206,30,1*7D
$GLGSV,2,2,07,73,16,138,26,83,10,034,,66,09,324,18,1*4A
$GAGSV,3,1,09,21,86,056,31,13,57,131,29,15,36,051,27,27,32,111,28,7*73
$GAGSV,3,2,09,26,21,185,25,04,15,289,21,06,13,314,23,09,08,336,18,7*7A
$GAGSV,3,3,09,19,04,236,19,7*49
$GBGSV,3,1,12,34,80,119,33,25,69,189,33,11,64,203,29,12,55,060,29,1*7F
$GBGSV,3,2,12,23,45,301,31,43,41,219,29,44,29,055,26,24,20,146,25,1*78
$GBGSV,3,3,12,39,10,330,19,19,02,018,16,48,01,354,,16,01,334,,1*7F
$GNRMC,004421.000,A,4910.427118,N,12304.402140,W,0.14,40.82,070125,,,D,V*26
$GNVTG,40.82,T,,M,0.14,N,0.26,K,D*19
$PAIRLOG,Full*51
$GNGGA,004422.000,4910.427238,N,12304.402272,W,2,31,0.51,-3.302,M,-16.817,M,,*6F
$GNGLL,4910.427238,N,12304.402272,W,004422.000,A,D*51
$GNGSA,A,3,06,12,19,24,11,17,03,32,,,,,0.84,0.51,0.67,1*07
$GNGSA,A,3,84,74,75,85,73,66,,,,,,,0.84,0.51,0.67,2*0F
$GNGSA,A,3,21,13,15,27,26,04,06,09,,,,,0.84,0.51,0.67,3*05
$GNGSA,A,3,34,25,11,12,23,43,44,24,39,,,,0.84,0.51,0.67,4*04
$GPGSV,3,1,10,06,60,109,36,12,57,298,35,19,51,062,33,24,45,225,33,1*64
$GPGSV,3,2,10,11,42,168,32,25,42,301,,46,33,188,30,17,22,064,26,1*6F
$GPGSV,3,3,10,03,10,032,25,32,09,318,26,1*67
$GLGSV,2,1,07,84,73,056,21,74,61,136,20,75,60,320,35,85,46,206,30,1*7D
$GLGSV,2,2,07,73,16,138,26,83,10,034,,66,09,324,18,1*4A
$GAGSV,3,1,09,21,86,056,31,13,57,131,29,15,36,051,27,27,32,111,28,7*73
$GAGSV,3,2,09,26,21,185,25,04,15,289,21,06,13,314,23,09,08,336,18,7*7A
$GAGSV,3,3,09,19,04,236,19,7*49
$GBGSV,3,1,12,34,80,119,33,25,69,189,33,11,64,203,29,12,55,060,29,1*7F
$GBGSV,3,2,12,23,45,301,31,43,41,219,29,44,29,055,26,24,20,146,25,1*78
$GBGSV,3,3,12,39,10,330,19,19,02,018,16,48,01,354,,16,01,334,,1*7F
$GNRMC,004422.000,A,4910.427238,N,12304.402272,W,0.14,40.82,070125,,,D,V*26
$GNVTG,40.82,T,,M,0.14,N,0.25,K,D*1A
$PAIRLOG,Full*51
$GNGGA,004423.000,4910.427268,N,12304.402386,W,2,31,0.51,-3.936,M,-16.817,M,,*6C
