GSV,3,2,10,11,33,180,24,33,24,041,27,31,19,115,25,03,12,274,,7*73
$GAGSV,3,3,10,08,11,323,23,02,02,296,19,7*7C
$GAGSV,2,1,06,24,71,110,27,12,60,105,23,10,54,152,27,25,52,298,26,1*71
$GAGSV,2,2,06,33,24,041,18,08,11,323,16,1*74
$GBGSV,3,1,09,35,75,199,29,26,71,221,28,29,39,057,26,24,37,305,24,1*7F
$GBGSV,3,2,09,45,28,152,18,44,28,226,20,39,12,330,14,12,06,226,14,1*7E
$GBGSV,3,3,09,32,03,028,16,1*40
$GBGSV,2,1,07,35,75,199,26,26,71,221,25,29,39,057,20,24,37,305,25,5*71
$GBGSV,2,2,07,44,28,226,21,45,28,152,19,39,12,330,17,5*40
$GNGLL,4910.418952,N,12304.402650,W,004827.000,A,D*57
$GNRMC,004828.000,A,4910.418886,N,12304.402644,W,0.01,237.02,090125,,,D,V*12
$GNGGA,004828.000,4910.418886,N,12304.402644,W,2,45,0.54,12.655,M,-16.816,M,,*76
$GNVTG,237.02,T,,M,0.01,N,0.02,K,D*21
$GNGSA,A,3,12,06,11,19,24,25,17,03,32,,,,0.93,0.54,0.76,1*03
$GNGSA,A,3,86,77,76,87,85,,,,,,,,0.93,0.54,0.76,2*05
$GNGSA,A,3,24,12,10,25,11,33,31,08,,,,,0.93,0.54,0.76,3*00
$GNGSA,A,3,35,26,29,24,45,44,39,,,,,,0.93,0.54,0.76,4*0A
$GPGSV,3,1,11,12,62,299,38,06,61,097,36,11,48,166,34,19,46,063,36,1*62
$GPGSV,3,2,11,24,41,220,34,46,33,188,32,25,22,299,31,17,17,066,20,1*66
$GPGSV,3,3,11,03,09,028,24,32,08,313,29,20,03,152,18,1*5F
$GPGSV,1,1,04,06,61,097,30,11,48,166,27,24,41,220,27,25,22,299,24,8*68
$GLGSV,2,1,08,86,70,051,25,77,66,317,21,76,61,141,26,87,56,208,24,1*79
$GLGSV,2,2,08,85,14,037,16,69,10,002,21,68,06,316,16,75,04,140,16,1*7B
$GAGSV,3,1,10,24,71,110,34,12,60,105,29,10,54,152,32,25,52,298,31,7*7B
$GAGSV,3,2,10,11,33,180,24,33,24,041,27,31,19,115,25,03,12,274,,7*73
$GAGSV,3,3,10,08,11,323,23,02,02,296,19,7*7C
$GAGSV,2,1,06,24,71,110,27,12,60,105,23,10,54,152,27,25,52,298,26,1*71
$GAGSV,2,2,06,33,24,041,18,08,11,323,16,1*74
$GBGSV,3,1,09,35,75,199,29,26,71,221,28,29,38,057,26,24,37,305,24,1*7E
$GBGSV,3,2,09,45,28,152,18,44,28,226,20,39,12,330,15,12,06,226,13,1*78
$GBGSV,3,3,09,32,03,028,16,1*40
$GBGSV,2,1,07,35,75,199,26,26,71,221,25,29,38,057,20,24,37,305,25,5*70
$GBGSV,2,2,07,44,28,226,21,45,28,152,19,39,12,330,17,5*40
$GNGLL,4910.418886,N,12304.402644,W,004828.000,A,D*55
$GNRMC,004829.000,A,4910.418868,N,12304.402710,W,0.01,237.02,090125,,,D,V*13
$GNGGA,004829.000,4910.418868,N,12304.402710,W,2,45,0.54,12.562,M,-16.816,M,,*70
$GNVTG,237.02,T,,M,0.01,N,0.02,K,D*21
$GNGSA,A,3,12,06,11,19,24,25,17,03,32,,,,0.93,0.54,0.76,1*03
$GNGSA,A,3,86,77,76,87,85,,,,,,,,0.93,0.54,0.76,2*05
$GNGSA,A,3,24,12,10,25,11,33,31,08,,,,,0.93,0.54,0.76,3*00
$GNGSA,A,3,35,26,29,24,45,44,39,,,,,,0.93,0.54,0.76,4*0A
$GPGSV,3,1,11,12,62,299,38,06,61,097,36,11,48,166,34,19,46,063,35,1*61
$GPGSV,3,2,11,24,41,220,34,46,33,188,32,25,22,299,31,17,17,066,20,1*66
$GPGSV,3,3,11,03,09,028,24,32,08,313,29,20,03,152,18,1*5F
$GPGSV,1,1,04,06,61,097,30,11,48,166,27,24,41,220,27,25,22,299,24,8*68
$GLGSV,2,1,08,86,70,051,25,77,66,317,22,76,61,141,26,87,56,208,24,1*7A
$GLGSV,2,2,08,85,14,037,16,69,10,002,21,68,06,316,16,75,04,140,16,1*7B
$GAGSV,3,1,10,24,71,110,34,12,60,105,29,10,54,152,32,25,52,298,31,7*7B
$GAGSV,3,2,10,11,33,180,24,33,24,041,27,31,19,115,25,03,12,274,,7*73
$GAGSV,3,3,10,08,11,323,23,02,02,296,19,7*7C
$GAGSV,2,1,06,24,71,110,26,12,60,105,23,10,54,152,27,25,52,298,26,1*70
$GAGSV,2,2,06,33,24,041,18,08,11,323,16,1*74
$GBGSV,3,1,09,35,75,199,29,26,71,221,28,29,38,057,26,24,37,305,24,1*7E
$GBGSV,3,2,09,45,28,152,18,44,28,226,20,39,12,330,15,12,06,226,13,1*78
$GBGSV,3,3,09,32,03,028,16,1*40
$GBGSV,2,1,07,35,75,199,26,26,71,221,25,29,38,057,20,24,37,305,25,5*70
$GBGSV,2,2,07,44,28,226,21,45,28,152,19,39,12,330,17,5*40
$GNGLL,4910.418868,N,12304.402710,W,004829.000,A,D*54
$GNRMC,004830.000,A,4910.418952,N,12304.402752,W,0.01,237.02,090125,,,D,V*15
$GNGGA,004830.000,4910.418952,N,12304.402752,W,2,45,0.54,12.335,M,-16.816,M,,*72
$GNVTG,237.02,T,,M,0.01,N,0.03,K,D*20
$GNGSA,A,3,12,06,11,19,24,25,17,03,32,,,,0.93,0.54,0.76,1*03
$GNGSA,A,3,86,77,76,87,85,,,,,,,,0.93,0.54,0.76,2*05
$GNGSA,A,3,24,12,10,25,11,33,31,08,,,,,0.93,0.54,0.76,3*00
$GNGSA,A,3,35,26,29,24,45,44,39,,,,,,0.93,0.54,0.76,4*0A
$GPGSV,3,1,11,12,62,299,38,06,61,097,36,11,48,166,34,19,46,063,35,1*61
$GPGSV,3,2,11,24,41,220,34,46,33,188,32,25,22,299,31,17,17,066,20,1*66
$GPGSV,3,3,11,03,09,028,24,32,08,313,29,20,03,152,18,1*5F
$GPGSV,1,1,04,06,61,097,30,11,48,166,27,24,41,220,27,25,22,299,24,8*68
$GLGSV,2,1,08,86,70,051,25,77,66,317,21,76,61,141,26,87,56,208,24,1*79
$GLGSV,2,2,08,85,14,037,16,69,10,002,21,68,06,316,16,75,04,140,16,1*7B
$GAGSV,3,1,10,24,71,110,34,12,60,105,29,10,54,152,32,25,52,298,31,7*7B
$GAGSV,3,2,10,11,33,180,24,33,24,041,27,31,19,115,25,03,12,274,,7*73
$GAGSV,3,3,10,08,11,323,23,02,02,296,19,7*7C
$GAGSV,2,1,06,24,71,110,26,12,60,105,24,10,54,152,27,25,52,298,26,1*77
$GAGSV,2,2,06,33,24,041,18,08,11,323,16,1*74
$GBGSV,3,1,09,35,75,199,29,26,71,221,29,29,38,057,26,24,37,305,24,1*7F
$GBGSV,3,2,09,45,28,152,19,44,28,226,20,39,12,330,15,12,06,226,13,1*79
$GBGSV,3,3,09,32,03,028,16,1*40
$GBGSV,2,1,07,35,75,199,26,26,71,221,25,29,38,057,20,24,37,305,25,5*70
$GBGSV,2,2,07,44,28,226,21,45,28,152,19,39,12,330,17,5*40
$GNGLL,4910.418952,N,12304.402752,W,004830.000,A,D*52
$GNRMC,004831.000,A,4910.419006,N,12304.402758,W,0.01,237.02,090125,,,D,V*17
$GNGGA,004831.000,4910.419006,N,12304.402758,W,2,45,0.54,12.168,M,-16.816,M,,*7A
$GNVTG,237.02,T,,M,0.01,N,0.02,K,D*21
$GNGSA,A,3,12,06,11,19,24,25,17,03,32,,,,0.93,0.54,0.76,1*03
$GNGSA,A,3,86,77,76,87,85,,,,,,,,0.93,0.54,0.76,2*05
$GNGSA,A,3,24,12,10,25,11,33,31,08,,,,,0.93,0.54,0.76,3*00
$GNGSA,A,3,35,26,29,24,45,44,39,,,,,,0.93,0.54,0.76,4*0A
$GPGSV,3,1,11,12,62,299,37,06,61,097,36,11,48,166,34,19,46,063,35,1*6E
$GPGSV,3,2,11,24,41,220,34,46,33,188,32,25,22,299,31,17,17,066,20,1*66
$GPGSV,3,3,11,03,09,028,23,32,08,313,29,20,03,152,18,1*58
$GPGSV,1,1,04,06,61,097,30,11,48,166,27,24,41,220,27,25,22,299,24,8*68
$GLGSV,2,1,08,86,70,051,26,77,66,317,22,76,61,141,27,87,56,208,24,1*78
$GLGSV,2,2,08,85,14,037,16,69,10,002,21,68,06,316,16,75,04,140,16,1*7B
$GAGSV,3,1,10,24,71,110,34,12,60,105,29,10,54,152,32,25,52,298,31,7*7B
$GAGSV,3,2,10,11,33,180,24,33,24,041,27,31,19,115,26,03,12,274,,7*70
$GAGSV,3,3,10,08,11,323,23,02,02,296,19,7*7C
$GAGSV,2,1,06,24,71,110,26,12,60,105,24,10,54,152,27,25,52,298,26,1*77
$GAGSV,2,2,06,33,24,041,18,08,11,323,16,1*74
$GBGSV,3,1,09,35,75,199,29,26,71,221,29,29,38,057,26,24,37,305,25,1*7E
$GBGSV,3,2,09,45,28,152,19,44,28,226,20,39,12,330,15,12,06,226,13,1*79
$GBGSV,3,3,09,32,03,027,16,1*4F
$GBGSV,2,1,07,35,75,199,26,26,71,221,25,29,38,057,20,24,37,305,25,5*70
$GBGSV,2,2,07,44,28,226,21,45,28,152,19,39,12,330,17,5*40
$GNGLL,4910.419006,N,12304.402758,W,004831.000,A,D*50
$PAIR010,0,1,2348,348529*36
$GNRMC,004832.000,A,4910.418958,N,12304.402752,W,0.08,237.02,090125,,,D,V*14
$GNGGA,004832.000,4910.418958,N,12304.402752,W,2,45,0.54,12.318,M,-16.817,M,,*74
$GNVTG,237.02,T,,M,0.08,N,0.15,K,D*2E
$GNGSA,A,3,12,06,11,19,24,25,17,03,32,,,,0.93,0.54,0.76,1*03
$GNGSA,A,3,86,77,76,87,85,,,,,,,,0.93,0.54,0.76,2*05
$GNGSA,A,3,24,12,10,25,11,33,31,08,,,,,0.93,0.54,0.76,3*00
$GNGSA,A,3,35,26,29,24,44,45,39,,,,,,0.93,0.54,0.76,4*0A
$GPGSV,3,1,11,12,62,299,37,06,61,097,36,11,48,166,34,19,46,063,35,1*6E
$GPGSV,3,2,11,24,41,220,34,46,33,188,32,25,22,299,31,17,17,066,20,1*66
$GPGSV,3,3,11,03,09,028,23,32,08,313,29,20,03,152,18,1*58
$GPGSV,1,1,04,06,61,097,30,11,48,166,27,24,41,220,27,25,22,299,24,8*68
$GLGSV,2,1,08,86,70,051,26,77,66,317,22,76,61,141,27,87,56,208,24,1*78
$GLGSV,2,2,08,85,14,037,16,69,10,002,21,68,06,316,16,75,04,140,16,1*7B
$GAGSV,3,1,10,24,71,110,34,12,60,105,29,10,54,152,32,25,52,298,31,7*7B
$GAGSV,3,2,10,11,33,180,24,33,24,041,27,31,19,115,26,03,12,274,,7*70
$GAGSV,3,3,10,08,11,323,23,02,02,296,19,7*7C
$GAGSV,2,1,06,24,71,110,26,12,60,105,24,10,54,152,27,25,52,298,26,1*77
$GAGSV,2,2,06,33,24,041,18,08,11,323,16,1*74
$GBGSV,3,1,10,35,75,199,29,26,71,221,29,29,38,057,26,24,37,305,25,1*76
$GBGSV,3,2,10,44,28,226,20,45,28,152,19,39,12,330,16,12,06,226,13,1*72
$GBGSV,3,3,10,32,03,027,16,16,03,335,,1*76
$GBGSV,2,1,07,35,75,199,26,26,71,221,25,29,38,057,20,24,37,305,25,5*70
$GBGSV,2,2,07,44,28,226,21,45,28,152,20,39,12,330,17,5*4A
$GNGLL,4910.418958,N,12304.402752,W,004832.000,A,D*5A
$GNRMC,004833.000,A,4910.419000,N,12304.402758,W,0.07,237.02,090125,,,D,V*15
$GNGGA,004833.000,4910.419000,N,12304.402758,W,2,46,0.54,12.186,M,-16.816,M,,*7D
$GNVTG,237.02,T,,M,0.07,N,0.13,K,D*27
$GNGSA,A,3,12,06,11,19,24,25,17,03,32,,,,0.93,0.54,0.76,1*03
$GNGSA,A,3,86,77,76,87,85,,,,,,,,0.93,0.54,0.76,2*05
$GNGSA,A,3,24,12,10,25,11,33,31,08,,,,,0.93,0.54,0.76,3*00
$GNGSA,A,3,35,26,29,24,44,45,39,,,,,,0.93,0.54,0.76,4*0A
$GPGSV,3,1,11,12,62,299,37,06,61,097,36,11,48,166,35,19,46,063,35,1*6F
$GPGSV,3,2,11,24,41,220,34,46,33,188,32,25,22,299,31,17,17,066,20,1*66
$GPGSV,3,3,11,03,09,028,23,32,08,313,29,20,03,152,18,1*58
$GPGSV,1,1,04,06,61,097,30,11,48,166,27,24,41,220,27,25,22,299,24,8*68
$GLGSV,2,1,08,86,70,051,26,77,66,317,22,76,61,141,27,87,56,208,24,1*78
$GLGSV,2,2,08,85,14,037,16,69,10,002,21,68,06,316,16,75,04,140,16,1*7B
$GAGSV,3,1,10,24,71,110,34,12,60,105,29,10,54,152,32,25,52,298,32,7*78
$GAGSV,3,2,10,11,33,180,24,33,24,041,27,31,19,115,26,03,12,274,,7*70
$GAGSV,3,3,10,08,11,323,23,02,02,296,19,7*7C
$GAGSV,2,1,06,24,71,110,26,12,60,105,24,10,54,152,27,25,52,298,26,1*77
$GAGSV,2,2,06,33,24,041,18,08,11,323,16,1*74
$GBGSV,3,1,10,35,75,199,29,26,71,221,29,29,38,057,26,24,37,305,25,1*76
$GBGSV,3,2,10,44,28,226,20,45,28,152,19,39,12,330,16,12,06,226,14,1*75
$GBGSV,3,3,10,32,03,027,16,16,03,335,,1*76
$GBGSV,2,1,07,35,75,199,26,26,71,221,25,29,38,057,20,24,37,305,25,5*70
$GBGSV,2,2,07,44,28,226,21,45,28,152,20,39,12,330,17,5*4A
$GNGLL,4910.419000,N,12304.402758,W,004833.000,A,D*54
$GNRMC,004834.000,A,4910.418976,N,12304.402728,W,0.09,237.02,090125,,,D,V*12
