$GNGGA,004207.000,4910.428120,N,12304.401516,W,2,34,0.43,7.094,M,-16.816,M,,*4F
$GNGLL,4910.428120,N,12304.401516,W,004207.000,A,D*53
$GNGSA,A,3,17,22,19,14,24,13,15,02,30,21,06,12,0.75,0.43,0.61,1*0F
$GNGSA,A,3,80,82,71,79,,,,,,,,,0.75,0.43,0.61,2*0A
$GNGSA,A,3,30,27,29,34,07,36,15,02,,,,,0.75,0.43,0.61,3*0F
$GNGSA,A,3,45,29,30,36,26,42,35,14,21,33,,,0.75,0.43,0.61,4*08
$GPGSV,4,1,14,17,74,103,37,22,72,061,35,19,58,191,35,14,50,080,35,1*67
$GPGSV,4,2,14,24,34,305,32,46,33,187,33,13,30,215,34,15,26,255,32,1*6E
$GPGSV,4,3,14,02,21,045,32,30,18,141,30,21,09,030,24,06,08,159,26,1*62
$GPGSV,4,4,14,12,05,268,20,10,01,339,,1*60
$GLGSV,2,1,07,80,69,050,26,82,56,116,22,83,27,163,,71,26,286,21,1*72
$GLGSV,2,2,07,79,22,099,23,72,17,337,,65,15,339,,1*4A
$GAGSV,3,1,10,30,64,070,31,27,58,279,31,29,38,270,30,34,33,098,27,7*77
$GAGSV,3,2,10,07,23,209,27,36,21,041,23,19,20,319,20,15,13,149,23,7*71
$GAGSV,3,3,10,02,12,083,25,21,07,268,17,7*71
$GBGSV,3,1,11,45,88,048,38,29,56,143,37,30,37,056,33,36,36,113,33,1*7F
$GBGSV,3,2,11,26,32,296,34,42,14,294,28,35,12,194,28,14,11,319,27,1*76
$GBGSV,3,3,11,21,06,247,26,33,05,343,26,57,01,013,,1*42
$GNRMC,004207.000,A,4910.428120,N,12304.401516,W,0.01,29.77,051224,,,D,V*24
$GNVTG,29.77,T,,M,0.01,N,0.02,K,D*1E
$GNGGA,004208.000,4910.428066,N,12304.401552,W,2,34,0.43,6.963,M,-16.817,M,,*42
$GNGLL,4910.428066,N,12304.401552,W,004208.000,A,D*5F
$GNGSA,A,3,17,22,19,14,24,13,15,02,30,21,06,12,0.75,0.43,0.61,1*0F
$GNGSA,A,3,80,82,71,79,,,,,,,,,0.75,0.43,0.61,2*0A
$GNGSA,A,3,30,27,29,34,07,36,15,02,,,,,0.75,0.43,0.61,3*0F
$GNGSA,A,3,45,29,30,36,26,42,35,14,21,33,,,0.75,0.43,0.61,4*08
$GPGSV,4,1,14,17,74,103,37,22,72,061,35,19,58,191,35,14,50,080,35,1*67
$GPGSV,4,2,14,24,34,305,32,46,33,187,33,13,30,215,34,15,26,255,32,1*6E
$GPGSV,4,3,14,02,21,045,32,30,18,141,30,21,09,030,25,06,08,159,26,1*63
$GPGSV,4,4,14,12,05,268,20,10,01,339,,1*60
$GLGSV,2,1,07,80,69,050,27,82,56,116,22,83,27,163,,71,26,286,21,1*73
$GLGSV,2,2,07,79,22,099,24,72,17,337,,65,15,339,,1*4D
$GAGSV,3,1,10,30,64,070,31,27,58,279,31,29,38,270,30,34,33,098,27,7*77
$GAGSV,3,2,10,07,23,209,27,36,21,041,23,19,20,319,20,15,13,149,23,7*71
$GAGSV,3,3,10,02,12,083,25,21,07,268,17,7*71
$GBGSV,3,1,11,45,88,048,38,29,56,143,37,30,37,056,33,36,36,113,33,1*7F
$GBGSV,3,2,11,26,32,296,34,42,14,294,28,35,12,194,28,14,11,319,27,1*76
$GBGSV,3,3,11,21,06,247,26,33,05,343,26,57,01,013,,1*42
$GNRMC,004208.000,A,4910.428066,N,12304.401552,W,0.01,29.77,051224,,,D,V*28
$GNVTG,29.77,T,,M,0.01,N,0.03,K,D*1F
$GNGGA,004209.000,4910.427988,N,12304.401534,W,2,34,0.43,6.866,M,-16.816,M,,*40
$GNGLL,4910.427988,N,12304.401534,W,004209.000,A,D*58
$GNGSA,A,3,17,22,19,14,24,13,15,02,30,21,06,12,0.75,0.43,0.61,1*0F
$GNGSA,A,3,80,82,71,79,,,,,,,,,0.75,0.43,0.61,2*0A
$GNGSA,A,3,30,27,29,34,07,36,15,02,,,,,0.75,0.43,0.61,3*0F
$GNGSA,A,3,45,29,30,36,26,42,35,14,21,33,,,0.75,0.43,0.61,4*08
$GPGSV,4,1,14,17,74,103,37,22,72,061,35,19,58,191,35,14,50,080,35,1*67
$GPGSV,4,2,14,24,34,305,32,46,33,187,33,13,30,215,34,15,26,255,32,1*6E
$GPGSV,4,3,14,02,21,045,32,30,18,141,30,21,09,030,26,06,08,159,25,1*63
$GPGSV,4,4,14,12,05,268,19,10,01,339,,1*6A
$GLGSV,2,1,07,80,69,050,27,82,56,116,22,83,27,163,,71,26,286,22,1*70
$GLGSV,2,2,07,79,22,099,24,72,17,337,,65,15,339,,1*4D
$GAGSV,3,1,10,30,64,070,31,27,58,279,31,29,38,270,30,34,33,098,27,7*77
$GAGSV,3,2,10,07,23,209,27,36,21,041,23,19,20,319,20,15,13,149,23,7*71
$GAGSV,3,3,10,02,12,083,25,21,07,268,17,7*71
$GBGSV,3,1,11,45,88,048,38,29,56,143,37,30,37,056,33,36,36,113,33,1*7F
$GBGSV,3,2,11,26,32,296,34,42,14,294,28,35,12,194,28,14,11,319,27,1*76
$GBGSV,3,3,11,21,06,247,26,33,05,343,25,57,01,013,,1*41
$GNRMC,004209.000,A,4910.427988,N,12304.401534,W,0.02,29.77,051224,,,D,V*2C
$GNVTG,29.77,T,,M,0.02,N,0.03,K,D*1C
$GNGGA,004210.000,4910.427892,N,12304.401528,W,2,34,0.43,6.675,M,-16.816,M,,*43
$GNGLL,4910.427892,N,12304.401528,W,004210.000,A,D*57
$GNGSA,A,3,17,22,19,14,24,13,15,02,30,21,06,12,0.75,0.43,0.61,1*0F
$GNGSA,A,3,80,82,71,79,,,,,,,,,0.75,0.43,0.61,2*0A
$GNGSA,A,3,30,27,29,34,07,36,15,02,,,,,0.75,0.43,0.61,3*0F
$GNGSA,A,3,45,29,30,36,26,42,35,14,21,33,,,0.75,0.43,0.61,4*08
$GPGSV,4,1,14,17,74,103,37,22,72,061,35,19,58,191,35,14,50,080,35,1*67
$GPGSV,4,2,14,24,34,305,32,46,33,187,33,13,30,215,34,15,26,255,32,1*6E
$GPGSV,4,3,14,02,21,045,32,30,18,141,30,21,09,030,27,06,08,159,26,1*61
$GPGSV,4,4,14,12,05,268,18,10,01,339,,1*6B
$GLGSV,2,1,07,80,69,050,28,82,56,116,21,83,27,163,,71,26,286,22,1*7C
$GLGSV,2,2,07,79,22,099,24,72,17,337,,65,15,339,,1*4D
$GAGSV,3,1,10,30,64,070,31,27,58,279,31,29,38,270,30,34,33,098,27,7*77
$GAGSV,3,2,10,07,23,209,27,36,21,041,23,19,20,319,20,15,13,149,23,7*71
$GAGSV,3,3,10,02,12,083,25,21,07,268,17,7*71
$GBGSV,3,1,11,45,88,048,38,29,56,143,37,30,37,056,33,36,36,113,33,1*7F
$GBGSV,3,2,11,26,32,296,34,42,14,294,28,35,12,194,28,14,11,319,27,1*76
$GBGSV,3,3,11,21,06,247,26,33,05,343,26,57,01,013,,1*42
$GNRMC,004210.000,A,4910.427892,N,12304.401528,W,0.02,29.77,051224,,,D,V*23
$GNVTG,29.77,T,,M,0.02,N,0.03,K,D*1C
$GNGGA,004211.000,4910.427844,N,12304.401546,W,2,34,0.43,6.471,M,-16.816,M,,*47
$GNGLL,4910.427844,N,12304.401546,W,004211.000,A,D*55
$GNGSA,A,3,17,22,19,14,24,13,15,02,30,21,06,12,0.75,0.43,0.61,1*0F
$GNGSA,A,3,80,82,71,79,,,,,,,,,0.75,0.43,0.61,2*0A
$GNGSA,A,3,30,27,29,34,07,36,15,02,,,,,0.75,0.43,0.61,3*0F
$GNGSA,A,3,45,29,30,36,26,42,35,14,21,33,,,0.75,0.43,0.61,4*08
$GPGSV,4,1,14,17,74,103,37,22,72,061,35,19,58,191,35,14,50,080,35,1*67
$GPGSV,4,2,14,24,34,305,32,46,33,187,33,13,30,215,34,15,26,255,32,1*6E
$GPGSV,4,3,14,02,21,045,32,30,18,141,30,21,09,030,27,06,08,159,26,1*61
$GPGSV,4,4,14,12,05,268,19,10,01,339,,1*6A
$GLGSV,2,1,07,80,69,050,28,82,56,116,21,83,27,163,,71,26,286,22,1*7C
$GLGSV,2,2,07,79,22,099,24,72,17,337,,65,15,339,,1*4D
$GAGSV,3,1,10,30,64,070,31,27,58,279,31,29,38,270,30,34,33,098,27,7*77
$GAGSV,3,2,10,07,23,209,27,36,21,041,23,19,20,319,20,15,13,149,23,7*71
$GAGSV,3,3,10,02,12,083,25,21,07,268,17,7*71
$GBGSV,3,1,11,45,88,048,38,29,56,143,37,30,37,056,33,36,36,113,33,1*7F
$GBGSV,3,2,11,26,32,296,34,42,14,294,28,35,12,194,28,14,11,319,27,1*76
$GBGSV,3,3,11,21,06,247,26,33,05,343,26,57,01,013,,1*42
$GNRMC,004211.000,A,4910.427844,N,12304.401546,W,0.02,29.77,051224,,,D,V*21
$GNVTG,29.77,T,,M,0.02,N,0.03,K,D*1C
$GNGGA,004212.000,4910.427850,N,12304.401516,W,2,34,0.43,6.309,M,-16.816,M,,*4C
$GNGLL,4910.427850,N,12304.401516,W,004212.000,A,D*56
$GNGSA,A,3,17,22,19,14,24,13,15,02,30,21,06,12,0.75,0.43,0.61,1*0F
$GNGSA,A,3,80,82,71,79,,,,,,,,,0.75,0.43,0.61,2*0A
$GNGSA,A,3,30,27,29,34,07,36,15,02,,,,,0.75,0.43,0.61,3*0F
$GNGSA,A,3,45,29,30,36,26,42,35,14,21,33,,,0.75,0.43,0.61,4*08
$GPGSV,4,1,14,17,74,103,37,22,72,061,35,19,58,191,35,14,50,080,35,1*67
$GPGSV,4,2,14,24,34,305,32,46,33,187,33,13,30,215,34,15,26,255,32,1*6E
$GPGSV,4,3,14,02,21,045,32,30,18,141,30,21,09,030,27,06,08,159,25,1*62
$GPGSV,4,4,14,12,05,268,19,10,01,339,,1*6A
$GLGSV,2,1,06,80,69,050,28,82,56,116,21,83,27,163,,71,26,286,22,1*7D
$GLGSV,2,2,06,79,22,099,24,72,17,337,,1*72
$GAGSV,3,1,10,30,64,070,31,27,58,279,31,29,38,270,30,34,33,098,28,7*78
$GAGSV,3,2,10,07,23,209,27,36,21,041,24,19,20,319,20,15,13,149,23,7*76
$GAGSV,3,3,10,02,12,083,25,21,07,268,17,7*71
$GBGSV,3,1,11,45,88,048,38,29,56,143,37,30,37,056,33,36,36,113,33,1*7F
$GBGSV,3,2,11,26,32,296,34,42,14,294,28,35,12,194,28,14,11,319,27,1*76
$GBGSV,3,3,11,21,06,247,26,33,05,343,26,57,01,013,,1*42
$GNRMC,004212.000,A,4910.427850,N,12304.401516,W,0.01,29.77,051224,,,D,V*21
$GNVTG,29.77,T,,M,0.01,N,0.02,K,D*1E
$GNGGA,004213.000,4910.427886,N,12304.401492,W,2,34,0.43,6.167,M,-16.816,M,,*41
$GNGLL,4910.427886,N,12304.401492,W,004213.000,A,D*51
$GNGSA,A,3,17,22,19,14,24,13,15,02,30,21,06,12,0.75,0.43,0.61,1*0F
$GNGSA,A,3,80,82,71,79,,,,,,,,,0.75,0.43,0.61,2*0A
$GNGSA,A,3,30,27,29,34,07,36,15,02,,,,,0.75,0.43,0.61,3*0F
$GNGSA,A,3,45,29,30,36,26,42,35,14,21,33,,,0.75,0.43,0.61,4*08
$GPGSV,4,1,14,17,74,103,37,22,72,061,35,19,58,191,35,14,50,080,35,1*67
$GPGSV,4,2,14,24,34,305,32,46,33,187,33,13,30,215,34,15,26,255,32,1*6E
$GPGSV,4,3,14,02,21,045,32,30,18,141,30,21,09,030,27,06,08,159,25,1*62
$GPGSV,4,4,14,12,05,268,19,10,01,339,,1*6A
$GLGSV,2,1,07,80,69,050,28,82,56,116,22,83,27,163,,71,26,286,22,1*7F
$GLGSV,2,2,07,79,22,099,24,72,17,337,,65,15,339,,1*4D
$GAGSV,3,1,10,30,64,070,32,27,58,279,31,29,38,270,30,34,33,098,28,7*7B
$GAGSV,3,2,10,07,23,209,27,36,21,041,24,19,20,319,20,15,13,149,23,7*76
$GAGSV,3,3,10,02,12,083,25,21,07,268,17,7*71
$GBGSV,3,1,11,45,88,048,38,29,56,143,37,30,37,056,33,36,36,113,33,1*7F
$GBGSV,3,2,11,26,32,296,34,42,14,294,28,35,12,194,28,14,11,319,27,1*76
$GBGSV,3,3,11,21,06,247,26,33,05,343,25,57,01,013,,1*41
$GNRMC,004213.000,A,4910.427886,N,12304.401492,W,0.01,29.77,051224,,,D,V*26
$GNVTG,29.77,T,,M,0.01,N,0.02,K,D*1E
$GNGGA,004214.000,4910.427898,N,12304.401450,W,2,34,0.43,6.073,M,-16.816,M,,*43
$GNGLL,4910.427898,N,12304.401450,W,004214.000,A,D*57
$GNGSA,A,3,17,22,19,14,24,13,15,02,30,21,06,12,0.75,0.43,0.61,1*0F
$GNGSA,A,3,80,82,71,79,,,,,,,,,0.75,0.43,0.61,2*0A
$GNGSA,A,3,30,27,29,34,07,36,15,02,,,,,0.75,0.43,0.61,3*0F
$GNGSA,A,3,45,29,30,36,26,42,35,14,21,33,,,0.75,0.43,0.61,4*08
$GPGSV,4,1,14,17,74,103,37,22,72,061,35,19,58,191,35,14,50,080,35,1*67
$GPGSV,4,2,14,24,34,305,32,46,33,187,33,13,30,215,34,15,26,255,32,1*6E
$GPGSV,4,3,14,02,21,045,31,30,18,141,30,21,09,030,27,06,08,159,26,1*62
$GPGSV,4,4,14,12,05,268,19,10,01,339,,1*6A
$GLGSV,2,1,07,80,69,050,28,82,56,116,22,83,27,163,,71,26,286,22,1*7F
$GLGSV,2,2,07,79,22,099,24,72,17,337,,65,15,339,,1*4D
$GAGSV,3,1,10,30,64,070,32,27,58,279,31,29,38,270,30,34,33,098,28,7*7B
$GAGSV,3,2,10,07,23,209,27,36,21,041,24,19,20,319,19,15,13,149,23,7*7C
$GAGSV,3,3,10,02,12,083,25,21,07,268,17,7*71
$GBGSV,3,1,11,45,88,048,38,29,56,143,37,30,37,056,33,36,36,113,33,1*7F
$GBGSV,3,2,11,26,32,296,34,42,14,294,28,35,12,194,28,14,11,319,27,1*76
$GBGSV,3,3,11,21,06,247,26,33,05,343,26,57,01,013,,1*42
$GNRMC,004214.000,A,4910.427898,N,12304.401450,W,0.01,29.77,051224,,,D,V*20
$GNVTG,29.77,T,,M,0.01,N,0.02,K,D*1E
$GNGGA,004215.000,4910.427946,N,12304.401444,W,2,34,0.43,6.045,M,-16.816,M,,*40
$GNGLL,4910.427946,N,12304.401444,W,004215.000,A,D*51
$GNGSA,A,3,17,22,19,14,24,13,15,02,30,21,06,12,0.75,0.43,0.61,1*0F
$GNGSA,A,3,80,82,71,79,,,,,,,,,0.75,0.43,0.61,2*0A
$GNGSA,A,3,30,27,29,34,07,36,15,02,,,,,0.75,0.43,0.61,3*0F
$GNGSA,A,3,45,29,30,36,26,42,35,14,21,33,,,0.75,0.43,0.61,4*08
$GPGSV,4,1,14,17,74,103,37,22,72,061,35,19,58,191,35,14,50,080,35,1*67
$GPGSV,4,2,14,24,34,305,31,46,33,187,33,13,30,215,34,15,26,255,32,1*6D
$GPGSV,4,3,14,02,21,045,31,30,18,141,30,21,09,030,26,06,08,159,25,1*60
$GPGSV,4,4,14,12,05,268,18,10,01,339,,1*6B
$GLGSV,2,1,07,80,69,050,28,82,56,116,22,83,27,163,,71,26,286,22,1*7F
$GLGSV,2,2,07,79,22,099,24,72,17,337,,65,15,339,,1*4D
$GAGSV,3,1,10,30,64,070,31,27,58,279,31,29,38,270,30,34,33,098,28,7*78
$GAGSV,3,2,10,07,23,209,26,36,21,041,24,19,20,319,19,15,13,149,23,7*7D
$GAGSV,3,3,10,02,12,083,25,21,07,268,17,7*71
$GBGSV,3,1,11,45,88,048,38,29,56,143,37,30,37,056,33,36,36,113,33,1*7F
$GBGSV,3,2,11,26,32,296,34,42,14,294,29,35,12,194,28,14,11,319,27,1*77
$GBGSV,3,3,11,21,06,247,26,33,05,343,26,57,01,013,,1*42
$GNRMC,004215.000,A,4910.427946,N,12304.401444,W,0.01,29.77,051224,,,D,V*26
$GNVTG,29.77,T,,M,0.01,N,0.02,K,D*1E
$GNGGA,004216.000,4910.427982,N,12304.401420,W,2,34,0.43,5.991,M,-16.816,M,,*4A
$GNGLL,4910.427982,N,12304.401420,W,004216.000,A,D*58
$GNGSA,A,3,17,22,19,14,24,13,15,02,30,21,06,12,0.75,0.43,0.61,1*0F
$GNGSA,A,3,80,82,71,79,,,,,,,,,0.75,0.43,0.61,2*0A
$GNGSA,A,3,30,27,29,34,07,36,15,02,,,,,0.75,0.43,0.61,3*0F
$GNGSA,A,3,45,29,30,36,26,42,35,14,21,33,,,0.75,0.43,0.61,4*08
$GPGSV,4,1,14,17,74,103,37,22,72,061,35,19,58,191,35,14,50,080,35,1*67
$GPGSV,4,2,14,24,34,305,31,46,33,187,33,13,30,215,34,15,26,255,32,1*6D
$GPGSV,4,3,14,02,21,045,31,30,18,141,30,21,09,030,26,06,08,159,25,1*60
$GPGSV,4,4,14,12,05,268,18,10,01,339,,1*6B
$GLGSV,2,1,07,80,69,050,28,82,56,116,21,83,27,163,,71,26,286,22,1*7C
$GLGSV,2,2,07,79,22,099,24,72,17,337,,65,15,339,,1*4D
$GAGSV,3,1,10,30,64,070,32,27,58,279,31,29,38,270,30,34,33,098,28,7*7B
$GAGSV,3,2,10,07,23,209,26,36,21,041,24,19,20,319,19,15,13,149,23,7*7D
$GAGSV,3,3,10,02,12,083,25,21,07,268,16,7*70
$GBGSV,3,1,11,45,88,048,38,29,56,143,37,30,37,056,33,36,36,113,33,1*7F
$GBGSV,3,2,11,26,32,296,34,42,14,294,29,35,12,194,28,14,11,319,27,1*77
$GBGSV,3,3,11,21,06,247,26,33,05,343,26,57,01,013,,1*42
$GNRMC,004216.000,A,4910.427982,N,12304.401420,W,0.01,29.77,051224,,,D,V*2F
$GNVTG,29.77,T,,M,0.01,N,0.02,K,D*1E
$GNGGA,004217.000,4910.428006,N,12304.401414,W,2,34,0.43,5.952,M,-16.816,M,,*49
$GNGLL,4910.428006,N,12304.401414,W,004217.000,A,D*54
$GNGSA,A,3,17,22,19,14,24,13,15,02,30,21,06,12,0.75,0.43,0.61,1*0F
$GNGSA,A,3,80,82,71,79,,,,,,,,,0.75,0.43,0.61,2*0A
$GNGSA,A,3,30,27,29,34,07,36,15,02,,,,,0.75,0.43,0.61,3*0F
$GNGSA,A,3,45,29,30,36,26,42,35,14,21,33,,,0.75,0.43,0.61,4*08
$GPGSV,4,1,14,17,74,103,37,22,72,061,35,19,58,191,35,14,50,080,35,1*67
$GPGSV,4,2,14,24,34,305,31,46,33,187,32,13,30,215,33,15,26,255,32,1*6B
$GPGSV,4,3,14,02,21,045,31,30,18,141,30,21,09,030,26,06,08,159,24,1*61
$GPGSV,4,4,14,12,05,268,18,10,01,339,,1*6B
$GLGSV,2,1,07,80,69,050,28,82,56,116,21,83,27,163,,71,26,286,22,1*7C
$GLGSV,2,2,07,79,22,099,24,72,17,337,,65,15,339,,1*4D
$GAGSV,3,1,10,30,64,070,32,27,58,279,31,29,38,270,30,34,33,098,28,7*7B
$GAGSV,3,2,10,07,23,209,26,36,21,041,24,19,20,319,19,15,13,149,23,7*7D
$GAGSV,3,3,10,02,12,083,25,21,07,268,16,7*70
$GBGSV,3,1,11,45,88,048,38,29,56,143,37,30,37,056,33,36,36,113,33,1*7F
$GBGSV,3,2,11,26,32,296,34,42,14,294,29,35,12,194,28,14,11,319,27,1*77
$GBGSV,3,3,11,21,06,247,26,33,05,343,26,57,01,013,,1*42
$GNRMC,004217.000,A,4910.428006,N,12304.401414,W,0.01,29.77,051224,,,D,V*23
$GNVTG,29.77,T,,M,0.01,N,0.02,K,D*1E
$GNGGA,004218.000,4910.427994,N,12304.401414,W,2,34,0.43,6.005,M,-16.816,M,,*43
$GNGLL,4910.427994,N,12304.401414,W,004218.000,A,D*56
$GNGSA,A,3,17,22,19,14,24,13,15,02,30,21,06,12,0.75,0.43,0.61,1*0F
$GNGSA,A,3,80,82,71,79,,,,,,,,,0.75,0.43,0.61,2*0A
$GNGSA,A,3,30,27,29,34,07,36,15,02,,,,,0.75,0.43,0.61,3*0F
$GNGSA,A,3,45,29,30,36,26,42,35,14,21,33,,,0.75,0.43,0.61,4*08
$GPGSV,4,1,14,17,74,103,36,22,72,061,34,19,58,191,34,14,50,080,35,1*66
$GPGSV,4,2,14,24,34,305,30,46,33,187,31,13,30,215,32,15,26,255,31,1*6B
$GPGSV,4,3,14,02,21,045,30,30,18,141,29,21,09,030,25,06,08,159,22,1*6D
$GPGSV,4,4,14,12,05,268,17,10,01,339,,1*64
$GLGSV,2,1,07,80,69,050,28,82,56,116,21,83,27,163,,71,26,286,22,1*7C
$GLGSV,2,2,07,79,22,099,24,72,17,337,,65,15,339,,1*4D
$GAGSV,3,1,10,30,64,070,31,27,58,279,30,29,38,270,30,34,33,098,28,7*79
$GAGSV,3,2,10,07,23,209,26,36,21,041,23,19,20,319,19,15,13,149,22,7*7B
$GAGSV,3,3,10,02,12,083,24,21,07,268,16,7*71
$GBGSV,3,1,11,45,88,048,38,29,56,143,37,30,37,056,32,36,36,113,33,1*7E
$GBGSV,3,2,11,26,32,296,34,42,14,294,29,35,12,194,28,14,11,319,27,1*77
$GBGSV,3,3,11,21,06,247,27,33,05,343,27,57,01,013,,1*42
$GNRMC,004218.000,A,4910.427994,N,12304.401414,W,0.01,29.77,051224,,,D,V*21
$GNVTG,29.77,T,,M,0.01,N,0.02,K,D*1E
$GNGGA,004219.000,4910.428000,N,12304.401372,W,2,34,0.43,6.026,M,-16.816,M,,*4F
$GNGLL,4910.428000,N,12304.401372,W,004219.000,A,D*5B
$GNGSA,A,3,17,22,19,14,24,13,15,02,30,21,06,12,0.75,0.43,0.61,1*0F
$GNGSA,A,3,80,82,71,79,,,,,,,,,0.75,0.43,0.61,2*0A
$GNGSA,A,3,30,27,29,34,07,36,15,02,,,,,0.75,0.43,0.61,3*0F
$GNGSA,A,3,45,29,30,36,26,42,35,14,21,33,,,0.75,0.43,0.61,4*08
$GPGSV,4,1,14,17,74,103,36,22,72,061,34,19,58,191,34,14,50,080,35,1*66
$GPGSV,4,2,14,24,34,305,30,46,33,187,31,13,30,215,32,15,25,254,31,1*69
$GPGSV,4,3,14,02,21,045,30,30,18,141,29,21,09,030,25,06,08,159,23,1*6C
$GPGSV,4,4,14,12,05,268,17,10,01,339,,1*64
$GLGSV,2,1,07,80,69,050,28,82,56,116,21,83,27,163,,71,26,286,22,1*7C
$GLGSV,2,2,07,79,22,099,24,72,17,337,,65,15,339,,1*4D
$GAGSV,3,1,10,30,64,070,31,27,58,279,30,29,38,270,30,34,33,098,28,7*79
$GAGSV,3,2,10,07,23,209,25,36,21,041,22,19,20,319,19,15,13,149,22,7*79
$GAGSV,3,3,10,02,12,083,23,21,07,268,16,7*76
$GBGSV,3,1,11,45,88,048,38,29,56,143,37,30,37,056,32,36,36,113,33,1*7E
$GBGSV,3,2,11,26,32,296,34,42,14,294,29,35,12,194,28,14,11,319,27,1*77
$GBGSV,3,3,11,21,06,247,27,33,05,343,27,57,01,013,,1*42
$GNRMC,004219.000,A,4910.428000,N,12304.401372,W,0.02,29.77,051224,,,D,V*2F
$GNVTG,29.77,T,,M,0.02,N,0.03,K,D*1C
$GNGGA,004220.000,4910.428018,N,12304.401288,W,2,34,0.43,6.040,M,-16.817,M,,*49
$GNGLL,4910.428018,N,12304.401288,W,004220.000,A,D*5C
$GNGSA,A,3,17,22,19,14,24,13,15,02,30,21,06,12,0.75,0.43,0.61,1*0F
$GNGSA,A,3,80,82,71,79,,,,,,,,,0.75,0.43,0.61,2*0A
$GNGSA,A,3,30,27,29,34,07,36,15,02,,,,,0.75,0.43,0.61,3*0F
$GNGSA,A,3,45,29,30,36,26,42,35,14,21,33,,,0.75,0.43,0.61,4*08
$GPGSV,4,1,14,17,74,103,36,22,72,061,34,19,58,191,34,14,50,080,35,1*66
$GPGSV,4,2,14,24,34,305,30,46,33,187,31,13,30,215,32,15,25,254,31,1*69
$GPGSV,4,3,14,02,21,045,30,30,18,141,29,21,09,030,25,06,08,159,23,1*6C
$GPGSV,4,4,14,12,05,268,17,10,01,339,,1*64
$GLGSV,2,1,07,80,69,050,28,82,56,116,21,83,27,163,,71,26,286,22,1*7C
$GLGSV,2,2,07,79,22,099,24,72,17,337,,65,15,339,,1*4D
$GAGSV,3,1,10,30,64,070,31,27,58,279,30,29,38,270,30,34,33,098,28,7*79
$GAGSV,3,2,10,07,23,209,25,36,21,041,22,19,20,319,19,15,13,149,21,7*7A
$GAGSV,3,3,10,02,12,083,23,21,07,268,16,7*76
$GBGSV,3,1,11,45,88,048,38,29,56,143,37,30,37,056,33,36,36,113,33,1*7F
$GBGSV,3,2,11,26,32,296,34,42,14,294,29,35,12,194,28,14,11,319,26,1*76
$GBGSV,3,3,11,21,06,247,27,33,05,343,27,57,01,013,,1*42
$GNRMC,004220.000,A,4910.428018,N,12304.401288,W,0.02,29.77,051224,,,D,V*28
$GNVTG,29.77,T,,M,0.02,N,0.03,K,D*1C
$GNGGA,004221.000,4910.427982,N,12304.401240,W,2,34,0.43,6.175,M,-16.816,M,,*4F
$GNGLL,4910.427982,N,12304.401240,W,004221.000,A,D*5C
$GNGSA,A,3,17,22,19,14,24,13,15,02,30,21,06,12,0.75,0.43,0.61,1*0F
$GNGSA,A,3,80,82,71,79,,,,,,,,,0.75,0.43,0.61,2*0A
$GNGSA,A,3,30,27,29,34,07,36,15,02,,,,,0.75,0.43,0.61,3*0F
$GNGSA,A,3,45,29,30,36,26,42,35,14,21,33,,,0.75,0.43,0.61,4*08
$GPGSV,4,1,14,17,74,102,36,22,72,061,34,19,58,191,34,14,50,080,35,1*67
$GPGSV,4,2,14,24,34,305,30,46,33,187,31,13,30,215,32,15,25,254,31,1*69
$GPGSV,4,3,14,02,21,045,30,30,18,141,29,21,09,030,25,06,08,159,23,1*6C
$GPGSV,4,4,14,12,05,268,17,10,01,339,,1*64
$GLGSV,2,1,07,80,69,050,28,82,56,116,21,83,27,163,,71,26,286,22,1*7C
$GLGSV,2,2,07,79,22,099,24,72,17,337,,65,15,339,,1*4D
$GAGSV,3,1,10,30,64,070,31,27,58,279,30,29,38,270,30,34,33,098,28,7*79
$GAGSV,3,2,10,07,23,209,25,36,21,041,22,19,20,319,19,15,13,149,21,7*7A
$GAGSV,3,3,10,02,12,083,23,21,07,268,16,7*76
$GBGSV,3,1,11,45,88,048,38,29,56,143,37,30,37,056,33,36,36,113,33,1*7F
$GBGSV,3,2,11,26,32,296,34,42,14,294,29,35,12,194,28,14,11,319,27,1*77
$GBGSV,3,3,11,21,06,247,27,33,05,343,27,57,01,013,,1*42
$GNRMC,004221.000,A,4910.427982,N,12304.401240,W,0.01,29.77,051224,,,D,V*2B
$GNVTG,29.77,T,,M,0.01,N,0.03,K,D*1F
$GNGGA,004222.000,4910.427904,N,12304.401192,W,2,34,0.43,6.284,M,-16.816,M,,*43
$GNGLL,4910.427904,N,12304.401192,W,004222.000,A,D*5D
$GNGSA,A,3,17,22,19,14,24,13,15,02,30,21,06,12,0.75,0.43,0.61,1*0F
$GNGSA,A,3,80,82,71,79,,,,,,,,,0.75,0.43,0.61,2*0A
$GNGSA,A,3,30,27,29,34,07,36,15,02,,,,,0.75,0.43,0.61,3*0F
$GNGSA,A,3,45,29,30,36,26,42,35,14,21,33,,,0.75,0.43,0.61,4*08
$GPGSV,4,1,14,17,74,102,35,22,72,061,34,19,58,191,34,14,50,080,35,1*64
$GPGSV,4,2,14,24,34,305,30,46,33,187,31,13,30,215,31,15,25,254,30,1*6B
$GPGSV,4,3,14,02,21,045,30,30,18,141,29,21,09,030,24,06,08,159,23,1*6D
$GPGSV,4,4,14,12,05,268,16,10,01,339,,1*65
$GLGSV,2,1,07,80,69,050,28,82,56,116,21,83,27,163,,71,26,286,21,1*7F
$GLGSV,2,2,07,79,22,099,23,72,17,337,,65,15,339,,1*4A
$GAGSV,3,1,10,30,64,070,31,27,58,279,30,29,38,270,29,34,33,098,28,7*71
$GAGSV,3,2,10,07,23,209,25,36,21,041,22,19,20,319,19,15,13,149,21,7*7A
$GAGSV,3,3,10,02,12,083,23,21,07,268,16,7*76
$GBGSV,3,1,11,45,88,048,38,29,56,143,37,30,37,056,33,36,36,113,33,1*7F
$GBGSV,3,2,11,26,32,296,34,42,14,294,29,35,12,194,28,14,11,319,26,1*76
$GBGSV,3,3,11,21,06,247,27,33,05,343,27,57,01,013,,1*42
$GNRMC,004222.000,A,4910.427904,N,12304.401192,W,0.01,29.77,051224,,,D,V*2A
$GNVTG,29.77,T,,M,0.01,N,0.03,K,D*1F
$GNGGA,004223.000,4910.427796,N,12304.401192,W,2,34,0.43,6.343,M,-16.817,M,,*4C
$GNGLL,4910.427796,N,12304.401192,W,004223.000,A,D*59
$GNGSA,A,3,17,22,19,14,24,13,15,02,30,21,06,12,0.75,0.43,0.61,1*0F
$GNGSA,A,3,80,82,71,79,,,,,,,,,0.75,0.43,0.61,2*0A
$GNGSA,A,3,30,27,29,34,07,36,15,02,,,,,0.75,0.43,0.61,3*0F
$GNGSA,A,3,45,29,30,36,26,42,35,14,21,33,,,0.75,0.43,0.61,4*08
$GPGSV,4,1,14,17,74,102,35,22,72,061,34,19,58,191,34,14,50,080,35,1*64
$GPGSV,4,2,14,24,34,305,30,46,33,187,31,13,30,215,31,15,25,254,30,1*6B
$GPGSV,4,3,14,02,21,045,30,30,18,141,29,21,09,030,26,06,08,159,23,1*6F
$GPGSV,4,4,14,12,05,268,16,10,01,339,,1*65
$GLGSV,2,1,07,80,69,050,29,82,56,116,21,83,27,163,,71,26,286,21,1*7E
$GLGSV,2,2,07,79,22,099,23,72,17,337,,65,15,339,,1*4A
$GAGSV,3,1,10,30,64,070,31,27,58,279,30,29,38,270,29,34,33,098,28,7*71
$GAGSV,3,2,10,07,23,209,25,36,21,041,22,19,20,319,19,15,13,149,21,7*7A
$GAGSV,3,3,10,02,12,083,23,21,07,268,17,7*77
$GBGSV,3,1,11,45,88,048,38,29,56,143,37,30,37,056,33,36,36,113,33,1*7F
$GBGSV,3,2,11,26,32,296,34,42,14,294,29,35,12,194,28,14,11,319,27,1*77
$GBGSV,3,3,11,21,06,247,27,33,05,343,27,57,01,013,,1*42
$GNRMC,004223.000,A,4910.427796,N,12304.401192,W,0.02,29.77,051224,,,D,V*2D
$GNVTG,29.77,T,,M,0.02,N,0.04,K,D*1B
$GNGGA,004224.000,4910.427778,N,12304.401192,W,2,34,0.43,6.235,M,-16.816,M,,*4A
$GNGLL,4910.427778,N,12304.401192,W,004224.000,A,D*5E
$GNGSA,A,3,17,22,19,14,24,13,15,02,30,21,06,12,0.75,0.43,0.61,1*0F
$GNGSA,A,3,80,82,71,79,,,,,,,,,0.75,0.43,0.61,2*0A
$GNGSA,A,3,30,27,29,34,07,36,15,02,,,,,0.75,0.43,0.61,3*0F
$GNGSA,A,3,45,29,30,36,26,42,35,14,21,33,,,0.75,0.43,0.61,4*08
$GPGSV,4,1,14,17,74,102,35,22,72,061,34,19,58,191,34,14,50,080,35,1*64
$GPGSV,4,2,14,24,34,305,30,46,33,187,31,13,30,215,32,15,25,254,30,1*68
$GPGSV,4,3,14,02,21,045,30,30,18,141,29,21,09,030,25,06,08,159,25,1*6A
$GPGSV,4,4,14,12,05,268,16,10,01,339,,1*65
$GLGSV,2,1,07,80,69,050,29,82,56,116,21,83,27,163,,71,26,286,21,1*7E
$GLGSV,2,2,07,79,22,099,23,72,17,337,,65,15,339,,1*4A
$GAGSV,3,1,10,30,64,070,31,27,58,279,30,29,38,270,29,34,33,098,28,7*71
$GAGSV,3,2,10,07,23,209,25,36,21,041,23,19,20,319,19,15,13,149,22,7*78
$GAGSV,3,3,10,02,12,083,23,21,07,268,17,7*77
$GBGSV,3,1,11,45,88,048,38,29,56,143,37,30,37,056,33,36,36,113,33,1*7F
$GBGSV,3,2,11,26,32,296,34,42,14,294,29,35,12,194,28,14,11,319,26,1*76
$GBGSV,3,3,11,21,06,247,27,33,05,343,27,57,01,013,,1*42
$GNRMC,004224.000,A,4910.427778,N,12304.401192,W,0.02,29.77,051224,,,D,V*2A
$GNVTG,29.77,T,,M,0.02,N,0.04,K,D*1B
$GNGGA,004225.000,4910.427664,N,12304.401234,W,2,34,0.43,6.265,M,-16.816,M,,*4D
$GNGLL,4910.427664,N,12304.401234,W,004225.000,A,D*5C
$GNGSA,A,3,17,22,19,14,24,13,15,02,30,21,06,12,0.75,0.43,0.61,1*0F
$GNGSA,A,3,80,82,71,79,,,,,,,,,0.75,0.43,0.61,2*0A
$GNGSA,A,3,30,27,29,34,07,36,15,02,,,,,0.75,0.43,0.61,3*0F
$GNGSA,A,3,45,29,30,36,26,42,35,14,21,33,,,0.75,0.43,0.61,4*08
$GPGSV,4,1,14,17,74,102,35,22,72,061,34,19,58,191,34,14,50,080,35,1*64
$GPGSV,4,2,14,24,34,305,30,46,33,187,31,13,30,215,32,15,25,254,30,1*68
$GPGSV,4,3,14,02,21,045,30,30,18,141,29,21,09,030,25,06,08,159,23,1*6C
$GPGSV,4,4,14,12,05,268,16,10,01,339,,1*65
$GLGSV,2,1,07,80,69,050,29,82,56,116,21,83,27,163,,71,26,286,21,1*7E
$GLGSV,2,2,07,79,22,099,23,72,17,337,,65,15,339,,1*4A
$GAGSV,3,1,10,30,64,070,31,27,58,279,30,29,38,270,29,34,33,098,28,7*71
$GAGSV,3,2,10,07,23,209,25,36,21,041,23,19,20,319,19,15,13,149,22,7*78
$GAGSV,3,3,10,02,12,083,23,21,07,268,17,7*77
$GBGSV,3,1,11,45,88,048,38,29,56,143,37,30,37,056,33,36,36,113,33,1*7F
$GBGSV,3,2,11,26,32,296,34,42,14,294,29,35,12,194,28,14,11,319,26,1*76
$GBGSV,3,3,11,21,06,247,27,33,05,343,27,57,01,013,,1*42
$GNRMC,004225.000,A,4910.427664,N,12304.401234,W,0.02,29.77,051224,,,D,V*28
$GNVTG,29.77,T,,M,0.02,N,0.04,K,D*1B
$GNGGA,004226.000,4910.427712,N,12304.401162,W,2,34,0.43,6.043,M,-16.817,M,,*49
$GNGLL,4910.427712,N,12304.401162,W,004226.000,A,D*5F
$GNGSA,A,3,17,22,19,14,24,13,15,02,30,21,06,12,0.75,0.43,0.61,1*0F
$GNGSA,A,3,80,82,71,79,,,,,,,,,0.75,0.43,0.61,2*0A
$GNGSA,A,3,30,27,29,34,07,36,15,02,,,,,0.75,0.43,0.61,3*0F
$GNGSA,A,3,45,29,30,36,26,42,35,14,21,33,,,0.75,0.43,0.61,4*08
$GPGSV,4,1,14,17,74,102,35,22,72,061,34,19,58,191,34,14,50,080,35,1*64
$GPGSV,4,2,14,24,34,305,30,46,33,187,32,13,30,215,32,15,25,254,31,1*6A
$GPGSV,4,3,14,02,21,045,30,30,18,141,29,21,09,030,28,06,08,159,24,1*66
$GPGSV,4,4,14,12,05,268,17,10,01,339,,1*64
$GLGSV,2,1,07,80,69,050,29,82,56,116,22,83,27,163,,71,26,286,22,1*7E
$GLGSV,2,2,07,79,22,099,23,72,17,337,,65,15,339,,1*4A
$GAGSV,3,1,10,30,64,070,32,27,58,279,31,29,38,270,30,34,33,098,28,7*7B
$GAGSV,3,2,10,07,23,209,26,36,21,041,24,19,20,319,19,15,13,149,23,7*7D
$GAGSV,3,3,10,02,12,083,24,21,07,268,17,7*70
$GBGSV,3,1,11,45,88,048,38,29,56,143,37,30,37,056,33,36,36,113,33,1*7F
$GBGSV,3,2,11,26,32,296,34,42,14,294,29,35,12,194,28,14,11,319,27,1*77
$GBGSV,3,3,11,21,06,247,28,33,05,343,27,57,01,013,,1*4D
$GNRMC,004226.000,A,4910.427712,N,12304.401162,W,0.02,29.77,051224,,,D,V*2B
$GNVTG,29.77,T,,M,0.02,N,0.04,K,D*1B
$GNGGA,004227.000,4910.427778,N,12304.401096,W,2,34,0.43,5.825,M,-16.816,M,,*44
$GNGLL,4910.427778,N,12304.401096,W,004227.000,A,D*58
$GNGSA,A,3,17,22,19,14,24,13,15,02,30,21,06,12,0.75,0.43,0.61,1*0F
$GNGSA,A,3,80,82,71,79,,,,,,,,,0.75,0.43,0.61,2*0A
$GNGSA,A,3,30,27,29,34,07,36,15,02,,,,,0.75,0.43,0.61,3*0F
$GNGSA,A,3,45,29,30,36,26,42,35,14,21,33,,,0.75,0.43,0.61,4*08
$GPGSV,4,1,14,17,74,102,36,22,72,061,35,19,58,191,35,14,50,080,36,1*64
$GPGSV,4,2,14,24,34,305,30,46,33,187,32,13,30,215,32,15,25,254,31,1*6A
$GPGSV,4,3,14,02,21,045,30,30,18,141,29,21,09,030,28,06,08,159,25,1*67
$GPGSV,4,4,14,12,05,268,17,10,01,339,,1*64
$GLGSV,2,1,07,80,69,050,29,82,56,116,22,83,27,163,,71,26,286,22,1*7E
$GLGSV,2,2,07,79,22,099,23,72,17,337,,65,15,339,,1*4A
$GAGSV,3,1,10,30,64,070,33,27,58,279,31,29,38,270,30,34,33,098,28,7*7A
$GAGSV,3,2,10,07,23,209,26,36,21,041,24,19,20,319,19,15,13,149,23,7*7D
$GAGSV,3,3,10,02,12,083,24,21,07,268,17,7*70
$GBGSV,3,1,11,45,88,048,38,29,56,143,37,30,37,056,33,36,36,113,33,1*7F
$GBGSV,3,2,11,26,32,296,34,42,14,294,29,35,12,194,28,14,11,319,27,1*77
$GBGSV,3,3,11,21,06,247,28,33,05,343,27,57,01,013,,1*4D
$GNRMC,004227.000,A,4910.427778,N,12304.401096,W,0.02,29.77,051224,,,D,V*2C
$GNVTG,29.77,T,,M,0.02,N,0.04,K,D*1B
$GNGGA,004228.000,4910.427832,N,12304.401006,W,2,34,0.43,5.647,M,-16.816,M,,*49
$GNGLL,4910.427832,N,12304.401006,W,004228.000,A,D*5F
$GNGSA,A,3,17,22,19,14,24,13,15,02,30,21,06,12,0.75,0.43,0.61,1*0F
$GNGSA,A,3,80,82,71,79,,,,,,,,,0.75,0.43,0.61,2*0A
$GNGSA,A,3,30,27,29,34,07,36,15,02,,,,,0.75,0.43,0.61,3*0F
$GNGSA,A,3,45,29,30,36,26,42,35,14,21,33,,,0.75,0.43,0.61,4*08
$GPGSV,4,1,14,17,74,102,36,22,72,061,35,19,58,191,35,14,50,080,36,1*64
$GPGSV,4,2,14,24,34,305,31,46,33,187,32,13,30,215,33,15,25,254,31,1*6A
$GPGSV,4,3,14,02,21,045,30,30,18,141,29,21,09,030,28,06,08,159,26,1*64
$GPGSV,4,4,14,12,05,268,17,10,01,339,,1*64
$GLGSV,2,1,07,80,69,050,29,82,56,116,22,83,27,163,,71,26,286,22,1*7E
$GLGSV,2,2,07,79,22,099,23,72,17,337,,65,15,339,,1*4A
$GAGSV,3,1,10,30,64,070,33,27,58,279,31,29,38,270,30,34,33,098,28,7*7A
$GAGSV,3,2,10,07,23,209,26,36,21,041,24,19,20,319,19,15,13,149,23,7*7D
$GAGSV,3,3,10,02,12,083,24,21,07,268,17,7*70
$GBGSV,3,1,11,45,88,048,38,29,56,143,37,30,37,056,33,36,36,113,33,1*7F
$GBGSV,3,2,11,26,32,296,34,42,14,294,29,35,12,194,28,14,11,319,27,1*77
$GBGSV,3,3,11,21,06,247,28,33,05,343,27,57,01,013,,1*4D
$GNRMC,004228.000,A,4910.427832,N,12304.401006,W,0.02,29.77,051224,,,D,V*2B
$GNVTG,29.77,T,,M,0.02,N,0.04,K,D*1B
$GNGGA,004229.000,4910.427880,N,12304.401012,W,2,34,0.43,5.493,M,-16.816,M,,*4F
$GNGLL,4910.427880,N,12304.401012,W,004229.000,A,D*52
$GNGSA,A,3,17,22,19,14,24,13,15,02,30,21,06,12,0.75,0.43,0.61,1*0F
$GNGSA,A,3,80,82,71,79,,,,,,,,,0.75,0.43,0.61,2*0A
$GNGSA,A,3,30,27,29,34,07,36,15,02,,,,,0.75,0.43,0.61,3*0F
$GNGSA,A,3,45,29,30,36,26,42,35,14,21,33,,,0.75,0.43,0.61,4*08
$GPGSV,4,1,14,17,74,102,36,22,72,061,36,19,58,191,35,14,50,080,36,1*67
$GPGSV,4,2,14,24,34,305,31,46,33,187,33,13,30,215,34,15,25,254,31,1*6C
$GPGSV,4,3,14,02,21,045,30,30,18,141,29,21,09,030,28,06,08,159,26,1*64
$GPGSV,4,4,14,12,05,268,17,10,01,339,,1*64
$GLGSV,2,1,07,80,69,050,28,82,56,116,22,83,27,163,,71,26,286,21,1*7C
$GLGSV,2,2,07,79,22,099,22,72,17,337,,65,15,339,,1*4B
$GAGSV,3,1,10,30,64,070,33,27,58,279,32,29,38,270,31,34,33,098,28,7*78
$GAGSV,3,2,10,07,23,209,27,36,21,041,24,19,20,319,19,15,13,149,24,7*7B
$GAGSV,3,3,10,02,12,083,24,21,07,268,17,7*70
$GBGSV,3,1,11,45,88,048,38,29,56,143,37,30,37,056,33,36,36,113,33,1*7F
$GBGSV,3,2,11,26,32,296,34,42,14,294,29,35,12,194,28,14,11,319,27,1*77
$GBGSV,3,3,11,21,06,247,28,33,05,343,27,57,01,013,,1*4D
$GNRMC,004229.000,A,4910.427880,N,12304.401012,W,0.02,29.77,051224,,,D,V*26
$GNVTG,29.77,T,,M,0.02,N,0.04,K,D*1B
$GNGGA,004230.000,4910.427946,N,12304.400928,W,2,34,0.43,5.312,M,-16.816,M,,*43
$GNGLL,4910.427946,N,12304.400928,W,004230.000,A,D*50
$GNGSA,A,3,17,22,19,14,24,13,15,02,30,21,06,12,0.75,0.43,0.61,1*0F
$GNGSA,A,3,80,82,71,79,,,,,,,,,0.75,0.43,0.61,2*0A
$GNGSA,A,3,30,27,29,34,07,36,15,02,,,,,0.75,0.43,0.61,3*0F
$GNGSA,A,3,45,29,30,36,26,42,35,14,21,33,,,0.75,0.43,0.61,4*08
$GPGSV,4,1,14,17,74,102,36,22,72,061,36,19,58,191,35,14,50,080,36,1*67
$GPGSV,4,2,14,24,34,305,31,46,33,187,33,13,30,215,34,15,25,254,31,1*6C
$GPGSV,4,3,14,02,21,045,30,30,18,141,29,21,09,030,28,06,08,159,26,1*64
$GPGSV,4,4,14,12,05,268,17,10,01,339,,1*64
$GLGSV,2,1,07,80,69,050,28,82,56,116,22,83,27,163,,71,26,286,21,1*7C
$GLGSV,2,2,07,79,22,099,22,72,17,337,,65,15,339,,1*4B
$GAGSV,3,1,10,30,64,070,33,27,58,279,32,29,38,270,31,34,33,098,29,7*79
$GAGSV,3,2,10,07,23,209,27,36,21,041,24,19,20,319,19,15,13,149,24,7*7B
$GAGSV,3,3,10,02,12,083,24,21,07,268,17,7*70
$GBGSV,3,1,11,45,88,048,38,29,56,143,37,30,37,056,33,36,36,113,33,1*7F
$GBGSV,3,2,11,26,32,296,34,42,14,294,29,35,12,194,28,14,11,319,27,1*77
$GBGSV,3,3,11,21,06,247,28,33,05,343,28,57,01,013,,1*42
$GNRMC,004230.000,A,4910.427946,N,12304.400928,W,0.03,29.77,051224,,,D,V*25
$GNVTG,29.77,T,,M,0.03,N,0.05,K,D*1B
$GNGGA,004231.000,4910.427964,N,12304.400922,W,2,34,0.43,5.208,M,-16.816,M,,*42
$GNGLL,4910.427964,N,12304.400922,W,004231.000,A,D*5B
$GNGSA,A,3,17,22,19,14,24,13,15,02,30,21,06,12,0.75,0.43,0.61,1*0F
$GNGSA,A,3,80,82,71,79,,,,,,,,,0.75,0.43,0.61,2*0A
$GNGSA,A,3,30,27,29,34,07,36,15,02,,,,,0.75,0.43,0.61,3*0F
$GNGSA,A,3,45,29,30,36,26,42,35,14,21,33,,,0.75,0.43,0.61,4*08
$GPGSV,4,1,14,17,74,102,36,22,72,061,36,19,58,191,35,14,50,080,36,1*67
$GPGSV,4,2,14,24,34,305,31,46,33,187,33,13,30,215,34,15,25,254,31,1*6C
$GPGSV,4,3,14,02,21,045,30,30,18,141,29,21,09,030,28,06,08,159,26,1*64
$GPGSV,4,4,14,12,05,268,17,10,01,339,,1*64
$GLGSV,2,1,07,80,69,050,28,82,56,116,22,83,27,163,,71,26,286,21,1*7C
$GLGSV,2,2,07,79,22,099,22,72,17,337,,65,15,339,,1*4B
$GAGSV,3,1,10,30,64,070,33,27,58,279,32,29,38,270,31,34,33,098,29,7*79
$GAGSV,3,2,10,07,23,209,27,36,21,041,24,19,20,319,19,15,13,149,24,7*7B
$GAGSV,3,3,10,02,12,083,24,21,07,268,17,7*70
$GBGSV,3,1,11,45,88,048,38,29,56,143,37,30,37,056,33,36,36,113,33,1*7F
$GBGSV,3,2,11,26,32,296,34,42,14,294,29,35,12,194,28,14,11,319,27,1*77
$GBGSV,3,3,11,21,06,247,28,33,05,343,28,57,01,013,,1*42
$GNRMC,004231.000,A,4910.427964,N,12304.400922,W,0.02,29.77,051224,,,D,V*2F
$GNVTG,29.77,T,,M,0.02,N,0.04,K,D*1B
$GNGGA,004232.000,4910.427958,N,12304.400928,W,2,34,0.43,5.095,M,-16.816,M,,*42
$GNGLL,4910.427958,N,12304.400928,W,004232.000,A,D*5D
$GNGSA,A,3,17,22,19,14,24,13,15,02,30,21,06,12,0.75,0.43,0.61,1*0F
$GNGSA,A,3,80,82,71,79,,,,,,,,,0.75,0.43,0.61,2*0A
$GNGSA,A,3,30,27,29,34,07,36,15,02,,,,,0.75,0.43,0.61,3*0F
$GNGSA,A,3,45,29,30,36,26,42,35,14,21,33,,,0.75,0.43,0.61,4*08
$GPGSV,4,1,14,17,74,102,36,22,72,061,36,19,58,191,35,14,50,080,36,1*67
$GPGSV,4,2,14,24,34,305,31,46,33,187,33,13,30,215,34,15,25,254,31,1*6C
$GPGSV,4,3,14,02,21,045,30,30,18,141,29,21,09,030,28,06,08,159,26,1*64
$GPGSV,4,4,14,12,05,268,17,10,01,339,,1*64
$GLGSV,2,1,07,80,69,050,28,82,56,116,22,83,27,163,,71,26,286,21,1*7C
$GLGSV,2,2,07,79,22,099,22,72,17,337,,65,15,339,,1*4B
$GAGSV,3,1,10,30,64,070,33,27,58,279,32,29,38,270,31,34,33,098,29,7*79
$GAGSV,3,2,10,07,23,209,27,36,21,041,24,19,20,319,19,15,13,149,24,7*7B
$GAGSV,3,3,10,02,12,083,24,21,07,268,17,7*70
$GBGSV,3,1,11,45,88,048,38,29,56,143,37,30,37,056,34,36,36,113,33,1*78
$GBGSV,3,2,11,26,32,296,34,42,14,294,29,35,12,194,28,14,11,319,27,1*77
$GBGSV,3,3,11,21,06,247,28,33,05,343,28,57,01,013,,1*42
$GNRMC,004232.000,A,4910.427958,N,12304.400928,W,0.02,29.77,051224,,,D,V*29
$GNVTG,29.77,T,,M,0.02,N,0.03,K,D*1C
$GNGGA,004233.000,4910.427994,N,12304.400928,W,2,34,0.43,4.964,M,-16.816,M,,*45
$GNGLL,4910.427994,N,12304.400928,W,004233.000,A,D*5C
$GNGSA,A,3,17,22,19,14,24,13,15,02,30,21,06,12,0.75,0.43,0.61,1*0F
$GNGSA,A,3,80,82,71,79,,,,,,,,,0.75,0.43,0.61,2*0A
$GNGSA,A,3,30,27,29,34,07,36,15,02,,,,,0.75,0.43,0.61,3*0F
$GNGSA,A,3,45,29,30,36,26,42,35,14,21,33,,,0.75,0.43,0.61,4*08
$GPGSV,4,1,14,17,74,102,36,22,72,061,36,19,58,191,35,14,50,080,36,1*67
$GPGSV,4,2,14,24,34,305,31,46,33,187,33,13,30,215,34,15,25,254,31,1*6C
$GPGSV,4,3,14,02,21,045,30,30,18,141,29,21,09,030,28,06,08,159,26,1*64
$GPGSV,4,4,14,12,05,268,17,10,01,339,,1*64
$GLGSV,2,1,07,80,69,050,28,82,56,116,22,83,27,163,,71,26,286,21,1*7C
$GLGSV,2,2,07,79,22,099,22,72,17,337,,65,15,339,,1*4B
$GAGSV,3,1,10,30,64,070,33,27,58,279,32,29,38,270,31,34,33,098,29,7*79
$GAGSV,3,2,10,07,23,209,27,36,21,041,24,19,20,319,19,15,13,149,24,7*7B
$GAGSV,3,3,10,02,12,083,24,21,07,268,17,7*70
$GBGSV,3,1,11,45,88,048,38,29,56,143,37,30,37,056,34,36,36,113,33,1*78
$GBGSV,3,2,11,26,32,296,34,42,14,294,29,35,12,194,28,14,11,319,27,1*77
$GBGSV,3,3,11,21,06,247,28,33,05,343,28,57,01,013,,1*42
$GNRMC,004233.000,A,4910.427994,N,12304.400928,W,0.01,29.77,051224,,,D,V*2B
$GNVTG,29.77,T,,M,0.01,N,0.03,K,D*1F
$GNGGA,004234.000,4910.428084,N,12304.400940,W,2,34,0.43,4.799,M,-16.816,M,,*47
$GNGLL,4910.428084,N,12304.400940,W,004234.000,A,D*52
$GNGSA,A,3,17,22,19,14,24,13,15,02,30,21,06,12,0.75,0.43,0.61,1*0F
$GNGSA,A,3,80,82,71,79,,,,,,,,,0.75,0.43,0.61,2*0A
$GNGSA,A,3,30,27,29,34,07,36,15,02,,,,,0.75,0.43,0.61,3*0F
$GNGSA,A,3,45,29,30,36,26,42,35,14,21,33,,,0.75,0.43,0.61,4*08
$GPGSV,4,1,14,17,74,102,36,22,72,061,36,19,58,191,35,14,50,080,36,1*67
$GPGSV,4,2,14,24,34,305,31,46,33,187,33,13,30,215,34,15,25,254,31,1*6C
$GPGSV,4,3,14,02,21,045,30,30,18,141,29,21,09,030,28,06,08,159,26,1*64
$GPGSV,4,4,14,12,05,268,17,10,01,339,,1*64
$GLGSV,2,1,07,80,69,050,28,82,56,116,22,83,27,163,,71,26,286,21,1*7C
$GLGSV,2,2,07,79,22,099,22,72,17,337,,65,15,339,,1*4B
$GAGSV,3,1,10,30,64,070,33,27,58,279,32,29,38,270,31,34,33,098,29,7*79
$GAGSV,3,2,10,07,23,209,27,36,21,041,24,19,20,319,19,15,13,149,24,7*7B
$GAGSV,3,3,10,02,12,083,25,21,07,268,17,7*71
$GBGSV,3,1,11,45,88,048,38,29,56,143,37,30,37,056,34,36,36,113,33,1*78
$GBGSV,3,2,11,26,32,296,34,42,14,294,29,35,12,194,28,14,11,319,27,1*77
$GBGSV,3,3,11,21,06,247,28,33,05,343,28,57,01,013,,1*42
$GNRMC,004234.000,A,4910.428084,N,12304.400940,W,0.02,29.77,051224,,,D,V*26
$GNVTG,29.77,T,,M,0.02,N,0.03,K,D*1C
$GNGGA,004235.000,4910.428096,N,12304.400946,W,2,34,0.43,4.691,M,-16.816,M,,*4A
$GNGLL,4910.428096,N,12304.400946,W,004235.000,A,D*56
$GNGSA,A,3,17,22,19,14,24,13,15,02,30,21,06,12,0.75,0.43,0.61,1*0F
$GNGSA,A,3,80,82,71,79,,,,,,,,,0.75,0.43,0.61,2*0A
$GNGSA,A,3,30,27,29,34,07,36,15,02,,,,,0.75,0.43,0.61,3*0F
$GNGSA,A,3,45,29,30,36,26,42,35,14,21,33,,,0.75,0.43,0.61,4*08
$GPGSV,4,1,14,17,74,102,36,22,72,061,36,19,58,191,35,14,50,080,36,1*67
$GPGSV,4,2,14,24,34,305,31,46,33,187,33,13,30,215,34,15,25,254,31,1*6C
$GPGSV,4,3,14,02,21,045,30,30,18,141,29,21,09,030,28,06,08,159,26,1*64
$GPGSV,4,4,14,12,05,268,17,10,01,339,,1*64
$GLGSV,2,1,07,80,69,050,28,82,56,116,22,83,27,163,,71,26,286,21,1*7C
$GLGSV,2,2,07,79,22,099,22,72,17,337,,65,15,339,,1*4B
$GAGSV,3,1,10,30,64,070,33,27,58,279,32,29,38,270,31,34,33,098,29,7*79
$GAGSV,3,2,10,07,23,209,27,36,21,041,24,19,20,319,19,15,13,149,24,7*7B
$GAGSV,3,3,10,02,12,083,25,21,07,268,17,7*71
$GBGSV,3,1,11,45,88,048,38,29,56,143,37,30,37,056,34,36,36,113,33,1*78
$GBGSV,3,2,11,26,32,296,34,42,14,294,29,35,12,194,28,14,11,319,27,1*77
$GBGSV,3,3,11,21,06,247,28,33,05,343,28,57,01,013,,1*42
$GNRMC,004235.000,A,4910.428096,N,12304.400946,W,0.02,29.77,051224,,,D,V*22
$GNVTG,29.77,T,,M,0.02,N,0.03,K,D*1C
$GNGGA,004236.000,4910.428108,N,12304.400922,W,2,34,0.43,4.650,M,-16.816,M,,*40
$GNGLL,4910.428108,N,12304.400922,W,004236.000,A,D*51
$GNGSA,A,3,17,22,19,14,24,13,15,02,30,21,06,12,0.75,0.43,0.61,1*0F
$GNGSA,A,3,80,82,71,79,,,,,,,,,0.75,0.43,0.61,2*0A
$GNGSA,A,3,30,27,29,34,07,36,15,02,,,,,0.75,0.43,0.61,3*0F
$GNGSA,A,3,45,29,30,36,26,42,35,14,21,33,,,0.75,0.43,0.61,4*08
$GPGSV,4,1,14,17,73,102,36,22,72,061,36,19,58,191,35,14,50,080,36,1*60
$GPGSV,4,2,14,24,34,305,31,46,33,187,33,13,30,215,34,15,25,254,31,1*6C
$GPGSV,4,3,14,02,21,045,30,30,18,141,29,21,09,030,28,06,08,159,26,1*64
$GPGSV,4,4,14,12,05,269,17,10,01,339,,1*65
$GLGSV,2,1,07,80,69,051,27,82,56,115,22,83,27,163,,71,26,286,21,1*71
$GLGSV,2,2,07,79,22,099,22,72,17,337,,65,15,339,,1*4B
$GAGSV,3,1,10,30,63,070,33,27,58,279,32,29,38,270,31,34,33,098,29,7*7E
$GAGSV,3,2,10,07,23,209,27,36,21,041,24,19,20,319,19,15,14,149,24,7*7C
$GAGSV,3,3,10,02,12,083,25,21,07,268,17,7*71
$GBGSV,3,1,11,45,88,056,38,29,56,143,37,30,37,056,34,36,36,114,33,1*70
$GBGSV,3,2,11,26,32,296,34,42,14,293,29,35,12,194,28,14,11,319,27,1*70
$GBGSV,3,3,11,21,06,247,28,33,05,343,28,57,01,012,,1*43
$GNRMC,004236.000,A,4910.428108,N,12304.400922,W,0.02,29.77,051224,,,D,V*25
$GNVTG,29.77,T,,M,0.02,N,0.03,K,D*1C
$GNGGA,004237.000,4910.428144,N,12304.400874,W,2,34,0.43,4.668,M,-16.817,M,,*41
