2024-10-15 15:49:12,338 [INFO] Logging setup complete. Logs are being saved to logs/NMEA_20241015_154912338000/console_output_20241015_154912338000.txt
2024-10-15 15:49:44,522 [INFO] Starting log processing for file: C:\PythonProjects\NMEA-Parser-Logger\logs\NMEA_20241015_152059723703\nmea_raw_log_COM7_115200_20241015_152059723703.txt
2024-10-15 15:49:44,522 [INFO] Processing log file: C:\PythonProjects\NMEA-Parser-Logger\logs\NMEA_20241015_152059723703\nmea_raw_log_COM7_115200_20241015_152059723703.txt
2024-10-15 15:49:44,526 [INFO] Total lines read from file: 482
2024-10-15 15:49:44,526 [INFO] Processing sentence: $GNGGA,222109.000,4910.425545,N,12304.401628,W,1,25,0.63,4.102,M,-16.816,M,,*4C
2024-10-15 15:49:44,526 [INFO] Received Standard NMEA Message: $GNGGA,222109.000,4910.425545,N,12304.401628,W,1,25,0.63,4.102,M,-16.816,M,,*4C
2024-10-15 15:49:44,527 [INFO] GGA - Fix Data:
  Timestamp: 22:21:09+00:00
  Latitude: 49.17375908333333 N
  Longitude: -123.07336046666667 W
  GPS Quality Indicator: 1
  Number of Satellites in Use: 25
  Horizontal Dilution of Precision (HDOP): 0.63
  Antenna Altitude (Above Mean Sea Level): 4.102 M
  Geoidal Separation: -16.816 M
  Age of Differential GPS Data: 
  Differential Reference Station ID: 

2024-10-15 15:49:44,527 [INFO] Processing sentence: $GNRMC,222109.000,A,4910.425545,N,12304.401628,W,0.004,126.46,151024,,,A,V*24
2024-10-15 15:49:44,527 [INFO] Received Standard NMEA Message: $GNRMC,222109.000,A,4910.425545,N,12304.401628,W,0.004,126.46,151024,,,A,V*24
2024-10-15 15:49:44,527 [INFO] RMC - Recommended Minimum:
  Timestamp: 22:21:09+00:00
  Status: A
  Latitude: 49.17375908333333 N
  Longitude: -123.07336046666667 W
  Speed over Ground: 0.004 knots
  Course over Ground: 126.46
  Date: 2024-10-15
  Magnetic Variation:  
  Mode Indicator: A
  Navigational Status: V

2024-10-15 15:49:44,527 [INFO] Processing sentence: $GNGLL,4910.425545,N,12304.401628,W,222109.000,A,A*59
2024-10-15 15:49:44,527 [INFO] Received Standard NMEA Message: $GNGLL,4910.425545,N,12304.401628,W,222109.000,A,A*59
2024-10-15 15:49:44,527 [INFO] GLL - Geographic Position:
  Latitude: 49.17375908333333 N
  Longitude: -123.07336046666667 W
  Timestamp: 22:21:09+00:00
  Status: A
  FAA Mode: A

2024-10-15 15:49:44,528 [INFO] Processing sentence: $GNVTG,126.46,T,,M,0.004,N,0.008,K,A*28
2024-10-15 15:49:44,528 [INFO] Received Standard NMEA Message: $GNVTG,126.46,T,,M,0.004,N,0.008,K,A*28
2024-10-15 15:49:44,528 [INFO] VTG - Course over Ground and Ground Speed:
  True Track: 126.46° T
  Magnetic Track: None° M
  Speed over Ground: 0.004 knots / 0.008 km/h
  FAA Mode: A

2024-10-15 15:49:44,528 [INFO] Processing sentence: $GNGSA,A,3,03,04,06,07,09,11,16,20,26,27,30,31,0.93,0.63,0.68,1*0A
2024-10-15 15:49:44,528 [INFO] Received Standard NMEA Message: $GNGSA,A,3,03,04,06,07,09,11,16,20,26,27,30,31,0.93,0.63,0.68,1*0A
2024-10-15 15:49:44,528 [INFO] GSA - Satellite Info:
  Mode: A
  Mode Fix Type: 3
  Satellites Used: 03, 04, 06, 07, 09, 11, 16, 20, 26, 27, 30, 31
  PDOP: 0.93
  HDOP: 0.63
  VDOP: 0.68

2024-10-15 15:49:44,528 [INFO] Processing sentence: $GNGSA,A,3,,,,,,,,,,,,,0.93,0.63,0.68,2*03
2024-10-15 15:49:44,528 [INFO] Received Standard NMEA Message: $GNGSA,A,3,,,,,,,,,,,,,0.93,0.63,0.68,2*03
2024-10-15 15:49:44,528 [INFO] GSA - Satellite Info:
  Mode: A
  Mode Fix Type: 3
  Satellites Used: 
  PDOP: 0.93
  HDOP: 0.63
  VDOP: 0.68

2024-10-15 15:49:44,528 [INFO] Processing sentence: $GNGSA,A,3,02,03,05,08,13,24,25,,,,,,0.93,0.63,0.68,3*0D
2024-10-15 15:49:44,528 [INFO] Received Standard NMEA Message: $GNGSA,A,3,02,03,05,08,13,24,25,,,,,,0.93,0.63,0.68,3*0D
2024-10-15 15:49:44,528 [INFO] GSA - Satellite Info:
  Mode: A
  Mode Fix Type: 3
  Satellites Used: 02, 03, 05, 08, 13, 24, 25
  PDOP: 0.93
  HDOP: 0.63
  VDOP: 0.68

2024-10-15 15:49:44,528 [INFO] Processing sentence: $GNGSA,A,3,19,21,22,36,38,45,,,,,,,0.93,0.63,0.68,4*01
2024-10-15 15:49:44,528 [INFO] Received Standard NMEA Message: $GNGSA,A,3,19,21,22,36,38,45,,,,,,,0.93,0.63,0.68,4*01
2024-10-15 15:49:44,528 [INFO] GSA - Satellite Info:
  Mode: A
  Mode Fix Type: 3
  Satellites Used: 19, 21, 22, 36, 38, 45
  PDOP: 0.93
  HDOP: 0.63
  VDOP: 0.68

2024-10-15 15:49:44,528 [INFO] Processing sentence: $GNGSA,A,3,,,,,,,,,,,,,0.93,0.63,0.68,5*04
2024-10-15 15:49:44,528 [INFO] Received Standard NMEA Message: $GNGSA,A,3,,,,,,,,,,,,,0.93,0.63,0.68,5*04
2024-10-15 15:49:44,529 [INFO] GSA - Satellite Info:
  Mode: A
  Mode Fix Type: 3
  Satellites Used: 
  PDOP: 0.93
  HDOP: 0.63
  VDOP: 0.68

2024-10-15 15:49:44,529 [INFO] Processing sentence: $GPGSV,4,1,13,03,15,174,28,04,62,110,35,06,07,260,18,07,49,251,35,1*6C
2024-10-15 15:49:44,529 [INFO] Received Standard NMEA Message: $GPGSV,4,1,13,03,15,174,28,04,62,110,35,06,07,260,18,07,49,251,35,1*6C
2024-10-15 15:49:44,529 [INFO] GSV - Satellites in View:
  Number of Messages: 4
  Message Number: 1
  Total Satellites in View: 13
  Satellite 1 PRN: 03 - Elevation: 15° - Azimuth: 174° - SNR: 28 dB
  Satellite 2 PRN: 04 - Elevation: 62° - Azimuth: 110° - SNR: 35 dB
  Satellite 3 PRN: 06 - Elevation: 07° - Azimuth: 260° - SNR: 18 dB
  Satellite 4 PRN: 07 - Elevation: 49° - Azimuth: 251° - SNR: 35 dB

2024-10-15 15:49:44,529 [INFO] Processing sentence: $GPGSV,4,2,13,09,80,301,38,11,12,301,29,16,45,069,35,20,16,321,29,1*63
2024-10-15 15:49:44,529 [INFO] Received Standard NMEA Message: $GPGSV,4,2,13,09,80,301,38,11,12,301,29,16,45,069,35,20,16,321,29,1*63
2024-10-15 15:49:44,529 [INFO] GSV - Satellites in View:
  Number of Messages: 4
  Message Number: 2
  Total Satellites in View: 13
  Satellite 1 PRN: 09 - Elevation: 80° - Azimuth: 301° - SNR: 38 dB
  Satellite 2 PRN: 11 - Elevation: 12° - Azimuth: 301° - SNR: 29 dB
  Satellite 3 PRN: 16 - Elevation: 45° - Azimuth: 069° - SNR: 35 dB
  Satellite 4 PRN: 20 - Elevation: 16° - Azimuth: 321° - SNR: 29 dB

2024-10-15 15:49:44,529 [INFO] Processing sentence: $GPGSV,4,3,13,26,18,045,29,27,10,107,29,30,17,249,28,31,04,066,16,1*6E
2024-10-15 15:49:44,529 [INFO] Received Standard NMEA Message: $GPGSV,4,3,13,26,18,045,29,27,10,107,29,30,17,249,28,31,04,066,16,1*6E
2024-10-15 15:49:44,529 [INFO] GSV - Satellites in View:
  Number of Messages: 4
  Message Number: 3
  Total Satellites in View: 13
  Satellite 1 PRN: 26 - Elevation: 18° - Azimuth: 045° - SNR: 29 dB
  Satellite 2 PRN: 27 - Elevation: 10° - Azimuth: 107° - SNR: 29 dB
  Satellite 3 PRN: 30 - Elevation: 17° - Azimuth: 249° - SNR: 28 dB
  Satellite 4 PRN: 31 - Elevation: 04° - Azimuth: 066° - SNR: 16 dB

2024-10-15 15:49:44,529 [INFO] Processing sentence: $GPGSV,4,4,13,44,33,172,33,1*52
2024-10-15 15:49:44,529 [INFO] Received Standard NMEA Message: $GPGSV,4,4,13,44,33,172,33,1*52
2024-10-15 15:49:44,529 [INFO] GSV - Satellites in View:
  Number of Messages: 4
  Message Number: 4
  Total Satellites in View: 13
  Satellite 1 PRN: 44 - Elevation: 33° - Azimuth: 172° - SNR: 33 dB
  Satellite 2 PRN: 1 - Elevation: ° - Azimuth: ° - SNR:  dB
  Satellite 3 PRN:  - Elevation: ° - Azimuth: ° - SNR:  dB
  Satellite 4 PRN:  - Elevation: ° - Azimuth: ° - SNR:  dB

2024-10-15 15:49:44,529 [INFO] Processing sentence: $GPGSV,1,1,03,04,62,110,23,09,80,301,23,11,12,301,12,8*5F
2024-10-15 15:49:44,529 [INFO] Received Standard NMEA Message: $GPGSV,1,1,03,04,62,110,23,09,80,301,23,11,12,301,12,8*5F
2024-10-15 15:49:44,529 [INFO] GSV - Satellites in View:
  Number of Messages: 1
  Message Number: 1
  Total Satellites in View: 03
  Satellite 1 PRN: 04 - Elevation: 62° - Azimuth: 110° - SNR: 23 dB
  Satellite 2 PRN: 09 - Elevation: 80° - Azimuth: 301° - SNR: 23 dB
  Satellite 3 PRN: 11 - Elevation: 12° - Azimuth: 301° - SNR: 12 dB
  Satellite 4 PRN: 8 - Elevation: ° - Azimuth: ° - SNR:  dB

2024-10-15 15:49:44,529 [INFO] Processing sentence: $GLGSV,1,1,01,68,,,21,1*74
2024-10-15 15:49:44,529 [INFO] Received Standard NMEA Message: $GLGSV,1,1,01,68,,,21,1*74
2024-10-15 15:49:44,530 [INFO] GSV - Satellites in View:
  Number of Messages: 1
  Message Number: 1
  Total Satellites in View: 01
  Satellite 1 PRN: 68 - Elevation: ° - Azimuth: ° - SNR: 21 dB
  Satellite 2 PRN: 1 - Elevation: ° - Azimuth: ° - SNR:  dB
  Satellite 3 PRN:  - Elevation: ° - Azimuth: ° - SNR:  dB
  Satellite 4 PRN:  - Elevation: ° - Azimuth: ° - SNR:  dB

2024-10-15 15:49:44,530 [INFO] Processing sentence: $GAGSV,3,1,09,02,35,173,29,03,68,106,34,05,16,112,25,07,,,23,7*4E
2024-10-15 15:49:44,530 [INFO] Received Standard NMEA Message: $GAGSV,3,1,09,02,35,173,29,03,68,106,34,05,16,112,25,07,,,23,7*4E
2024-10-15 15:49:44,530 [INFO] GSV - Satellites in View:
  Number of Messages: 3
  Message Number: 1
  Total Satellites in View: 09
  Satellite 1 PRN: 02 - Elevation: 35° - Azimuth: 173° - SNR: 29 dB
  Satellite 2 PRN: 03 - Elevation: 68° - Azimuth: 106° - SNR: 34 dB
  Satellite 3 PRN: 05 - Elevation: 16° - Azimuth: 112° - SNR: 25 dB
  Satellite 4 PRN: 07 - Elevation: ° - Azimuth: ° - SNR: 23 dB

2024-10-15 15:49:44,530 [INFO] Processing sentence: $GAGSV,3,2,09,08,55,298,34,13,14,270,19,24,21,042,25,25,55,095,32,7*73
2024-10-15 15:49:44,530 [INFO] Received Standard NMEA Message: $GAGSV,3,2,09,08,55,298,34,13,14,270,19,24,21,042,25,25,55,095,32,7*73
2024-10-15 15:49:44,530 [INFO] GSV - Satellites in View:
  Number of Messages: 3
  Message Number: 2
  Total Satellites in View: 09
  Satellite 1 PRN: 08 - Elevation: 55° - Azimuth: 298° - SNR: 34 dB
  Satellite 2 PRN: 13 - Elevation: 14° - Azimuth: 270° - SNR: 19 dB
  Satellite 3 PRN: 24 - Elevation: 21° - Azimuth: 042° - SNR: 25 dB
  Satellite 4 PRN: 25 - Elevation: 55° - Azimuth: 095° - SNR: 32 dB

2024-10-15 15:49:44,530 [INFO] Processing sentence: $GAGSV,3,3,09,26,,,25,7*79
2024-10-15 15:49:44,530 [INFO] Received Standard NMEA Message: $GAGSV,3,3,09,26,,,25,7*79
2024-10-15 15:49:44,530 [INFO] GSV - Satellites in View:
  Number of Messages: 3
  Message Number: 3
  Total Satellites in View: 09
  Satellite 1 PRN: 26 - Elevation: ° - Azimuth: ° - SNR: 25 dB
  Satellite 2 PRN: 7 - Elevation: ° - Azimuth: ° - SNR:  dB
  Satellite 3 PRN:  - Elevation: ° - Azimuth: ° - SNR:  dB
  Satellite 4 PRN:  - Elevation: ° - Azimuth: ° - SNR:  dB

2024-10-15 15:49:44,530 [INFO] Processing sentence: $GAGSV,1,1,04,02,35,173,17,03,68,106,19,08,55,298,20,25,55,095,20,1*74
2024-10-15 15:49:44,530 [INFO] Received Standard NMEA Message: $GAGSV,1,1,04,02,35,173,17,03,68,106,19,08,55,298,20,25,55,095,20,1*74
2024-10-15 15:49:44,530 [INFO] GSV - Satellites in View:
  Number of Messages: 1
  Message Number: 1
  Total Satellites in View: 04
  Satellite 1 PRN: 02 - Elevation: 35° - Azimuth: 173° - SNR: 17 dB
  Satellite 2 PRN: 03 - Elevation: 68° - Azimuth: 106° - SNR: 19 dB
  Satellite 3 PRN: 08 - Elevation: 55° - Azimuth: 298° - SNR: 20 dB
  Satellite 4 PRN: 25 - Elevation: 55° - Azimuth: 095° - SNR: 20 dB

2024-10-15 15:49:44,530 [INFO] Processing sentence: $GBGSV,2,1,07,08,,,21,19,44,153,36,21,22,312,29,22,71,274,41,1*49
2024-10-15 15:49:44,530 [INFO] Received Standard NMEA Message: $GBGSV,2,1,07,08,,,21,19,44,153,36,21,22,312,29,22,71,274,41,1*49
2024-10-15 15:49:44,530 [INFO] GSV - Satellites in View:
  Number of Messages: 2
  Message Number: 1
  Total Satellites in View: 07
  Satellite 1 PRN: 08 - Elevation: ° - Azimuth: ° - SNR: 21 dB
  Satellite 2 PRN: 19 - Elevation: 44° - Azimuth: 153° - SNR: 36 dB
  Satellite 3 PRN: 21 - Elevation: 22° - Azimuth: 312° - SNR: 29 dB
  Satellite 4 PRN: 22 - Elevation: 71° - Azimuth: 274° - SNR: 41 dB

2024-10-15 15:49:44,530 [INFO] Processing sentence: $GBGSV,2,2,07,36,71,192,39,38,13,331,30,45,22,221,30,1*4A
2024-10-15 15:49:44,530 [INFO] Received Standard NMEA Message: $GBGSV,2,2,07,36,71,192,39,38,13,331,30,45,22,221,30,1*4A
2024-10-15 15:49:44,530 [INFO] GSV - Satellites in View:
  Number of Messages: 2
  Message Number: 2
  Total Satellites in View: 07
  Satellite 1 PRN: 36 - Elevation: 71° - Azimuth: 192° - SNR: 39 dB
  Satellite 2 PRN: 38 - Elevation: 13° - Azimuth: 331° - SNR: 30 dB
  Satellite 3 PRN: 45 - Elevation: 22° - Azimuth: 221° - SNR: 30 dB
  Satellite 4 PRN: 1 - Elevation: ° - Azimuth: ° - SNR:  dB

2024-10-15 15:49:44,530 [INFO] Processing sentence: $GBGSV,1,1,03,19,44,153,21,22,71,274,19,36,71,192,24,5*4D
2024-10-15 15:49:44,531 [INFO] Received Standard NMEA Message: $GBGSV,1,1,03,19,44,153,21,22,71,274,19,36,71,192,24,5*4D
2024-10-15 15:49:44,531 [INFO] GSV - Satellites in View:
  Number of Messages: 1
  Message Number: 1
  Total Satellites in View: 03
  Satellite 1 PRN: 19 - Elevation: 44° - Azimuth: 153° - SNR: 21 dB
  Satellite 2 PRN: 22 - Elevation: 71° - Azimuth: 274° - SNR: 19 dB
  Satellite 3 PRN: 36 - Elevation: 71° - Azimuth: 192° - SNR: 24 dB
  Satellite 4 PRN: 5 - Elevation: ° - Azimuth: ° - SNR:  dB

2024-10-15 15:49:44,531 [INFO] Processing sentence: $GQGSV,1,1,00,1*65
2024-10-15 15:49:44,531 [INFO] Received Standard NMEA Message: $GQGSV,1,1,00,1*65
2024-10-15 15:49:44,531 [INFO] GSV - Satellites in View:
  Number of Messages: 1
  Message Number: 1
  Total Satellites in View: 00
  Satellite 1 PRN: 1 - Elevation: ° - Azimuth: ° - SNR:  dB
  Satellite 2 PRN:  - Elevation: ° - Azimuth: ° - SNR:  dB
  Satellite 3 PRN:  - Elevation: ° - Azimuth: ° - SNR:  dB
  Satellite 4 PRN:  - Elevation: ° - Azimuth: ° - SNR:  dB

2024-10-15 15:49:44,531 [INFO] Processing sentence: $GQGSV,1,1,00,8*6C
2024-10-15 15:49:44,531 [INFO] Received Standard NMEA Message: $GQGSV,1,1,00,8*6C
2024-10-15 15:49:44,531 [INFO] GSV - Satellites in View:
  Number of Messages: 1
  Message Number: 1
  Total Satellites in View: 00
  Satellite 1 PRN: 8 - Elevation: ° - Azimuth: ° - SNR:  dB
  Satellite 2 PRN:  - Elevation: ° - Azimuth: ° - SNR:  dB
  Satellite 3 PRN:  - Elevation: ° - Azimuth: ° - SNR:  dB
  Satellite 4 PRN:  - Elevation: ° - Azimuth: ° - SNR:  dB

2024-10-15 15:49:44,531 [INFO] Processing sentence: $PAIR010,0,1,2336,253287*37
2024-10-15 15:49:44,531 [INFO] Proprietary sentence ignored: $PAIR010,0,1,2336,253287*37
2024-10-15 15:49:44,531 [INFO] Processing sentence: $GNGGA,222110.000,4910.425546,N,12304.401629,W,1,25,0.64,4.101,M,-16.816,M,,*42
2024-10-15 15:49:44,531 [INFO] Received Standard NMEA Message: $GNGGA,222110.000,4910.425546,N,12304.401629,W,1,25,0.64,4.101,M,-16.816,M,,*42
2024-10-15 15:49:44,531 [INFO] GGA - Fix Data:
  Timestamp: 22:21:10+00:00
  Latitude: 49.1737591 N
  Longitude: -123.07336048333333 W
  GPS Quality Indicator: 1
  Number of Satellites in Use: 25
  Horizontal Dilution of Precision (HDOP): 0.64
  Antenna Altitude (Above Mean Sea Level): 4.101 M
  Geoidal Separation: -16.816 M
  Age of Differential GPS Data: 
  Differential Reference Station ID: 

2024-10-15 15:49:44,531 [INFO] Processing sentence: $GNRMC,222110.000,A,4910.425546,N,12304.401629,W,0.006,126.46,151024,,,A,V*2C
2024-10-15 15:49:44,531 [INFO] Received Standard NMEA Message: $GNRMC,222110.000,A,4910.425546,N,12304.401629,W,0.006,126.46,151024,,,A,V*2C
2024-10-15 15:49:44,532 [INFO] RMC - Recommended Minimum:
  Timestamp: 22:21:10+00:00
  Status: A
  Latitude: 49.1737591 N
  Longitude: -123.07336048333333 W
  Speed over Ground: 0.006 knots
  Course over Ground: 126.46
  Date: 2024-10-15
  Magnetic Variation:  
  Mode Indicator: A
  Navigational Status: V

2024-10-15 15:49:44,532 [INFO] Processing sentence: $GNGLL,4910.425546,N,12304.401629,W,222110.000,A,A*53
2024-10-15 15:49:44,532 [INFO] Received Standard NMEA Message: $GNGLL,4910.425546,N,12304.401629,W,222110.000,A,A*53
2024-10-15 15:49:44,532 [INFO] GLL - Geographic Position:
  Latitude: 49.1737591 N
  Longitude: -123.07336048333333 W
  Timestamp: 22:21:10+00:00
  Status: A
  FAA Mode: A

2024-10-15 15:49:44,532 [INFO] Processing sentence: $GNVTG,126.46,T,,M,0.006,N,0.011,K,A*22
2024-10-15 15:49:44,532 [INFO] Received Standard NMEA Message: $GNVTG,126.46,T,,M,0.006,N,0.011,K,A*22
2024-10-15 15:49:44,532 [INFO] VTG - Course over Ground and Ground Speed:
  True Track: 126.46° T
  Magnetic Track: None° M
  Speed over Ground: 0.006 knots / 0.011 km/h
  FAA Mode: A

2024-10-15 15:49:44,532 [INFO] Processing sentence: $GNGSA,A,3,03,04,06,07,09,11,16,20,26,27,30,31,0.96,0.64,0.71,1*00
2024-10-15 15:49:44,533 [INFO] Received Standard NMEA Message: $GNGSA,A,3,03,04,06,07,09,11,16,20,26,27,30,31,0.96,0.64,0.71,1*00
2024-10-15 15:49:44,533 [INFO] GSA - Satellite Info:
  Mode: A
  Mode Fix Type: 3
  Satellites Used: 03, 04, 06, 07, 09, 11, 16, 20, 26, 27, 30, 31
  PDOP: 0.96
  HDOP: 0.64
  VDOP: 0.71

2024-10-15 15:49:44,533 [INFO] Processing sentence: $GNGSA,A,3,,,,,,,,,,,,,0.96,0.64,0.71,2*09
2024-10-15 15:49:44,533 [INFO] Received Standard NMEA Message: $GNGSA,A,3,,,,,,,,,,,,,0.96,0.64,0.71,2*09
2024-10-15 15:49:44,533 [INFO] GSA - Satellite Info:
  Mode: A
  Mode Fix Type: 3
  Satellites Used: 
  PDOP: 0.96
  HDOP: 0.64
  VDOP: 0.71

2024-10-15 15:49:44,533 [INFO] Processing sentence: $GNGSA,A,3,02,03,05,08,13,24,25,,,,,,0.96,0.64,0.71,3*07
2024-10-15 15:49:44,533 [INFO] Received Standard NMEA Message: $GNGSA,A,3,02,03,05,08,13,24,25,,,,,,0.96,0.64,0.71,3*07
2024-10-15 15:49:44,533 [INFO] GSA - Satellite Info:
  Mode: A
  Mode Fix Type: 3
  Satellites Used: 02, 03, 05, 08, 13, 24, 25
  PDOP: 0.96
  HDOP: 0.64
  VDOP: 0.71

2024-10-15 15:49:44,533 [INFO] Processing sentence: $GNGSA,A,3,19,21,22,36,38,45,,,,,,,0.96,0.64,0.71,4*0B
2024-10-15 15:49:44,533 [INFO] Received Standard NMEA Message: $GNGSA,A,3,19,21,22,36,38,45,,,,,,,0.96,0.64,0.71,4*0B
2024-10-15 15:49:44,533 [INFO] GSA - Satellite Info:
  Mode: A
  Mode Fix Type: 3
  Satellites Used: 19, 21, 22, 36, 38, 45
  PDOP: 0.96
  HDOP: 0.64
  VDOP: 0.71

2024-10-15 15:49:44,534 [INFO] Processing sentence: $GNGSA,A,3,,,,,,,,,,,,,0.96,0.64,0.71,5*0E
2024-10-15 15:49:44,534 [INFO] Received Standard NMEA Message: $GNGSA,A,3,,,,,,,,,,,,,0.96,0.64,0.71,5*0E
2024-10-15 15:49:44,534 [INFO] GSA - Satellite Info:
  Mode: A
  Mode Fix Type: 3
  Satellites Used: 
  PDOP: 0.96
  HDOP: 0.64
  VDOP: 0.71

2024-10-15 15:49:44,534 [INFO] Processing sentence: $GPGSV,4,1,13,03,15,174,26,04,62,110,35,06,07,260,20,07,49,251,34,1*68
2024-10-15 15:49:44,534 [INFO] Received Standard NMEA Message: $GPGSV,4,1,13,03,15,174,26,04,62,110,35,06,07,260,20,07,49,251,34,1*68
2024-10-15 15:49:44,534 [INFO] GSV - Satellites in View:
  Number of Messages: 4
  Message Number: 1
  Total Satellites in View: 13
  Satellite 1 PRN: 03 - Elevation: 15° - Azimuth: 174° - SNR: 26 dB
  Satellite 2 PRN: 04 - Elevation: 62° - Azimuth: 110° - SNR: 35 dB
  Satellite 3 PRN: 06 - Elevation: 07° - Azimuth: 260° - SNR: 20 dB
  Satellite 4 PRN: 07 - Elevation: 49° - Azimuth: 251° - SNR: 34 dB

2024-10-15 15:49:44,534 [INFO] Processing sentence: $GPGSV,4,2,13,09,80,301,37,11,12,301,27,16,45,069,33,20,16,321,29,1*64
2024-10-15 15:49:44,534 [INFO] Received Standard NMEA Message: $GPGSV,4,2,13,09,80,301,37,11,12,301,27,16,45,069,33,20,16,321,29,1*64
2024-10-15 15:49:44,534 [INFO] GSV - Satellites in View:
  Number of Messages: 4
  Message Number: 2
  Total Satellites in View: 13
  Satellite 1 PRN: 09 - Elevation: 80° - Azimuth: 301° - SNR: 37 dB
  Satellite 2 PRN: 11 - Elevation: 12° - Azimuth: 301° - SNR: 27 dB
  Satellite 3 PRN: 16 - Elevation: 45° - Azimuth: 069° - SNR: 33 dB
  Satellite 4 PRN: 20 - Elevation: 16° - Azimuth: 321° - SNR: 29 dB

2024-10-15 15:49:44,534 [INFO] Processing sentence: $GPGSV,4,3,13,26,18,045,29,27,10,107,29,30,17,249,26,31,04,066,15,1*63
2024-10-15 15:49:44,534 [INFO] Received Standard NMEA Message: $GPGSV,4,3,13,26,18,045,29,27,10,107,29,30,17,249,26,31,04,066,15,1*63
2024-10-15 15:49:44,535 [INFO] GSV - Satellites in View:
  Number of Messages: 4
  Message Number: 3
  Total Satellites in View: 13
  Satellite 1 PRN: 26 - Elevation: 18° - Azimuth: 045° - SNR: 29 dB
  Satellite 2 PRN: 27 - Elevation: 10° - Azimuth: 107° - SNR: 29 dB
  Satellite 3 PRN: 30 - Elevation: 17° - Azimuth: 249° - SNR: 26 dB
  Satellite 4 PRN: 31 - Elevation: 04° - Azimuth: 066° - SNR: 15 dB

2024-10-15 15:49:44,535 [INFO] Processing sentence: $GPGSV,4,4,13,44,33,172,33,1*52
2024-10-15 15:49:44,535 [INFO] Received Standard NMEA Message: $GPGSV,4,4,13,44,33,172,33,1*52
2024-10-15 15:49:44,535 [INFO] GSV - Satellites in View:
  Number of Messages: 4
  Message Number: 4
  Total Satellites in View: 13
  Satellite 1 PRN: 44 - Elevation: 33° - Azimuth: 172° - SNR: 33 dB
  Satellite 2 PRN: 1 - Elevation: ° - Azimuth: ° - SNR:  dB
  Satellite 3 PRN:  - Elevation: ° - Azimuth: ° - SNR:  dB
  Satellite 4 PRN:  - Elevation: ° - Azimuth: ° - SNR:  dB

2024-10-15 15:49:44,535 [INFO] Processing sentence: $GPGSV,1,1,03,04,62,110,23,09,80,301,23,11,12,301,12,8*5F
2024-10-15 15:49:44,535 [INFO] Received Standard NMEA Message: $GPGSV,1,1,03,04,62,110,23,09,80,301,23,11,12,301,12,8*5F
2024-10-15 15:49:44,535 [INFO] GSV - Satellites in View:
  Number of Messages: 1
  Message Number: 1
  Total Satellites in View: 03
  Satellite 1 PRN: 04 - Elevation: 62° - Azimuth: 110° - SNR: 23 dB
  Satellite 2 PRN: 09 - Elevation: 80° - Azimuth: 301° - SNR: 23 dB
  Satellite 3 PRN: 11 - Elevation: 12° - Azimuth: 301° - SNR: 12 dB
  Satellite 4 PRN: 8 - Elevation: ° - Azimuth: ° - SNR:  dB

2024-10-15 15:49:44,535 [INFO] Processing sentence: $GLGSV,1,1,01,68,,,20,1*75
2024-10-15 15:49:44,535 [INFO] Received Standard NMEA Message: $GLGSV,1,1,01,68,,,20,1*75
2024-10-15 15:49:44,536 [INFO] GSV - Satellites in View:
  Number of Messages: 1
  Message Number: 1
  Total Satellites in View: 01
  Satellite 1 PRN: 68 - Elevation: ° - Azimuth: ° - SNR: 20 dB
  Satellite 2 PRN: 1 - Elevation: ° - Azimuth: ° - SNR:  dB
  Satellite 3 PRN:  - Elevation: ° - Azimuth: ° - SNR:  dB
  Satellite 4 PRN:  - Elevation: ° - Azimuth: ° - SNR:  dB

2024-10-15 15:49:44,536 [INFO] Processing sentence: $GAGSV,3,1,09,02,35,173,28,03,68,106,33,05,16,112,25,07,,,21,7*4A
2024-10-15 15:49:44,536 [INFO] Received Standard NMEA Message: $GAGSV,3,1,09,02,35,173,28,03,68,106,33,05,16,112,25,07,,,21,7*4A
2024-10-15 15:49:44,536 [INFO] GSV - Satellites in View:
  Number of Messages: 3
  Message Number: 1
  Total Satellites in View: 09
  Satellite 1 PRN: 02 - Elevation: 35° - Azimuth: 173° - SNR: 28 dB
  Satellite 2 PRN: 03 - Elevation: 68° - Azimuth: 106° - SNR: 33 dB
  Satellite 3 PRN: 05 - Elevation: 16° - Azimuth: 112° - SNR: 25 dB
  Satellite 4 PRN: 07 - Elevation: ° - Azimuth: ° - SNR: 21 dB

2024-10-15 15:49:44,536 [INFO] Processing sentence: $GAGSV,3,2,09,08,55,298,32,13,14,270,20,24,21,042,26,25,55,095,30,7*7E
2024-10-15 15:49:44,536 [INFO] Received Standard NMEA Message: $GAGSV,3,2,09,08,55,298,32,13,14,270,20,24,21,042,26,25,55,095,30,7*7E
2024-10-15 15:49:44,536 [INFO] GSV - Satellites in View:
  Number of Messages: 3
  Message Number: 2
  Total Satellites in View: 09
  Satellite 1 PRN: 08 - Elevation: 55° - Azimuth: 298° - SNR: 32 dB
  Satellite 2 PRN: 13 - Elevation: 14° - Azimuth: 270° - SNR: 20 dB
  Satellite 3 PRN: 24 - Elevation: 21° - Azimuth: 042° - SNR: 26 dB
  Satellite 4 PRN: 25 - Elevation: 55° - Azimuth: 095° - SNR: 30 dB

2024-10-15 15:49:44,536 [INFO] Processing sentence: $GAGSV,3,3,09,26,,,23,7*7F
2024-10-15 15:49:44,536 [INFO] Received Standard NMEA Message: $GAGSV,3,3,09,26,,,23,7*7F
2024-10-15 15:49:44,536 [INFO] GSV - Satellites in View:
  Number of Messages: 3
  Message Number: 3
  Total Satellites in View: 09
  Satellite 1 PRN: 26 - Elevation: ° - Azimuth: ° - SNR: 23 dB
  Satellite 2 PRN: 7 - Elevation: ° - Azimuth: ° - SNR:  dB
  Satellite 3 PRN:  - Elevation: ° - Azimuth: ° - SNR:  dB
  Satellite 4 PRN:  - Elevation: ° - Azimuth: ° - SNR:  dB

2024-10-15 15:49:44,537 [INFO] Processing sentence: $GAGSV,1,1,04,02,35,173,17,03,68,106,20,08,55,298,20,25,55,095,19,1*74
2024-10-15 15:49:44,537 [INFO] Received Standard NMEA Message: $GAGSV,1,1,04,02,35,173,17,03,68,106,20,08,55,298,20,25,55,095,19,1*74
2024-10-15 15:49:44,537 [INFO] GSV - Satellites in View:
  Number of Messages: 1
  Message Number: 1
  Total Satellites in View: 04
  Satellite 1 PRN: 02 - Elevation: 35° - Azimuth: 173° - SNR: 17 dB
  Satellite 2 PRN: 03 - Elevation: 68° - Azimuth: 106° - SNR: 20 dB
  Satellite 3 PRN: 08 - Elevation: 55° - Azimuth: 298° - SNR: 20 dB
  Satellite 4 PRN: 25 - Elevation: 55° - Azimuth: 095° - SNR: 19 dB

2024-10-15 15:49:44,537 [INFO] Processing sentence: $GBGSV,2,1,07,08,,,22,19,44,153,36,21,22,312,30,22,71,274,41,1*42
2024-10-15 15:49:44,537 [INFO] Received Standard NMEA Message: $GBGSV,2,1,07,08,,,22,19,44,153,36,21,22,312,30,22,71,274,41,1*42
2024-10-15 15:49:44,537 [INFO] GSV - Satellites in View:
  Number of Messages: 2
  Message Number: 1
  Total Satellites in View: 07
  Satellite 1 PRN: 08 - Elevation: ° - Azimuth: ° - SNR: 22 dB
  Satellite 2 PRN: 19 - Elevation: 44° - Azimuth: 153° - SNR: 36 dB
  Satellite 3 PRN: 21 - Elevation: 22° - Azimuth: 312° - SNR: 30 dB
  Satellite 4 PRN: 22 - Elevation: 71° - Azimuth: 274° - SNR: 41 dB

2024-10-15 15:49:44,537 [INFO] Processing sentence: $GBGSV,2,2,07,36,71,192,39,38,13,331,30,45,22,221,31,1*4B
2024-10-15 15:49:44,537 [INFO] Received Standard NMEA Message: $GBGSV,2,2,07,36,71,192,39,38,13,331,30,45,22,221,31,1*4B
2024-10-15 15:49:44,537 [INFO] GSV - Satellites in View:
  Number of Messages: 2
  Message Number: 2
  Total Satellites in View: 07
  Satellite 1 PRN: 36 - Elevation: 71° - Azimuth: 192° - SNR: 39 dB
  Satellite 2 PRN: 38 - Elevation: 13° - Azimuth: 331° - SNR: 30 dB
  Satellite 3 PRN: 45 - Elevation: 22° - Azimuth: 221° - SNR: 31 dB
  Satellite 4 PRN: 1 - Elevation: ° - Azimuth: ° - SNR:  dB

2024-10-15 15:49:44,537 [INFO] Processing sentence: $GBGSV,1,1,03,19,44,153,20,22,71,274,19,36,71,192,23,5*4B
2024-10-15 15:49:44,538 [INFO] Received Standard NMEA Message: $GBGSV,1,1,03,19,44,153,20,22,71,274,19,36,71,192,23,5*4B
2024-10-15 15:49:44,538 [INFO] GSV - Satellites in View:
  Number of Messages: 1
  Message Number: 1
  Total Satellites in View: 03
  Satellite 1 PRN: 19 - Elevation: 44° - Azimuth: 153° - SNR: 20 dB
  Satellite 2 PRN: 22 - Elevation: 71° - Azimuth: 274° - SNR: 19 dB
  Satellite 3 PRN: 36 - Elevation: 71° - Azimuth: 192° - SNR: 23 dB
  Satellite 4 PRN: 5 - Elevation: ° - Azimuth: ° - SNR:  dB

2024-10-15 15:49:44,538 [INFO] Processing sentence: $GQGSV,1,1,00,1*65
2024-10-15 15:49:44,538 [INFO] Received Standard NMEA Message: $GQGSV,1,1,00,1*65
2024-10-15 15:49:44,538 [INFO] GSV - Satellites in View:
  Number of Messages: 1
  Message Number: 1
  Total Satellites in View: 00
  Satellite 1 PRN: 1 - Elevation: ° - Azimuth: ° - SNR:  dB
  Satellite 2 PRN:  - Elevation: ° - Azimuth: ° - SNR:  dB
  Satellite 3 PRN:  - Elevation: ° - Azimuth: ° - SNR:  dB
  Satellite 4 PRN:  - Elevation: ° - Azimuth: ° - SNR:  dB

2024-10-15 15:49:44,538 [INFO] Processing sentence: $GQGSV,1,1,00,8*6C
2024-10-15 15:49:44,538 [INFO] Received Standard NMEA Message: $GQGSV,1,1,00,8*6C
2024-10-15 15:49:44,538 [INFO] GSV - Satellites in View:
  Number of Messages: 1
  Message Number: 1
  Total Satellites in View: 00
  Satellite 1 PRN: 8 - Elevation: ° - Azimuth: ° - SNR:  dB
  Satellite 2 PRN:  - Elevation: ° - Azimuth: ° - SNR:  dB
  Satellite 3 PRN:  - Elevation: ° - Azimuth: ° - SNR:  dB
  Satellite 4 PRN:  - Elevation: ° - Azimuth: ° - SNR:  dB

2024-10-15 15:49:44,538 [INFO] Processing sentence: $GNGGA,222111.000,4910.425548,N,12304.401631,W,1,25,0.64,4.100,M,-16.816,M,,*45
2024-10-15 15:49:44,538 [INFO] Received Standard NMEA Message: $GNGGA,222111.000,4910.425548,N,12304.401631,W,1,25,0.64,4.100,M,-16.816,M,,*45
2024-10-15 15:49:44,539 [INFO] GGA - Fix Data:
  Timestamp: 22:21:11+00:00
  Latitude: 49.173759133333334 N
  Longitude: -123.07336051666667 W
  GPS Quality Indicator: 1
  Number of Satellites in Use: 25
  Horizontal Dilution of Precision (HDOP): 0.64
  Antenna Altitude (Above Mean Sea Level): 4.1 M
  Geoidal Separation: -16.816 M
  Age of Differential GPS Data: 
  Differential Reference Station ID: 

2024-10-15 15:49:44,539 [INFO] Processing sentence: $GNRMC,222111.000,A,4910.425548,N,12304.401631,W,0.004,126.46,151024,,,A,V*28
2024-10-15 15:49:44,539 [INFO] Received Standard NMEA Message: $GNRMC,222111.000,A,4910.425548,N,12304.401631,W,0.004,126.46,151024,,,A,V*28
2024-10-15 15:49:44,539 [INFO] RMC - Recommended Minimum:
  Timestamp: 22:21:11+00:00
  Status: A
  Latitude: 49.173759133333334 N
  Longitude: -123.07336051666667 W
  Speed over Ground: 0.004 knots
  Course over Ground: 126.46
  Date: 2024-10-15
  Magnetic Variation:  
  Mode Indicator: A
  Navigational Status: V

2024-10-15 15:49:44,539 [INFO] Processing sentence: $GNGLL,4910.425548,N,12304.401631,W,222111.000,A,A*55
2024-10-15 15:49:44,539 [INFO] Received Standard NMEA Message: $GNGLL,4910.425548,N,12304.401631,W,222111.000,A,A*55
2024-10-15 15:49:44,539 [INFO] GLL - Geographic Position:
  Latitude: 49.173759133333334 N
  Longitude: -123.07336051666667 W
  Timestamp: 22:21:11+00:00
  Status: A
  FAA Mode: A

2024-10-15 15:49:44,539 [INFO] Processing sentence: $GNVTG,126.46,T,,M,0.004,N,0.007,K,A*27
2024-10-15 15:49:44,539 [INFO] Received Standard NMEA Message: $GNVTG,126.46,T,,M,0.004,N,0.007,K,A*27
2024-10-15 15:49:44,540 [INFO] VTG - Course over Ground and Ground Speed:
  True Track: 126.46° T
  Magnetic Track: None° M
  Speed over Ground: 0.004 knots / 0.007 km/h
  FAA Mode: A

2024-10-15 15:49:44,540 [INFO] Processing sentence: $GNGSA,A,3,03,04,06,07,09,11,16,20,26,27,30,31,0.96,0.64,0.71,1*00
2024-10-15 15:49:44,540 [INFO] Received Standard NMEA Message: $GNGSA,A,3,03,04,06,07,09,11,16,20,26,27,30,31,0.96,0.64,0.71,1*00
2024-10-15 15:49:44,540 [INFO] GSA - Satellite Info:
  Mode: A
  Mode Fix Type: 3
  Satellites Used: 03, 04, 06, 07, 09, 11, 16, 20, 26, 27, 30, 31
  PDOP: 0.96
  HDOP: 0.64
  VDOP: 0.71

2024-10-15 15:49:44,540 [INFO] Processing sentence: $GNGSA,A,3,,,,,,,,,,,,,0.96,0.64,0.71,2*09
2024-10-15 15:49:44,540 [INFO] Received Standard NMEA Message: $GNGSA,A,3,,,,,,,,,,,,,0.96,0.64,0.71,2*09
2024-10-15 15:49:44,540 [INFO] GSA - Satellite Info:
  Mode: A
  Mode Fix Type: 3
  Satellites Used: 
  PDOP: 0.96
  HDOP: 0.64
  VDOP: 0.71

2024-10-15 15:49:44,540 [INFO] Processing sentence: $GNGSA,A,3,02,03,05,08,13,24,25,,,,,,0.96,0.64,0.71,3*07
2024-10-15 15:49:44,540 [INFO] Received Standard NMEA Message: $GNGSA,A,3,02,03,05,08,13,24,25,,,,,,0.96,0.64,0.71,3*07
2024-10-15 15:49:44,540 [INFO] GSA - Satellite Info:
  Mode: A
  Mode Fix Type: 3
  Satellites Used: 02, 03, 05, 08, 13, 24, 25
  PDOP: 0.96
  HDOP: 0.64
  VDOP: 0.71

2024-10-15 15:49:44,540 [INFO] Processing sentence: $GNGSA,A,3,19,21,22,36,38,45,,,,,,,0.96,0.64,0.71,4*0B
2024-10-15 15:49:44,540 [INFO] Received Standard NMEA Message: $GNGSA,A,3,19,21,22,36,38,45,,,,,,,0.96,0.64,0.71,4*0B
2024-10-15 15:49:44,540 [INFO] GSA - Satellite Info:
  Mode: A
  Mode Fix Type: 3
  Satellites Used: 19, 21, 22, 36, 38, 45
  PDOP: 0.96
  HDOP: 0.64
  VDOP: 0.71

2024-10-15 15:49:44,541 [INFO] Processing sentence: $GNGSA,A,3,,,,,,,,,,,,,0.96,0.64,0.71,5*0E
2024-10-15 15:49:44,541 [INFO] Received Standard NMEA Message: $GNGSA,A,3,,,,,,,,,,,,,0.96,0.64,0.71,5*0E
2024-10-15 15:49:44,541 [INFO] GSA - Satellite Info:
  Mode: A
  Mode Fix Type: 3
  Satellites Used: 
  PDOP: 0.96
  HDOP: 0.64
  VDOP: 0.71

2024-10-15 15:49:44,541 [INFO] Processing sentence: $GPGSV,4,1,13,03,15,174,28,04,62,110,35,06,07,260,20,07,49,251,35,1*67
2024-10-15 15:49:44,541 [INFO] Received Standard NMEA Message: $GPGSV,4,1,13,03,15,174,28,04,62,110,35,06,07,260,20,07,49,251,35,1*67
2024-10-15 15:49:44,541 [INFO] GSV - Satellites in View:
  Number of Messages: 4
  Message Number: 1
  Total Satellites in View: 13
  Satellite 1 PRN: 03 - Elevation: 15° - Azimuth: 174° - SNR: 28 dB
  Satellite 2 PRN: 04 - Elevation: 62° - Azimuth: 110° - SNR: 35 dB
  Satellite 3 PRN: 06 - Elevation: 07° - Azimuth: 260° - SNR: 20 dB
  Satellite 4 PRN: 07 - Elevation: 49° - Azimuth: 251° - SNR: 35 dB

2024-10-15 15:49:44,541 [INFO] Processing sentence: $GPGSV,4,2,13,09,80,301,38,11,12,301,28,16,45,069,34,20,16,320,30,1*6A
2024-10-15 15:49:44,541 [INFO] Received Standard NMEA Message: $GPGSV,4,2,13,09,80,301,38,11,12,301,28,16,45,069,34,20,16,320,30,1*6A
2024-10-15 15:49:44,541 [INFO] GSV - Satellites in View:
  Number of Messages: 4
  Message Number: 2
  Total Satellites in View: 13
  Satellite 1 PRN: 09 - Elevation: 80° - Azimuth: 301° - SNR: 38 dB
  Satellite 2 PRN: 11 - Elevation: 12° - Azimuth: 301° - SNR: 28 dB
  Satellite 3 PRN: 16 - Elevation: 45° - Azimuth: 069° - SNR: 34 dB
  Satellite 4 PRN: 20 - Elevation: 16° - Azimuth: 320° - SNR: 30 dB

2024-10-15 15:49:44,541 [INFO] Processing sentence: $GPGSV,4,3,13,26,18,045,30,27,10,106,29,30,17,249,27,31,04,066,16,1*68
2024-10-15 15:49:44,541 [INFO] Received Standard NMEA Message: $GPGSV,4,3,13,26,18,045,30,27,10,106,29,30,17,249,27,31,04,066,16,1*68
2024-10-15 15:49:44,542 [INFO] GSV - Satellites in View:
  Number of Messages: 4
  Message Number: 3
  Total Satellites in View: 13
  Satellite 1 PRN: 26 - Elevation: 18° - Azimuth: 045° - SNR: 30 dB
  Satellite 2 PRN: 27 - Elevation: 10° - Azimuth: 106° - SNR: 29 dB
  Satellite 3 PRN: 30 - Elevation: 17° - Azimuth: 249° - SNR: 27 dB
  Satellite 4 PRN: 31 - Elevation: 04° - Azimuth: 066° - SNR: 16 dB

2024-10-15 15:49:44,542 [INFO] Processing sentence: $GPGSV,4,4,13,44,33,172,33,1*52
2024-10-15 15:49:44,542 [INFO] Received Standard NMEA Message: $GPGSV,4,4,13,44,33,172,33,1*52
2024-10-15 15:49:44,542 [INFO] GSV - Satellites in View:
  Number of Messages: 4
  Message Number: 4
  Total Satellites in View: 13
  Satellite 1 PRN: 44 - Elevation: 33° - Azimuth: 172° - SNR: 33 dB
  Satellite 2 PRN: 1 - Elevation: ° - Azimuth: ° - SNR:  dB
  Satellite 3 PRN:  - Elevation: ° - Azimuth: ° - SNR:  dB
  Satellite 4 PRN:  - Elevation: ° - Azimuth: ° - SNR:  dB

2024-10-15 15:49:44,542 [INFO] Processing sentence: $GPGSV,1,1,03,04,62,110,23,09,80,301,23,11,12,301,11,8*5C
2024-10-15 15:49:44,542 [INFO] Received Standard NMEA Message: $GPGSV,1,1,03,04,62,110,23,09,80,301,23,11,12,301,11,8*5C
2024-10-15 15:49:44,542 [INFO] GSV - Satellites in View:
  Number of Messages: 1
  Message Number: 1
  Total Satellites in View: 03
  Satellite 1 PRN: 04 - Elevation: 62° - Azimuth: 110° - SNR: 23 dB
  Satellite 2 PRN: 09 - Elevation: 80° - Azimuth: 301° - SNR: 23 dB
  Satellite 3 PRN: 11 - Elevation: 12° - Azimuth: 301° - SNR: 11 dB
  Satellite 4 PRN: 8 - Elevation: ° - Azimuth: ° - SNR:  dB

2024-10-15 15:49:44,542 [INFO] Processing sentence: $GLGSV,1,1,01,68,,,22,1*77
2024-10-15 15:49:44,542 [INFO] Received Standard NMEA Message: $GLGSV,1,1,01,68,,,22,1*77
2024-10-15 15:49:44,542 [INFO] GSV - Satellites in View:
  Number of Messages: 1
  Message Number: 1
  Total Satellites in View: 01
  Satellite 1 PRN: 68 - Elevation: ° - Azimuth: ° - SNR: 22 dB
  Satellite 2 PRN: 1 - Elevation: ° - Azimuth: ° - SNR:  dB
  Satellite 3 PRN:  - Elevation: ° - Azimuth: ° - SNR:  dB
  Satellite 4 PRN:  - Elevation: ° - Azimuth: ° - SNR:  dB

2024-10-15 15:49:44,543 [INFO] Processing sentence: $GAGSV,3,1,09,02,35,173,30,03,67,106,35,05,16,112,28,07,,,23,7*45
2024-10-15 15:49:44,543 [INFO] Received Standard NMEA Message: $GAGSV,3,1,09,02,35,173,30,03,67,106,35,05,16,112,28,07,,,23,7*45
2024-10-15 15:49:44,543 [INFO] GSV - Satellites in View:
  Number of Messages: 3
  Message Number: 1
  Total Satellites in View: 09
  Satellite 1 PRN: 02 - Elevation: 35° - Azimuth: 173° - SNR: 30 dB
  Satellite 2 PRN: 03 - Elevation: 67° - Azimuth: 106° - SNR: 35 dB
  Satellite 3 PRN: 05 - Elevation: 16° - Azimuth: 112° - SNR: 28 dB
  Satellite 4 PRN: 07 - Elevation: ° - Azimuth: ° - SNR: 23 dB

2024-10-15 15:49:44,543 [INFO] Processing sentence: $GAGSV,3,2,09,08,55,298,34,13,14,270,21,24,21,042,27,25,55,095,31,7*79
2024-10-15 15:49:44,543 [INFO] Received Standard NMEA Message: $GAGSV,3,2,09,08,55,298,34,13,14,270,21,24,21,042,27,25,55,095,31,7*79
2024-10-15 15:49:44,543 [INFO] GSV - Satellites in View:
  Number of Messages: 3
  Message Number: 2
  Total Satellites in View: 09
  Satellite 1 PRN: 08 - Elevation: 55° - Azimuth: 298° - SNR: 34 dB
  Satellite 2 PRN: 13 - Elevation: 14° - Azimuth: 270° - SNR: 21 dB
  Satellite 3 PRN: 24 - Elevation: 21° - Azimuth: 042° - SNR: 27 dB
  Satellite 4 PRN: 25 - Elevation: 55° - Azimuth: 095° - SNR: 31 dB

2024-10-15 15:49:44,543 [INFO] Processing sentence: $GAGSV,3,3,09,26,,,24,7*78
2024-10-15 15:49:44,543 [INFO] Received Standard NMEA Message: $GAGSV,3,3,09,26,,,24,7*78
2024-10-15 15:49:44,543 [INFO] GSV - Satellites in View:
  Number of Messages: 3
  Message Number: 3
  Total Satellites in View: 09
  Satellite 1 PRN: 26 - Elevation: ° - Azimuth: ° - SNR: 24 dB
  Satellite 2 PRN: 7 - Elevation: ° - Azimuth: ° - SNR:  dB
  Satellite 3 PRN:  - Elevation: ° - Azimuth: ° - SNR:  dB
  Satellite 4 PRN:  - Elevation: ° - Azimuth: ° - SNR:  dB

2024-10-15 15:49:44,543 [INFO] Processing sentence: $GAGSV,1,1,04,02,35,173,17,03,67,106,21,08,55,298,20,25,55,095,22,1*72
2024-10-15 15:49:44,543 [INFO] Received Standard NMEA Message: $GAGSV,1,1,04,02,35,173,17,03,67,106,21,08,55,298,20,25,55,095,22,1*72
2024-10-15 15:49:44,544 [INFO] GSV - Satellites in View:
  Number of Messages: 1
  Message Number: 1
  Total Satellites in View: 04
  Satellite 1 PRN: 02 - Elevation: 35° - Azimuth: 173° - SNR: 17 dB
  Satellite 2 PRN: 03 - Elevation: 67° - Azimuth: 106° - SNR: 21 dB
  Satellite 3 PRN: 08 - Elevation: 55° - Azimuth: 298° - SNR: 20 dB
  Satellite 4 PRN: 25 - Elevation: 55° - Azimuth: 095° - SNR: 22 dB

2024-10-15 15:49:44,544 [INFO] Processing sentence: $GBGSV,2,1,07,08,,,22,19,44,153,37,21,22,312,31,22,71,274,42,1*41
2024-10-15 15:49:44,544 [INFO] Received Standard NMEA Message: $GBGSV,2,1,07,08,,,22,19,44,153,37,21,22,312,31,22,71,274,42,1*41
2024-10-15 15:49:44,544 [INFO] GSV - Satellites in View:
  Number of Messages: 2
  Message Number: 1
  Total Satellites in View: 07
  Satellite 1 PRN: 08 - Elevation: ° - Azimuth: ° - SNR: 22 dB
  Satellite 2 PRN: 19 - Elevation: 44° - Azimuth: 153° - SNR: 37 dB
  Satellite 3 PRN: 21 - Elevation: 22° - Azimuth: 312° - SNR: 31 dB
  Satellite 4 PRN: 22 - Elevation: 71° - Azimuth: 274° - SNR: 42 dB

2024-10-15 15:49:44,544 [INFO] Processing sentence: $GBGSV,2,2,07,36,71,192,39,38,13,331,31,45,22,221,31,1*4A
2024-10-15 15:49:44,544 [INFO] Received Standard NMEA Message: $GBGSV,2,2,07,36,71,192,39,38,13,331,31,45,22,221,31,1*4A
2024-10-15 15:49:44,544 [INFO] GSV - Satellites in View:
  Number of Messages: 2
  Message Number: 2
  Total Satellites in View: 07
  Satellite 1 PRN: 36 - Elevation: 71° - Azimuth: 192° - SNR: 39 dB
  Satellite 2 PRN: 38 - Elevation: 13° - Azimuth: 331° - SNR: 31 dB
  Satellite 3 PRN: 45 - Elevation: 22° - Azimuth: 221° - SNR: 31 dB
  Satellite 4 PRN: 1 - Elevation: ° - Azimuth: ° - SNR:  dB

2024-10-15 15:49:44,544 [INFO] Processing sentence: $GBGSV,1,1,03,19,44,153,22,22,71,274,20,36,71,192,24,5*44
2024-10-15 15:49:44,544 [INFO] Received Standard NMEA Message: $GBGSV,1,1,03,19,44,153,22,22,71,274,20,36,71,192,24,5*44
2024-10-15 15:49:44,545 [INFO] GSV - Satellites in View:
  Number of Messages: 1
  Message Number: 1
  Total Satellites in View: 03
  Satellite 1 PRN: 19 - Elevation: 44° - Azimuth: 153° - SNR: 22 dB
  Satellite 2 PRN: 22 - Elevation: 71° - Azimuth: 274° - SNR: 20 dB
  Satellite 3 PRN: 36 - Elevation: 71° - Azimuth: 192° - SNR: 24 dB
  Satellite 4 PRN: 5 - Elevation: ° - Azimuth: ° - SNR:  dB

2024-10-15 15:49:44,545 [INFO] Processing sentence: $GQGSV,1,1,00,1*65
2024-10-15 15:49:44,545 [INFO] Received Standard NMEA Message: $GQGSV,1,1,00,1*65
2024-10-15 15:49:44,545 [INFO] GSV - Satellites in View:
  Number of Messages: 1
  Message Number: 1
  Total Satellites in View: 00
  Satellite 1 PRN: 1 - Elevation: ° - Azimuth: ° - SNR:  dB
  Satellite 2 PRN:  - Elevation: ° - Azimuth: ° - SNR:  dB
  Satellite 3 PRN:  - Elevation: ° - Azimuth: ° - SNR:  dB
  Satellite 4 PRN:  - Elevation: ° - Azimuth: ° - SNR:  dB

2024-10-15 15:49:44,545 [INFO] Processing sentence: $GQGSV,1,1,00,8*6C
2024-10-15 15:49:44,545 [INFO] Received Standard NMEA Message: $GQGSV,1,1,00,8*6C
2024-10-15 15:49:44,545 [INFO] GSV - Satellites in View:
  Number of Messages: 1
  Message Number: 1
  Total Satellites in View: 00
  Satellite 1 PRN: 8 - Elevation: ° - Azimuth: ° - SNR:  dB
  Satellite 2 PRN:  - Elevation: ° - Azimuth: ° - SNR:  dB
  Satellite 3 PRN:  - Elevation: ° - Azimuth: ° - SNR:  dB
  Satellite 4 PRN:  - Elevation: ° - Azimuth: ° - SNR:  dB

2024-10-15 15:49:44,545 [INFO] Processing sentence: $GNGGA,222112.000,4910.425549,N,12304.401633,W,1,25,0.63,4.100,M,-16.817,M,,*43
2024-10-15 15:49:44,545 [INFO] Received Standard NMEA Message: $GNGGA,222112.000,4910.425549,N,12304.401633,W,1,25,0.63,4.100,M,-16.817,M,,*43
2024-10-15 15:49:44,545 [INFO] GGA - Fix Data:
  Timestamp: 22:21:12+00:00
  Latitude: 49.17375915 N
  Longitude: -123.07336055 W
  GPS Quality Indicator: 1
  Number of Satellites in Use: 25
  Horizontal Dilution of Precision (HDOP): 0.63
  Antenna Altitude (Above Mean Sea Level): 4.1 M
  Geoidal Separation: -16.817 M
  Age of Differential GPS Data: 
  Differential Reference Station ID: 

2024-10-15 15:49:44,546 [INFO] Processing sentence: $GNRMC,222112.000,A,4910.425549,N,12304.401633,W,0.003,126.46,151024,,,A,V*2F
2024-10-15 15:49:44,546 [INFO] Received Standard NMEA Message: $GNRMC,222112.000,A,4910.425549,N,12304.401633,W,0.003,126.46,151024,,,A,V*2F
2024-10-15 15:49:44,546 [INFO] RMC - Recommended Minimum:
  Timestamp: 22:21:12+00:00
  Status: A
  Latitude: 49.17375915 N
  Longitude: -123.07336055 W
  Speed over Ground: 0.003 knots
  Course over Ground: 126.46
  Date: 2024-10-15
  Magnetic Variation:  
  Mode Indicator: A
  Navigational Status: V

2024-10-15 15:49:44,546 [INFO] Processing sentence: $GNGLL,4910.425549,N,12304.401633,W,222112.000,A,A*55
2024-10-15 15:49:44,546 [INFO] Received Standard NMEA Message: $GNGLL,4910.425549,N,12304.401633,W,222112.000,A,A*55
2024-10-15 15:49:44,546 [INFO] GLL - Geographic Position:
  Latitude: 49.17375915 N
  Longitude: -123.07336055 W
  Timestamp: 22:21:12+00:00
  Status: A
  FAA Mode: A

2024-10-15 15:49:44,546 [INFO] Processing sentence: $GNVTG,126.46,T,,M,0.003,N,0.006,K,A*21
2024-10-15 15:49:44,546 [INFO] Received Standard NMEA Message: $GNVTG,126.46,T,,M,0.003,N,0.006,K,A*21
2024-10-15 15:49:44,547 [INFO] VTG - Course over Ground and Ground Speed:
  True Track: 126.46° T
  Magnetic Track: None° M
  Speed over Ground: 0.003 knots / 0.006 km/h
  FAA Mode: A

2024-10-15 15:49:44,547 [INFO] Processing sentence: $GNGSA,A,3,03,04,06,07,09,11,16,20,26,27,30,31,0.94,0.63,0.70,1*04
2024-10-15 15:49:44,547 [INFO] Received Standard NMEA Message: $GNGSA,A,3,03,04,06,07,09,11,16,20,26,27,30,31,0.94,0.63,0.70,1*04
2024-10-15 15:49:44,547 [INFO] GSA - Satellite Info:
  Mode: A
  Mode Fix Type: 3
  Satellites Used: 03, 04, 06, 07, 09, 11, 16, 20, 26, 27, 30, 31
  PDOP: 0.94
  HDOP: 0.63
  VDOP: 0.70

2024-10-15 15:49:44,547 [INFO] Processing sentence: $GNGSA,A,3,,,,,,,,,,,,,0.94,0.63,0.70,2*0D
2024-10-15 15:49:44,547 [INFO] Received Standard NMEA Message: $GNGSA,A,3,,,,,,,,,,,,,0.94,0.63,0.70,2*0D
2024-10-15 15:49:44,547 [INFO] GSA - Satellite Info:
  Mode: A
  Mode Fix Type: 3
  Satellites Used: 
  PDOP: 0.94
  HDOP: 0.63
  VDOP: 0.70

2024-10-15 15:49:44,547 [INFO] Processing sentence: $GNGSA,A,3,02,03,05,08,13,24,25,,,,,,0.94,0.63,0.70,3*03
2024-10-15 15:49:44,547 [INFO] Received Standard NMEA Message: $GNGSA,A,3,02,03,05,08,13,24,25,,,,,,0.94,0.63,0.70,3*03
2024-10-15 15:49:44,548 [INFO] GSA - Satellite Info:
  Mode: A
  Mode Fix Type: 3
  Satellites Used: 02, 03, 05, 08, 13, 24, 25
  PDOP: 0.94
  HDOP: 0.63
  VDOP: 0.70

2024-10-15 15:49:44,548 [INFO] Processing sentence: $GNGSA,A,3,19,21,22,36,38,45,,,,,,,0.94,0.63,0.70,4*0F
2024-10-15 15:49:44,548 [INFO] Received Standard NMEA Message: $GNGSA,A,3,19,21,22,36,38,45,,,,,,,0.94,0.63,0.70,4*0F
2024-10-15 15:49:44,548 [INFO] GSA - Satellite Info:
  Mode: A
  Mode Fix Type: 3
  Satellites Used: 19, 21, 22, 36, 38, 45
  PDOP: 0.94
  HDOP: 0.63
  VDOP: 0.70

2024-10-15 15:49:44,548 [INFO] Processing sentence: $GNGSA,A,3,,,,,,,,,,,,,0.94,0.63,0.70,5*0A
2024-10-15 15:49:44,548 [INFO] Received Standard NMEA Message: $GNGSA,A,3,,,,,,,,,,,,,0.94,0.63,0.70,5*0A
2024-10-15 15:49:44,548 [INFO] GSA - Satellite Info:
  Mode: A
  Mode Fix Type: 3
  Satellites Used: 
  PDOP: 0.94
  HDOP: 0.63
  VDOP: 0.70

2024-10-15 15:49:44,548 [INFO] Processing sentence: $GPGSV,4,1,13,03,15,174,28,04,62,110,35,06,07,260,19,07,49,251,36,1*6E
2024-10-15 15:49:44,548 [INFO] Received Standard NMEA Message: $GPGSV,4,1,13,03,15,174,28,04,62,110,35,06,07,260,19,07,49,251,36,1*6E
2024-10-15 15:49:44,548 [INFO] GSV - Satellites in View:
  Number of Messages: 4
  Message Number: 1
  Total Satellites in View: 13
  Satellite 1 PRN: 03 - Elevation: 15° - Azimuth: 174° - SNR: 28 dB
  Satellite 2 PRN: 04 - Elevation: 62° - Azimuth: 110° - SNR: 35 dB
  Satellite 3 PRN: 06 - Elevation: 07° - Azimuth: 260° - SNR: 19 dB
  Satellite 4 PRN: 07 - Elevation: 49° - Azimuth: 251° - SNR: 36 dB

2024-10-15 15:49:44,548 [INFO] Processing sentence: $GPGSV,4,2,13,09,80,301,38,11,12,301,28,16,45,069,35,20,16,320,29,1*63
2024-10-15 15:49:44,548 [INFO] Received Standard NMEA Message: $GPGSV,4,2,13,09,80,301,38,11,12,301,28,16,45,069,35,20,16,320,29,1*63
2024-10-15 15:49:44,549 [INFO] GSV - Satellites in View:
  Number of Messages: 4
  Message Number: 2
  Total Satellites in View: 13
  Satellite 1 PRN: 09 - Elevation: 80° - Azimuth: 301° - SNR: 38 dB
  Satellite 2 PRN: 11 - Elevation: 12° - Azimuth: 301° - SNR: 28 dB
  Satellite 3 PRN: 16 - Elevation: 45° - Azimuth: 069° - SNR: 35 dB
  Satellite 4 PRN: 20 - Elevation: 16° - Azimuth: 320° - SNR: 29 dB

2024-10-15 15:49:44,549 [INFO] Processing sentence: $GPGSV,4,3,13,26,18,045,30,27,10,106,29,30,17,249,27,31,04,066,17,1*69
2024-10-15 15:49:44,549 [INFO] Received Standard NMEA Message: $GPGSV,4,3,13,26,18,045,30,27,10,106,29,30,17,249,27,31,04,066,17,1*69
2024-10-15 15:49:44,549 [INFO] GSV - Satellites in View:
  Number of Messages: 4
  Message Number: 3
  Total Satellites in View: 13
  Satellite 1 PRN: 26 - Elevation: 18° - Azimuth: 045° - SNR: 30 dB
  Satellite 2 PRN: 27 - Elevation: 10° - Azimuth: 106° - SNR: 29 dB
  Satellite 3 PRN: 30 - Elevation: 17° - Azimuth: 249° - SNR: 27 dB
  Satellite 4 PRN: 31 - Elevation: 04° - Azimuth: 066° - SNR: 17 dB

2024-10-15 15:49:44,549 [INFO] Processing sentence: $GPGSV,4,4,13,44,33,172,33,1*52
2024-10-15 15:49:44,549 [INFO] Received Standard NMEA Message: $GPGSV,4,4,13,44,33,172,33,1*52
2024-10-15 15:49:44,549 [INFO] GSV - Satellites in View:
  Number of Messages: 4
  Message Number: 4
  Total Satellites in View: 13
  Satellite 1 PRN: 44 - Elevation: 33° - Azimuth: 172° - SNR: 33 dB
  Satellite 2 PRN: 1 - Elevation: ° - Azimuth: ° - SNR:  dB
  Satellite 3 PRN:  - Elevation: ° - Azimuth: ° - SNR:  dB
  Satellite 4 PRN:  - Elevation: ° - Azimuth: ° - SNR:  dB

2024-10-15 15:49:44,549 [INFO] Processing sentence: $GPGSV,1,1,03,04,62,110,25,09,80,301,24,11,12,301,12,8*5E
2024-10-15 15:49:44,549 [INFO] Received Standard NMEA Message: $GPGSV,1,1,03,04,62,110,25,09,80,301,24,11,12,301,12,8*5E
2024-10-15 15:49:44,550 [INFO] GSV - Satellites in View:
  Number of Messages: 1
  Message Number: 1
  Total Satellites in View: 03
  Satellite 1 PRN: 04 - Elevation: 62° - Azimuth: 110° - SNR: 25 dB
  Satellite 2 PRN: 09 - Elevation: 80° - Azimuth: 301° - SNR: 24 dB
  Satellite 3 PRN: 11 - Elevation: 12° - Azimuth: 301° - SNR: 12 dB
  Satellite 4 PRN: 8 - Elevation: ° - Azimuth: ° - SNR:  dB

2024-10-15 15:49:44,550 [INFO] Processing sentence: $GLGSV,1,1,01,68,,,20,1*75
2024-10-15 15:49:44,550 [INFO] Received Standard NMEA Message: $GLGSV,1,1,01,68,,,20,1*75
2024-10-15 15:49:44,550 [INFO] GSV - Satellites in View:
  Number of Messages: 1
  Message Number: 1
  Total Satellites in View: 01
  Satellite 1 PRN: 68 - Elevation: ° - Azimuth: ° - SNR: 20 dB
  Satellite 2 PRN: 1 - Elevation: ° - Azimuth: ° - SNR:  dB
  Satellite 3 PRN:  - Elevation: ° - Azimuth: ° - SNR:  dB
  Satellite 4 PRN:  - Elevation: ° - Azimuth: ° - SNR:  dB

2024-10-15 15:49:44,550 [INFO] Processing sentence: $GAGSV,3,1,09,02,35,173,30,03,67,106,34,05,16,112,27,07,,,22,7*4A
2024-10-15 15:49:44,550 [INFO] Received Standard NMEA Message: $GAGSV,3,1,09,02,35,173,30,03,67,106,34,05,16,112,27,07,,,22,7*4A
2024-10-15 15:49:44,550 [INFO] GSV - Satellites in View:
  Number of Messages: 3
  Message Number: 1
  Total Satellites in View: 09
  Satellite 1 PRN: 02 - Elevation: 35° - Azimuth: 173° - SNR: 30 dB
  Satellite 2 PRN: 03 - Elevation: 67° - Azimuth: 106° - SNR: 34 dB
  Satellite 3 PRN: 05 - Elevation: 16° - Azimuth: 112° - SNR: 27 dB
  Satellite 4 PRN: 07 - Elevation: ° - Azimuth: ° - SNR: 22 dB

2024-10-15 15:49:44,550 [INFO] Processing sentence: $GAGSV,3,2,09,08,55,298,33,13,14,270,21,24,21,042,25,25,55,095,33,7*7E
2024-10-15 15:49:44,550 [INFO] Received Standard NMEA Message: $GAGSV,3,2,09,08,55,298,33,13,14,270,21,24,21,042,25,25,55,095,33,7*7E
2024-10-15 15:49:44,551 [INFO] GSV - Satellites in View:
  Number of Messages: 3
  Message Number: 2
  Total Satellites in View: 09
  Satellite 1 PRN: 08 - Elevation: 55° - Azimuth: 298° - SNR: 33 dB
  Satellite 2 PRN: 13 - Elevation: 14° - Azimuth: 270° - SNR: 21 dB
  Satellite 3 PRN: 24 - Elevation: 21° - Azimuth: 042° - SNR: 25 dB
  Satellite 4 PRN: 25 - Elevation: 55° - Azimuth: 095° - SNR: 33 dB

2024-10-15 15:49:44,551 [INFO] Processing sentence: $GAGSV,3,3,09,26,,,26,7*7A
2024-10-15 15:49:44,551 [INFO] Received Standard NMEA Message: $GAGSV,3,3,09,26,,,26,7*7A
2024-10-15 15:49:44,551 [INFO] GSV - Satellites in View:
  Number of Messages: 3
  Message Number: 3
  Total Satellites in View: 09
  Satellite 1 PRN: 26 - Elevation: ° - Azimuth: ° - SNR: 26 dB
  Satellite 2 PRN: 7 - Elevation: ° - Azimuth: ° - SNR:  dB
  Satellite 3 PRN:  - Elevation: ° - Azimuth: ° - SNR:  dB
  Satellite 4 PRN:  - Elevation: ° - Azimuth: ° - SNR:  dB

2024-10-15 15:49:44,551 [INFO] Processing sentence: $GAGSV,1,1,04,02,35,173,17,03,67,106,21,08,55,298,22,25,55,095,21,1*73
2024-10-15 15:49:44,551 [INFO] Received Standard NMEA Message: $GAGSV,1,1,04,02,35,173,17,03,67,106,21,08,55,298,22,25,55,095,21,1*73
2024-10-15 15:49:44,551 [INFO] GSV - Satellites in View:
  Number of Messages: 1
  Message Number: 1
  Total Satellites in View: 04
  Satellite 1 PRN: 02 - Elevation: 35° - Azimuth: 173° - SNR: 17 dB
  Satellite 2 PRN: 03 - Elevation: 67° - Azimuth: 106° - SNR: 21 dB
  Satellite 3 PRN: 08 - Elevation: 55° - Azimuth: 298° - SNR: 22 dB
  Satellite 4 PRN: 25 - Elevation: 55° - Azimuth: 095° - SNR: 21 dB

2024-10-15 15:49:44,551 [INFO] Processing sentence: $GBGSV,2,1,07,08,,,22,19,44,153,37,21,22,312,31,22,71,274,42,1*41
2024-10-15 15:49:44,551 [INFO] Received Standard NMEA Message: $GBGSV,2,1,07,08,,,22,19,44,153,37,21,22,312,31,22,71,274,42,1*41
2024-10-15 15:49:44,551 [INFO] GSV - Satellites in View:
  Number of Messages: 2
  Message Number: 1
  Total Satellites in View: 07
  Satellite 1 PRN: 08 - Elevation: ° - Azimuth: ° - SNR: 22 dB
  Satellite 2 PRN: 19 - Elevation: 44° - Azimuth: 153° - SNR: 37 dB
  Satellite 3 PRN: 21 - Elevation: 22° - Azimuth: 312° - SNR: 31 dB
  Satellite 4 PRN: 22 - Elevation: 71° - Azimuth: 274° - SNR: 42 dB

2024-10-15 15:49:44,551 [INFO] Processing sentence: $GBGSV,2,2,07,36,71,192,39,38,13,331,31,45,22,221,32,1*49
2024-10-15 15:49:44,551 [INFO] Received Standard NMEA Message: $GBGSV,2,2,07,36,71,192,39,38,13,331,31,45,22,221,32,1*49
2024-10-15 15:49:44,552 [INFO] GSV - Satellites in View:
  Number of Messages: 2
  Message Number: 2
  Total Satellites in View: 07
  Satellite 1 PRN: 36 - Elevation: 71° - Azimuth: 192° - SNR: 39 dB
  Satellite 2 PRN: 38 - Elevation: 13° - Azimuth: 331° - SNR: 31 dB
  Satellite 3 PRN: 45 - Elevation: 22° - Azimuth: 221° - SNR: 32 dB
  Satellite 4 PRN: 1 - Elevation: ° - Azimuth: ° - SNR:  dB

2024-10-15 15:49:44,552 [INFO] Processing sentence: $GBGSV,1,1,03,19,44,153,21,22,71,274,20,36,71,192,24,5*47
2024-10-15 15:49:44,552 [INFO] Received Standard NMEA Message: $GBGSV,1,1,03,19,44,153,21,22,71,274,20,36,71,192,24,5*47
2024-10-15 15:49:44,552 [INFO] GSV - Satellites in View:
  Number of Messages: 1
  Message Number: 1
  Total Satellites in View: 03
  Satellite 1 PRN: 19 - Elevation: 44° - Azimuth: 153° - SNR: 21 dB
  Satellite 2 PRN: 22 - Elevation: 71° - Azimuth: 274° - SNR: 20 dB
  Satellite 3 PRN: 36 - Elevation: 71° - Azimuth: 192° - SNR: 24 dB
  Satellite 4 PRN: 5 - Elevation: ° - Azimuth: ° - SNR:  dB

2024-10-15 15:49:44,552 [INFO] Processing sentence: $GQGSV,1,1,00,1*65
2024-10-15 15:49:44,552 [INFO] Received Standard NMEA Message: $GQGSV,1,1,00,1*65
2024-10-15 15:49:44,552 [INFO] GSV - Satellites in View:
  Number of Messages: 1
  Message Number: 1
  Total Satellites in View: 00
  Satellite 1 PRN: 1 - Elevation: ° - Azimuth: ° - SNR:  dB
  Satellite 2 PRN:  - Elevation: ° - Azimuth: ° - SNR:  dB
  Satellite 3 PRN:  - Elevation: ° - Azimuth: ° - SNR:  dB
  Satellite 4 PRN:  - Elevation: ° - Azimuth: ° - SNR:  dB

2024-10-15 15:49:44,552 [INFO] Processing sentence: $GQGSV,1,1,00,8*6C
2024-10-15 15:49:44,552 [INFO] Received Standard NMEA Message: $GQGSV,1,1,00,8*6C
2024-10-15 15:49:44,552 [INFO] GSV - Satellites in View:
  Number of Messages: 1
  Message Number: 1
  Total Satellites in View: 00
  Satellite 1 PRN: 8 - Elevation: ° - Azimuth: ° - SNR:  dB
  Satellite 2 PRN:  - Elevation: ° - Azimuth: ° - SNR:  dB
  Satellite 3 PRN:  - Elevation: ° - Azimuth: ° - SNR:  dB
  Satellite 4 PRN:  - Elevation: ° - Azimuth: ° - SNR:  dB

2024-10-15 15:49:44,552 [INFO] Processing sentence: $GNGGA,222113.000,4910.425548,N,12304.401636,W,1,25,0.52,4.102,M,-16.817,M,,*46
2024-10-15 15:49:44,553 [INFO] Received Standard NMEA Message: $GNGGA,222113.000,4910.425548,N,12304.401636,W,1,25,0.52,4.102,M,-16.817,M,,*46
2024-10-15 15:49:44,553 [INFO] GGA - Fix Data:
  Timestamp: 22:21:13+00:00
  Latitude: 49.173759133333334 N
  Longitude: -123.0733606 W
  GPS Quality Indicator: 1
  Number of Satellites in Use: 25
  Horizontal Dilution of Precision (HDOP): 0.52
  Antenna Altitude (Above Mean Sea Level): 4.102 M
  Geoidal Separation: -16.817 M
  Age of Differential GPS Data: 
  Differential Reference Station ID: 

2024-10-15 15:49:44,553 [INFO] Processing sentence: $GNRMC,222113.000,A,4910.425548,N,12304.401636,W,0.009,126.46,151024,,,A,V*20
2024-10-15 15:49:44,553 [INFO] Received Standard NMEA Message: $GNRMC,222113.000,A,4910.425548,N,12304.401636,W,0.009,126.46,151024,,,A,V*20
2024-10-15 15:49:44,553 [INFO] RMC - Recommended Minimum:
  Timestamp: 22:21:13+00:00
  Status: A
  Latitude: 49.173759133333334 N
  Longitude: -123.0733606 W
  Speed over Ground: 0.009 knots
  Course over Ground: 126.46
  Date: 2024-10-15
  Magnetic Variation:  
  Mode Indicator: A
  Navigational Status: V

2024-10-15 15:49:44,554 [INFO] Processing sentence: $GNGLL,4910.425548,N,12304.401636,W,222113.000,A,A*50
2024-10-15 15:49:44,554 [INFO] Received Standard NMEA Message: $GNGLL,4910.425548,N,12304.401636,W,222113.000,A,A*50
2024-10-15 15:49:44,554 [INFO] GLL - Geographic Position:
  Latitude: 49.173759133333334 N
  Longitude: -123.0733606 W
  Timestamp: 22:21:13+00:00
  Status: A
  FAA Mode: A

2024-10-15 15:49:44,554 [INFO] Processing sentence: $GNVTG,126.46,T,,M,0.009,N,0.016,K,A*2A
2024-10-15 15:49:44,554 [INFO] Received Standard NMEA Message: $GNVTG,126.46,T,,M,0.009,N,0.016,K,A*2A
2024-10-15 15:49:44,554 [INFO] VTG - Course over Ground and Ground Speed:
  True Track: 126.46° T
  Magnetic Track: None° M
  Speed over Ground: 0.009 knots / 0.016 km/h
  FAA Mode: A

2024-10-15 15:49:44,554 [INFO] Processing sentence: $GNGSA,A,3,03,04,06,07,09,11,16,20,26,27,30,31,0.81,0.52,0.62,1*01
2024-10-15 15:49:44,554 [INFO] Received Standard NMEA Message: $GNGSA,A,3,03,04,06,07,09,11,16,20,26,27,30,31,0.81,0.52,0.62,1*01
2024-10-15 15:49:44,554 [INFO] GSA - Satellite Info:
  Mode: A
  Mode Fix Type: 3
  Satellites Used: 03, 04, 06, 07, 09, 11, 16, 20, 26, 27, 30, 31
  PDOP: 0.81
  HDOP: 0.52
  VDOP: 0.62

2024-10-15 15:49:44,554 [INFO] Processing sentence: $GNGSA,A,3,,,,,,,,,,,,,0.81,0.52,0.62,2*08
2024-10-15 15:49:44,554 [INFO] Received Standard NMEA Message: $GNGSA,A,3,,,,,,,,,,,,,0.81,0.52,0.62,2*08
2024-10-15 15:49:44,555 [INFO] GSA - Satellite Info:
  Mode: A
  Mode Fix Type: 3
  Satellites Used: 
  PDOP: 0.81
  HDOP: 0.52
  VDOP: 0.62

2024-10-15 15:49:44,555 [INFO] Processing sentence: $GNGSA,A,3,02,03,05,08,13,24,25,,,,,,0.81,0.52,0.62,3*06
2024-10-15 15:49:44,555 [INFO] Received Standard NMEA Message: $GNGSA,A,3,02,03,05,08,13,24,25,,,,,,0.81,0.52,0.62,3*06
2024-10-15 15:49:44,555 [INFO] GSA - Satellite Info:
  Mode: A
  Mode Fix Type: 3
  Satellites Used: 02, 03, 05, 08, 13, 24, 25
  PDOP: 0.81
  HDOP: 0.52
  VDOP: 0.62

2024-10-15 15:49:44,555 [INFO] Processing sentence: $GNGSA,A,3,19,21,22,36,38,45,,,,,,,0.81,0.52,0.62,4*0A
2024-10-15 15:49:44,555 [INFO] Received Standard NMEA Message: $GNGSA,A,3,19,21,22,36,38,45,,,,,,,0.81,0.52,0.62,4*0A
2024-10-15 15:49:44,555 [INFO] GSA - Satellite Info:
  Mode: A
  Mode Fix Type: 3
  Satellites Used: 19, 21, 22, 36, 38, 45
  PDOP: 0.81
  HDOP: 0.52
  VDOP: 0.62

2024-10-15 15:49:44,555 [INFO] Processing sentence: $GNGSA,A,3,,,,,,,,,,,,,0.81,0.52,0.62,5*0F
2024-10-15 15:49:44,555 [INFO] Received Standard NMEA Message: $GNGSA,A,3,,,,,,,,,,,,,0.81,0.52,0.62,5*0F
2024-10-15 15:49:44,555 [INFO] GSA - Satellite Info:
  Mode: A
  Mode Fix Type: 3
  Satellites Used: 
  PDOP: 0.81
  HDOP: 0.52
  VDOP: 0.62

2024-10-15 15:49:44,555 [INFO] Processing sentence: $GPGSV,4,1,13,03,15,174,28,04,62,110,35,06,07,260,20,07,49,251,35,1*67
2024-10-15 15:49:44,555 [INFO] Received Standard NMEA Message: $GPGSV,4,1,13,03,15,174,28,04,62,110,35,06,07,260,20,07,49,251,35,1*67
2024-10-15 15:49:44,555 [INFO] GSV - Satellites in View:
  Number of Messages: 4
  Message Number: 1
  Total Satellites in View: 13
  Satellite 1 PRN: 03 - Elevation: 15° - Azimuth: 174° - SNR: 28 dB
  Satellite 2 PRN: 04 - Elevation: 62° - Azimuth: 110° - SNR: 35 dB
  Satellite 3 PRN: 06 - Elevation: 07° - Azimuth: 260° - SNR: 20 dB
  Satellite 4 PRN: 07 - Elevation: 49° - Azimuth: 251° - SNR: 35 dB

2024-10-15 15:49:44,556 [INFO] Processing sentence: $GPGSV,4,2,13,09,80,301,39,11,12,301,28,16,45,069,35,20,16,320,29,1*62
2024-10-15 15:49:44,556 [INFO] Received Standard NMEA Message: $GPGSV,4,2,13,09,80,301,39,11,12,301,28,16,45,069,35,20,16,320,29,1*62
2024-10-15 15:49:44,556 [INFO] GSV - Satellites in View:
  Number of Messages: 4
  Message Number: 2
  Total Satellites in View: 13
  Satellite 1 PRN: 09 - Elevation: 80° - Azimuth: 301° - SNR: 39 dB
  Satellite 2 PRN: 11 - Elevation: 12° - Azimuth: 301° - SNR: 28 dB
  Satellite 3 PRN: 16 - Elevation: 45° - Azimuth: 069° - SNR: 35 dB
  Satellite 4 PRN: 20 - Elevation: 16° - Azimuth: 320° - SNR: 29 dB

2024-10-15 15:49:44,556 [INFO] Processing sentence: $GPGSV,4,3,13,26,18,045,30,27,10,106,27,30,17,249,27,31,04,066,15,1*65
2024-10-15 15:49:44,556 [INFO] Received Standard NMEA Message: $GPGSV,4,3,13,26,18,045,30,27,10,106,27,30,17,249,27,31,04,066,15,1*65
2024-10-15 15:49:44,556 [INFO] GSV - Satellites in View:
  Number of Messages: 4
  Message Number: 3
  Total Satellites in View: 13
  Satellite 1 PRN: 26 - Elevation: 18° - Azimuth: 045° - SNR: 30 dB
  Satellite 2 PRN: 27 - Elevation: 10° - Azimuth: 106° - SNR: 27 dB
  Satellite 3 PRN: 30 - Elevation: 17° - Azimuth: 249° - SNR: 27 dB
  Satellite 4 PRN: 31 - Elevation: 04° - Azimuth: 066° - SNR: 15 dB

2024-10-15 15:49:44,556 [INFO] Processing sentence: $GPGSV,4,4,13,44,33,172,33,1*52
2024-10-15 15:49:44,556 [INFO] Received Standard NMEA Message: $GPGSV,4,4,13,44,33,172,33,1*52
2024-10-15 15:49:44,556 [INFO] GSV - Satellites in View:
  Number of Messages: 4
  Message Number: 4
  Total Satellites in View: 13
  Satellite 1 PRN: 44 - Elevation: 33° - Azimuth: 172° - SNR: 33 dB
  Satellite 2 PRN: 1 - Elevation: ° - Azimuth: ° - SNR:  dB
  Satellite 3 PRN:  - Elevation: ° - Azimuth: ° - SNR:  dB
  Satellite 4 PRN:  - Elevation: ° - Azimuth: ° - SNR:  dB

2024-10-15 15:49:44,556 [INFO] Processing sentence: $GPGSV,1,1,02,04,62,110,23,09,80,301,23,8*6C
2024-10-15 15:49:44,556 [INFO] Received Standard NMEA Message: $GPGSV,1,1,02,04,62,110,23,09,80,301,23,8*6C
2024-10-15 15:49:44,556 [INFO] GSV - Satellites in View:
