$GNGGA,234736.000,4910.414860,N,12304.385448,W,1,14,0.72,-35.045,M,-16.816,M,,*59
$GNGLL,4910.414860,N,12304.385448,W,234736.000,A,A*53
$GNGSA,A,3,17,19,14,24,13,15,02,30,21,,,,1.04,0.72,0.75,1*0A
$GNGSA,A,3,79,,,,,,,,,,,,1.04,0.72,0.75,2*0E
$GNGSA,A,3,,,,,,,,,,,,,1.04,0.72,0.75,3*01
$GNGSA,A,3,45,29,36,26,,,,,,,,,1.04,0.72,0.75,4*0D
$GPGSV,3,1,12,17,73,098,27,19,59,190,23,14,50,081,26,24,35,304,22,1*64
$GPGSV,3,2,12,13,29,215,20,15,25,254,22,02,21,044,20,30,17,142,19,1*62
$GPGSV,3,3,12,21,08,029,18,06,08,159,20,12,05,269,13,10,01,339,,1*6F
$GLGSV,1,1,01,79,41,306,23,1*46
$GAGSV,1,1,00,7*73
$GBGSV,2,1,06,45,88,053,24,29,56,143,22,30,37,056,,36,36,114,20,1*7E
$GBGSV,2,2,06,26,32,296,20,35,12,194,16,1*74
$GNRMC,234736.000,A,4910.414860,N,12304.385448,W,0.48,56.61,181224,,,A,V*2A
$GNVTG,56.61,T,,M,0.48,N,0.89,K,A*1A
$GNGGA,234737.000,4910.414872,N,12304.385406,W,1,13,0.76,-35.040,M,-16.816,M,,*57
$GNGLL,4910.414872,N,12304.385406,W,234737.000,A,A*5B
$GNGSA,A,3,17,19,14,24,13,15,02,30,21,,,,1.07,0.76,0.75,1*0D
$GNGSA,A,3,79,,,,,,,,,,,,1.07,0.76,0.75,2*09
$GNGSA,A,3,,,,,,,,,,,,,1.07,0.76,0.75,3*06
$GNGSA,A,3,45,29,36,,,,,,,,,,1.07,0.76,0.75,4*0E
$GPGSV,3,1,12,17,73,098,28,19,59,190,24,14,50,081,26,24,35,304,23,1*6D
$GPGSV,3,2,12,13,29,215,21,15,25,254,23,02,21,044,20,30,17,142,20,1*68
$GPGSV,3,3,12,21,08,029,18,06,08,159,20,12,05,269,13,10,01,339,,1*6F
$GLGSV,1,1,01,79,41,306,23,1*46
$GAGSV,1,1,00,7*73
$GBGSV,2,1,06,45,88,053,25,29,56,143,21,30,37,056,,36,36,114,20,1*7C
$GBGSV,2,2,06,26,32,296,,35,12,194,16,1*76
$GNRMC,234737.000,A,4910.414872,N,12304.385406,W,0.47,56.61,181224,,,A,V*2D
$GNVTG,56.61,T,,M,0.47,N,0.88,K,A*14
$GNGGA,234738.000,4910.414866,N,12304.385328,W,1,14,0.72,-35.037,M,-16.816,M,,*55
$GNGLL,4910.414866,N,12304.385328,W,234738.000,A,A*5A
$GNGSA,A,3,17,19,14,24,13,15,02,30,21,,,,1.04,0.72,0.75,1*0A
$GNGSA,A,3,79,,,,,,,,,,,,1.04,0.72,0.75,2*0E
$GNGSA,A,3,,,,,,,,,,,,,1.04,0.72,0.75,3*01
$GNGSA,A,3,45,29,36,26,,,,,,,,,1.04,0.72,0.75,4*0D
$GPGSV,4,1,13,17,73,098,28,19,59,190,23,14,50,081,26,24,35,304,22,1*6D
$GPGSV,4,2,13,48,33,182,,13,29,215,20,15,25,254,22,02,21,044,20,1*69
$GPGSV,4,3,13,30,17,142,20,21,08,029,18,06,08,159,21,12,05,269,13,1*61
$GPGSV,4,4,13,10,01,339,,1*5F
$GLGSV,1,1,01,79,41,306,23,1*46
$GAGSV,1,1,00,7*73
$GBGSV,2,1,06,45,88,053,25,29,56,143,22,30,37,056,,36,36,114,20,1*7F
$GBGSV,2,2,06,26,32,296,20,35,12,194,16,1*74
$GNRMC,234738.000,A,4910.414866,N,12304.385328,W,0.41,56.61,181224,,,A,V*2A
$GNVTG,56.61,T,,M,0.41,N,0.76,K,A*13
$GNGGA,234739.000,4910.414866,N,12304.385292,W,1,14,0.72,-35.038,M,-16.816,M,,*5B
$GNGLL,4910.414866,N,12304.385292,W,234739.000,A,A*5B
$GNGSA,A,3,17,19,14,24,13,15,02,30,21,,,,1.04,0.72,0.75,1*0A
$GNGSA,A,3,79,,,,,,,,,,,,1.04,0.72,0.75,2*0E
$GNGSA,A,3,,,,,,,,,,,,,1.04,0.72,0.75,3*01
$GNGSA,A,3,45,29,36,26,,,,,,,,,1.04,0.72,0.75,4*0D
$GPGSV,4,1,13,17,73,098,28,19,59,190,24,14,50,081,26,24,35,304,22,1*6A
$GPGSV,4,2,13,48,33,182,,13,29,215,20,15,25,254,22,02,21,044,21,1*68
$GPGSV,4,3,13,30,17,142,20,21,08,029,18,06,08,159,21,12,05,269,13,1*61
$GPGSV,4,4,13,10,01,339,,1*5F
$GLGSV,1,1,01,79,41,306,23,1*46
$GAGSV,1,1,00,7*73
$GBGSV,2,1,06,45,88,053,26,29,56,143,24,30,37,056,,36,36,114,22,1*78
$GBGSV,2,2,06,26,32,296,22,35,12,194,16,1*76
$GNRMC,234739.000,A,4910.414866,N,12304.385292,W,0.37,56.61,181224,,,A,V*2A
$GNVTG,56.61,T,,M,0.37,N,0.68,K,A*1D
$GNGGA,234740.000,4910.414866,N,12304.385262,W,1,14,0.72,-35.035,M,-16.816,M,,*57
$GNGLL,4910.414866,N,12304.385262,W,234740.000,A,A*5A
$GNGSA,A,3,17,19,14,24,13,15,02,30,21,,,,1.04,0.72,0.75,1*0A
$GNGSA,A,3,79,,,,,,,,,,,,1.04,0.72,0.75,2*0E
$GNGSA,A,3,,,,,,,,,,,,,1.04,0.72,0.75,3*01
$GNGSA,A,3,45,29,36,26,,,,,,,,,1.04,0.72,0.75,4*0D
$GPGSV,4,1,13,17,73,098,29,19,59,190,24,14,50,081,26,24,35,304,24,1*6D
$GPGSV,4,2,13,48,33,182,,13,29,215,22,15,25,254,22,02,21,044,20,1*6B
$GPGSV,4,3,13,30,17,142,22,21,08,029,18,06,08,159,21,12,05,269,13,1*63
$GPGSV,4,4,13,10,01,339,,1*5F
$GLGSV,1,1,01,79,41,306,24,1*41
$GAGSV,1,1,00,7*73
$GBGSV,2,1,06,45,88,053,27,29,56,143,25,30,37,056,,36,36,114,24,1*7E
$GBGSV,2,2,06,26,32,296,22,35,12,194,17,1*77
$GNRMC,234740.000,A,4910.414866,N,12304.385262,W,0.34,56.61,181224,,,A,V*28
$GNVTG,56.61,T,,M,0.34,N,0.63,K,A*15
$GNGGA,234741.000,4910.414860,N,12304.385244,W,1,14,0.72,-35.033,M,-16.816,M,,*52
$GNGLL,4910.414860,N,12304.385244,W,234741.000,A,A*59
$GNGSA,A,3,17,19,14,24,13,15,02,30,21,,,,1.04,0.72,0.75,1*0A
$GNGSA,A,3,79,,,,,,,,,,,,1.04,0.72,0.75,2*0E
$GNGSA,A,3,,,,,,,,,,,,,1.04,0.72,0.75,3*01
$GNGSA,A,3,45,29,36,26,,,,,,,,,1.04,0.72,0.75,4*0D
$GPGSV,4,1,13,17,73,098,29,19,59,190,24,14,50,081,27,24,35,304,23,1*6B
$GPGSV,4,2,13,48,33,182,,13,29,215,21,15,25,254,20,02,21,044,20,1*6A
$GPGSV,4,3,13,30,17,142,19,21,08,029,18,06,08,159,21,12,05,269,13,1*6B
$GPGSV,4,4,13,10,01,339,,1*5F
$GLGSV,1,1,01,79,41,306,23,1*46
$GAGSV,1,1,00,7*73
$GBGSV,2,1,06,45,88,053,25,29,56,143,24,30,37,056,,36,36,114,22,1*7B
$GBGSV,2,2,06,26,32,296,21,35,12,194,18,1*7B
$GNRMC,234741.000,A,4910.414860,N,12304.385244,W,0.31,56.61,181224,,,A,V*2E
$GNVTG,56.61,T,,M,0.31,N,0.58,K,A*18
$GNGGA,234742.000,4910.414860,N,12304.385220,W,1,14,0.72,-35.032,M,-16.817,M,,*53
$GNGLL,4910.414860,N,12304.385220,W,234742.000,A,A*58
$GNGSA,A,3,17,19,14,24,13,15,02,30,21,,,,1.04,0.72,0.75,1*0A
$GNGSA,A,3,79,,,,,,,,,,,,1.04,0.72,0.75,2*0E
$GNGSA,A,3,,,,,,,,,,,,,1.04,0.72,0.75,3*01
$GNGSA,A,3,45,29,36,26,,,,,,,,,1.04,0.72,0.75,4*0D
$GPGSV,3,1,12,17,73,098,30,19,59,190,25,14,50,081,28,24,35,304,24,1*6C
$GPGSV,3,2,12,13,29,215,22,15,25,254,23,02,21,044,22,30,17,142,21,1*68
$GPGSV,3,3,12,21,08,029,18,06,08,159,22,12,05,269,13,10,01,339,,1*6D
$GLGSV,1,1,01,79,41,306,24,1*41
$GAGSV,1,1,00,7*73
$GBGSV,2,1,06,45,88,053,27,29,56,143,23,30,37,056,,36,36,114,23,1*7F
$GBGSV,2,2,06,26,32,296,22,35,12,194,18,1*78
$GNRMC,234742.000,A,4910.414860,N,12304.385220,W,0.31,56.61,181224,,,A,V*2F
$GNVTG,56.61,T,,M,0.31,N,0.58,K,A*18
$GNGGA,234743.000,4910.414860,N,12304.385250,W,1,14,0.72,-35.034,M,-16.816,M,,*52
$GNGLL,4910.414860,N,12304.385250,W,234743.000,A,A*5E
$GNGSA,A,3,17,19,14,24,13,15,02,30,21,,,,1.04,0.72,0.75,1*0A
$GNGSA,A,3,79,,,,,,,,,,,,1.04,0.72,0.75,2*0E
$GNGSA,A,3,,,,,,,,,,,,,1.04,0.72,0.75,3*01
$GNGSA,A,3,45,29,36,26,,,,,,,,,1.04,0.72,0.75,4*0D
$GPGSV,3,1,12,17,73,098,30,19,59,190,25,14,50,081,27,24,35,304,23,1*64
$GPGSV,3,2,12,13,29,215,21,15,25,254,24,02,21,044,22,30,17,142,19,1*67
$GPGSV,3,3,12,21,08,029,18,06,08,159,22,12,05,269,13,10,01,339,,1*6D
$GLGSV,1,1,01,79,41,306,24,1*41
$GAGSV,1,1,00,7*73
$GBGSV,2,1,06,45,88,053,24,29,56,143,22,30,37,056,,36,36,114,22,1*7C
$GBGSV,2,2,06,26,32,296,20,35,12,194,18,1*7A
$GNRMC,234743.000,A,4910.414860,N,12304.385250,W,0.23,56.61,181224,,,A,V*2A
$GNVTG,56.61,T,,M,0.23,N,0.42,K,A*10
$GNGGA,234744.000,4910.414866,N,12304.385274,W,1,14,0.72,-35.034,M,-16.816,M,,*55
$GNGLL,4910.414866,N,12304.385274,W,234744.000,A,A*59
$GNGSA,A,3,17,19,14,24,13,15,02,30,21,,,,1.04,0.72,0.75,1*0A
$GNGSA,A,3,79,,,,,,,,,,,,1.04,0.72,0.75,2*0E
$GNGSA,A,3,,,,,,,,,,,,,1.04,0.72,0.75,3*01
$GNGSA,A,3,45,29,36,26,,,,,,,,,1.04,0.72,0.75,4*0D
$GPGSV,3,1,12,17,73,098,31,19,59,190,24,14,50,081,27,24,35,304,23,1*64
$GPGSV,3,2,12,13,29,215,23,15,25,254,24,02,21,044,21,30,17,142,20,1*6C
$GPGSV,3,3,12,21,08,029,18,06,08,159,22,12,05,269,,10,01,339,,1*6F
$GLGSV,1,1,02,78,70,051,,79,41,306,25,1*7F
$GAGSV,1,1,00,7*73
$GBGSV,2,1,06,45,88,053,27,29,56,143,24,30,37,056,,36,36,114,22,1*79
$GBGSV,2,2,06,26,32,296,22,35,12,194,19,1*79
$GNRMC,234744.000,A,4910.414866,N,12304.385274,W,0.29,56.61,181224,,,A,V*27
$GNVTG,56.61,T,,M,0.29,N,0.53,K,A*1A
$GNGGA,234745.000,4910.414848,N,12304.385292,W,1,14,0.72,-35.045,M,-16.816,M,,*56
$GNGLL,4910.414848,N,12304.385292,W,234745.000,A,A*5C
$GNGSA,A,3,17,19,14,24,13,15,02,30,21,,,,1.04,0.72,0.75,1*0A
$GNGSA,A,3,79,,,,,,,,,,,,1.04,0.72,0.75,2*0E
$GNGSA,A,3,,,,,,,,,,,,,1.04,0.72,0.75,3*01
$GNGSA,A,3,45,29,36,26,,,,,,,,,1.04,0.72,0.75,4*0D
$GPGSV,4,1,13,17,73,098,30,19,59,190,23,14,50,081,25,24,35,304,23,1*66
$GPGSV,4,2,13,44,33,171,,13,29,215,20,15,25,254,23,02,21,044,20,1*68
$GPGSV,4,3,13,30,17,142,20,21,08,029,18,06,08,159,21,12,05,269,,1*63
$GPGSV,4,4,13,10,01,339,,1*5F
$GLGSV,1,1,01,79,41,306,24,1*41
$GAGSV,1,1,00,7*73
$GBGSV,2,1,06,45,88,053,24,29,56,143,22,30,37,056,,36,36,114,22,1*7C
$GBGSV,2,2,06,26,32,296,20,35,12,194,19,1*7B
$GNRMC,234745.000,A,4910.414848,N,12304.385292,W,0.38,56.61,181224,,,A,V*22
$GNVTG,56.61,T,,M,0.38,N,0.71,K,A*1A
$GNGGA,234746.000,4910.414890,N,12304.385316,W,1,14,0.72,-35.044,M,-16.816,M,,*5C
$GNGLL,4910.414890,N,12304.385316,W,234746.000,A,A*57
$GNGSA,A,3,17,19,14,24,13,15,02,30,21,,,,1.04,0.72,0.75,1*0A
$GNGSA,A,3,79,,,,,,,,,,,,1.04,0.72,0.75,2*0E
$GNGSA,A,3,,,,,,,,,,,,,1.04,0.72,0.75,3*01
$GNGSA,A,3,45,29,36,26,,,,,,,,,1.04,0.72,0.75,4*0D
$GPGSV,4,1,13,17,73,098,30,19,59,190,23,14,50,081,27,24,35,304,24,1*63
$GPGSV,4,2,13,44,33,171,,13,29,215,22,15,25,254,23,02,21,044,20,1*6A
$GPGSV,4,3,13,30,17,142,20,21,08,029,18,06,08,159,21,12,05,269,,1*63
$GPGSV,4,4,13,10,01,339,,1*5F
$GLGSV,1,1,01,79,41,306,23,1*46
$GAGSV,1,1,00,7*73
$GBGSV,2,1,06,45,88,053,25,29,56,143,24,30,37,056,,36,36,114,22,1*7B
$GBGSV,2,2,06,26,32,296,20,35,12,194,19,1*7B
$GNRMC,234746.000,A,4910.414890,N,12304.385316,W,0.21,56.61,181224,,,A,V*21
$GNVTG,56.61,T,,M,0.21,N,0.38,K,A*1F
$GNGGA,234747.000,4910.414830,N,12304.385316,W,1,14,0.72,-35.052,M,-16.816,M,,*50
$GNGLL,4910.414830,N,12304.385316,W,234747.000,A,A*5C
$GNGSA,A,3,17,19,14,24,13,15,02,30,21,,,,1.03,0.72,0.74,1*0C
$GNGSA,A,3,79,,,,,,,,,,,,1.03,0.72,0.74,2*08
$GNGSA,A,3,,,,,,,,,,,,,1.03,0.72,0.74,3*07
$GNGSA,A,3,45,29,36,26,,,,,,,,,1.03,0.72,0.74,4*0B
$GPGSV,4,1,13,17,73,098,30,19,59,190,25,14,50,081,27,24,35,304,24,1*65
$GPGSV,4,2,13,44,33,171,,13,29,215,22,15,25,254,23,02,21,044,20,1*6A
$GPGSV,4,3,13,30,17,142,20,21,08,029,18,06,08,159,21,12,05,269,,1*63
$GPGSV,4,4,13,10,01,339,,1*5F
$GLGSV,1,1,01,79,41,306,23,1*46
$GAGSV,1,1,00,7*73
$GBGSV,2,1,06,45,88,053,24,29,56,143,22,30,37,056,,36,36,114,21,1*7F
$GBGSV,2,2,06,26,32,296,20,35,12,194,19,1*7B
$GNRMC,234747.000,A,4910.414830,N,12304.385316,W,0.20,56.61,181224,,,A,V*2B
$GNVTG,56.61,T,,M,0.20,N,0.37,K,A*11
$GNGGA,234748.000,4910.414860,N,12304.385316,W,1,14,0.72,-35.048,M,-16.816,M,,*51
$GNGLL,4910.414860,N,12304.385316,W,234748.000,A,A*56
$GNGSA,A,3,17,19,14,24,13,15,02,30,21,,,,1.03,0.72,0.74,1*0C
$GNGSA,A,3,79,,,,,,,,,,,,1.03,0.72,0.74,2*08
$GNGSA,A,3,,,,,,,,,,,,,1.03,0.72,0.74,3*07
$GNGSA,A,3,45,29,36,26,,,,,,,,,1.03,0.72,0.74,4*0B
$GPGSV,4,1,13,17,73,098,30,19,59,190,25,14,50,081,27,24,35,304,24,1*65
$GPGSV,4,2,13,44,33,171,,13,29,215,22,15,25,254,24,02,21,044,21,1*6C
$GPGSV,4,3,13,30,17,142,20,21,08,029,18,06,08,159,21,12,05,269,,1*63
$GPGSV,4,4,13,10,01,339,,1*5F
$GLGSV,1,1,02,88,55,122,,79,41,306,24,1*73
$GAGSV,1,1,00,7*73
$GBGSV,2,1,06,45,88,053,25,29,56,143,24,30,37,056,,36,36,114,22,1*7B
$GBGSV,2,2,06,26,32,296,21,35,12,194,19,1*7A
$GNRMC,234748.000,A,4910.414860,N,12304.385316,W,0.56,56.61,181224,,,A,V*20
$GNVTG,56.61,T,,M,0.56,N,1.04,K,A*11
$GNGGA,234749.000,4910.414824,N,12304.385238,W,1,14,0.72,-35.047,M,-16.816,M,,*52
$GNGLL,4910.414824,N,12304.385238,W,234749.000,A,A*5A
$GNGSA,A,3,17,19,14,24,13,15,02,30,21,,,,1.03,0.72,0.74,1*0C
$GNGSA,A,3,79,,,,,,,,,,,,1.03,0.72,0.74,2*08
$GNGSA,A,3,,,,,,,,,,,,,1.03,0.72,0.74,3*07
$GNGSA,A,3,45,29,36,26,,,,,,,,,1.03,0.72,0.74,4*0B
$GPGSV,4,1,13,17,73,098,30,19,59,190,25,14,50,081,27,24,35,304,24,1*65
$GPGSV,4,2,13,44,33,171,,13,29,215,23,15,25,254,24,02,21,044,21,1*6D
$GPGSV,4,3,13,30,17,142,20,21,08,029,18,06,08,159,21,12,05,269,,1*63
$GPGSV,4,4,13,10,01,339,,1*5F
$GLGSV,1,1,02,88,55,122,,79,41,306,24,1*73
$GAGSV,1,1,00,7*73
$GBGSV,2,1,06,45,88,053,23,29,56,143,23,30,37,056,,36,36,114,21,1*79
$GBGSV,2,2,06,26,32,296,20,35,12,194,18,1*7A
$GNRMC,234749.000,A,4910.414824,N,12304.385238,W,0.29,56.61,181224,,,A,V*24
$GNVTG,56.61,T,,M,0.29,N,0.54,K,A*1D
$GNGGA,234750.000,4910.414872,N,12304.385178,W,1,14,0.72,-35.053,M,-16.816,M,,*5B
$GNGLL,4910.414872,N,12304.385178,W,234750.000,A,A*56
$GNGSA,A,3,17,19,14,24,13,15,02,30,21,,,,1.03,0.72,0.74,1*0C
$GNGSA,A,3,79,,,,,,,,,,,,1.03,0.72,0.74,2*08
$GNGSA,A,3,,,,,,,,,,,,,1.03,0.72,0.74,3*07
$GNGSA,A,3,45,29,36,26,,,,,,,,,1.03,0.72,0.74,4*0B
$GPGSV,4,1,13,17,73,098,30,19,59,190,25,14,50,081,27,24,35,304,25,1*64
$GPGSV,4,2,13,44,33,171,,13,29,215,24,15,25,254,24,02,21,044,21,1*6A
$GPGSV,4,3,13,30,17,142,21,21,08,029,18,06,08,159,22,12,05,269,,1*61
$GPGSV,4,4,13,10,01,339,,1*5F
$GLGSV,1,1,01,79,41,306,24,1*41
$GAGSV,1,1,00,7*73
$GBGSV,2,1,06,45,88,053,22,29,56,143,23,30,37,056,,36,36,114,20,1*79
$GBGSV,2,2,06,26,32,296,20,35,12,194,18,1*7A
$GNRMC,234750.000,A,4910.414872,N,12304.385178,W,0.29,56.61,181224,,,A,V*28
$GNVTG,56.61,T,,M,0.29,N,0.53,K,A*1A
$GNGGA,234751.000,4910.414824,N,12304.385202,W,1,14,0.72,-35.046,M,-16.816,M,,*53
$GNGLL,4910.414824,N,12304.385202,W,234751.000,A,A*5A
$GNGSA,A,3,17,19,14,24,13,15,02,30,21,,,,1.03,0.72,0.74,1*0C
$GNGSA,A,3,79,,,,,,,,,,,,1.03,0.72,0.74,2*08
$GNGSA,A,3,,,,,,,,,,,,,1.03,0.72,0.74,3*07
$GNGSA,A,3,45,29,36,26,,,,,,,,,1.03,0.72,0.74,4*0B
$GPGSV,4,1,13,17,73,098,29,19,59,190,22,14,50,081,26,24,35,304,24,1*6B
$GPGSV,4,2,13,44,33,171,,13,29,215,21,15,25,254,24,02,21,044,21,1*6F
$GPGSV,4,3,13,30,17,142,19,21,08,029,18,06,08,159,22,12,05,269,,1*6A
$GPGSV,4,4,13,10,01,339,,1*5F
$GLGSV,1,1,01,79,41,306,24,1*41
$GAGSV,1,1,00,7*73
$GBGSV,2,1,06,45,88,053,21,29,56,143,22,30,37,056,,36,36,114,20,1*7B
$GBGSV,2,2,06,26,32,296,19,35,12,194,18,1*70
$GNRMC,234751.000,A,4910.414824,N,12304.385202,W,0.50,56.61,181224,,,A,V*2A
$GNVTG,56.61,T,,M,0.50,N,0.92,K,A*19
$GNGGA,234752.000,4910.414848,N,12304.385136,W,1,14,0.72,-35.053,M,-16.817,M,,*5B
$GNGLL,4910.414848,N,12304.385136,W,234752.000,A,A*57
$GNGSA,A,3,17,19,14,24,13,15,02,30,21,,,,1.03,0.72,0.74,1*0C
$GNGSA,A,3,79,,,,,,,,,,,,1.03,0.72,0.74,2*08
$GNGSA,A,3,,,,,,,,,,,,,1.03,0.72,0.74,3*07
$GNGSA,A,3,45,29,36,26,,,,,,,,,1.03,0.72,0.74,4*0B
$GPGSV,3,1,12,17,73,098,29,19,59,190,21,14,50,081,25,24,35,304,23,1*6A
$GPGSV,3,2,12,13,29,215,23,15,25,254,23,02,21,044,20,30,17,142,18,1*61
$GPGSV,3,3,12,21,08,029,18,06,08,159,21,12,05,269,,10,01,339,,1*6C
$GLGSV,1,1,01,79,41,306,24,1*41
$GAGSV,1,1,00,7*73
$GBGSV,2,1,06,45,88,053,25,29,56,143,24,30,37,056,,36,36,114,20,1*79
$GBGSV,2,2,06,26,32,296,20,35,12,194,18,1*7A
$GNRMC,234752.000,A,4910.414848,N,12304.385136,W,0.37,56.61,181224,,,A,V*26
$GNVTG,56.61,T,,M,0.37,N,0.68,K,A*1D
$GNGGA,234753.000,4910.414824,N,12304.385070,W,1,14,0.72,-35.042,M,-16.816,M,,*52
$GNGLL,4910.414824,N,12304.385070,W,234753.000,A,A*5F
$GNGSA,A,3,17,19,14,24,13,15,02,30,21,,,,1.03,0.72,0.74,1*0C
$GNGSA,A,3,79,,,,,,,,,,,,1.03,0.72,0.74,2*08
$GNGSA,A,3,,,,,,,,,,,,,1.03,0.72,0.74,3*07
$GNGSA,A,3,45,29,36,26,,,,,,,,,1.03,0.72,0.74,4*0B
$GPGSV,3,1,12,17,73,098,29,19,59,190,23,14,50,081,25,24,35,304,23,1*68
$GPGSV,3,2,12,13,29,215,23,15,25,254,23,02,21,044,20,30,17,142,17,1*6E
$GPGSV,3,3,12,21,08,029,18,06,08,159,21,12,05,269,,10,01,339,,1*6C
$GLGSV,1,1,02,79,41,306,24,87,32,036,,1*79
$GAGSV,1,1,00,7*73
$GBGSV,2,1,06,45,88,053,22,29,56,143,23,30,37,056,,36,36,114,20,1*79
$GBGSV,2,2,06,26,32,296,18,35,12,194,17,1*7E
$GNRMC,234753.000,A,4910.414824,N,12304.385070,W,0.43,56.61,181224,,,A,V*2D
$GNVTG,56.61,T,,M,0.43,N,0.79,K,A*1E
$GNGGA,234754.000,4910.414824,N,12304.385076,W,1,13,0.72,-35.048,M,-16.816,M,,*5E
$GNGLL,4910.414824,N,12304.385076,W,234754.000,A,A*5E
$GNGSA,A,3,17,19,14,24,13,15,02,30,21,,,,1.06,0.72,0.78,1*05
$GNGSA,A,3,79,,,,,,,,,,,,1.06,0.72,0.78,2*01
$GNGSA,A,3,,,,,,,,,,,,,1.06,0.72,0.78,3*0E
$GNGSA,A,3,29,36,26,,,,,,,,,,1.06,0.72,0.78,4*03
$GPGSV,4,1,13,17,73,098,29,19,59,190,26,14,50,081,25,24,35,304,24,1*6C
$GPGSV,4,2,13,46,33,187,,13,29,215,24,15,25,254,24,02,21,044,20,1*60
$GPGSV,4,3,13,30,17,142,17,21,08,029,18,06,08,159,21,12,05,269,,1*67
$GPGSV,4,4,13,10,01,339,,1*5F
$GLGSV,1,1,02,79,42,307,24,87,32,036,,1*7B
$GAGSV,1,1,00,7*73
$GBGSV,2,1,06,45,88,053,,29,56,143,23,30,37,056,,36,36,114,19,1*73
$GBGSV,2,2,06,26,32,296,17,35,12,194,17,1*71
$GNRMC,234754.000,A,4910.414824,N,12304.385076,W,0.20,56.61,181224,,,A,V*29
$GNVTG,56.61,T,,M,0.20,N,0.37,K,A*11
$GNGGA,234755.000,4910.414812,N,12304.385016,W,1,14,0.72,-35.048,M,-16.816,M,,*5B
$GNGLL,4910.414812,N,12304.385016,W,234755.000,A,A*5C
$GNGSA,A,3,17,19,14,24,13,15,02,30,21,,,,1.03,0.72,0.74,1*0C
$GNGSA,A,3,79,,,,,,,,,,,,1.03,0.72,0.74,2*08
$GNGSA,A,3,,,,,,,,,,,,,1.03,0.72,0.74,3*07
$GNGSA,A,3,45,29,36,26,,,,,,,,,1.03,0.72,0.74,4*0B
$GPGSV,4,1,13,17,73,098,30,19,59,190,25,14,50,081,27,24,35,304,24,1*65
$GPGSV,4,2,13,46,33,187,,13,29,215,24,15,25,254,24,02,21,044,20,1*60
$GPGSV,4,3,13,30,17,142,17,21,08,029,18,06,08,159,21,12,05,269,,1*67
$GPGSV,4,4,13,10,01,339,,1*5F
$GLGSV,1,1,01,79,42,307,24,1*43
$GAGSV,1,1,00,7*73
$GBGSV,2,1,06,45,88,053,23,29,56,143,24,30,37,056,,36,36,114,20,1*7F
$GBGSV,2,2,06,26,32,296,18,35,12,194,17,1*7E
$GNRMC,234755.000,A,4910.414812,N,12304.385016,W,0.53,56.61,181224,,,A,V*2F
$GNVTG,56.61,T,,M,0.53,N,0.98,K,A*10
$GNGGA,234756.000,4910.414830,N,12304.385016,W,1,13,0.76,-35.051,M,-16.816,M,,*53
$GNGLL,4910.414830,N,12304.385016,W,234756.000,A,A*5F
$GNGSA,A,3,17,19,14,24,13,15,02,30,21,,,,1.06,0.76,0.74,1*0D
$GNGSA,A,3,79,,,,,,,,,,,,1.06,0.76,0.74,2*09
$GNGSA,A,3,,,,,,,,,,,,,1.06,0.76,0.74,3*06
$GNGSA,A,3,45,29,36,,,,,,,,,,1.06,0.76,0.74,4*0E
$GPGSV,4,1,13,17,73,098,30,19,59,190,23,14,50,081,25,24,35,304,24,1*61
$GPGSV,4,2,13,46,33,187,,13,29,215,24,15,25,254,23,02,21,044,20,1*67
$GPGSV,4,3,13,30,17,142,17,21,08,029,17,06,08,159,21,12,05,269,,1*68
$GPGSV,4,4,13,10,01,339,,1*5F
$GLGSV,1,1,01,79,42,307,24,1*43
$GAGSV,1,1,00,7*73
$GBGSV,2,1,06,45,88,053,23,29,56,143,25,30,37,056,,36,36,114,20,1*7E
$GBGSV,2,2,06,26,32,296,,35,12,194,17,1*77
$GNRMC,234756.000,A,4910.414830,N,12304.385016,W,0.44,56.61,181224,,,A,V*2A
$GNVTG,56.61,T,,M,0.44,N,0.81,K,A*1E
$GNGGA,234757.000,4910.414860,N,12304.384908,W,1,13,0.73,-35.025,M,-16.816,M,,*56
$GNGLL,4910.414860,N,12304.384908,W,234757.000,A,A*5C
$GNGSA,A,3,17,19,14,24,13,15,02,30,21,,,,1.07,0.73,0.78,1*05
$GNGSA,A,3,79,,,,,,,,,,,,1.07,0.73,0.78,2*01
$GNGSA,A,3,,,,,,,,,,,,,1.07,0.73,0.78,3*0E
$GNGSA,A,3,29,30,36,,,,,,,,,,1.07,0.73,0.78,4*04
$GPGSV,4,1,13,17,73,098,30,19,59,190,22,14,50,081,22,24,35,304,23,1*60
$GPGSV,4,2,13,46,33,187,,13,29,215,23,15,25,254,22,02,21,044,20,1*61
$GPGSV,4,3,13,30,17,142,16,21,08,029,17,06,08,159,21,12,05,269,,1*69
$GPGSV,4,4,13,10,01,339,,1*5F
$GLGSV,1,1,01,79,42,307,24,1*43
$GAGSV,1,1,00,7*73
$GBGSV,2,1,06,45,88,053,,29,56,143,24,30,37,056,19,36,36,114,20,1*76
$GBGSV,2,2,06,26,32,296,,35,12,194,16,1*76
$GNRMC,234757.000,A,4910.414860,N,12304.384908,W,0.37,56.61,181224,,,A,V*2D
$GNVTG,56.61,T,,M,0.37,N,0.68,K,A*1D
$GNGGA,234758.000,4910.414812,N,12304.384926,W,1,14,0.73,-35.012,M,-16.816,M,,*53
$GNGLL,4910.414812,N,12304.384926,W,234758.000,A,A*5A
$GNGSA,A,3,17,19,14,24,13,15,02,30,21,,,,1.04,0.73,0.74,1*0A
$GNGSA,A,3,79,,,,,,,,,,,,1.04,0.73,0.74,2*0E
$GNGSA,A,3,,,,,,,,,,,,,1.04,0.73,0.74,3*01
$GNGSA,A,3,45,29,30,36,,,,,,,,,1.04,0.73,0.74,4*0A
$GPGSV,4,1,13,17,73,098,30,19,59,190,22,14,50,081,23,24,35,304,21,1*63
$GPGSV,4,2,13,46,33,187,,13,29,215,22,15,25,254,21,02,21,044,20,1*63
$GPGSV,4,3,13,30,17,142,15,21,08,029,17,06,08,159,21,12,05,269,,1*6A
$GPGSV,4,4,13,10,01,339,,1*5F
$GLGSV,1,1,01,79,42,307,24,1*43
$GAGSV,1,1,00,7*73
$GBGSV,2,1,06,45,88,053,20,29,56,143,23,30,37,056,20,36,36,114,18,1*72
$GBGSV,2,2,06,26,32,296,,35,12,194,16,1*76
$GNRMC,234758.000,A,4910.414812,N,12304.384926,W,0.64,186.97,181224,,,A,V*18
$GNVTG,186.97,T,,M,0.64,N,1.18,K,A*28
$GNGGA,234759.000,4910.414800,N,12304.384884,W,1,13,0.73,-35.027,M,-16.817,M,,*58
$GNGLL,4910.414800,N,12304.384884,W,234759.000,A,A*51
$GNGSA,A,3,17,19,14,24,13,15,02,30,21,,,,1.07,0.73,0.78,1*05
$GNGSA,A,3,79,,,,,,,,,,,,1.07,0.73,0.78,2*01
$GNGSA,A,3,,,,,,,,,,,,,1.07,0.73,0.78,3*0E
$GNGSA,A,3,29,30,36,,,,,,,,,,1.07,0.73,0.78,4*04
$GPGSV,4,1,13,17,73,098,30,19,59,190,22,14,50,081,24,24,35,304,22,1*67
$GPGSV,4,2,13,46,33,187,,13,29,215,24,15,25,254,24,02,21,044,20,1*60
$GPGSV,4,3,13,30,17,142,15,21,08,029,17,06,08,159,21,12,05,269,,1*6A
$GPGSV,4,4,13,10,01,339,,1*5F
$GLGSV,1,1,02,79,42,307,24,81,18,174,,1*72
$GAGSV,1,1,00,7*73
$GBGSV,2,1,06,45,88,053,,29,56,143,23,30,37,056,18,36,36,114,19,1*7A
$GBGSV,2,2,06,26,32,296,,35,12,194,16,1*76
$GNRMC,234759.000,A,4910.414800,N,12304.384884,W,0.27,186.97,181224,,,A,V*14
$GNVTG,186.97,T,,M,0.27,N,0.51,K,A*23
$GNGGA,234800.000,4910.414812,N,12304.384860,W,1,13,0.73,-35.006,M,-16.816,M,,*50
$GNGLL,4910.414812,N,12304.384860,W,234800.000,A,A*5B
$GNGSA,A,3,17,19,14,24,13,15,02,30,21,,,,1.07,0.73,0.78,1*05
$GNGSA,A,3,79,,,,,,,,,,,,1.07,0.73,0.78,2*01
$GNGSA,A,3,,,,,,,,,,,,,1.07,0.73,0.78,3*0E
$GNGSA,A,3,29,30,36,,,,,,,,,,1.07,0.73,0.78,4*04
$GPGSV,4,1,13,17,73,098,30,19,59,190,25,14,50,081,27,24,35,304,24,1*65
$GPGSV,4,2,13,46,33,187,,13,29,215,24,15,25,254,25,02,21,044,21,1*60
$GPGSV,4,3,13,30,17,142,16,21,08,029,17,06,08,159,22,12,05,269,,1*6A
$GPGSV,4,4,13,10,01,339,,1*5F
$GLGSV,1,1,02,79,42,307,23,81,18,174,,1*75
$GAGSV,1,1,00,7*73
$GBGSV,2,1,06,45,88,053,,29,56,143,24,30,37,056,20,36,36,114,19,1*76
$GBGSV,2,2,06,26,32,296,,35,12,194,16,1*76
$GNRMC,234800.000,A,4910.414812,N,12304.384860,W,0.27,186.97,181224,,,A,V*1E
$GNVTG,186.97,T,,M,0.27,N,0.51,K,A*23
$GNGGA,234801.000,4910.414800,N,12304.384932,W,1,13,0.73,-34.971,M,-16.816,M,,*5C
$GNGLL,4910.414800,N,12304.384932,W,234801.000,A,A*5F
$GNGSA,A,3,17,19,14,24,13,15,02,30,21,,,,1.07,0.73,0.78,1*05
$GNGSA,A,3,79,,,,,,,,,,,,1.07,0.73,0.78,2*01
$GNGSA,A,3,,,,,,,,,,,,,1.07,0.73,0.78,3*0E
$GNGSA,A,3,29,30,36,,,,,,,,,,1.07,0.73,0.78,4*04
$GPGSV,4,1,13,17,73,098,30,19,59,190,24,14,50,081,27,24,35,304,24,1*64
$GPGSV,4,2,13,46,33,187,,13,29,215,24,15,25,254,25,02,21,044,23,1*62
$GPGSV,4,3,13,30,17,142,17,21,08,029,17,06,08,159,23,12,05,269,,1*6A
$GPGSV,4,4,13,10,01,339,,1*5F
$GLGSV,1,1,01,79,42,307,21,1*46
$GAGSV,1,1,00,7*73
$GBGSV,2,1,06,45,88,053,,29,56,143,24,30,37,056,20,36,36,114,19,1*76
$GBGSV,2,2,06,26,32,296,,35,12,194,15,1*75
$GNRMC,234801.000,A,4910.414800,N,12304.384932,W,0.23,186.97,181224,,,A,V*1E
$GNVTG,186.97,T,,M,0.23,N,0.43,K,A*24
$GNGGA,234802.000,4910.414776,N,12304.384890,W,1,13,0.73,-34.989,M,-16.816,M,,*5F
$GNGLL,4910.414776,N,12304.384890,W,234802.000,A,A*5B
$GNGSA,A,3,17,19,14,24,13,15,02,30,21,,,,1.07,0.73,0.78,1*05
$GNGSA,A,3,79,,,,,,,,,,,,1.07,0.73,0.78,2*01
$GNGSA,A,3,,,,,,,,,,,,,1.07,0.73,0.78,3*0E
$GNGSA,A,3,29,30,36,,,,,,,,,,1.07,0.73,0.78,4*04
$GPGSV,3,1,12,17,73,098,29,19,59,190,21,14,50,081,26,24,35,304,21,1*6B
$GPGSV,3,2,12,13,29,215,23,15,25,254,24,02,21,044,20,30,17,142,16,1*68
$GPGSV,3,3,12,21,08,029,16,06,08,159,22,12,05,269,,10,01,339,,1*61
$GLGSV,1,1,01,79,42,307,23,1*44
$GAGSV,1,1,00,7*73
$GBGSV,2,1,06,45,88,053,,29,56,143,27,30,37,056,20,36,36,114,19,1*75
$GBGSV,2,2,06,26,32,296,,35,12,194,16,1*76
$GNRMC,234802.000,A,4910.414776,N,12304.384890,W,0.23,186.97,181224,,,A,V*1A
$GNVTG,186.97,T,,M,0.23,N,0.43,K,A*24
$GNGGA,234803.000,4910.414800,N,12304.384902,W,1,12,0.76,-34.891,M,-16.816,M,,*56
$GNGLL,4910.414800,N,12304.384902,W,234803.000,A,A*5E
$GNGSA,A,3,17,19,14,24,13,15,02,30,21,,,,1.09,0.76,0.78,1*0E
$GNGSA,A,3,79,,,,,,,,,,,,1.09,0.76,0.78,2*0A
$GNGSA,A,3,,,,,,,,,,,,,1.09,0.76,0.78,3*05
$GNGSA,A,3,29,36,,,,,,,,,,,1.09,0.76,0.78,4*0C
$GPGSV,3,1,12,17,73,098,28,19,59,190,19,14,50,081,24,24,35,304,22,1*60
$GPGSV,3,2,12,13,29,215,22,15,25,254,23,02,21,044,20,30,17,142,15,1*6D
$GPGSV,3,3,12,21,08,029,16,06,08,159,21,12,05,269,,10,01,339,,1*62
$GLGSV,1,1,02,79,42,307,23,81,18,174,,1*75
$GAGSV,1,1,00,7*73
$GBGSV,2,1,06,45,88,053,,29,56,143,27,30,37,056,,36,36,114,19,1*77
$GBGSV,2,2,06,26,32,296,,35,12,194,16,1*76
$GNRMC,234803.000,A,4910.414800,N,12304.384902,W,0.21,186.97,181224,,,A,V*1D
$GNVTG,186.97,T,,M,0.21,N,0.39,K,A*2B
$GNGGA,234804.000,4910.414770,N,12304.384884,W,1,12,0.76,-34.974,M,-16.816,M,,*5C
$GNGLL,4910.414770,N,12304.384884,W,234804.000,A,A*5E
$GNGSA,A,3,17,19,14,24,13,15,02,30,21,,,,1.09,0.76,0.78,1*0E
$GNGSA,A,3,79,,,,,,,,,,,,1.09,0.76,0.78,2*0A
$GNGSA,A,3,,,,,,,,,,,,,1.09,0.76,0.78,3*05
$GNGSA,A,3,29,36,,,,,,,,,,,1.09,0.76,0.78,4*0C
$GPGSV,4,1,13,17,73,098,28,19,59,190,18,14,50,081,23,24,35,304,20,1*62
$GPGSV,4,2,13,51,31,159,,13,29,215,21,15,25,254,22,02,21,044,19,1*6E
$GPGSV,4,3,13,30,17,142,10,21,08,029,14,06,08,159,20,12,05,269,,1*6D
$GPGSV,4,4,13,10,01,339,,1*5F
$GLGSV,1,1,02,79,42,307,24,81,18,174,,1*72
$GAGSV,1,1,00,7*73
$GBGSV,2,1,06,45,88,053,,29,56,143,26,30,37,056,,36,36,114,19,1*76
$GBGSV,2,2,06,26,32,296,,35,12,194,16,1*76
$GNRMC,234804.000,A,4910.414770,N,12304.384884,W,0.32,186.97,181224,,,A,V*1F
$GNVTG,186.97,T,,M,0.32,N,0.60,K,A*25
$PAIR010,0,0,2345,344902*33
$PAIR010,0,1,2345,344902*32
$GNGGA,234805.000,4910.414782,N,12304.384896,W,1,13,0.76,-34.927,M,-16.816,M,,*54
$GNGLL,4910.414782,N,12304.384896,W,234805.000,A,A*51
$GNGSA,A,3,17,19,14,24,13,15,02,30,21,,,,1.06,0.76,0.74,1*0D
$GNGSA,A,3,79,,,,,,,,,,,,1.06,0.76,0.74,2*09
$GNGSA,A,3,,,,,,,,,,,,,1.06,0.76,0.74,3*06
