081,29,24,35,304,26,1*6E
$GPGSV,4,2,13,46,33,187,28,13,29,215,225,254,26,02,21,044,24,1*60
$GPGSV,4,3,13,30,17,142,23,06,09,159,19,21,08,029,18,12,05,269,13,1*68
$GPGSV,4,4,13,10,01,339,,1*5F
$GLGSV,2,1,07,78,70,052,,88,55,122,34,79,41,306,29,87,32,036,29,1*70
$GLGSV,2,2,07,69,26,278,29,77,17,101,,81,17,174,28,1*43
$GAGSV,3,1,10,02,79,312,32,25,42,078,30,08,36,240,26,11,32,075,24,7*7A
$GAGSV,3,2,10,07,29,304,26,30,27,270,24,10,23,045,24,36,23,131,21,7*7A
$GAGSV,3,3,10,12,11,026,17,03,10,194,20,7*7F
$GBGSV,3,1,12,45,88,057,34,29,56,143,32,30,37,056,31,36,36,114,29,1*75
$GBGSV,3,2,12,26,32,296,31,42,14,293,24,35,12,194,25,50,11,268,19,1*7C
$GBGSV,3,3,12,14,11,319,22,57,09,029,,21,06,247,20,33,05,343,22,1*7C
$GNRMC,234735.000,A,4910.426542,N,12304.400538,W,0.03,58.05,181224,,,D,V*2F
$GNVTG,58.05,T,,M,0.03,N,0.05,K,D*18
$PAIRLOG,Full*51
$GNGGA,234736.000,4910.426524,N,12304.400592,W,2,35,0.41,7.230,M,-16.817,M,,*44
$GNGLL,4910.426524,N,12304.400592,W,234736.000,A,D*56
$GNGSA,A,3,17,19,14,24,13,15,02,30,06,21,12,,0.79,0.41,0.67,1*07
$GNGSA,A,3,88,79,87,69,81,,,,,,,,0.79,0.41,0.67,2*0F
$GNGSA,A,3,02,25,08,11,07,30,10,36,03,,,,0.79,0.41,0.67,3*07
$GNGSA,A,3,45,29,30,36,26,42,35,14,21,33,,,0.79,0.41,0.67,4*00
$GPGSV,4,1,13,17,73,098,33,19,59,190,29,14,49,081,29,24,35,304,26,1*6E
$GPGSV,4,2,13,46,33,187,29,13,29,215,28,15,25,254,27,02,21,044,25,1*61
$GPGSV,4,3,13,30,17,142,23,06,09,159,20,21,08,029,18,12,05,269,14,1*65
$GPGSV,4,4,13,10,01,339,,1*5F
$GLGSV,2,1,07,78,70,052,,88,55,122,33,79,41,306,29,87,32,036,29,1*77
$GLGSV,2,2,07,69,26,278,29,81,17,174,28,77,17,101,,1*43
$GAGSV,3,1,10,02,79,312,32,25,42,078,30,08,36,240,27,11,32,075,24,7*7B
$GAGSV,3,2,10,07,29,304,26,30,27,270,24,10,23,045,24,36,23,131,21,7*7A
$GAGSV,3,3,10,12,11,026,17,03,10,194,21,7*7E
$GBGSV,3,1,12,45,88,057,34,29,56,143,32,30,37,056,31,36,36,114,29,1*75
$GBGSV,3,2,12,26,32,296,31,42,14,293,24,35,12,194,25,50,11,268,19,1*7C
$GBGSV,3,3,12,14,11,319,22,57,09,029,,21,06,247,20,33,05,343,22,1*7C
$GNRMC,234736.000,A,4910.426524,N,12304.400592,W,0.03,58.05,181224,,,D,V*2C
$GNVTG,58.05,T,,M,0.03,N,0.05,K,D*18
$PAIRLOG,Full*51
$GNGGA,234737.000,4910.426440,N,12304.400676,W,2,35,0.41,7.160,M,-16.816,M,,*48
$GNGLL,4910.426440,N,12304.400676,W,234737.000,A,D*5D
$GNGSA,A,3,17,19,14,24,13,15,02,30,06,21,12,,0.79,0.41,0.67,1*07
$GNGSA,A,3,88,79,87,69,81,,,,,,,,0.79,0.41,0.67,2*0F
$GNGSA,A,3,02,25,08,11,07,30,10,36,03,,,,0.79,0.41,0.67,3*07
$GNGSA,A,3,45,29,30,36,26,42,35,14,21,33,,,0.79,0.41,0.67,4*00
$GPGSV,4,1,13,17,73,098,33,19,59,190,29,14,49,081,29,24,35,304,26,1*6E
$GPGSV,4,2,13,46,33,187,28,13,29,215,28,15,25,254,27,02,21,044,25,1*60
$GPGSV,4,3,13,30,17,142,23,06,09,159,20,21,08,029,18,12,05,269,13,1*62
$GPGSV,4,4,13,10,01,339,,1*5F
$GLGSV,2,1,07,78,70,052,,88,55,122,33,79,41,306,29,87,32,036,29,1*77
$GLGSV,2,2,07,69,26,278,29,81,17,174,28,77,17,101,,1*43
$GAGSV,3,1,10,02,79,312,32,25,42,078,30,08,36,240,27,11,32,075,24,7*7B
$GAGSV,3,2,10,07,29,304,26,30,27,270,24,10,23,045,24,36,23,131,21,7*7A
$GAGSV,3,3,10,12,11,026,17,03,10,194,21,7*7E
$GBGSV,3,1,12,45,88,057,34,29,56,143,32,30,37,056,31,36,36,114,29,1*75
$GBGSV,3,2,12,26,32,296,31,42,14,293,24,35,12,194,25,50,11,268,19,1*7C
$GBGSV,3,3,12,14,11,319,22,57,09,029,,21,06,247,20,33,05,343,23,1*7D
$GNRMC,234737.000,A,4910.426440,N,12304.400676,W,0.03,58.05,181224,,,D,V*27
$GNVTG,58.05,T,,M,0.03,N,0.06,K,D*1B
$PAIRLOG,Full*51
$GNGGA,234738.000,4910.426386,N,12304.400748,W,2,35,0.41,7.190,M,-16.816,M,,*49
$GNGLL,4910.426386,N,12304.400748,W,234738.000,A,D*53
$GNGSA,A,3,17,19,14,24,13,15,02,30,06,21,12,,0.79,0.41,0.67,1*07
$GNGSA,A,3,88,79,87,69,81,,,,,,,,0.79,0.41,0.67,2*0F
$GNGSA,A,3,02,25,08,11,07,30,10,36,03,,,,0.79,0.41,0.67,3*07
$GNGSA,A,3,45,29,30,36,26,42,35,14,21,33,,,0.79,0.41,0.67,4*00
$GPGSV,4,1,13,17,73,098,33,19,59,190,29,14,49,081,28,24,35,304,26,1*6F
$GPGSV,4,2,13,46,33,187,28,13,29,215,27,15,25,254,26,02,21,044,24,1*6F
$GPGSV,4,3,13,30,17,142,22,06,09,159,20,21,08,029,18,12,05,269,13,1*63
$GPGSV,4,4,13,10,01,339,,1*5F
$GLGSV,2,1,07,78,70,052,,88,55,122,33,79,41,306,29,87,32,036,29,1*77
$GLGSV,2,2,07,69,26,278,28,81,17,174,28,77,17,101,,1*42
$GAGSV,3,1,10,02,79,312,32,25,42,078,30,08,36,240,26,11,32,075,24,7*7A
$GAGSV,3,2,10,07,29,304,26,30,27,270,24,10,23,045,23,36,23,131,21,7*7D
$GAGSV,3,3,10,12,11,026,17,03,10,194,20,7*7F
$GBGSV,3,1,12,45,88,057,34,29,56,143,32,30,37,056,31,36,36,114,29,1*75
$GBGSV,3,2,12,26,32,296,31,42,14,293,24,35,12,194,25,50,11,268,19,1*7C
$GBGSV,3,3,12,14,11,319,22,57,09,029,,21,06,247,20,33,05,343,23,1*7D
$GNRMC,234738.000,A,4910.426386,N,12304.400748,W,0.03,58.05,181224,,,D,V*29
$GNVTG,58.05,T,,M,0.03,N,0.06,K,D*1B
$PAIRLOG,Full*51
$GNGGA,234739.000,4910.426356,N,12304.400838,W,2,35,0.41,7.133,M,-16.816,M,,*44
$GNGLL,4910.426356,N,12304.400838,W,234739.000,A,D*57
$GNGSA,A,3,17,19,14,24,13,15,02,30,06,21,12,,0.79,0.41,0.67,1*07
$GNGSA,A,3,88,79,87,69,81,,,,,,,,0.79,0.41,0.67,2*0F
$GNGSA,A,3,02,25,08,11,07,30,10,36,03,,,,0.79,0.41,0.67,3*07
$GNGSA,A,3,45,29,30,36,26,42,35,14,21,33,,,0.79,0.41,0.67,4*00
$GPGSV,4,1,13,17,73,098,33,19,59,190,29,14,49,081,28,24,35,304,25,1*6C
$GPGSV,4,2,13,46,33,187,28,13,29,215,27,15,25,254,26,02,21,044,24,1*6F
$GPGSV,4,3,13,30,17,142,22,06,09,159,20,21,08,029,18,12,05,269,13,1*63
$GPGSV,4,4,13,10,01,339,,1*5F
$GLGSV,2,1,07,78,70,052,,88,55,122,33,79,41,306,29,87,32,036,29,1*77
$GLGSV,2,2,07,69,26,278,28,81,17,174,27,77,17,101,,1*4D
$GAGSV,3,1,10,02,79,312,32,25,42,078,29,08,36,240,26,11,32,075,23,7*75
$GAGSV,3,2,10,07,29,304,26,30,27,270,24,10,23,045,23,36,23,131,21,7*7D
$GAGSV,3,3,10,12,11,026,17,03,10,194,20,7*7F
$GBGSV,3,1,12,45,88,057,34,29,56,143,32,30,37,056,31,36,36,114,29,1*75
$GBGSV,3,2,12,26,32,296,31,42,14,293,24,35,12,194,26,50,11,268,19,1*7F
$GBGSV,3,3,12,14,11,319,22,57,09,029,,21,06,247,20,33,05,343,23,1*7D
$GNRMC,234739.000,A,4910.426356,N,12304.400838,W,0.03,58.05,181224,,,D,V*2D
$GNVTG,58.05,T,,M,0.03,N,0.06,K,D*1B
$PAIRLOG,Full*51
$GNGGA,234740.000,4910.426248,N,12304.400946,W,2,35,0.41,6.951,M,-16.816,M,,*41
$GNGLL,4910.426248,N,12304.400946,W,234740.000,A,D*5F
$GNGSA,A,3,17,19,14,24,13,15,02,30,06,21,12,,0.79,0.41,0.67,1*07
$GNGSA,A,3,88,79,87,69,81,,,,,,,,0.79,0.41,0.67,2*0F
$GNGSA,A,3,02,25,08,11,07,30,10,36,03,,,,0.79,0.41,0.67,3*07
$GNGSA,A,3,45,29,30,36,26,42,35,14,21,33,,,0.79,0.41,0.67,4*00
$GPGSV,4,1,13,17,73,098,33,19,59,190,29,14,49,081,29,24,35,304,26,1*6E
$GPGSV,4,2,13,46,33,187,28,13,29,215,28,15,25,254,26,02,21,044,24,1*60
$GPGSV,4,3,13,30,17,142,22,06,09,159,21,21,08,029,18,12,05,269,12,1*63
$GPGSV,4,4,13,10,01,339,,1*5F
$GLGSV,2,1,07,78,70,052,,88,55,122,33,79,41,306,29,87,32,036,29,1*77
$GLGSV,2,2,07,69,26,278,27,81,17,174,27,77,17,101,,1*42
$GAGSV,3,1,10,02,79,312,32,25,42,078,29,08,36,240,26,11,32,075,23,7*75
$GAGSV,3,2,10,07,29,304,27,30,27,270,24,10,23,045,23,36,23,131,21,7*7C
$GAGSV,3,3,10,12,11,026,17,03,10,194,20,7*7F
$GBGSV,3,1,12,45,88,057,34,29,56,143,33,30,37,056,31,36,36,114,29,1*74
$GBGSV,3,2,12,26,32,296,31,42,14,293,24,35,12,194,26,50,11,268,20,1*75
$GBGSV,3,3,12,14,11,319,22,57,09,029,,21,06,247,20,33,05,343,23,1*7D
$GNRMC,234740.000,A,4910.426248,N,12304.400946,W,0.03,58.05,181224,,,D,V*25
$GNVTG,58.05,T,,M,0.03,N,0.06,K,D*1B
$PAIRLOG,Full*51
$GNGGA,234741.000,4910.426206,N,12304.401102,W,2,35,0.41,6.720,M,-16.816,M,,*4B
$GNGLL,4910.426206,N,12304.401102,W,234741.000,A,D*5D
$GNGSA,A,3,17,19,14,24,13,15,02,30,06,21,12,,0.79,0.41,0.67,1*07
$GNGSA,A,3,88,79,87,69,81,,,,,,,,0.79,0.41,0.67,2*0F
$GNGSA,A,3,02,25,08,11,07,30,10,36,03,,,,0.79,0.41,0.67,3*07
$GNGSA,A,3,45,29,30,36,26,42,35,14,21,33,,,0.79,0.41,0.67,4*00
$GPGSV,4,1,13,17,73,098,33,19,59,190,30,14,49,081,29,24,35,304,26,1*66
$GPGSV,4,2,13,46,33,187,28,13,29,215,28,15,25,254,26,02,21,044,25,1*61
$GPGSV,4,3,13,30,17,142,22,06,09,159,21,21,08,029,18,12,05,269,14,1*65
$GPGSV,4,4,13,10,01,339,,1*5F
$GLGSV,2,1,07,78,70,052,,88,55,122,33,79,41,306,28,87,32,036,29,1*76
$GLGSV,2,2,07,69,26,278,26,81,17,174,27,77,17,101,,1*43
$GAGSV,3,1,10,02,79,312,32,25,42,078,29,08,36,240,26,11,32,075,23,7*75
$GAGSV,3,2,10,07,29,304,27,30,27,270,24,10,23,045,23,36,23,131,20,7*7D
$GAGSV,3,3,10,12,11,026,17,03,10,194,20,7*7F
$GBGSV,3,1,12,45,88,057,34,29,56,143,33,30,37,056,31,36,36,114,29,1*74
$GBGSV,3,2,12,26,32,296,31,42,14,293,24,35,12,194,26,50,11,268,20,1*75
$GBGSV,3,3,12,14,11,319,22,57,09,029,,21,06,247,20,33,05,343,23,1*7D
$GNRMC,234741.000,A,4910.426206,N,12304.401102,W,0.03,58.05,181224,,,D,V*27
$GNVTG,58.05,T,,M,0.03,N,0.05,K,D*18
$PAIRLOG,Full*51
$GNGGA,234742.000,4910.426194,N,12304.401294,W,2,35,0.41,6.498,M,-16.816,M,,*4C
$GNGLL,4910.426194,N,12304.401294,W,234742.000,A,D*5A
$GNGSA,A,3,17,19,14,24,13,15,02,30,06,21,12,,0.79,0.41,0.67,1*07
$GNGSA,A,3,88,79,87,69,81,,,,,,,,0.79,0.41,0.67,2*0F
$GNGSA,A,3,02,25,08,11,07,30,10,36,03,,,,0.79,0.41,0.67,3*07
$GNGSA,A,3,45,29,30,36,26,42,35,14,21,33,,,0.79,0.41,0.67,4*00
$GPGSV,4,1,13,17,73,098,33,19,59,190,30,14,49,081,29,24,35,304,26,1*66
$GPGSV,4,2,13,46,33,187,28,13,29,215,28,15,25,254,26,02,21,044,24,1*60
$GPGSV,4,3,13,30,17,142,22,06,09,159,22,21,08,029,18,12,05,269,14,1*66
$GPGSV,4,4,13,10,01,339,,1*5F
$GLGSV,2,1,07,78,70,052,,88,55,122,33,79,41,306,28,87,32,036,29,1*76
$GLGSV,2,2,07,69,26,278,26,81,17,174,27,77,17,101,,1*43
$GAGSV,3,1,10,02,79,312,32,25,42,078,29,08,36,240,26,11,32,075,23,7*75
$GAGSV,3,2,10,07,29,304,27,30,27,270,24,10,23,045,24,36,23,131,20,7*7A
$GAGSV,3,3,10,12,11,026,17,03,10,194,20,7*7F
$GBGSV,3,1,12,45,88,057,34,29,56,143,32,30,37,056,31,36,36,114,29,1*75
$GBGSV,3,2,12,26,32,296,31,42,14,293,24,35,12,194,26,50,11,268,20,1*75
$GBGSV,3,3,12,14,11,319,22,57,09,029,,21,06,247,20,33,05,343,23,1*7D
$GNRMC,234742.000,A,4910.426194,N,12304.401294,W,0.03,58.05,181224,,,D,V*20
$GNVTG,58.05,T,,M,0.03,N,0.06,K,D*1B
$PAIRLOG,Full*51
$GNGGA,234743.000,4910.426164,N,12304.401396,W,2,34,0.42,6.295,M,-16.817,M,,*49
$GNGLL,4910.426164,N,12304.401396,W,234743.000,A,D*57
$GNGSA,A,3,17,19,14,24,13,15,02,30,06,21,,,0.80,0.42,0.68,1*0E
$GNGSA,A,3,88,79,87,69,81,,,,,,,,0.80,0.42,0.68,2*05
$GNGSA,A,3,02,25,08,11,07,30,10,36,03,,,,0.80,0.42,0.68,3*0D
$GNGSA,A,3,45,29,30,36,26,42,35,14,21,33,,,0.80,0.42,0.68,4*0A
$GPGSV,4,1,13,17,73,098,33,19,59,190,30,14,49,081,29,24,35,304,26,1*66
$GPGSV,4,2,13,46,33,187,28,13,29,215,28,15,25,254,27,02,21,044,25,1*60
$GPGSV,4,3,13,30,17,142,22,06,09,159,23,21,08,029,18,12,05,269,13,1*60
$GPGSV,4,4,13,10,01,339,,1*5F
$GLGSV,2,1,07,78,70,052,,88,55,122,33,79,41,306,28,87,32,036,29,1*76
$GLGSV,2,2,07,69,26,278,26,81,17,174,26,77,17,101,,1*42
$GAGSV,3,1,10,02,79,312,32,25,41,079,29,08,36,240,26,11,32,075,23,7*77
$GAGSV,3,2,10,07,29,304,27,30,27,270,24,10,23,045,24,36,23,131,20,7*7A
$GAGSV,3,3,10,12,11,026,17,03,10,194,21,7*7E
$GBGSV,3,1,12,45,88,057,34,29,56,143,32,30,37,056,31,36,36,114,29,1*75
$GBGSV,3,2,12,26,32,296,31,42,14,293,24,35,12,194,26,50,11,268,20,1*75
$GBGSV,3,3,12,14,11,319,22,57,09,029,,21,06,247,20,33,05,343,23,1*7D
$GNRMC,234743.000,A,4910.426164,N,12304.401396,W,0.03,58.05,181224,,,D,V*2D
$GNVTG,58.05,T,,M,0.03,N,0.06,K,D*1B
$PAIRLOG,Full*51
$GNGGA,234744.000,4910.426128,N,12304.401552,W,2,34,0.42,6.076,M,-16.817,M,,*47
$GNGLL,4910.426128,N,12304.401552,W,234744.000,A,D*56
$GNGSA,A,3,17,19,14,24,13,15,02,30,06,21,,,0.80,0.42,0.68,1*0E
$GNGSA,A,3,88,79,87,69,81,,,,,,,,0.80,0.42,0.68,2*05
$GNGSA,A,3,02,25,08,11,07,30,10,36,03,,,,0.80,0.42,0.68,3*0D
$GNGSA,A,3,45,29,30,36,26,42,35,14,21,33,,,0.80,0.42,0.68,4*0A
$GPGSV,4,1,13,17,73,098,33,19,59,190,30,14,49,081,29,24,35,304,26,1*66
$GPGSV,4,2,13,46,33,187,28,13,29,215,28,15,25,254,27,02,21,044,24,1*61
$GPGSV,4,3,13,30,17,142,22,06,09,159,23,21,08,029,18,12,05,269,12,1*61
$GPGSV,4,4,13,10,01,339,,1*5F
$GLGSV,2,1,07,78,70,052,,88,55,122,33,79,41,306,29,87,32,036,29,1*77
$GLGSV,2,2,07,69,26,278,26,81,17,174,26,77,17,101,,1*42
$GAGSV,3,1,10,02,79,312,32,25,41,079,29,08,36,240,26,11,32,075,23,7*77
$GAGSV,3,2,10,07,29,304,27,30,27,270,24,10,23,045,24,36,23,131,21,7*7B
$GAGSV,3,3,10,12,11,026,17,03,10,194,21,7*7E
$GBGSV,3,1,12,45,88,057,34,29,56,143,32,30,37,056,31,36,36,114,29,1*75
$GBGSV,3,2,12,26,32,296,31,42,14,293,24,35,12,194,26,50,11,268,20,1*75
$GBGSV,3,3,12,14,11,319,22,57,09,029,,21,06,247,20,33,05,343,23,1*7D
$GNRMC,234744.000,A,4910.426128,N,12304.401552,W,0.03,58.05,181224,,,D,V*2C
$GNVTG,58.05,T,,M,0.03,N,0.05,K,D*18
$PAIRLOG,Full*51
$GNGGA,234745.000,4910.426122,N,12304.401624,W,2,35,0.41,5.911,M,-16.816,M,,*46
$GNGLL,4910.426122,N,12304.401624,W,234745.000,A,D*5F
$GNGSA,A,3,17,19,14,24,13,15,02,30,06,21,12,,0.79,0.41,0.67,1*07
$GNGSA,A,3,88,79,87,69,81,,,,,,,,0.79,0.41,0.67,2*0F
$GNGSA,A,3,02,25,08,11,07,30,10,36,03,,,,0.79,0.41,0.67,3*07
$GNGSA,A,3,45,29,30,36,26,42,35,14,21,33,,,0.79,0.41,0.67,4*00
$GPGSV,4,1,13,17,73,098,33,19,59,190,30,14,49,081,29,24,35,304,26,1*66
$GPGSV,4,2,13,46,33,187,28,13,29,215,28,15,25,254,27,02,21,044,24,1*61
$GPGSV,4,3,13,30,17,142,22,06,09,159,22,21,08,029,18,12,05,269,14,1*66
$GPGSV,4,4,13,10,01,339,,1*5F
$GLGSV,2,1,07,78,70,052,,88,55,122,33,79,41,306,29,87,32,036,29,1*77
$GLGSV,2,2,07,69,26,278,26,81,17,174,26,77,17,101,,1*42
$GAGSV,3,1,10,02,79,312,32,25,41,079,29,08,36,240,26,11,32,075,23,7*77
$GAGSV,3,2,10,07,29,304,27,30,27,270,24,10,23,045,24,36,23,131,21,7*7B
$GAGSV,3,3,10,12,11,026,17,03,10,194,21,7*7E
$GBGSV,3,1,12,45,88,057,34,29,56,143,32,30,37,056,31,36,36,114,29,1*75
$GBGSV,3,2,12,26,32,296,31,42,14,293,24,35,12,194,26,50,11,268,20,1*75
$GBGSV,3,3,12,14,11,319,22,57,09,029,,21,06,247,20,33,05,343,23,1*7D
$GNRMC,234745.000,A,4910.426122,N,12304.401624,W,0.02,58.05,181224,,,D,V*24
$GNVTG,58.05,T,,M,0.02,N,0.04,K,D*18
$PAIRLOG,Full*51
$GNGGA,234746.000,4910.426170,N,12304.401654,W,2,35,0.41,6.002,M,-16.816,M,,*4D
$GNGLL,4910.426170,N,12304.401654,W,234746.000,A,D*5C
$GNGSA,A,3,17,19,14,24,13,15,02,30,06,21,12,,0.79,0.41,0.67,1*07
$GNGSA,A,3,88,79,87,69,81,,,,,,,,0.79,0.41,0.67,2*0F
$GNGSA,A,3,02,25,08,11,07,30,10,36,03,,,,0.79,0.41,0.67,3*07
$GNGSA,A,3,45,29,30,36,26,42,35,14,21,33,,,0.79,0.41,0.67,4*00
$GPGSV,4,1,13,17,73,098,32,19,59,190,29,14,49,081,28,24,35,304,25,1*6D
$GPGSV,4,2,13,46,33,187,28,13,29,215,27,15,25,254,26,02,21,044,21,1*6A
$GPGSV,4,3,13,30,17,142,21,06,09,159,20,21,08,029,17,12,05,269,14,1*68
$GPGSV,4,4,13,10,01,339,,1*5F
$GLGSV,2,1,07,78,70,052,,88,55,122,33,79,41,306,29,87,32,036,29,1*77
$GLGSV,2,2,07,69,26,278,26,81,17,174,26,77,17,101,,1*42
$GAGSV,3,1,10,02,79,312,32,25,41,079,29,08,36,240,26,11,32,075,22,7*76
$GAGSV,3,2,10,07,29,304,27,30,27,270,23,10,23,045,24,36,23,131,20,7*7D
$GAGSV,3,3,10,12,11,026,17,03,10,194,21,7*7E
$GBGSV,3,1,12,45,88,057,33,29,56,143,32,30,37,056,31,36,36,114,29,1*72
$GBGSV,3,2,12,26,32,296,31,42,14,293,24,35,12,194,26,50,11,268,20,1*75
$GBGSV,3,3,12,14,11,319,22,57,09,029,,21,06,247,20,33,05,343,22,1*7C
$GNRMC,234746.000,A,4910.426170,N,12304.401654,W,0.02,58.05,181224,,,D,V*27
$GNVTG,58.05,T,,M,0.02,N,0.04,K,D*18
$PAIRLOG,Full*51
$GNGGA,234747.000,4910.426158,N,12304.401714,W,2,35,0.41,5.989,M,-16.816,M,,*4A
$GNGLL,4910.426158,N,12304.401714,W,234747.000,A,D*52
$GNGSA,A,3,17,19,14,24,13,15,02,30,06,21,12,,0.79,0.41,0.67,1*07
$GNGSA,A,3,88,79,87,69,81,,,,,,,,0.79,0.41,0.67,2*0F
$GNGSA,A,3,02,25,08,11,07,30,10,36,03,,,,0.79,0.41,0.67,3*07
$GNGSA,A,3,45,29,30,36,26,42,35,14,21,33,,,0.79,0.41,0.67,4*00
$GPGSV,4,1,13,17,73,098,32,19,59,190,29,14,49,081,28,24,35,304,25,1*6D
$GPGSV,4,2,13,46,33,187,28,13,29,215,27,15,25,254,27,02,21,044,24,1*6E
$GPGSV,4,3,13,30,17,142,21,06,09,159,23,21,08,029,17,12,05,269,13,1*6C
$GPGSV,4,4,13,10,01,339,,1*5F
$GLGSV,2,1,07,78,70,052,,88,55,122,33,79,41,306,29,87,32,036,29,1*77
$GLGSV,2,2,07,69,26,278,27,81,17,174,26,77,17,101,,1*43
$GAGSV,3,1,10,02,79,312,32,25,41,079,29,08,36,240,26,11,32,075,22,7*76
$GAGSV,3,2,10,07,29,304,27,30,27,270,23,10,23,045,24,36,23,131,20,7*7D
$GAGSV,3,3,10,12,11,026,17,03,10,194,21,7*7E
$GBGSV,3,1,12,45,88,057,33,29,56,143,32,30,37,056,31,36,36,114,28,1*73
$GBGSV,3,2,12,26,32,296,31,42,14,293,24,35,12,194,26,50,11,268,20,1*75
$GBGSV,3,3,12,14,11,319,22,57,09,029,,21,06,247,20,33,05,343,22,1*7C
$GNRMC,234747.000,A,4910.426158,N,12304.401714,W,0.01,58.05,181224,,,D,V*2A
$GNVTG,58.05,T,,M,0.01,N,0.03,K,D*1C
$PAIRLOG,Full*51
$GNGGA,234748.000,4910.426194,N,12304.401768,W,2,35,0.41,6.007,M,-16.816,M,,*42
$GNGLL,4910.426194,N,12304.401768,W,234748.000,A,D*56
$GNGSA,A,3,17,19,14,24,13,15,02,30,06,21,12,,0.79,0.41,0.67,1*07
$GNGSA,A,3,88,79,87,69,81,,,,,,,,0.79,0.41,0.67,2*0F
$GNGSA,A,3,02,25,08,11,07,30,10,36,03,,,,0.79,0.41,0.67,3*07
$GNGSA,A,3,45,29,30,36,26,42,35,14,21,33,,,0.79,0.41,0.67,4*00
$GPGSV,4,1,13,17,73,098,32,19,59,190,29,14,49,081,28,24,35,304,25,1*6D
$GPGSV,4,2,13,46,33,187,28,13,29,215,27,15,25,254,26,02,21,044,24,1*6F
$GPGSV,4,3,13,30,17,142,21,06,09,159,21,21,08,029,17,12,05,269,12,1*6F
$GPGSV,4,4,13,10,01,339,,1*5F
$GLGSV,2,1,07,78,70,052,,88,55,122,33,79,41,306,29,87,32,036,30,1*7F
$GLGSV,2,2,07,69,26,278,27,81,17,174,25,77,17,101,,1*40
$GAGSV,3,1,10,02,79,312,32,25,41,079,29,08,36,240,26,11,32,075,22,7*76
$GAGSV,3,2,10,07,29,304,27,30,27,271,22,10,23,045,24,36,23,131,20,7*7D
$GAGSV,3,3,10,12,11,026,17,03,10,194,21,7*7E
$GBGSV,3,1,12,45,88,057,34,29,56,143,32,30,37,056,31,36,36,114,29,1*75
$GBGSV,3,2,12,26,32,296,31,42,14,293,24,35,12,194,26,50,11,268,20,1*75
$GBGSV,3,3,12,14,11,319,23,57,09,029,,21,06,247,20,33,05,343,22,1*7D
$GNRMC,234748.000,A,4910.426194,N,12304.401768,W,0.02,58.05,181224,,,D,V*2D
$GNVTG,58.05,T,,M,0.02,N,0.03,K,D*1F
$PAIRLOG,Full*51
$GNGGA,234749.000,4910.426224,N,12304.401870,W,2,35,0.41,6.016,M,-16.816,M,,*4D
$GNGLL,4910.426224,N,12304.401870,W,234749.000,A,D*59
$GNGSA,A,3,17,19,14,24,13,15,02,30,06,21,12,,0.79,0.41,0.67,1*07
$GNGSA,A,3,88,79,87,69,81,,,,,,,,0.79,0.41,0.67,2*0F
$GNGSA,A,3,02,25,08,11,07,30,10,36,03,,,,0.79,0.41,0.67,3*07
$GNGSA,A,3,45,29,30,36,26,42,35,14,21,33,,,0.79,0.41,0.67,4*00
$GPGSV,4,1,13,17,73,098,31,19,59,190,29,14,49,081,28,24,35,304,25,1*6E
$GPGSV,4,2,13,46,33,187,28,13,29,215,27,15,25,254,26,02,21,044,22,1*69
$GPGSV,4,3,13,30,17,142,21,06,09,159,21,21,08,029,17,12,05,269,13,1*6E
$GPGSV,4,4,13,10,01,339,,1*5F
$GLGSV,2,1,07,78,70,052,,88,55,122,34,79,41,306,29,87,32,036,30,1*78
$GLGSV,2,2,07,69,26,278,27,81,17,174,25,77,17,101,,1*40
$GAGSV,3,1,10,02,79,312,32,25,41,079,29,08,36,240,27,11,32,075,22,7*77
$GAGSV,3,2,10,07,29,304,27,30,27,271,22,10,23,045,24,36,23,131,20,7*7D
$GAGSV,3,3,10,12,11,026,17,03,10,194,21,7*7E
$GBGSV,3,1,12,45,88,057,34,29,56,143,32,30,37,056,31,36,36,114,29,1*75
$GBGSV,3,2,12,26,32,296,31,42,14,293,24,35,12,194,26,50,11,268,20,1*75
$GBGSV,3,3,12,14,11,319,23,57,09,029,,21,06,247,21,33,05,343,22,1*7C
$GNRMC,234749.000,A,4910.426224,N,12304.401870,W,0.01,58.05,181224,,,D,V*21
$GNVTG,58.05,T,,M,0.01,N,0.03,K,D*1C
$PAIRLOG,Full*51
$GNGGA,234750.000,4910.426248,N,12304.401972,W,2,35,0.41,5.995,M,-16.816,M,,*4D
$GNGLL,4910.426248,N,12304.401972,W,234750.000,A,D*58
$GNGSA,A,3,17,19,14,24,13,15,02,30,06,21,12,,0.79,0.41,0.67,1*07
$GNGSA,A,3,88,79,87,69,81,,,,,,,,0.79,0.41,0.67,2*0F
$GNGSA,A,3,02,25,08,11,07,30,10,36,03,,,,0.79,0.41,0.67,3*07
$GNGSA,A,3,45,29,30,36,26,42,35,14,21,33,,,0.79,0.41,0.67,4*00
$GPGSV,4,1,13,17,73,098,31,19,59,190,29,14,49,081,27,24,35,304,25,1*61
$GPGSV,4,2,13,46,33,187,28,13,29,215,27,15,25,254,26,02,21,044,23,1*68
$GPGSV,4,3,13,30,17,142,21,06,09,159,21,21,08,029,17,12,05,269,13,1*6E
$GPGSV,4,4,13,10,01,339,,1*5F
$GLGSV,2,1,07,78,70,052,,88,55,122,34,79,41,306,29,87,32,036,30,1*78
$GLGSV,2,2,07,69,26,278,27,81,17,174,26,77,17,101,,1*43
$GAGSV,3,1,10,02,79,312,32,25,41,079,28,08,36,240,26,11,32,075,21,7*74
$GAGSV,3,2,10,07,29,304,27,30,27,271,22,10,23,045,24,36,23,131,20,7*7D
$GAGSV,3,3,10,12,11,026,17,03,10,194,20,7*7F
$GBGSV,3,1,12,45,88,057,34,29,56,143,32,30,37,056,31,36,36,114,29,1*75
$GBGSV,3,2,12,26,32,296,31,42,14,293,24,35,12,194,26,50,11,268,21,1*74
$GBGSV,3,3,12,14,11,319,23,57,09,029,,21,06,247,21,33,05,343,22,1*7C
$GNRMC,234750.000,A,4910.426248,N,12304.401972,W,0.02,58.05,181224,,,D,V*23
$GNVTG,58.05,T,,M,0.02,N,0.03,K,D*1F
$PAIRLOG,Full*51
$GNGGA,234751.000,4910.426284,N,12304.402038,W,2,34,0.42,5.960,M,-16.816,M,,*40
$GNGLL,4910.426284,N,12304.402038,W,234751.000,A,D*5D
$GNGSA,A,3,17,19,14,24,13,15,02,30,06,21,,,0.80,0.42,0.68,1*0E
$GNGSA,A,3,88,79,87,69,81,,,,,,,,0.80,0.42,0.68,2*05
$GNGSA,A,3,02,25,08,11,07,30,10,36,03,,,,0.80,0.42,0.68,3*0D
$GNGSA,A,3,45,29,30,36,26,42,35,14,21,33,,,0.80,0.42,0.68,4*0A
$GPGSV,4,1,13,17,73,098,32,19,59,190,29,14,49,081,28,24,35,304,25,1*6D
$GPGSV,4,2,13,46,33,187,28,13,29,215,27,15,25,254,26,02,21,044,24,1*6F
$GPGSV,4,3,13,30,17,142,21,06,09,159,22,21,08,029,17,12,05,269,10,1*6E
$GPGSV,4,4,13,10,01,339,,1*5F
$GLGSV,2,1,07,78,70,052,,88,55,122,34,79,41,306,29,87,32,036,30,1*78
$GLGSV,2,2,07,69,26,278,27,81,17,174,26,77,17,101,,1*43
$GAGSV,3,1,10,02,79,312,32,25,41,079,28,08,36,240,26,11,32,075,21,7*74
$GAGSV,3,2,10,07,29,304,27,30,27,271,22,10,23,045,24,36,23,131,20,7*7D
$GAGSV,3,3,10,12,11,026,17,03,10,194,20,7*7F
$GBGSV,3,1,12,45,88,057,34,29,56,143,32,30,37,056,31,36,36,114,29,1*75
$GBGSV,3,2,12,26,32,296,31,42,14,293,24,35,12,194,26,50,11,268,21,1*74
$GBGSV,3,3,12,14,11,319,23,57,09,029,,21,06,247,21,33,05,343,21,1*7F
$GNRMC,234751.000,A,4910.426284,N,12304.402038,W,0.01,58.05,181224,,,D,V*25
$GNVTG,58.05,T,,M,0.01,N,0.03,K,D*1C
$PAIRLOG,Full*51
$GNGGA,234752.000,4910.426344,N,12304.402044,W,2,34,0.42,5.983,M,-16.817,M,,*49
$GNGLL,4910.426344,N,12304.402044,W,234752.000,A,D*58
$GNGSA,A,3,17,19,14,24,13,15,02,30,06,21,,,0.80,0.42,0.68,1*0E
$GNGSA,A,3,88,79,87,69,81,,,,,,,,0.80,0.42,0.68,2*05
$GNGSA,A,3,02,25,08,11,07,30,10,36,03,,,,0.80,0.42,0.68,3*0D
$GNGSA,A,3,45,29,30,36,26,42,35,14,21,33,,,0.80,0.42,0.68,4*0A
$GPGSV,4,1,13,17,73,098,32,19,59,190,29,14,49,081,28,24,35,304,25,1*6D
$GPGSV,4,2,13,46,33,187,29,13,29,215,27,15,25,254,26,02,21,044,24,1*6E
$GPGSV,4,3,13,30,17,142,22,06,09,159,22,21,08,029,17,12,05,269,11,1*6C
$GPGSV,4,4,13,10,01,339,,1*5F
$GLGSV,2,1,07,78,70,052,,88,55,122,34,79,41,306,30,87,32,036,30,1*70
$GLGSV,2,2,07,69,26,278,27,81,17,174,26,77,17,101,,1*43
$GAGSV,3,1,10,02,79,312,32,25,41,079,28,08,36,240,26,11,32,075,21,7*74
$GAGSV,3,2,10,07,29,304,27,30,27,271,22,10,23,045,24,36,23,131,20,7*7D
$GAGSV,3,3,10,12,11,026,17,03,10,194,20,7*7F
$GBGSV,3,1,12,45,88,057,34,29,56,143,32,30,37,056,31,36,36,114,29,1*75
$GBGSV,3,2,12,26,32,296,31,42,14,293,24,35,12,194,26,50,11,268,21,1*74
$GBGSV,3,3,12,14,11,319,23,57,09,029,,21,06,247,21,33,05,343,21,1*7F
$GNRMC,234752.000,A,4910.426344,N,12304.402044,W,0.01,58.05,181224,,,D,V*20
$GNVTG,58.05,T,,M,0.01,N,0.03,K,D*1C
$PAIRLOG,Full*51
$GNGGA,234753.000,4910.426422,N,12304.402014,W,2,35,0.41,6.045,M,-16.816,M,,*49
$GNGLL,4910.426422,N,12304.402014,W,234753.000,A,D*5B
$GNGSA,A,3,17,19,14,24,13,15,02,30,06,21,12,,0.79,0.41,0.67,1*07
$GNGSA,A,3,88,79,87,69,81,,,,,,,,0.79,0.41,0.67,2*0F
$GNGSA,A,3,02,25,08,11,07,30,10,36,03,,,,0.79,0.41,0.67,3*07
$GNGSA,A,3,45,29,30,36,26,42,35,14,21,33,,,0.79,0.41,0.67,4*00
$GPGSV,4,1,13,17,73,098,31,19,59,190,29,14,49,081,28,24,35,304,25,1*6E
$GPGSV,4,2,13,46,33,187,28,13,29,215,27,15,25,254,26,02,21,044,23,1*68
$GPGSV,4,3,13,30,17,142,22,06,09,159,22,21,08,029,17,12,05,269,12,1*6F
$GPGSV,4,4,13,10,01,339,,1*5F
$GLGSV,2,1,07,78,70,052,,88,55,122,34,79,41,306,30,87,32,036,30,1*70
$GLGSV,2,2,07,69,26,278,28,81,17,174,26,77,17,101,,1*4C
$GAGSV,3,1,10,02,79,312,31,25,41,079,28,08,36,240,26,11,32,075,21,7*77
$GAGSV,3,2,10,07,29,304,27,30,27,271,22,10,23,045,24,36,23,131,20,7*7D
$GAGSV,3,3,10,12,11,026,17,03,10,194,20,7*7F
$GBGSV,3,1,12,45,88,057,35,29,56,143,32,30,37,056,31,36,36,114,29,1*74
$GBGSV,3,2,12,26,32,296,31,42,14,293,24,35,12,194,26,50,11,268,22,1*77
$GBGSV,3,3,12,14,11,319,24,57,09,029,,21,06,247,21,33,05,343,21,1*78
$GNRMC,234753.000,A,4910.426422,N,12304.402014,W,0.01,58.05,181224,,,D,V*23
$GNVTG,58.05,T,,M,0.01,N,0.02,K,D*1D
$PAIRLOG,Full*51
$GNGGA,234754.000,4910.426476,N,12304.402032,W,2,35,0.41,6.188,M,-16.816,M,,*4B
$GNGLL,4910.426476,N,12304.402032,W,234754.000,A,D*59
$GNGSA,A,3,17,19,14,24,13,15,02,30,06,21,12,,0.79,0.41,0.67,1*07
$GNGSA,A,3,88,79,87,69,81,,,,,,,,0.79,0.41,0.67,2*0F
$GNGSA,A,3,02,25,08,11,07,30,36,10,03,,,,0.79,0.41,0.67,3*07
$GNGSA,A,3,45,29,30,36,26,42,35,14,21,33,,,0.79,0.41,0.67,4*00
$GPGSV,4,1,13,17,73,098,32,19,59,190,29,14,49,081,28,24,35,304,26,1*6E
$GPGSV,4,2,13,46,33,187,28,13,29,215,27,15,25,254,26,02,21,044,25,1*6E
$GPGSV,4,3,13,30,17,142,22,06,09,159,23,21,08,029,18,12,05,269,13,1*60
$GPGSV,4,4,13,10,01,339,,1*5F
$GLGSV,2,1,07,78,70,052,,88,55,122,33,79,41,306,30,87,32,036,30,1*77
$GLGSV,2,2,07,69,26,278,28,81,17,174,26,77,17,101,,1*4C
$GAGSV,3,1,10,02,79,312,31,25,41,079,28,08,36,240,26,11,32,075,22,7*74
$GAGSV,3,2,10,07,29,304,27,30,27,271,23,36,24,131,20,10,23,045,24,7*7B
$GAGSV,3,3,10,12,11,026,16,03,10,194,20,7*7E
$GBGSV,3,1,12,45,88,057,35,29,56,143,32,30,37,056,31,36,36,114,29,1*74
$GBGSV,3,2,12,26,32,296,31,42,14,293,25,35,12,194,26,50,11,268,22,1*76
$GBGSV,3,3,12,14,11,319,24,57,09,029,,21,06,247,22,33,05,343,21,1*7B
$GNRMC,234754.000,A,4910.426476,N,12304.402032,W,0.02,58.05,181224,,,D,V*22
$GNVTG,58.05,T,,M,0.02,N,0.03,K,D*1F
$PAIRLOG,Full*51
$GNGGA,234755.000,4910.426518,N,12304.402134,W,2,35,0.41,6.275,M,-16.817,M,,*44
$GNGLL,4910.426518,N,12304.402134,W,234755.000,A,D*56
$GNGSA,A,3,17,19,14,24,13,15,02,30,06,21,12,,0.79,0.41,0.67,1*07
$GNGSA,A,3,88,79,87,69,81,,,,,,,,0.79,0.41,0.67,2*0F
$GNGSA,A,3,02,25,08,11,07,30,36,10,03,,,,0.79,0.41,0.67,3*07
$GNGSA,A,3,45,29,30,36,26,42,35,14,21,33,,,0.79,0.41,0.67,4*00
$GPGSV,4,1,13,17,73,098,32,19,59,190,29,14,49,081,28,24,35,304,26,1*6E
$GPGSV,4,2,13,46,33,187,28,13,29,215,27,15,25,254,26,02,21,044,25,1*6E
$GPGSV,4,3,13,30,17,142,22,06,09,159,23,21,08,029,19,12,05,269,15,1*67
$GPGSV,4,4,13,10,01,339,,1*5F
$GLGSV,2,1,07,78,70,052,,88,55,122,33,79,41,306,30,87,32,036,30,1*77
$GLGSV,2,2,07,69,26,278,28,81,17,174,25,77,17,101,,1*4F
$GAGSV,3,1,10,02,79,312,31,25,41,079,28,08,36,240,26,11,32,075,22,7*74
$GAGSV,3,2,10,07,29,304,27,30,27,271,23,36,24,131,20,10,23,045,24,7*7B
$GAGSV,3,3,10,12,11,026,17,03,10,194,20,7*7F
$GBGSV,3,1,12,45,88,057,35,29,56,143,33,30,37,056,31,36,36,114,29,1*75
$GBGSV,3,2,12,26,32,296,31,42,14,293,25,35,12,194,26,50,11,268,22,1*76
$GBGSV,3,3,12,14,11,319,24,57,09,029,,21,06,247,21,33,05,343,21,1*78
$GNRMC,234755.000,A,4910.426518,N,12304.402134,W,0.02,58.05,181224,,,D,V*2D
$GNVTG,58.05,T,,M,0.02,N,0.04,K,D*18
$PAIRLOG,Full*51
$GNGGA,234756.000,4910.426566,N,12304.402206,W,2,35,0.41,6.303,M,-16.816,M,,*4D
$GNGLL,4910.426566,N,12304.402206,W,234756.000,A,D*5E
$GNGSA,A,3,17,19,14,24,13,15,02,30,06,21,12,,0.79,0.41,0.67,1*07
$GNGSA,A,3,88,79,87,69,81,,,,,,,,0.79,0.41,0.67,2*0F
$GNGSA,A,3,02,25,08,11,07,30,36,10,03,,,,0.79,0.41,0.67,3*07
$GNGSA,A,3,45,29,30,36,26,42,35,14,21,33,,,0.79,0.41,0.67,4*00
$GPGSV,4,1,13,17,73,098,32,19,59,190,30,14,49,081,28,24,35,304,26,1*66
$GPGSV,4,2,13,46,33,187,28,13,29,215,27,15,25,254,26,02,21,044,25,1*6E
$GPGSV,4,3,13,30,17,142,22,06,09,159,23,21,08,029,20,12,05,269,13,1*6B
$GPGSV,4,4,13,10,01,339,,1*5F
$GLGSV,2,1,07,78,70,052,,88,55,122,33,79,41,306,30,87,32,036,30,1*77
$GLGSV,2,2,07,69,26,278,28,81,17,174,25,77,17,101,,1*4F
$GAGSV,3,1,10,02,79,312,32,25,41,079,29,08,36,240,26,11,32,075,22,7*76
$GAGSV,3,2,10,07,29,304,28,30,27,271,23,36,24,131,20,10,23,045,24,7*74
$GAGSV,3,3,10,12,11,026,17,03,10,194,20,7*7F
$GBGSV,3,1,12,45,88,057,35,29,56,143,33,30,37,056,31,36,36,114,29,1*75
$GBGSV,3,2,12,26,32,296,31,42,14,293,25,35,12,194,26,50,11,268,22,1*76
$GBGSV,3,3,12,14,11,319,24,57,09,029,,21,06,247,21,33,05,343,21,1*78
$GNRMC,234756.000,A,4910.426566,N,12304.402206,W,0.02,58.05,181224,,,D,V*25
$GNVTG,58.05,T,,M,0.02,N,0.04,K,D*18
$PAIRLOG,Full*51
$GNGGA,234757.000,4910.426626,N,12304.402272,W,2,35,0.41,6.339,M,-16.817,M,,*40
$GNGLL,4910.426626,N,12304.402272,W,234757.000,A,D*5B
$GNGSA,A,3,17,19,14,24,13,15,02,30,06,21,12,,0.79,0.41,0.67,1*07
$GNGSA,A,3,88,79,87,69,81,,,,,,,,0.79,0.41,0.67,2*0F
$GNGSA,A,3,02,25,08,11,07,30,36,10,03,,,,0.79,0.41,0.67,3*07
$GNGSA,A,3,45,29,30,36,26,42,35,14,21,33,,,0.79,0.41,0.67,4*00
$GPGSV,4,1,13,17,73,098,32,19,59,190,30,14,49,081,27,24,35,304,25,1*6A
$GPGSV,4,2,13,46,33,187,28,13,29,215,27,15,25,254,25,02,21,044,22,1*6A
$GPGSV,4,3,13,30,17,142,21,06,09,159,22,21,08,029,19,12,05,269,13,1*63
$GPGSV,4,4,13,10,01,339,,1*5F
$GLGSV,2,1,07,78,70,052,,88,55,122,33,79,41,306,29,87,32,036,30,1*7F
$GLGSV,2,2,07,69,26,278,28,81,17,174,24,77,17,101,,1*4E
$GAGSV,3,1,10,02,79,312,32,25,41,079,29,08,36,240,26,11,32,075,21,7*75
$GAGSV,3,2,10,07,29,304,28,30,27,271,22,36,24,131,20,10,23,045,24,7*75
$GAGSV,3,3,10,12,11,026,17,03,10,194,20,7*7F
$GBGSV,3,1,12,45,88,057,35,29,56,143,33,30,37,056,31,36,36,114,29,1*75
$GBGSV,3,2,12,26,32,296,31,42,14,293,25,35,12,194,26,50,11,268,22,1*76
$GBGSV,3,3,12,14,11,319,23,57,09,029,,21,06,247,21,33,05,343,21,1*7F
$GNRMC,234757.000,A,4910.426626,N,12304.402272,W,0.02,58.05,181224,,,D,V*20
$GNVTG,58.05,T,,M,0.02,N,0.04,K,D*18
$PAIRLOG,Full*51
$GNGGA,234758.000,4910.426692,N,12304.402278,W,2,35,0.41,6.245,M,-16.817,M,,*40
$GNGLL,4910.426692,N,12304.402278,W,234758.000,A,D*51
$GNGSA,A,3,17,19,14,24,13,15,02,30,06,21,12,,0.79,0.41,0.67,1*07
$GNGSA,A,3,88,79,87,69,81,,,,,,,,0.79,0.41,0.67,2*0F
$GNGSA,A,3,02,25,08,11,07,30,36,10,03,,,,0.79,0.41,0.67,3*07
$GNGSA,A,3,45,29,30,36,26,42,35,14,21,33,,,0.79,0.41,0.67,4*00
$GPGSV,4,1,13,17,73,098,32,19,59,190,29,14,49,081,27,24,35,304,25,1*62
$GPGSV,4,2,13,46,33,187,28,13,29,215,26,15,25,254,25,02,21,044,21,1*68
$GPGSV,4,3,13,30,17,142,20,06,09,159,21,21,08,029,19,12,05,269,13,1*61
$GPGSV,4,4,13,10,01,339,,1*5F
$GLGSV,2,1,07,78,70,052,,88,55,122,33,79,41,306,29,87,32,036,30,1*7F
$GLGSV,2,2,07,69,26,278,28,81,17,174,24,77,17,101,,1*4E
$GAGSV,3,1,10,02,79,312,32,25,41,079,29,08,36,240,26,11,32,075,21,7*75
$GAGSV,3,2,10,07,29,304,28,30,27,271,22,36,24,131,20,10,23,045,24,7*75
$GAGSV,3,3,10,12,11,026,17,03,10,194,20,7*7F
$GBGSV,3,1,12,45,88,057,35,29,56,143,33,30,37,056,31,36,36,114,29,1*75
$GBGSV,3,2,12,26,32,296,31,42,14,293,26,35,12,194,26,50,11,268,22,1*75
$GBGSV,3,3,12,14,11,319,24,57,09,029,,21,06,247,21,33,05,343,20,1*79
$GNRMC,234758.000,A,4910.426692,N,12304.402278,W,0.02,58.05,181224,,,D,V*2A
$GNVTG,58.05,T,,M,0.02,N,0.04,K,D*18
$PAIRLOG,Full*51
$GNGGA,234759.000,4910.426728,N,12304.402308,W,2,35,0.41,6.129,M,-16.816,M,,*4F
$GNGLL,4910.426728,N,12304.402308,W,234759.000,A,D*56
$GNGSA,A,3,17,19,14,24,13,15,02,30,06,21,12,,0.79,0.41,0.67,1*07
$GNGSA,A,3,88,79,87,69,81,,,,,,,,0.79,0.41,0.67,2*0F
$GNGSA,A,3,02,25,08,11,07,30,36,10,03,,,,0.79,0.41,0.67,3*07
$GNGSA,A,3,45,29,30,36,26,42,35,14,21,33,,,0.79,0.41,0.67,4*00
$GPGSV,4,1,13,17,73,098,32,19,59,190,29,14,49,081,28,24,35,304,25,1*6D
$GPGSV,4,2,13,46,33,187,28,13,29,215,26,15,25,254,26,02,21,044,21,1*6B
$GPGSV,4,3,13,30,17,142,20,06,09,159,23,21,08,029,19,12,05,269,13,1*63
$GPGSV,4,4,13,10,01,339,,1*5F
$GLGSV,2,1,07,78,70,052,,88,55,122,33,79,41,306,29,87,32,036,30,1*7F
$GLGSV,2,2,07,69,25,277,28,81,17,174,23,77,17,101,,1*45
$GAGSV,3,1,10,02,79,312,32,25,41,079,29,08,36,240,26,11,32,075,21,7*75
$GAGSV,3,2,10,07,29,304,28,30,27,271,22,36,24,131,20,10,23,045,25,7*74
$GAGSV,3,3,10,12,11,026,17,03,10,194,20,7*7F
$GBGSV,3,1,12,45,88,057,35,29,56,143,33,30,37,056,31,36,36,114,29,1*75
$GBGSV,3,2,12,26,32,296,31,42,14,293,26,35,12,194,26,50,11,268,22,1*75
$GBGSV,3,3,12,14,11,319,23,57,09,029,,21,06,247,21,33,05,343,20,1*7E
$GNRMC,234759.000,A,4910.426728,N,12304.402308,W,0.02,58.05,181224,,,D,V*2D
$GNVTG,58.05,T,,M,0.02,N,0.03,K,D*1F
$PAIRLOG,Full*51
$GNGGA,234800.000,4910.426776,N,12304.402380,W,2,35,0.41,6.065,M,-16.817,M,,*4F
$GNGLL,4910.426776,N,12304.402380,W,234800.000,A,D*5E
$GNGSA,A,3,17,19,14,24,13,15,02,30,06,21,12,,0.79,0.41,0.67,1*07
$GNGSA,A,3,88,79,87,69,81,,,,,,,,0.79,0.41,0.67,2*0F
$GNGSA,A,3,02,25,08,11,07,30,36,10,03,,,,0.79,0.41,0.67,3*07
$GNGSA,A,3,45,29,30,36,26,42,35,14,21,33,,,0.79,0.41,0.67,4*00
$GPGSV,4,1,13,17,73,098,32,19,59,190,29,14,49,081,28,24,35,304,25,1*6D
$GPGSV,4,2,13,46,33,187,28,13,29,215,26,15,25,254,26,02,21,044,21,1*6B
$GPGSV,4,3,13,30,17,142,20,06,09,159,21,21,08,029,19,12,05,269,12,1*60
$GPGSV,4,4,13,10,01,339,,1*5F
$GLGSV,2,1,07,78,70,052,,88,55,122,33,79,41,306,29,87,32,036,30,1*7F
$GLGSV,2,2,07,69,25,277,28,81,17,174,23,77,17,101,,1*45
$GAGSV,3,1,10,02,79,312,32,25,41,079,29,08,36,240,26,11,32,075,21,7*75
$GAGSV,3,2,10,07,29,304,28,30,27,271,22,36,24,131,20,10,23,045,25,7*74
$GAGSV,3,3,10,12,11,026,17,03,10,194,20,7*7F
$GBGSV,3,1,12,45,88,057,35,29,56,143,33,30,37,056,31,36,36,114,29,1*75
$GBGSV,3,2,12,26,32,296,31,42,14,293,26,35,12,194,26,50,11,268,22,1*75
$GBGSV,3,3,12,14,11,319,23,57,09,029,,21,06,247,21,33,05,343,20,1*7E
$GNRMC,234800.000,A,4910.426776,N,12304.402380,W,0.02,58.05,181224,,,D,V*25
$GNVTG,58.05,T,,M,0.02,N,0.03,K,D*1F
$PAIRLOG,Full*51
$GNGGA,234801.000,4910.426818,N,12304.402428,W,2,35,0.41,6.057,M,-16.816,M,,*4C
$GNGLL,4910.426818,N,12304.402428,W,234801.000,A,D*5D
$GNGSA,A,3,17,19,14,24,13,15,02,30,06,21,12,,0.79,0.41,0.67,1*07
$GNGSA,A,3,88,79,87,69,81,,,,,,,,0.79,0.41,0.67,2*0F
$GNGSA,A,3,02,25,08,11,07,30,36,10,03,,,,0.79,0.41,0.67,3*07
$GNGSA,A,3,45,29,30,36,26,42,35,14,21,33,,,0.79,0.41,0.67,4*00
$GPGSV,4,1,13,17,73,098,31,19,59,190,29,14,49,081,28,24,35,304,25,1*6E
$GPGSV,4,2,13,46,33,187,28,13,29,215,25,15,25,254,25,02,21,044,21,1*6B
$GPGSV,4,3,13,30,17,142,20,06,09,159,21,21,08,029,19,12,05,269,13,1*61
$GPGSV,4,4,13,10,01,339,,1*5F
$GLGSV,2,1,07,78,70,052,,88,55,122,33,79,41,306,29,87,32,036,30,1*7F
$GLGSV,2,2,07,69,25,277,29,81,17,174,23,77,17,101,,1*44
$GAGSV,3,1,10,02,79,312,32,25,41,079,29,08,36,240,26,11,32,075,21,7*75
$GAGSV,3,2,10,07,29,304,28,30,27,271,22,36,24,131,20,10,23,045,25,7*74
$GAGSV,3,3,10,12,11,026,17,03,10,194,20,7*7F
$GBGSV,3,1,12,45,88,057,35,29,56,143,33,30,37,056,31,36,36,114,29,1*75
$GBGSV,3,2,12,26,32,296,30,42,14,293,26,35,12,194,26,50,11,268,22,1*74
$GBGSV,3,3,12,14,11,319,23,57,09,029,,21,06,247,21,33,05,343,19,1*74
$GNRMC,234801.000,A,4910.426818,N,12304.402428,W,0.02,58.05,181224,,,D,V*26
$GNVTG,58.05,T,,M,0.02,N,0.03,K,D*1F
$PAIRLOG,Full*51
$PAIR010,0,1,2345,344899*31
$GNGGA,234802.000,4910.426878,N,12304.402434,W,2,35,0.41,6.031,M,-16.816,M,,*44
$GNGLL,4910.426878,N,12304.402434,W,234802.000,A,D*55
$GNGSA,A,3,17,19,14,24,13,15,02,30,06,21,12,,0.79,0.41,0.67,1*07
$GNGSA,A,3,88,79,87,69,81,,,,,,,,0.79,0.41,0.67,2*0F
$GNGSA,A,3,02,25,08,11,07,30,36,10,03,,,,0.79,0.41,0.67,3*07
$GNGSA,A,3,45,29,30,36,26,42,35,14,21,33,,,0.79,0.41,0.67,4*00
$GPGSV,4,1,13,17,73,098,32,19,59,190,29,14,49,081,28,24,35,304,25,1*6D
$GPGSV,4,2,13,46,33,187,28,13,29,215,25,15,25,254,25,02,21,044,22,1*68
$GPGSV,4,3,13,30,17,142,21,06,09,159,21,21,08,029,19,12,05,269,14,1*67
$GPGSV,4,4,13,10,01,339,,1*5F
$GLGSV,2,1,07,78,70,052,,88,55,122,33,79,41,306,29,87,32,036,29,1*77
$GLGSV,2,2,07,69,25,277,29,81,17,174,23,77,17,101,,1*44
$GAGSV,3,1,10,02,79,312,32,25,41,079,29,08,36,240,26,11,32,075,22,7*76
$GAGSV,3,2,10,07,29,304,28,30,27,271,22,36,24,131,21,10,23,045,25,7*75
$GAGSV,3,3,10,12,11,026,17,03,10,194,20,7*7F
$GBGSV,3,1,12,45,88,057,35,29,56,143,33,30,37,056,31,36,36,114,28,1*74
$GBGSV,3,2,12,26,32,296,29,42,14,293,26,35,12,194,26,50,11,268,21,1*7F
$GBGSV,3,3,12,14,11,319,23,57,09,029,,21,06,247,21,33,05,343,19,1*74
$GNRMC,234802.000,A,4910.426878,N,12304.402434,W,0.02,58.05,181224,,,D,V*2E
$GNVTG,58.05,T,,M,0.02,N,0.03,K,D*1F
$PAIRLOG,Full*51
$GNGGA,234803.000,4910.426926,N,12304.402440,W,2,35,0.41,5.987,M,-16.817,M,,*4A
$GNGLL,4910.426926,N,12304.402440,W,234803.000,A,D*5D
$GNGSA,A,3,17,19,14,24,13,15,02,30,06,21,12,,0.79,0.41,0.67,1*07
$GNGSA,A,3,88,79,87,69,81,,,,,,,,0.79,0.41,0.67,2*0F
$GNGSA,A,3,02,25,08,11,07,30,36,10,03,,,,0.79,0.41,0.67,3*07
$GNGSA,A,3,45,29,30,36,26,42,35,14,21,33,,,0.79,0.41,0.67,4*00
$GPGSV,4,1,13,17,73,098,32,19,59,190,29,14,49,081,29,24,35,304,25,1*6C
$GPGSV,4,2,13,46,33,187,29,13,29,215,27,15,25,254,27,02,21,044,23,1*68
$GPGSV,4,3,13,30,17,142,22,06,09,159,23,21,08,029,20,12,05,269,12,1*6A
$GPGSV,4,4,13,10,01,339,,1*5F
$GLGSV,2,1,07,78,70,052,,88,55,122,33,79,41,306,29,87,32,036,29,1*77
$GLGSV,2,2,07,69,25,277,29,81,17,174,22,77,17,101,,1*45
$GAGSV,3,1,10,02,79,312,32,25,41,079,29,08,36,240,26,11,32,075,22,7*76
$GAGSV,3,2,10,07,29,304,28,30,27,271,22,36,24,131,21,10,23,045,25,7*75
$GAGSV,3,3,10,12,11,026,17,03,10,194,20,7*7F
$GBGSV,3,1,12,45,88,057,35,29,56,143,33,30,37,056,31,36,36,114,28,1*74
$GBGSV,3,2,12,26,32,296,29,42,14,293,26,35,12,194,26,50,11,268,20,1*7E
$GBGSV,3,3,12,14,11,319,23,57,09,029,,21,06,247,21,33,05,343,19,1*74
$GNRMC,234803.000,A,4910.426926,N,12304.402440,W,0.02,58.05,181224,,,D,V*26
$GNVTG,58.05,T,,M,0.02,N,0.03,K,D*1F
$PAIRLOG,Full*51
$GNGGA,234804.000,4910.426956,N,12304.402482,W,2,35,0.41,5.974,M,-16.816,M,,*49
$GNGLL,4910.426956,N,12304.402482,W,234804.000,A,D*53
$GNGSA,A,3,17,19,14,24,13,15,02,30,06,21,12,,0.79,0.41,0.67,1*07
$GNGSA,A,3,88,79,87,69,81,,,,,,,,0.79,0.41,0.67,2*0F
$GNGSA,A,3,02,25,08,11,07,30,36,10,03,,,,0.79,0.41,0.67,3*07
$GNGSA,A,3,45,29,30,36,26,42,35,14,21,33,,,0.79,0.41,0.67,4*00
$GPGSV,4,1,13,17,73,098,32,19,59,190,29,14,49,081,29,24,35,304,25,1*6C
$GPGSV,4,2,13,46,33,187,29,13,29,215,26,15,25,254,26,02,21,044,23,1*68
$GPGSV,4,3,13,30,17,142,22,06,09,159,23,21,08,029,20,12,05,269,12,1*6A
$GPGSV,4,4,13,10,01,339,,1*5F
$GLGSV,2,1,07,78,70,052,,88,55,122,33,79,41,306,29,87,32,036,29,1*77
$GLGSV,2,2,07,69,25,277,29,81,17,174,21,77,17,101,,1*46
$GAGSV,3,1,10,02,79,312,32,25,41,079,29,08,36,240,26,11,32,075,22,7*76
$GAGSV,3,2,10,07,29,304,28,30,27,271,22,36,24,131,21,10,23,045,25,7*75
$GAGSV,3,3,10,12,11,026,17,03,10,194,20,7*7F
$GBGSV,3,1,12,45,88,057,34,29,56,143,33,30,37,056,31,36,36,114,28,1*75
$GBGSV,3,2,12,26,32,296,29,42,14,293,26,35,12,194,26,50,11,268,20,1*7E
$GBGSV,3,3,12,14,11,319,23,57,09,029,,21,06,247,21,33,05,343,19,1*74
$GNRMC,234804.000,A,4910.426956,N,12304.402482,W,0.02,58.05,181224,,,D,V*28
$GNVTG,58.05,T,,M,0.02,N,0.04,K,D*18
$PAIRLOG,Full*51
$GNGGA,234805.000,4910.426968,N,12304.402494,W,2,34,0.42,6.071,M,-16.817,M,,*4E
