$GNGGA,183251.000,4910.424406,N,12304.399590,W,2,31,0.50,13.812,M,-16.816,M,,*73
$GNGLL,4910.424406,N,12304.399590,W,183251.000,A,D*5B
$GNGSA,A,3,09,04,16,07,26,03,06,11,20,31,30,,0.81,0.50,0.64,1*00
$GNGSA,A,3,78,68,69,79,67,85,,,,,,,0.81,0.50,0.64,2*00
$GNGSA,A,3,09,06,31,04,05,34,36,,,,,,0.81,0.50,0.64,3*03
$GNGSA,A,3,32,23,37,20,25,41,38,,,,,,0.81,0.50,0.64,4*05
$GPGSV,4,1,14,09,75,303,38,04,72,098,36,16,47,082,35,07,43,245,31,1*68
$GPGSV,4,2,14,48,33,182,29,26,27,050,28,03,24,174,28,06,14,269,23,1*67
$GPGSV,4,3,14,11,14,307,26,20,11,325,24,31,09,063,24,30,08,245,27,1*66
$GPGSV,4,4,14,27,04,114,18,29,01,007,,1*60
$GLGSV,2,1,07,78,79,117,18,68,79,097,31,69,43,319,25,79,34,202,27,1*77
$GLGSV,2,2,07,67,28,129,24,85,12,330,19,86,03,020,,1*41
$GAGSV,3,1,10,09,81,321,32,06,71,097,32,31,47,144,29,04,44,105,29,7*7E
$GAGSV,3,2,10,05,27,292,25,34,20,298,23,36,13,247,21,24,11,186,23,7*77
$GAGSV,3,3,10,15,06,346,20,21,04,030,17,7*71
$GBGSV,3,1,09,32,69,166,38,23,69,084,38,37,48,207,35,20,46,304,37,1*78
$GBGSV,3,2,09,25,20,051,28,41,16,140,29,38,07,333,27,04,01,262,,1*70
$GBGSV,3,3,09,19,01,314,,1*40
$GNRMC,183251.000,A,4910.424406,N,12304.399590,W,0.01,0.00,051224,,,D,V*17
$GNVTG,0.00,T,,M,0.01,N,0.02,K,D*25
$GNGGA,183252.000,4910.424466,N,12304.399614,W,2,31,0.50,13.887,M,-16.816,M,,*75
$GNGLL,4910.424466,N,12304.399614,W,183252.000,A,D*51
$GNGSA,A,3,09,04,16,07,26,03,06,11,20,31,30,,0.81,0.50,0.64,1*00
$GNGSA,A,3,78,68,69,79,67,85,,,,,,,0.81,0.50,0.64,2*00
$GNGSA,A,3,09,06,31,04,05,34,36,,,,,,0.81,0.50,0.64,3*03
$GNGSA,A,3,32,23,37,20,25,41,38,,,,,,0.81,0.50,0.64,4*05
$GPGSV,4,1,14,09,75,303,38,04,72,098,36,16,47,082,35,07,43,245,31,1*68
$GPGSV,4,2,14,48,33,182,29,26,27,050,28,03,24,174,28,06,14,269,24,1*60
$GPGSV,4,3,14,11,14,307,26,20,11,325,24,31,09,063,23,30,08,245,25,1*63
$GPGSV,4,4,14,27,04,114,18,29,01,007,,1*60
$GLGSV,2,1,07,78,79,117,18,68,79,097,31,69,43,319,25,79,34,202,27,1*77
$GLGSV,2,2,07,67,28,129,24,85,12,330,18,86,03,020,,1*40
$GAGSV,3,1,10,09,81,321,32,06,71,097,32,31,47,144,29,04,44,105,29,7*7E
$GAGSV,3,2,10,05,27,292,25,34,20,298,24,36,13,247,21,24,11,186,23,7*70
$GAGSV,3,3,10,15,06,346,20,21,04,030,17,7*71
$GBGSV,3,1,09,32,69,166,38,23,69,084,38,37,48,207,35,20,46,304,37,1*78
$GBGSV,3,2,09,25,20,051,28,41,16,140,29,38,07,333,27,04,01,262,,1*70
$GBGSV,3,3,09,19,01,314,,1*40
$GNRMC,183252.000,A,4910.424466,N,12304.399614,W,0.01,0.00,051224,,,D,V*1D
$GNVTG,0.00,T,,M,0.01,N,0.02,K,D*25
$GNGGA,183253.000,4910.424496,N,12304.399602,W,2,31,0.50,13.981,M,-16.816,M,,*7B
$GNGLL,4910.424496,N,12304.399602,W,183253.000,A,D*58
$GNGSA,A,3,09,04,16,07,26,03,06,11,20,31,30,,0.81,0.50,0.64,1*00
$GNGSA,A,3,78,68,69,79,67,85,,,,,,,0.81,0.50,0.64,2*00
$GNGSA,A,3,09,06,31,04,05,34,36,,,,,,0.81,0.50,0.64,3*03
$GNGSA,A,3,32,23,37,20,25,41,38,,,,,,0.81,0.50,0.64,4*05
$GPGSV,4,1,14,09,75,303,38,04,72,098,36,16,47,082,35,07,43,245,32,1*6B
$GPGSV,4,2,14,48,33,182,29,26,27,050,28,03,24,174,28,06,14,269,24,1*60
$GPGSV,4,3,14,11,14,307,26,20,11,325,24,31,09,063,23,30,08,245,26,1*60
$GPGSV,4,4,14,27,04,114,18,29,01,007,,1*60
$GLGSV,2,1,07,78,79,117,18,68,79,097,31,69,43,319,25,79,34,202,27,1*77
$GLGSV,2,2,07,67,28,129,24,85,12,330,18,86,03,020,,1*40
$GAGSV,3,1,10,09,81,321,32,06,71,097,32,31,47,144,29,04,44,105,29,7*7E
$GAGSV,3,2,10,05,27,292,25,34,20,298,24,36,13,247,21,24,11,186,23,7*70
$GAGSV,3,3,10,15,06,346,20,21,04,030,17,7*71
$GBGSV,3,1,09,32,69,166,38,23,69,084,38,37,48,207,35,20,46,304,37,1*78
$GBGSV,3,2,09,25,20,051,28,41,16,140,29,38,07,333,27,04,01,262,,1*70
$GBGSV,3,3,09,19,01,314,,1*40
$GNRMC,183253.000,A,4910.424496,N,12304.399602,W,0.02,0.00,051224,,,D,V*17
$GNVTG,0.00,T,,M,0.02,N,0.03,K,D*27
$GNGGA,183254.000,4910.424508,N,12304.399626,W,2,31,0.50,13.979,M,-16.816,M,,*7B
$GNGLL,4910.424508,N,12304.399626,W,183254.000,A,D*5F
$GNGSA,A,3,09,04,16,07,26,03,06,11,20,31,30,,0.81,0.50,0.64,1*00
$GNGSA,A,3,78,68,69,79,67,85,,,,,,,0.81,0.50,0.64,2*00
$GNGSA,A,3,09,06,31,04,05,34,36,,,,,,0.81,0.50,0.64,3*03
$GNGSA,A,3,32,23,37,20,25,41,38,,,,,,0.81,0.50,0.64,4*05
$GPGSV,4,1,14,09,75,303,38,04,72,098,36,16,47,082,35,07,43,245,32,1*6B
$GPGSV,4,2,14,48,33,182,29,26,27,050,28,03,24,174,28,06,14,269,24,1*60
$GPGSV,4,3,14,11,14,307,26,20,11,325,24,31,09,063,23,30,08,245,26,1*60
$GPGSV,4,4,14,27,04,114,18,29,01,007,,1*60
$GLGSV,2,1,07,78,79,117,18,68,79,097,30,69,43,319,25,79,34,202,27,1*76
$GLGSV,2,2,07,67,28,129,24,85,12,330,18,86,03,020,,1*40
$GAGSV,3,1,10,09,81,321,32,06,71,097,32,31,47,144,29,04,44,105,29,7*7E
$GAGSV,3,2,10,05,27,292,26,34,20,298,24,36,13,247,22,24,11,186,23,7*70
$GAGSV,3,3,10,15,06,346,20,21,04,030,18,7*7E
$GBGSV,3,1,09,32,69,166,38,23,69,084,38,37,48,207,35,20,46,304,37,1*78
$GBGSV,3,2,09,25,20,051,28,41,16,140,29,38,07,333,27,04,01,262,,1*70
$GBGSV,3,3,09,19,01,314,,1*40
$GNRMC,183254.000,A,4910.424508,N,12304.399626,W,0.02,0.00,051224,,,D,V*10
$GNVTG,0.00,T,,M,0.02,N,0.03,K,D*27
$GNGGA,183255.000,4910.424586,N,12304.399722,W,2,31,0.50,13.958,M,-16.816,M,,*7A
$GNGLL,4910.424586,N,12304.399722,W,183255.000,A,D*5D
$GNGSA,A,3,09,04,16,07,26,03,06,11,20,31,30,,0.81,0.50,0.64,1*00
$GNGSA,A,3,78,68,69,79,67,85,,,,,,,0.81,0.50,0.64,2*00
$GNGSA,A,3,09,06,31,04,05,34,36,,,,,,0.81,0.50,0.64,3*03
$GNGSA,A,3,32,23,37,20,25,41,38,,,,,,0.81,0.50,0.64,4*05
$GPGSV,4,1,14,09,75,303,38,04,72,098,36,16,47,082,36,07,43,245,32,1*68
$GPGSV,4,2,14,48,33,182,30,26,27,050,28,03,24,174,28,06,14,269,24,1*68
$GPGSV,4,3,14,11,14,307,26,20,11,325,24,31,09,063,23,30,08,245,26,1*60
$GPGSV,4,4,14,27,04,114,18,29,01,007,,1*60
$GLGSV,2,1,07,78,79,117,18,68,79,097,30,69,43,319,25,79,34,202,27,1*76
$GLGSV,2,2,07,67,28,129,23,85,12,330,18,86,03,020,,1*47
$GAGSV,3,1,10,09,81,321,32,06,71,097,32,31,47,144,29,04,44,105,29,7*7E
$GAGSV,3,2,10,05,27,292,26,34,20,298,24,36,13,247,22,24,11,186,23,7*70
$GAGSV,3,3,10,15,06,346,20,21,04,030,18,7*7E
$GBGSV,3,1,09,32,69,166,38,23,69,084,38,37,48,207,35,20,46,304,37,1*78
$GBGSV,3,2,09,25,20,051,28,41,16,140,29,38,07,333,27,04,01,262,,1*70
$GBGSV,3,3,09,19,01,314,,1*40
$GNRMC,183255.000,A,4910.424586,N,12304.399722,W,0.02,0.00,051224,,,D,V*12
$GNVTG,0.00,T,,M,0.02,N,0.04,K,D*20
$GNGGA,183256.000,4910.424634,N,12304.399866,W,2,31,0.50,13.907,M,-16.817,M,,*77
$GNGLL,4910.424634,N,12304.399866,W,183256.000,A,D*5B
$GNGSA,A,3,09,04,16,07,26,03,06,11,20,31,30,,0.81,0.50,0.64,1*00
$GNGSA,A,3,78,68,69,79,67,85,,,,,,,0.81,0.50,0.64,2*00
$GNGSA,A,3,09,06,31,04,05,34,36,,,,,,0.81,0.50,0.64,3*03
$GNGSA,A,3,32,23,37,20,25,41,38,,,,,,0.81,0.50,0.64,4*05
$GPGSV,4,1,14,09,75,303,38,04,72,098,36,16,47,082,36,07,43,245,32,1*68
$GPGSV,4,2,14,48,33,182,31,26,27,050,29,03,24,174,28,06,14,269,24,1*68
$GPGSV,4,3,14,11,14,307,26,20,11,325,24,31,09,063,23,30,08,245,26,1*60
$GPGSV,4,4,14,27,04,114,19,29,01,007,,1*61
$GLGSV,2,1,07,78,79,117,18,68,79,097,31,69,43,319,25,79,34,202,27,1*77
$GLGSV,2,2,07,67,28,129,23,85,12,330,18,86,03,020,,1*47
$GAGSV,3,1,10,09,81,321,32,06,71,097,32,31,47,144,29,04,44,105,29,7*7E
$GAGSV,3,2,10,05,27,292,26,34,20,298,24,36,13,247,22,24,11,186,23,7*70
$GAGSV,3,3,10,15,06,346,20,21,04,030,18,7*7E
$GBGSV,3,1,09,32,69,166,38,23,69,084,38,37,48,207,35,20,46,304,37,1*78
$GBGSV,3,2,09,25,20,051,28,41,16,140,29,38,07,333,26,04,01,262,,1*71
$GBGSV,3,3,09,19,01,314,,1*40
$GNRMC,183256.000,A,4910.424634,N,12304.399866,W,0.02,0.00,051224,,,D,V*14
$GNVTG,0.00,T,,M,0.02,N,0.04,K,D*20
$GNGGA,183257.000,4910.424682,N,12304.400004,W,2,31,0.50,13.779,M,-16.816,M,,*76
$GNGLL,4910.424682,N,12304.400004,W,183257.000,A,D*5C
$GNGSA,A,3,09,04,16,07,26,03,06,11,20,31,30,,0.81,0.50,0.64,1*00
$GNGSA,A,3,68,78,69,79,67,85,,,,,,,0.81,0.50,0.64,2*00
$GNGSA,A,3,09,06,31,04,05,34,36,,,,,,0.81,0.50,0.64,3*03
$GNGSA,A,3,23,32,37,20,25,41,38,,,,,,0.81,0.50,0.64,4*05
$GPGSV,4,1,14,09,75,303,38,04,72,098,36,16,47,082,36,07,43,245,32,1*68
$GPGSV,4,2,14,48,33,182,31,26,27,050,29,03,24,174,28,06,14,269,24,1*68
$GPGSV,4,3,14,11,14,307,26,20,11,325,24,31,09,063,23,30,08,245,26,1*60
$GPGSV,4,4,14,27,04,114,19,29,01,007,,1*61
$GLGSV,2,1,06,68,79,097,31,78,79,117,18,69,43,319,25,79,34,202,27,1*76
$GLGSV,2,2,06,67,28,129,23,85,12,330,18,1*79
$GAGSV,3,1,10,09,81,321,32,06,71,097,32,31,47,144,29,04,44,105,29,7*7E
$GAGSV,3,2,10,05,27,292,26,34,20,298,24,36,13,247,22,24,11,186,23,7*70
$GAGSV,3,3,10,15,06,346,20,21,04,030,18,7*7E
$GBGSV,3,1,09,23,69,084,38,32,69,166,38,37,48,207,35,20,46,304,37,1*78
$GBGSV,3,2,09,25,20,051,28,41,16,140,29,38,07,333,26,19,01,314,,1*7D
$GBGSV,3,3,09,04,01,262,,1*4C
$GNRMC,183257.000,A,4910.424682,N,12304.400004,W,0.02,0.00,051224,,,D,V*13
$GNVTG,0.00,T,,M,0.02,N,0.04,K,D*20
$GNGGA,183258.000,4910.424766,N,12304.400088,W,2,31,0.50,13.633,M,-16.816,M,,*79
$GNGLL,4910.424766,N,12304.400088,W,183258.000,A,D*5C
$GNGSA,A,3,09,04,16,07,26,03,06,11,20,31,30,,0.81,0.50,0.64,1*00
$GNGSA,A,3,78,68,69,79,67,85,,,,,,,0.81,0.50,0.64,2*00
$GNGSA,A,3,09,06,31,04,05,34,36,,,,,,0.81,0.50,0.64,3*03
$GNGSA,A,3,32,23,37,20,25,41,38,,,,,,0.81,0.50,0.64,4*05
$GPGSV,4,1,14,09,75,303,38,04,72,098,36,16,47,082,36,07,43,245,32,1*68
$GPGSV,4,2,14,48,33,182,30,26,27,050,29,03,24,174,28,06,14,269,24,1*69
$GPGSV,4,3,14,11,14,307,26,20,11,325,25,31,09,063,23,30,08,245,26,1*61
$GPGSV,4,4,14,27,04,114,19,29,01,007,,1*61
$GLGSV,2,1,07,78,79,117,18,68,79,097,31,69,43,319,25,79,34,202,27,1*77
$GLGSV,2,2,07,67,28,129,23,85,12,330,18,86,03,020,,1*47
$GAGSV,3,1,10,09,81,321,32,06,71,097,32,31,47,144,29,04,44,105,29,7*7E
$GAGSV,3,2,10,05,27,292,26,34,20,298,24,36,13,247,22,24,11,186,23,7*70
$GAGSV,3,3,10,15,06,346,20,21,04,030,18,7*7E
$GBGSV,3,1,09,32,69,166,38,23,69,084,38,37,48,207,35,20,46,304,37,1*78
$GBGSV,3,2,09,25,20,051,28,41,16,140,29,38,07,333,26,04,01,262,,1*71
$GBGSV,3,3,09,19,01,314,,1*40
$GNRMC,183258.000,A,4910.424766,N,12304.400088,W,0.02,0.00,051224,,,D,V*13
$GNVTG,0.00,T,,M,0.02,N,0.04,K,D*20
$GNGGA,183259.000,4910.424796,N,12304.400214,W,2,31,0.50,13.497,M,-16.817,M,,*7D
$GNGLL,4910.424796,N,12304.400214,W,183259.000,A,D*55
$GNGSA,A,3,09,04,16,07,26,03,06,11,20,31,30,,0.81,0.50,0.64,1*00
$GNGSA,A,3,78,68,69,79,67,85,,,,,,,0.81,0.50,0.64,2*00
$GNGSA,A,3,09,06,31,04,05,34,36,,,,,,0.81,0.50,0.64,3*03
$GNGSA,A,3,32,23,37,20,25,41,38,,,,,,0.81,0.50,0.64,4*05
$GPGSV,4,1,14,09,75,303,38,04,72,098,36,16,47,082,36,07,43,245,32,1*68
$GPGSV,4,2,14,48,33,182,30,26,27,050,29,03,24,174,28,06,14,269,24,1*69
$GPGSV,4,3,14,11,14,307,25,20,11,325,25,31,09,063,23,30,08,245,26,1*62
$GPGSV,4,4,14,27,04,113,19,29,01,007,,1*66
$GLGSV,2,1,07,78,79,117,17,68,79,097,31,69,43,319,25,79,34,202,27,1*78
$GLGSV,2,2,07,67,28,129,22,85,12,330,18,86,03,020,,1*46
$GAGSV,3,1,10,09,81,321,32,06,71,097,32,31,47,144,29,04,44,105,29,7*7E
$GAGSV,3,2,10,05,27,292,26,34,20,298,24,36,13,247,23,24,11,186,23,7*71
$GAGSV,3,3,10,15,06,346,20,21,04,030,18,7*7E
$GBGSV,3,1,09,32,69,166,38,23,69,084,38,37,48,207,35,20,46,304,37,1*78
$GBGSV,3,2,09,25,20,051,28,41,16,140,29,38,07,333,26,04,01,262,,1*71
$GBGSV,3,3,09,19,01,314,17,1*46
$GNRMC,183259.000,A,4910.424796,N,12304.400214,W,0.02,0.00,051224,,,D,V*1A
$GNVTG,0.00,T,,M,0.02,N,0.04,K,D*20
$GNGGA,183300.000,4910.424832,N,12304.400274,W,2,31,0.50,13.410,M,-16.816,M,,*79
$GNGLL,4910.424832,N,12304.400274,W,183300.000,A,D*5F
$GNGSA,A,3,09,04,16,07,26,03,06,11,20,31,30,,0.81,0.50,0.64,1*00
$GNGSA,A,3,78,68,69,79,67,85,,,,,,,0.81,0.50,0.64,2*00
$GNGSA,A,3,09,06,31,04,05,34,36,,,,,,0.81,0.50,0.64,3*03
$GNGSA,A,3,32,23,37,20,25,41,38,,,,,,0.81,0.50,0.64,4*05
$GPGSV,4,1,14,09,75,303,38,04,72,098,36,16,47,082,36,07,43,245,32,1*68
$GPGSV,4,2,14,48,33,182,30,26,27,050,29,03,24,174,28,06,14,269,24,1*69
$GPGSV,4,3,14,11,14,307,25,20,11,325,25,31,09,063,23,30,08,245,26,1*62
$GPGSV,4,4,14,27,04,113,19,29,01,007,,1*66
$GLGSV,2,1,07,78,79,117,17,68,79,097,31,69,43,319,23,79,34,202,27,1*7E
$GLGSV,2,2,07,67,28,129,22,85,12,330,18,86,03,020,,1*46
$GAGSV,3,1,10,09,81,321,32,06,71,097,32,31,47,144,29,04,44,105,29,7*7E
$GAGSV,3,2,10,05,27,292,26,34,20,298,24,36,13,247,23,24,11,186,22,7*70
$GAGSV,3,3,10,15,06,346,20,21,04,030,18,7*7E
$GBGSV,3,1,09,32,69,166,38,23,69,084,38,37,48,207,35,20,46,304,37,1*78
$GBGSV,3,2,09,25,20,051,28,41,16,140,29,38,07,333,26,04,01,262,,1*71
$GBGSV,3,3,09,19,01,314,16,1*47
$GNRMC,183300.000,A,4910.424832,N,12304.400274,W,0.02,0.00,051224,,,D,V*10
$GNVTG,0.00,T,,M,0.02,N,0.04,K,D*20
$GNGGA,183301.000,4910.424910,N,12304.400358,W,2,31,0.50,13.336,M,-16.816,M,,*75
$GNGLL,4910.424910,N,12304.400358,W,183301.000,A,D*50
$GNGSA,A,3,09,04,16,07,26,03,06,11,20,31,30,,0.81,0.50,0.64,1*00
$GNGSA,A,3,78,68,69,79,67,85,,,,,,,0.81,0.50,0.64,2*00
$GNGSA,A,3,09,06,31,04,05,34,36,,,,,,0.81,0.50,0.64,3*03
$GNGSA,A,3,32,23,37,20,25,41,38,,,,,,0.81,0.50,0.64,4*05
$GPGSV,4,1,14,09,75,303,38,04,72,098,36,16,47,082,36,07,43,245,32,1*68
$GPGSV,4,2,14,48,33,182,30,26,27,050,29,03,24,174,28,06,14,269,23,1*6E
$GPGSV,4,3,14,11,14,307,25,20,11,325,25,31,09,063,23,30,08,245,25,1*61
$GPGSV,4,4,14,27,04,113,20,29,01,007,,1*6C
$GLGSV,2,1,07,78,79,117,17,68,79,097,31,69,43,319,24,79,34,202,27,1*79
$GLGSV,2,2,07,67,28,129,22,85,12,330,18,86,03,020,,1*46
$GAGSV,3,1,10,09,81,321,32,06,71,097,32,31,47,144,29,04,44,105,29,7*7E
$GAGSV,3,2,10,05,27,292,26,34,20,298,24,36,13,247,23,24,11,186,22,7*70
$GAGSV,3,3,10,15,06,346,20,21,04,030,18,7*7E
$GBGSV,3,1,09,32,69,166,38,23,69,084,38,37,48,207,35,20,46,304,37,1*78
$GBGSV,3,2,09,25,20,051,28,41,16,140,28,38,07,333,26,04,01,262,,1*70
$GBGSV,3,3,09,19,01,314,16,1*47
$GNRMC,183301.000,A,4910.424910,N,12304.400358,W,0.02,0.00,051224,,,D,V*1F
$GNVTG,0.00,T,,M,0.02,N,0.03,K,D*27
$GNGGA,183302.000,4910.424946,N,12304.400460,W,2,31,0.50,13.338,M,-16.817,M,,*76
$GNGLL,4910.424946,N,12304.400460,W,183302.000,A,D*5C
$GNGSA,A,3,09,04,16,07,26,03,06,11,20,31,30,,0.81,0.50,0.64,1*00
$GNGSA,A,3,78,68,69,79,67,85,,,,,,,0.81,0.50,0.64,2*00
$GNGSA,A,3,09,06,31,04,05,34,36,,,,,,0.81,0.50,0.64,3*03
$GNGSA,A,3,32,23,37,20,25,41,38,,,,,,0.81,0.50,0.64,4*05
$GPGSV,4,1,14,09,75,303,38,04,72,098,36,16,47,082,36,07,43,245,32,1*68
$GPGSV,4,2,14,48,33,182,30,26,27,050,29,03,24,174,28,06,14,269,24,1*69
$GPGSV,4,3,14,11,14,307,25,20,11,325,25,31,09,063,23,30,08,245,25,1*61
$GPGSV,4,4,14,27,04,113,20,29,01,007,,1*6C
$GLGSV,2,1,07,78,79,117,17,68,79,097,30,69,43,319,24,79,34,202,27,1*78
$GLGSV,2,2,07,67,28,129,22,85,12,330,18,86,03,020,,1*46
$GAGSV,3,1,10,09,81,321,32,06,71,097,32,31,47,144,29,04,44,105,29,7*7E
$GAGSV,3,2,10,05,27,292,26,34,20,298,24,36,13,247,23,24,11,186,22,7*70
$GAGSV,3,3,10,15,06,346,19,21,04,030,18,7*74
$GBGSV,3,1,09,32,69,166,38,23,69,084,38,37,48,207,34,20,46,304,37,1*79
$GBGSV,3,2,09,25,20,051,28,41,16,140,28,38,07,333,26,04,01,262,,1*70
$GBGSV,3,3,09,19,01,314,16,1*47
$GNRMC,183302.000,A,4910.424946,N,12304.400460,W,0.02,0.00,051224,,,D,V*13
$GNVTG,0.00,T,,M,0.02,N,0.03,K,D*27
$GNGGA,183303.000,4910.425048,N,12304.400520,W,2,31,0.50,13.313,M,-16.817,M,,*7D
$GNGLL,4910.425048,N,12304.400520,W,183303.000,A,D*5E
$GNGSA,A,3,09,04,16,07,26,03,06,11,20,31,30,,0.81,0.50,0.64,1*00
$GNGSA,A,3,78,68,69,79,67,85,,,,,,,0.81,0.50,0.64,2*00
$GNGSA,A,3,09,06,31,04,05,34,36,,,,,,0.81,0.50,0.64,3*03
$GNGSA,A,3,32,23,37,20,25,41,38,,,,,,0.81,0.50,0.64,4*05
$GPGSV,4,1,14,09,75,303,38,04,72,098,36,16,47,082,36,07,43,245,32,1*68
$GPGSV,4,2,14,48,33,182,30,26,27,050,29,03,24,174,28,06,14,269,24,1*69
$GPGSV,4,3,14,11,14,307,25,20,11,325,25,31,09,063,24,30,08,245,25,1*66
$GPGSV,4,4,14,27,04,113,20,29,01,007,,1*6C
$GLGSV,2,1,07,78,79,117,17,68,79,097,30,69,43,319,24,79,34,202,27,1*78
$GLGSV,2,2,07,67,28,129,22,85,12,330,18,86,03,020,,1*46
$GAGSV,3,1,10,09,81,321,32,06,71,097,32,31,47,144,29,04,44,105,29,7*7E
$GAGSV,3,2,10,05,27,292,26,34,20,298,24,36,13,247,23,24,11,186,22,7*70
$GAGSV,3,3,10,15,06,346,19,21,04,030,18,7*74
$GBGSV,3,1,09,32,69,166,38,23,69,084,38,37,48,207,34,20,46,304,37,1*79
$GBGSV,3,2,09,25,20,051,28,41,16,140,28,38,07,333,26,04,01,262,,1*70
$GBGSV,3,3,09,19,01,314,16,1*47
$GNRMC,183303.000,A,4910.425048,N,12304.400520,W,0.02,0.00,051224,,,D,V*11
$GNVTG,0.00,T,,M,0.02,N,0.03,K,D*27
$GNGGA,183304.000,4910.425144,N,12304.400610,W,2,31,0.50,13.305,M,-16.816,M,,*71
$GNGLL,4910.425144,N,12304.400610,W,183304.000,A,D*54
$GNGSA,A,3,09,04,16,07,26,03,06,11,20,31,30,,0.81,0.50,0.64,1*00
$GNGSA,A,3,78,68,69,79,67,85,,,,,,,0.81,0.50,0.64,2*00
$GNGSA,A,3,09,06,31,04,05,34,36,,,,,,0.81,0.50,0.64,3*03
$GNGSA,A,3,32,23,37,20,25,41,38,,,,,,0.81,0.50,0.64,4*05
$GPGSV,4,1,14,09,75,303,38,04,72,099,36,16,47,082,36,07,43,245,32,1*69
$GPGSV,4,2,14,48,33,182,30,26,27,050,29,03,24,174,28,06,14,268,24,1*68
$GPGSV,4,3,14,11,14,307,24,20,11,325,25,31,09,063,24,30,08,245,25,1*67
$GPGSV,4,4,14,27,04,113,19,29,01,007,,1*66
$GLGSV,2,1,07,78,80,115,17,68,79,098,30,69,44,319,24,79,34,202,27,1*74
$GLGSV,2,2,07,67,28,129,22,85,12,330,19,86,03,020,,1*47
$GAGSV,3,1,10,09,81,322,32,06,71,098,32,31,47,144,29,04,43,105,28,7*74
$GAGSV,3,2,10,05,27,292,26,34,20,298,24,36,13,247,23,24,11,186,22,7*70
$GAGSV,3,3,10,15,06,346,19,21,04,030,18,7*74
$GBGSV,3,1,09,32,69,166,38,23,69,084,38,37,48,207,34,20,46,304,37,1*79
$GBGSV,3,2,09,25,20,051,28,41,16,140,28,38,07,333,26,04,01,262,,1*70
$GBGSV,3,3,09,19,01,314,16,1*47
$GNRMC,183304.000,A,4910.425144,N,12304.400610,W,0.02,0.00,051224,,,D,V*1B
$GNVTG,0.00,T,,M,0.02,N,0.03,K,D*27
$GNGGA,183305.000,4910.425258,N,12304.400616,W,2,31,0.50,13.241,M,-16.816,M,,*79
$GNGLL,4910.425258,N,12304.400616,W,183305.000,A,D*5D
$GNGSA,A,3,09,04,16,07,26,03,06,11,20,31,30,,0.81,0.50,0.64,1*00
$GNGSA,A,3,78,68,69,79,67,85,,,,,,,0.81,0.50,0.64,2*00
$GNGSA,A,3,09,06,31,04,05,34,36,,,,,,0.81,0.50,0.64,3*03
$GNGSA,A,3,32,23,37,20,25,41,38,,,,,,0.81,0.50,0.64,4*05
$GPGSV,4,1,14,09,75,303,38,04,72,099,36,16,47,082,36,07,43,245,32,1*69
$GPGSV,4,2,14,48,33,182,30,26,27,050,28,03,24,174,28,06,14,268,23,1*6E
$GPGSV,4,3,14,11,14,307,24,20,11,325,25,31,09,063,25,30,08,245,25,1*66
$GPGSV,4,4,14,27,04,113,19,29,01,007,,1*66
$GLGSV,2,1,07,78,80,115,17,68,79,098,30,69,44,319,24,79,34,202,27,1*74
$GLGSV,2,2,07,67,28,129,22,85,12,330,19,86,03,020,,1*47
$GAGSV,3,1,10,09,81,322,32,06,71,098,32,31,47,144,29,04,43,105,28,7*74
$GAGSV,3,2,10,05,27,292,26,34,20,298,24,36,13,247,23,24,11,186,22,7*70
$GAGSV,3,3,10,15,06,346,19,21,04,030,18,7*74
$GBGSV,3,1,09,32,69,166,38,23,69,084,38,37,48,207,34,20,46,304,37,1*79
$GBGSV,3,2,09,25,20,051,28,41,16,140,28,38,07,333,26,04,01,262,,1*70
$GBGSV,3,3,09,19,01,314,16,1*47
$GNRMC,183305.000,A,4910.425258,N,12304.400616,W,0.02,0.00,051224,,,D,V*12
$GNVTG,0.00,T,,M,0.02,N,0.03,K,D*27
$GNGGA,183306.000,4910.425366,N,12304.400658,W,2,31,0.50,13.181,M,-16.816,M,,*73
$GNGLL,4910.425366,N,12304.400658,W,183306.000,A,D*58
$GNGSA,A,3,09,04,16,07,26,03,06,11,20,31,30,,0.81,0.50,0.64,1*00
$GNGSA,A,3,78,68,69,79,67,85,,,,,,,0.81,0.50,0.64,2*00
$GNGSA,A,3,09,06,31,04,05,34,36,,,,,,0.81,0.50,0.64,3*03
$GNGSA,A,3,32,23,37,20,25,41,38,,,,,,0.81,0.50,0.64,4*05
$GPGSV,4,1,14,09,75,303,38,04,72,099,36,16,47,082,36,07,43,245,32,1*69
$GPGSV,4,2,14,48,33,182,30,26,27,050,28,03,24,174,28,06,14,268,24,1*69
$GPGSV,4,3,14,11,14,307,24,20,11,325,25,31,09,063,24,30,08,245,25,1*67
$GPGSV,4,4,14,27,04,113,19,29,01,007,,1*66
$GLGSV,2,1,07,78,80,115,17,68,79,098,31,69,44,319,25,79,34,202,27,1*74
$GLGSV,2,2,07,67,28,129,22,85,12,330,19,86,03,020,,1*47
$GAGSV,3,1,10,09,81,322,32,06,71,098,32,31,47,144,29,04,43,105,28,7*74
$GAGSV,3,2,10,05,27,292,26,34,20,298,24,36,13,247,23,24,11,186,22,7*70
$GAGSV,3,3,10,15,06,346,19,21,04,030,18,7*74
$GBGSV,3,1,09,32,69,166,38,23,69,084,38,37,48,207,34,20,46,304,37,1*79
$GBGSV,3,2,09,25,20,051,28,41,16,140,28,38,07,333,26,04,01,262,,1*70
$GBGSV,3,3,09,19,01,314,16,1*47
$GNRMC,183306.000,A,4910.425366,N,12304.400658,W,0.02,0.00,051224,,,D,V*17
$GNVTG,0.00,T,,M,0.02,N,0.04,K,D*20
$GNGGA,183307.000,4910.425468,N,12304.400640,W,2,31,0.50,13.112,M,-16.816,M,,*78
$GNGLL,4910.425468,N,12304.400640,W,183307.000,A,D*59
$GNGSA,A,3,09,04,16,07,26,03,06,11,20,31,30,,0.81,0.50,0.64,1*00
$GNGSA,A,3,78,68,69,79,67,85,,,,,,,0.81,0.50,0.64,2*00
$GNGSA,A,3,09,06,31,04,05,34,36,,,,,,0.81,0.50,0.64,3*03
$GNGSA,A,3,32,23,37,20,25,41,38,,,,,,0.81,0.50,0.64,4*05
$GPGSV,4,1,14,09,75,303,38,04,72,099,36,16,47,082,36,07,43,245,32,1*69
$GPGSV,4,2,14,48,33,182,30,26,27,050,28,03,24,174,28,06,14,268,25,1*68
$GPGSV,4,3,14,11,14,307,25,20,11,325,25,31,09,063,24,30,08,245,25,1*66
$GPGSV,4,4,14,27,04,113,19,29,01,007,,1*66
$GLGSV,2,1,07,78,80,115,17,68,79,098,31,69,44,319,25,79,34,202,28,1*7B
$GLGSV,2,2,07,67,28,129,22,85,12,330,19,86,03,020,,1*47
$GAGSV,3,1,10,09,81,322,32,06,71,098,32,31,47,144,29,04,43,105,28,7*74
$GAGSV,3,2,10,05,27,292,26,34,20,298,24,36,13,247,23,24,11,186,23,7*71
$GAGSV,3,3,10,15,06,346,19,21,04,030,18,7*74
$GBGSV,3,1,09,32,69,166,38,23,69,084,38,37,48,207,34,20,46,304,37,1*79
$GBGSV,3,2,09,25,20,051,28,41,16,140,28,38,07,333,26,04,01,262,,1*70
$GBGSV,3,3,09,19,01,314,16,1*47
$GNRMC,183307.000,A,4910.425468,N,12304.400640,W,0.02,0.00,051224,,,D,V*16
$GNVTG,0.00,T,,M,0.02,N,0.03,K,D*27
$GNGGA,183308.000,4910.425570,N,12304.400586,W,2,31,0.50,13.049,M,-16.816,M,,*79
$GNGLL,4910.425570,N,12304.400586,W,183308.000,A,D*57
$GNGSA,A,3,09,04,16,07,26,03,06,11,20,31,30,,0.81,0.50,0.64,1*00
$GNGSA,A,3,78,68,69,79,67,85,,,,,,,0.81,0.50,0.64,2*00
$GNGSA,A,3,09,06,31,04,05,34,36,,,,,,0.81,0.50,0.64,3*03
$GNGSA,A,3,32,23,37,20,25,41,38,,,,,,0.81,0.50,0.64,4*05
$GPGSV,4,1,14,09,75,303,38,04,72,099,36,16,47,082,36,07,43,245,32,1*69
$GPGSV,4,2,14,48,33,182,30,26,27,050,28,03,24,174,28,06,14,268,24,1*69
$GPGSV,4,3,14,11,14,307,24,20,11,325,25,31,09,063,23,30,08,245,25,1*60
$GPGSV,4,4,14,27,04,113,19,29,01,007,,1*66
$GLGSV,2,1,07,78,80,115,17,68,79,098,31,69,44,319,25,79,34,202,28,1*7B
$GLGSV,2,2,07,67,28,129,22,85,12,330,20,86,03,020,,1*4D
$GAGSV,3,1,10,09,81,322,32,06,71,098,32,31,47,144,29,04,43,105,28,7*74
$GAGSV,3,2,10,05,27,292,26,34,20,298,24,36,13,247,23,24,11,186,23,7*71
$GAGSV,3,3,10,15,06,346,19,21,04,030,18,7*74
$GBGSV,3,1,09,32,69,166,38,23,69,084,38,37,48,207,34,20,46,304,37,1*79
$GBGSV,3,2,09,25,20,051,28,41,16,140,28,38,07,333,26,04,01,262,,1*70
$GBGSV,3,3,09,19,01,314,15,1*44
$GNRMC,183308.000,A,4910.425570,N,12304.400586,W,0.02,0.00,051224,,,D,V*18
$GNVTG,0.00,T,,M,0.02,N,0.03,K,D*27
$GNGGA,183309.000,4910.425684,N,12304.400622,W,2,31,0.50,12.990,M,-16.817,M,,*70
$GNGLL,4910.425684,N,12304.400622,W,183309.000,A,D*53
$GNGSA,A,3,09,04,16,07,26,03,06,11,20,31,30,,0.81,0.50,0.64,1*00
$GNGSA,A,3,78,68,69,79,67,85,,,,,,,0.81,0.50,0.64,2*00
$GNGSA,A,3,09,06,31,04,05,34,36,,,,,,0.81,0.50,0.64,3*03
$GNGSA,A,3,32,23,37,20,25,41,38,,,,,,0.81,0.50,0.64,4*05
$GPGSV,4,1,14,09,75,303,38,04,72,099,36,16,47,082,36,07,43,245,32,1*69
$GPGSV,4,2,14,48,33,182,30,26,27,050,28,03,24,174,28,06,14,268,23,1*6E
$GPGSV,4,3,14,11,14,307,24,20,11,325,25,31,09,063,24,30,08,245,25,1*67
$GPGSV,4,4,14,27,04,113,19,29,01,007,,1*66
$GLGSV,2,1,07,78,80,115,17,68,79,098,31,69,44,319,25,79,34,202,28,1*7B
$GLGSV,2,2,07,67,28,129,22,85,12,330,20,86,03,020,,1*4D
$GAGSV,3,1,10,09,81,322,32,06,71,098,32,31,47,144,29,04,43,105,28,7*74
$GAGSV,3,2,10,05,27,292,26,34,20,298,24,36,13,247,23,24,11,186,23,7*71
$GAGSV,3,3,10,15,06,346,19,21,04,030,18,7*74
$GBGSV,3,1,09,32,69,166,38,23,69,084,38,37,48,207,34,20,46,304,37,1*79
$GBGSV,3,2,09,25,20,051,28,41,16,140,28,38,07,333,26,04,01,262,,1*70
$GBGSV,3,3,09,19,01,314,15,1*44
$GNRMC,183309.000,A,4910.425684,N,12304.400622,W,0.02,0.00,051224,,,D,V*1C
$GNVTG,0.00,T,,M,0.02,N,0.03,K,D*27
$GNGGA,183310.000,4910.425792,N,12304.400610,W,2,31,0.50,12.917,M,-16.816,M,,*71
$GNGLL,4910.425792,N,12304.400610,W,183310.000,A,D*5C
$GNGSA,A,3,09,04,16,07,26,03,06,11,20,31,30,,0.81,0.50,0.64,1*00
$GNGSA,A,3,78,68,69,79,67,85,,,,,,,0.81,0.50,0.64,2*00
$GNGSA,A,3,09,06,31,04,05,34,36,,,,,,0.81,0.50,0.64,3*03
$GNGSA,A,3,32,23,37,20,25,41,38,,,,,,0.81,0.50,0.64,4*05
$GPGSV,4,1,14,09,75,303,38,04,72,099,36,16,47,082,36,07,43,245,32,1*69
$GPGSV,4,2,14,48,33,182,30,26,27,050,28,03,24,174,28,06,14,268,24,1*69
$GPGSV,4,3,14,11,14,307,25,20,11,325,25,31,09,063,24,30,08,245,25,1*66
$GPGSV,4,4,14,27,04,113,19,29,01,007,,1*66
$GLGSV,2,1,07,78,80,115,17,68,79,098,31,69,44,319,25,79,34,202,28,1*7B
$GLGSV,2,2,07,67,28,129,22,85,12,330,20,86,03,020,,1*4D
$GAGSV,3,1,10,09,81,322,32,06,71,098,32,31,47,144,29,04,43,105,28,7*74
$GAGSV,3,2,10,05,27,292,26,34,20,298,24,36,13,247,23,24,11,186,22,7*70
$GAGSV,3,3,10,15,06,346,19,21,04,030,18,7*74
$GBGSV,3,1,09,32,69,166,38,23,69,084,38,37,48,207,34,20,46,304,37,1*79
$GBGSV,3,2,09,25,20,051,28,41,16,140,28,38,07,333,26,04,01,262,,1*70
$GBGSV,3,3,09,19,01,314,15,1*44
$GNRMC,183310.000,A,4910.425792,N,12304.400610,W,0.02,0.00,051224,,,D,V*13
$GNVTG,0.00,T,,M,0.02,N,0.04,K,D*20
$GNGGA,183311.000,4910.425846,N,12304.400658,W,2,31,0.50,12.840,M,-16.817,M,,*78
$GNGLL,4910.425846,N,12304.400658,W,183311.000,A,D*57
$GNGSA,A,3,09,04,16,07,26,03,06,11,20,31,30,,0.81,0.50,0.64,1*00
$GNGSA,A,3,78,68,69,79,67,85,,,,,,,0.81,0.50,0.64,2*00
$GNGSA,A,3,09,06,31,04,05,34,36,,,,,,0.81,0.50,0.64,3*03
$GNGSA,A,3,32,23,37,20,25,41,38,,,,,,0.81,0.50,0.64,4*05
$GPGSV,4,1,14,09,75,303,38,04,72,099,36,16,47,082,36,07,43,245,33,1*68
$GPGSV,4,2,14,48,33,182,30,26,27,050,28,03,24,174,28,06,14,268,25,1*68
$GPGSV,4,3,14,11,14,307,25,20,11,325,25,31,09,063,24,30,08,245,25,1*66
$GPGSV,4,4,14,27,04,113,19,29,01,007,,1*66
$GLGSV,2,1,07,78,80,115,17,68,79,098,31,69,44,319,25,79,34,202,28,1*7B
$GLGSV,2,2,07,67,28,129,21,85,12,330,20,86,03,020,,1*4E
$GAGSV,3,1,10,09,81,322,32,06,71,098,32,31,47,144,29,04,43,105,28,7*74
$GAGSV,3,2,10,05,27,292,26,34,20,298,24,36,13,247,23,24,11,186,22,7*70
$GAGSV,3,3,10,15,06,346,19,21,04,030,18,7*74
$GBGSV,3,1,09,32,69,166,38,23,69,084,38,37,48,207,34,20,46,304,37,1*79
$GBGSV,3,2,09,25,20,051,28,41,16,140,28,38,07,333,26,04,01,262,,1*70
$GBGSV,3,3,09,19,01,314,14,1*45
$GNRMC,183311.000,A,4910.425846,N,12304.400658,W,0.02,0.00,051224,,,D,V*18
$GNVTG,0.00,T,,M,0.02,N,0.03,K,D*27
$GNGGA,183312.000,4910.425990,N,12304.400712,W,2,31,0.50,12.930,M,-16.817,M,,*78
$GNGLL,4910.425990,N,12304.400712,W,183312.000,A,D*51
$GNGSA,A,3,09,04,16,07,26,03,06,11,20,31,30,,0.81,0.50,0.64,1*00
$GNGSA,A,3,78,68,69,79,67,85,,,,,,,0.81,0.50,0.64,2*00
$GNGSA,A,3,09,06,31,04,05,34,36,,,,,,0.81,0.50,0.64,3*03
$GNGSA,A,3,32,23,37,20,25,41,38,,,,,,0.81,0.50,0.64,4*05
$GPGSV,4,1,14,09,75,303,38,04,72,099,36,16,47,082,36,07,43,245,33,1*68
$GPGSV,4,2,14,48,33,182,30,26,27,050,28,03,24,174,29,06,14,268,24,1*68
$GPGSV,4,3,14,11,14,307,25,20,11,325,25,31,09,063,24,30,08,245,26,1*65
$GPGSV,4,4,14,27,04,113,20,29,01,007,,1*6C
$GLGSV,2,1,07,78,80,115,17,68,79,098,31,69,44,319,25,79,34,202,28,1*7B
$GLGSV,2,2,07,67,28,129,22,85,12,330,20,86,03,020,,1*4D
$GAGSV,3,1,10,09,81,322,32,06,71,098,32,31,47,144,29,04,43,105,29,7*75
$GAGSV,3,2,10,05,27,292,26,34,20,298,24,36,13,247,24,24,11,186,22,7*77
$GAGSV,3,3,10,15,06,346,19,21,04,030,18,7*74
$GBGSV,3,1,09,32,69,166,38,23,69,084,38,37,48,207,34,20,46,304,37,1*79
$GBGSV,3,2,09,25,20,051,28,41,16,140,28,38,07,333,26,04,01,262,,1*70
$GBGSV,3,3,09,19,01,314,15,1*44
$GNRMC,183312.000,A,4910.425990,N,12304.400712,W,0.02,0.00,051224,,,D,V*1E
$GNVTG,0.00,T,,M,0.02,N,0.04,K,D*20
$GNGGA,183313.000,4910.426050,N,12304.400652,W,2,31,0.50,12.898,M,-16.816,M,,*78
$GNGLL,4910.426050,N,12304.400652,W,183313.000,A,D*53
$GNGSA,A,3,09,04,16,07,26,03,06,11,20,31,30,,0.81,0.50,0.64,1*00
$GNGSA,A,3,78,68,69,79,67,85,,,,,,,0.81,0.50,0.64,2*00
$GNGSA,A,3,09,06,31,04,05,34,36,,,,,,0.81,0.50,0.64,3*03
$GNGSA,A,3,32,23,37,20,25,41,38,,,,,,0.81,0.50,0.64,4*05
$GPGSV,4,1,14,09,75,303,38,04,72,099,36,16,47,082,36,07,43,245,33,1*68
$GPGSV,4,2,14,48,33,182,30,26,27,050,28,03,24,174,29,06,14,268,24,1*68
$GPGSV,4,3,14,11,14,307,26,20,11,325,25,31,09,063,24,30,08,245,26,1*66
$GPGSV,4,4,14,27,04,113,19,29,01,007,,1*66
$GLGSV,2,1,07,78,80,115,17,68,79,098,31,69,44,319,25,79,34,202,28,1*7B
$GLGSV,2,2,07,67,28,129,22,85,12,330,20,86,03,020,,1*4D
$GAGSV,3,1,10,09,81,322,32,06,71,098,32,31,47,144,29,04,43,105,29,7*75
$GAGSV,3,2,10,05,27,292,26,34,20,298,24,36,13,247,24,24,11,186,22,7*77
$GAGSV,3,3,10,15,06,346,19,21,04,030,18,7*74
$GBGSV,3,1,09,32,69,166,38,23,69,084,38,37,48,207,34,20,46,304,37,1*79
$GBGSV,3,2,09,25,20,051,29,41,16,140,28,38,07,333,26,04,01,262,,1*71
$GBGSV,3,3,09,19,01,314,15,1*44
$GNRMC,183313.000,A,4910.426050,N,12304.400652,W,0.02,0.00,051224,,,D,V*1C
$GNVTG,0.00,T,,M,0.02,N,0.04,K,D*20
$GNGGA,183314.000,4910.426044,N,12304.400604,W,2,31,0.50,12.862,M,-16.817,M,,*7D
$GNGLL,4910.426044,N,12304.400604,W,183314.000,A,D*52
$GNGSA,A,3,09,04,16,07,26,03,06,11,20,31,30,,0.81,0.50,0.64,1*00
$GNGSA,A,3,78,68,69,79,67,85,,,,,,,0.81,0.50,0.64,2*00
$GNGSA,A,3,09,06,31,04,05,34,36,,,,,,0.81,0.50,0.64,3*03
$GNGSA,A,3,32,23,37,20,25,41,38,,,,,,0.81,0.50,0.64,4*05
$GPGSV,4,1,14,09,75,303,38,04,72,099,36,16,47,082,36,07,43,245,33,1*68
$GPGSV,4,2,14,48,33,182,30,26,27,050,28,03,24,174,29,06,14,268,23,1*6F
$GPGSV,4,3,14,11,14,307,25,20,11,325,24,31,09,063,24,30,08,245,26,1*64
$GPGSV,4,4,14,27,04,113,19,29,01,007,,1*66
$GLGSV,2,1,07,78,80,115,17,68,79,098,31,69,44,319,25,79,34,202,28,1*7B
$GLGSV,2,2,07,67,28,129,21,85,12,330,20,86,03,020,,1*4E
$GAGSV,3,1,10,09,81,322,32,06,71,098,32,31,47,144,29,04,43,105,29,7*75
$GAGSV,3,2,10,05,27,292,25,34,20,298,24,36,13,247,24,24,11,186,22,7*74
$GAGSV,3,3,10,15,06,346,19,21,04,030,18,7*74
$GBGSV,3,1,09,32,69,166,38,23,69,084,38,37,48,207,34,20,46,304,37,1*79
$GBGSV,3,2,09,25,20,051,29,41,16,140,28,38,07,333,26,04,01,262,,1*71
$GBGSV,3,3,09,19,01,314,16,1*47
$GNRMC,183314.000,A,4910.426044,N,12304.400604,W,0.02,0.00,051224,,,D,V*1D
$GNVTG,0.00,T,,M,0.02,N,0.04,K,D*20
$GNGGA,183315.000,4910.426050,N,12304.400652,W,2,31,0.50,12.861,M,-16.816,M,,*78
$GNGLL,4910.426050,N,12304.400652,W,183315.000,A,D*55
$GNGSA,A,3,09,04,16,07,26,03,06,11,20,31,30,,0.81,0.50,0.64,1*00
$GNGSA,A,3,78,68,69,79,67,85,,,,,,,0.81,0.50,0.64,2*00
$GNGSA,A,3,09,06,31,04,05,34,36,,,,,,0.81,0.50,0.64,3*03
$GNGSA,A,3,32,23,37,20,25,41,38,,,,,,0.81,0.50,0.64,4*05
$GPGSV,4,1,14,09,75,303,38,04,72,099,36,16,47,082,36,07,43,245,33,1*68
$GPGSV,4,2,14,48,33,182,30,26,27,050,28,03,24,174,29,06,14,268,23,1*6F
$GPGSV,4,3,14,11,14,307,25,20,11,325,24,31,09,063,24,30,08,245,26,1*64
$GPGSV,4,4,14,27,04,113,19,29,01,007,,1*66
$GLGSV,2,1,07,78,80,115,17,68,79,098,30,69,44,319,25,79,34,202,28,1*7A
$GLGSV,2,2,07,67,28,129,23,85,12,330,20,86,03,020,,1*4C
$GAGSV,3,1,10,09,81,322,32,06,71,098,32,31,47,144,29,04,43,105,29,7*75
$GAGSV,3,2,10,05,27,292,25,34,20,298,24,36,13,247,24,24,11,186,22,7*74
$GAGSV,3,3,10,15,06,346,19,21,04,030,18,7*74
$GBGSV,3,1,09,32,69,166,38,23,69,084,38,37,48,207,34,20,46,304,37,1*79
$GBGSV,3,2,09,25,20,051,29,41,16,140,28,38,07,333,26,04,01,262,,1*71
$GBGSV,3,3,09,19,01,314,16,1*47
$GNRMC,183315.000,A,4910.426050,N,12304.400652,W,0.02,0.00,051224,,,D,V*1A
$GNVTG,0.00,T,,M,0.02,N,0.04,K,D*20
$GNGGA,183316.000,4910.426110,N,12304.400718,W,2,31,0.50,12.972,M,-16.816,M,,*72
$GNGLL,4910.426110,N,12304.400718,W,183316.000,A,D*5C
$GNGSA,A,3,09,04,16,07,26,03,06,11,20,31,30,,0.81,0.50,0.64,1*00
$GNGSA,A,3,78,68,69,79,67,85,,,,,,,0.81,0.50,0.64,2*00
$GNGSA,A,3,09,06,31,04,05,34,36,,,,,,0.81,0.50,0.64,3*03
$GNGSA,A,3,32,23,37,20,25,41,38,,,,,,0.81,0.50,0.64,4*05
$GPGSV,4,1,14,09,75,303,38,04,72,099,36,16,47,082,36,07,43,245,33,1*68
$GPGSV,4,2,14,48,33,182,30,26,27,050,28,03,24,174,29,06,14,268,25,1*69
$GPGSV,4,3,14,11,14,307,25,20,11,325,24,31,09,063,24,30,08,245,26,1*64
$GPGSV,4,4,14,27,04,113,18,29,01,007,,1*67
$GLGSV,2,1,07,78,80,115,17,68,79,098,30,69,44,319,25,79,34,202,28,1*7A
$GLGSV,2,2,07,67,28,129,22,85,12,330,20,86,03,020,,1*4D
$GAGSV,3,1,10,09,81,322,32,06,71,098,32,31,47,144,29,04,43,105,29,7*75
$GAGSV,3,2,10,05,27,292,25,34,20,298,25,36,13,247,24,24,11,186,22,7*75
$GAGSV,3,3,10,15,06,346,19,21,04,030,18,7*74
$GBGSV,3,1,09,32,69,166,38,23,69,084,38,37,48,207,34,20,46,304,37,1*79
$GBGSV,3,2,09,25,20,051,29,41,16,140,28,38,07,333,26,04,01,262,,1*71
$GBGSV,3,3,09,19,01,314,16,1*47
$GNRMC,183316.000,A,4910.426110,N,12304.400718,W,0.02,0.00,051224,,,D,V*13
$GNVTG,0.00,T,,M,0.02,N,0.04,K,D*20
$GNGGA,183317.000,4910.426074,N,12304.400796,W,2,31,0.50,12.989,M,-16.816,M,,*72
$GNGLL,4910.426074,N,12304.400796,W,183317.000,A,D*58
$GNGSA,A,3,09,04,16,07,26,03,06,11,20,31,30,,0.81,0.50,0.64,1*00
$GNGSA,A,3,78,68,69,79,67,85,,,,,,,0.81,0.50,0.64,2*00
$GNGSA,A,3,09,06,31,04,05,34,36,,,,,,0.81,0.50,0.64,3*03
$GNGSA,A,3,32,23,37,20,25,41,38,,,,,,0.81,0.50,0.64,4*05
$GPGSV,4,1,14,09,75,303,38,04,72,099,36,16,47,082,36,07,43,245,33,1*68
$GPGSV,4,2,14,48,33,182,30,26,27,050,29,03,24,174,29,06,14,268,24,1*69
$GPGSV,4,3,14,11,14,307,26,20,11,325,24,31,09,063,24,30,08,245,26,1*67
$GPGSV,4,4,14,27,04,113,18,29,01,007,,1*67
$GLGSV,2,1,07,78,80,115,17,68,79,098,30,69,44,319,25,79,34,202,28,1*7A
$GLGSV,2,2,07,67,28,129,25,85,12,330,20,86,03,020,,1*4A
$GAGSV,3,1,10,09,81,322,33,06,71,098,32,31,47,144,29,04,43,105,29,7*74
$GAGSV,3,2,10,05,27,292,25,34,20,298,25,36,13,247,24,24,11,186,22,7*75
$GAGSV,3,3,10,15,06,346,19,21,04,030,18,7*74
$GBGSV,3,1,09,32,69,166,38,23,69,084,38,37,48,207,34,20,46,304,37,1*79
$GBGSV,3,2,09,25,20,051,29,41,16,140,28,38,07,333,26,04,01,262,,1*71
$GBGSV,3,3,09,19,01,314,16,1*47
$GNRMC,183317.000,A,4910.426074,N,12304.400796,W,0.02,0.00,051224,,,D,V*17
$GNVTG,0.00,T,,M,0.02,N,0.04,K,D*20
$GNGGA,183318.000,4910.426092,N,12304.400868,W,2,31,0.50,13.000,M,-16.816,M,,*72
$GNGLL,4910.426092,N,12304.400868,W,183318.000,A,D*51
$GNGSA,A,3,09,04,16,07,26,03,06,11,20,31,30,,0.81,0.50,0.64,1*00
$GNGSA,A,3,78,68,69,79,67,85,,,,,,,0.81,0.50,0.64,2*00
$GNGSA,A,3,09,06,31,04,05,34,36,,,,,,0.81,0.50,0.64,3*03
$GNGSA,A,3,32,23,37,20,25,41,38,,,,,,0.81,0.50,0.64,4*05
$GPGSV,4,1,14,09,75,303,38,04,72,099,36,16,47,082,36,07,43,245,33,1*68
$GPGSV,4,2,14,48,33,182,30,26,27,050,29,03,24,174,29,06,14,268,23,1*6E
$GPGSV,4,3,14,11,14,307,26,20,11,325,24,31,09,063,24,30,08,245,26,1*67
$GPGSV,4,4,14,27,04,113,18,29,01,007,,1*67
$GLGSV,2,1,07,78,80,115,17,68,79,098,31,69,44,319,25,79,34,202,28,1*7B
$GLGSV,2,2,07,67,28,129,24,85,12,330,21,86,03,020,,1*4A
$GAGSV,3,1,10,09,81,322,33,06,71,098,32,31,47,144,29,04,43,105,29,7*74
$GAGSV,3,2,10,05,27,292,25,34,20,298,25,36,13,247,24,24,11,186,22,7*75
$GAGSV,3,3,10,15,06,346,19,21,04,030,18,7*74
$GBGSV,3,1,09,32,69,166,38,23,69,084,38,37,48,207,34,20,46,304,37,1*79
$GBGSV,3,2,09,25,20,051,29,41,16,140,28,38,07,333,26,04,01,262,,1*71
$GBGSV,3,3,09,19,01,314,16,1*47
$GNRMC,183318.000,A,4910.426092,N,12304.400868,W,0.02,0.00,051224,,,D,V*1E
$GNVTG,0.00,T,,M,0.02,N,0.04,K,D*20
$GNGGA,183319.000,4910.426146,N,12304.400856,W,2,31,0.50,12.917,M,-16.816,M,,*78
$GNGLL,4910.426146,N,12304.400856,W,183319.000,A,D*55
$GNGSA,A,3,09,04,16,07,26,03,06,11,20,31,30,,0.81,0.50,0.64,1*00
$GNGSA,A,3,78,68,69,79,67,85,,,,,,,0.81,0.50,0.64,2*00
$GNGSA,A,3,09,06,31,04,05,34,36,,,,,,0.81,0.50,0.64,3*03
$GNGSA,A,3,32,23,37,20,25,41,38,,,,,,0.81,0.50,0.64,4*05
$GPGSV,4,1,14,09,75,303,38,04,72,099,36,16,47,082,36,07,43,245,33,1*68
$GPGSV,4,2,14,48,33,182,30,26,27,050,29,03,24,174,29,06,14,268,23,1*6E
$GPGSV,4,3,14,11,14,307,26,20,11,325,23,31,09,063,24,30,08,245,25,1*63
$GPGSV,4,4,14,27,04,113,18,29,01,007,,1*67
$GLGSV,2,1,07,78,80,115,17,68,79,098,31,69,44,319,25,79,34,202,28,1*7B
$GLGSV,2,2,07,67,28,129,24,85,12,330,21,86,03,020,,1*4A
$GAGSV,3,1,10,09,81,322,33,06,71,098,32,31,47,144,29,04,43,105,29,7*74
$GAGSV,3,2,10,05,27,292,25,34,20,298,25,36,13,247,24,24,11,186,22,7*75
$GAGSV,3,3,10,15,06,346,19,21,04,030,18,7*74
$GBGSV,3,1,09,32,69,166,38,23,69,084,38,37,48,207,34,20,46,304,38,1*76
$GBGSV,3,2,09,25,20,051,30,41,16,140,28,38,07,333,26,04,01,262,,1*79
$GBGSV,3,3,09,19,01,314,17,1*46
$GNRMC,183319.000,A,4910.426146,N,12304.400856,W,0.02,0.00,051224,,,D,V*1A
$GNVTG,0.00,T,,M,0.02,N,0.04,K,D*20
$GNGGA,183320.000,4910.426116,N,12304.400928,W,2,31,0.50,12.883,M,-16.817,M,,*72
$GNGLL,4910.426116,N,12304.400928,W,183320.000,A,D*52
$GNGSA,A,3,09,04,16,07,26,03,06,11,20,31,30,,0.81,0.50,0.64,1*00
$GNGSA,A,3,78,68,69,79,67,85,,,,,,,0.81,0.50,0.64,2*00
$GNGSA,A,3,09,06,31,04,05,34,36,,,,,,0.81,0.50,0.64,3*03
$GNGSA,A,3,32,23,37,20,25,41,38,,,,,,0.81,0.50,0.64,4*05
$GPGSV,4,1,14,09,75,303,38,04,72,099,36,16,47,082,36,07,43,245,33,1*68
$GPGSV,4,2,14,48,33,182,30,26,27,050,29,03,24,174,29,06,14,268,24,1*69
$GPGSV,4,3,14,11,14,307,26,20,11,325,23,31,09,063,24,30,08,245,25,1*63
$GPGSV,4,4,14,27,04,113,18,29,01,007,,1*67
$GLGSV,2,1,07,78,80,115,17,68,79,098,31,69,44,319,25,79,34,202,28,1*7B
$GLGSV,2,2,07,67,28,129,24,85,12,330,21,86,03,020,,1*4A
$GAGSV,3,1,10,09,81,322,33,06,71,098,32,31,47,144,29,04,43,105,29,7*74
$GAGSV,3,2,10,05,27,292,25,34,20,298,25,36,13,247,24,24,11,186,22,7*75
$GAGSV,3,3,10,15,06,346,19,21,04,030,18,7*74
$GBGSV,3,1,09,32,69,166,38,23,69,084,38,37,48,207,34,20,46,304,38,1*76
$GBGSV,3,2,09,25,20,051,30,41,16,140,28,38,07,333,26,04,01,262,,1*79
$GBGSV,3,3,09,19,01,314,17,1*46
$GNRMC,183320.000,A,4910.426116,N,12304.400928,W,0.02,0.00,051224,,,D,V*1D
$GNVTG,0.00,T,,M,0.02,N,0.04,K,D*20
$GNGGA,183321.000,4910.426074,N,12304.401006,W,2,31,0.50,12.844,M,-16.816,M,,*78
