.03,0.00,051224,,,D,V*1B
$GNVTG,0.00,T,,M,0.03,N,0.05,K,D*20
$GNGGA,184031.000,4910.425954,N,12304.400700,W,2,32,0.48,10.872,M,-16.816,M,,*78
$GNGLL,4910.425954,N,12304.400700,W,184031.000,A,D*5F
$GNGSA,A,3,09,04,16,07,26,03,11,20,06,30,31,27,0.75,0.48,0.58,1*08
$GNGSA,A,3,78,68,69,79,67,85,,,,,,,0.75,0.48,0.58,2*0D
$GNGSA,A,3,09,06,31,04,05,34,36,,,,,,0.75,0.48,0.58,3*0E
$GNGSA,A,3,23,32,37,20,25,41,38,,,,,,0.75,0.48,0.58,4*08
$GPGSV,4,1,13,09,78,304,39,04,69,103,36,16,47,077,35,07,46,248,35,1*6B
$GPGSV,4,2,13,48,33,182,31,26,24,049,31,03,21,174,28,11,14,304,27,1*67
$GPGSV,4,3,13,20,13,323,25,06,12,266,23,30,11,247,28,31,06,064,20,1*6E
$GPGSV,4,4,13,27,06,111,26,1*50
$GLGSV,2,1,07,78,80,093,18,68,76,112,32,69,47,320,25,79,38,204,26,1*79
$GLGSV,2,2,07,67,25,132,20,85,12,327,20,86,05,017,,1*4C
$GAGSV,3,1,10,09,83,331,33,06,68,102,33,31,50,142,30,04,41,107,29,7*77
$GAGSV,3,2,10,05,29,293,27,34,19,296,26,24,13,186,23,36,11,246,22,7*79
$GAGSV,3,3,10,15,07,344,23,21,02,029,08,7*71
$GBGSV,3,1,11,23,67,078,36,32,66,165,37,37,51,208,35,20,49,303,36,1*7F
$GBGSV,3,2,11,25,17,051,28,41,14,142,27,38,08,334,26,19,03,314,19,1*7C
$GBGSV,3,3,11,08,01,340,,04,01,262,,44,01,008,,1*42
$GNRMC,184031.000,A,4910.425954,N,12304.400700,W,0.03,0.00,051224,,,D,V*11
$GNVTG,0.00,T,,M,0.03,N,0.06,K,D*23
$GNGGA,184032.000,4910.425966,N,12304.400892,W,2,32,0.48,10.891,M,-16.817,M,,*72
$GNGLL,4910.425966,N,12304.400892,W,184032.000,A,D*59
$GNGSA,A,3,09,04,16,07,26,03,11,20,06,30,27,31,0.75,0.48,0.58,1*08
$GNGSA,A,3,78,68,69,79,67,85,,,,,,,0.75,0.48,0.58,2*0D
$GNGSA,A,3,09,06,31,04,05,34,36,,,,,,0.75,0.48,0.58,3*0E
$GNGSA,A,3,23,32,37,20,25,41,38,,,,,,0.75,0.48,0.58,4*08
$GPGSV,4,1,13,09,78,304,39,04,69,104,36,16,47,077,35,07,46,248,35,1*6C
$GPGSV,4,2,13,48,33,182,31,26,24,049,31,03,20,174,28,11,14,304,27,1*66
$GPGSV,4,3,13,20,13,323,25,06,12,266,20,30,11,247,28,27,06,111,26,1*6F
$GPGSV,4,4,13,31,06,064,20,1*52
$GLGSV,2,1,07,78,79,091,18,68,76,113,32,69,47,320,25,79,38,204,26,1*7C
$GLGSV,2,2,07,67,24,132,20,85,11,327,20,86,05,017,,1*4E
$GAGSV,3,1,10,09,83,331,33,06,68,102,33,31,50,142,30,04,41,107,29,7*77
$GAGSV,3,2,10,05,29,293,27,34,19,295,26,24,14,186,23,36,11,245,23,7*7F
$GAGSV,3,3,10,15,07,343,23,21,02,029,08,7*76
$GBGSV,3,1,11,23,67,077,36,32,66,165,37,37,51,208,35,20,49,303,36,1*70
$GBGSV,3,2,11,25,17,051,28,41,13,142,27,38,08,334,26,19,04,314,19,1*7C
$GBGSV,3,3,11,44,01,008,,08,01,340,,04,01,262,,1*42
$GNRMC,184032.000,A,4910.425966,N,12304.400892,W,0.03,0.00,051224,,,D,V*17
$GNVTG,0.00,T,,M,0.03,N,0.06,K,D*23
$GNGGA,184033.000,4910.426038,N,12304.401084,W,2,32,0.48,10.950,M,-16.817,M,,*70
$GNGLL,4910.426038,N,12304.401084,W,184033.000,A,D*57
$GNGSA,A,3,09,04,16,07,26,03,11,20,06,30,31,27,0.75,0.48,0.58,1*08
$GNGSA,A,3,78,68,69,79,67,85,,,,,,,0.75,0.48,0.58,2*0D
$GNGSA,A,3,09,06,31,04,05,34,36,,,,,,0.75,0.48,0.58,3*0E
$GNGSA,A,3,23,32,37,20,25,41,38,,,,,,0.75,0.48,0.58,4*08
$GPGSV,4,1,13,09,78,304,39,04,69,104,36,16,47,077,34,07,46,248,35,1*6D
$GPGSV,4,2,13,48,33,182,31,26,24,049,30,03,20,174,27,11,14,304,27,1*68
$GPGSV,4,3,13,20,13,323,25,06,12,266,22,30,11,247,28,31,06,064,20,1*6F
$GPGSV,4,4,13,27,06,111,26,1*50
$GLGSV,2,1,07,78,79,091,18,68,76,113,32,69,47,320,25,79,38,204,26,1*7C
$GLGSV,2,2,07,67,24,132,20,85,11,327,20,86,05,017,,1*4E
$GAGSV,3,1,10,09,83,331,33,06,68,102,33,31,50,142,30,04,41,107,29,7*77
$GAGSV,3,2,10,05,29,293,27,34,19,295,26,24,14,186,23,36,11,245,23,7*7F
$GAGSV,3,3,10,15,07,343,23,21,02,029,08,7*76
$GBGSV,3,1,12,23,67,077,36,32,66,165,37,37,51,208,35,20,49,303,36,1*73
$GBGSV,3,2,12,25,17,051,28,41,13,142,27,38,08,334,26,19,04,314,19,1*7F
$GBGSV,3,3,12,44,01,008,,04,01,262,,46,01,222,,08,01,340,,1*70
$GNRMC,184033.000,A,4910.426038,N,12304.401084,W,0.04,0.00,051224,,,D,V*1E
$GNVTG,0.00,T,,M,0.04,N,0.07,K,D*25
$GNGGA,184034.000,4910.426104,N,12304.401234,W,2,32,0.48,11.008,M,-16.816,M,,*74
$GNGLL,4910.426104,N,12304.401234,W,184034.000,A,D*57
$GNGSA,A,3,09,04,16,07,26,03,11,20,06,30,31,27,0.75,0.48,0.58,1*08
$GNGSA,A,3,78,68,69,79,67,85,,,,,,,0.75,0.48,0.58,2*0D
$GNGSA,A,3,09,06,31,04,05,34,36,,,,,,0.75,0.48,0.58,3*0E
$GNGSA,A,3,23,32,37,20,25,41,38,,,,,,0.75,0.48,0.58,4*08
$GPGSV,4,1,13,09,78,304,39,04,69,104,36,16,47,077,34,07,46,248,35,1*6D
$GPGSV,4,2,13,48,33,182,30,26,24,049,30,03,20,174,26,11,14,304,27,1*68
$GPGSV,4,3,13,20,13,323,25,06,12,266,20,30,11,247,28,31,06,064,20,1*6D
$GPGSV,4,4,13,27,06,111,26,1*50
$GLGSV,2,1,07,78,79,091,19,68,76,113,32,69,47,320,25,79,38,204,26,1*7D
$GLGSV,2,2,07,67,24,132,20,85,11,327,20,86,05,017,,1*4E
$GAGSV,3,1,10,09,83,331,33,06,68,102,33,31,50,142,30,04,41,107,29,7*77
$GAGSV,3,2,10,05,29,293,27,34,19,295,26,24,14,186,23,36,11,245,23,7*7F
$GAGSV,3,3,10,15,07,343,22,21,02,029,08,7*77
$GBGSV,3,1,12,23,67,077,36,32,66,165,37,37,51,208,35,20,49,303,36,1*73
$GBGSV,3,2,12,25,17,051,28,41,13,142,27,38,08,334,26,19,04,314,19,1*7F
$GBGSV,3,3,12,44,01,008,,04,01,262,,46,01,222,,08,01,340,,1*70
$GNRMC,184034.000,A,4910.426104,N,12304.401234,W,0.04,0.00,051224,,,D,V*1E
$GNVTG,0.00,T,,M,0.04,N,0.07,K,D*25
$GNGGA,184035.000,4910.426176,N,12304.401372,W,2,32,0.48,11.093,M,-16.817,M,,*70
$GNGLL,4910.426176,N,12304.401372,W,184035.000,A,D*50
$GNGSA,A,3,09,04,16,07,26,03,11,20,06,30,31,27,0.75,0.48,0.58,1*08
$GNGSA,A,3,78,68,69,79,67,85,,,,,,,0.75,0.48,0.58,2*0D
$GNGSA,A,3,09,06,31,04,05,34,36,,,,,,0.75,0.48,0.58,3*0E
$GNGSA,A,3,23,32,37,20,25,41,38,,,,,,0.75,0.48,0.58,4*08
$GPGSV,4,1,13,09,78,304,39,04,69,104,36,16,47,077,34,07,46,248,35,1*6D
$GPGSV,4,2,13,48,33,182,30,26,24,049,30,03,20,174,26,11,14,304,27,1*68
$GPGSV,4,3,13,20,13,323,26,06,12,266,20,30,11,247,28,31,06,064,20,1*6E
$GPGSV,4,4,13,27,06,111,26,1*50
$GLGSV,2,1,07,78,79,091,19,68,76,113,32,69,47,320,25,79,38,204,26,1*7D
$GLGSV,2,2,07,67,24,132,20,85,11,327,20,86,05,017,,1*4E
$GAGSV,3,1,10,09,83,331,33,06,68,102,33,31,50,142,30,04,41,107,29,7*77
$GAGSV,3,2,10,05,29,293,27,34,19,295,26,24,14,186,23,36,11,245,23,7*7F
