317,22,15,04,005,24,7*7F
$GAGSV,3,3,10,13,03,053,19,24,02,229,21,7*73
$GBGSV,4,1,14,23,64,067,30,37,59,266,29,58,51,283,,20,44,283,29,1*76
$GBGSV,4,2,14,32,34,207,26,43,23,098,24,11,22,075,17,08,22,330,18,1*76
$GBGSV,4,3,14,38,21,318,19,34,18,050,25,13,15,339,18,19,13,326,23,1*78
$GBGSV,4,4,14,25,12,076,23,12,08,024,19,1*72
$GNRMC,215951.000,A,4910.424376,N,12304.398708,W,0.02,196.10,291124,,,D,V*13
$GNVTG,196.10,T,,M,0.02,N,0.04,K,D*2F
$PAIRLOG,Full*51
$GNGGA,215952.000,4910.424418,N,12304.398654,W,2,36,0.43,2.567,M,-16.816,M,,*48
$GNGLL,4910.424418,N,12304.398654,W,215952.000,A,D*5A
$GNGSA,A,3,30,07,14,08,13,22,05,09,27,20,,,0.80,0.43,0.68,1*00
$GNGSA,A,3,72,73,71,65,75,83,82,,,,,,0.80,0.43,0.68,2*04
$GNGSA,A,3,06,04,09,31,21,19,,,,,,,0.80,0.43,0.68,3*00
$GNGSA,A,3,23,37,20,32,43,11,08,38,34,13,19,25,0.80,0.43,0.68,4*0D
$GNGSA,A,3,12,,,,,,,,,,,,0.80,0.43,0.68,4*06
$GPGSV,3,1,11,30,79,306,39,07,61,090,36,14,47,225,34,08,37,068,33,1*6E
$GPGSV,3,2,11,46,33,188,32,13,29,310,35,22,26,225,31,05,22,285,30,1*60
$GPGSV,3,3,11,09,18,157,25,27,16,038,28,20,13,253,22,1*57
$GLGSV,2,1,07,72,62,263,33,73,51,048,34,71,34,189,33,65,23,329,30,1*79
$GLGSV,2,2,07,75,21,255,30,83,20,075,20,82,19,032,28,1*4F
$GAGSV,3,1,10,06,71,246,35,04,60,177,32,09,55,295,33,31,52,221,33,7*77
$GAGSV,3,2,10,21,19,053,25,19,08,147,22,05,07,317,22,15,04,005,24,7*7F
$GAGSV,3,3,10,13,03,053,19,24,02,229,21,7*73
$GBGSV,4,1,14,23,64,067,30,37,59,266,30,58,51,283,,20,44,283,29,1*7E
$GBGSV,4,2,14,32,34,207,26,43,23,098,24,11,22,075,16,08,22,330,19,1*76
$GBGSV,4,3,14,38,21,318,19,34,18,050,25,13,15,339,18,19,13,326,23,1*78
$GBGSV,4,4,14,25,12,076,24,12,08,024,19,1*75
$GNRMC,215952.000,A,4910.424418,N,12304.398654,W,0.02,196.10,291124,,,D,V*17
$GNVTG,196.10,T,,M,0.02,N,0.04,K,D*2F
$PAIRLOG,Full*51
$GNGGA,215953.000,4910.424484,N,12304.398648,W,2,36,0.43,2.594,M,-16.816,M,,*4D
$GNGLL,4910.424484,N,12304.398648,W,215953.000,A,D*53
$GNGSA,A,3,30,07,14,08,13,22,05,09,27,20,,,0.80,0.43,0.68,1*00
$GNGSA,A,3,72,73,71,65,75,83,82,,,,,,0.80,0.43,0.68,2*04
$GNGSA,A,3,06,04,09,31,21,19,,,,,,,0.80,0.43,0.68,3*00
$GNGSA,A,3,23,37,20,32,43,11,08,38,34,13,19,25,0.80,0.43,0.68,4*0D
$GNGSA,A,3,12,,,,,,,,,,,,0.80,0.43,0.68,4*06
$GPGSV,3,1,11,30,79,306,39,07,61,090,36,14,47,225,34,08,37,068,33,1*6E
$GPGSV,3,2,11,46,33,188,32,13,29,310,35,22,26,225,31,05,22,285,30,1*60
$GPGSV,3,3,11,09,18,157,26,27,16,038,28,20,13,253,22,1*54
$GLGSV,2,1,07,72,62,263,33,73,51,048,34,71,34,189,33,65,23,329,30,1*79
$GLGSV,2,2,07,75,21,255,30,83,20,075,20,82,19,032,28,1*4F
$GAGSV,3,1,10,06,71,246,35,04,60,177,32,09,55,295,33,31,52,221,33,7*77
$GAGSV,3,2,10,21,19,053,25,19,08,147,22,05,07,317,22,15,04,005,24,7*7F
$GAGSV,3,3,10,13,03,053,19,24,02,229,22,7*70
$GBGSV,4,1,14,23,64,067,30,37,59,266,31,58,51,283,,20,44,283,30,1*77
$GBGSV,4,2,14,32,34,207,27,43,23,098,24,11,22,075,17,08,22,330,19,1*76
$GBGSV,4,3,14,38,21,318,19,34,18,050,25,13,15,339,18,19,13,326,24,1*7F
$GBGSV,4,4,14,25,12,076,24,12,08,024,19,1*75
$GNRMC,215953.000,A,4910.424484,N,12304.398648,W,0.03,196.10,291124,,,D,V*1F
$GNVTG,196.10,T,,M,0.03,N,0.05,K,D*2F
$PAIRLOG,Full*51
$GNGGA,215954.000,4910.424478,N,12304.398582,W,2,36,0.43,2.679,M,-16.816,M,,*4C
$GNGLL,4910.424478,N,12304.398582,W,215954.000,A,D*52
$GNGSA,A,3,30,07,14,08,13,22,05,09,27,20,,,0.80,0.43,0.68,1*00
$GNGSA,A,3,72,73,71,65,75,83,82,,,,,,0.80,0.43,0.68,2*04
$GNGSA,A,3,06,04,09,31,21,19,,,,,,,0.80,0.43,0.68,3*00
$GNGSA,A,3,23,37,20,32,43,11,08,38,34,13,19,25,0.80,0.43,0.68,4*0D
$GNGSA,A,3,12,,,,,,,,,,,,0.80,0.43,0.68,4*06
$GPGSV,3,1,11,30,79,306,39,07,61,090,36,14,47,225,34,08,37,068,33,1*6E
$GPGSV,3,2,11,46,33,188,32,13,29,310,35,22,26,225,31,05,22,285,30,1*60
$GPGSV,3,3,11,09,18,157,25,27,16,038,28,20,13,253,22,1*57
$GLGSV,2,1,07,72,62,263,33,73,51,048,34,71,34,189,33,65,23,329,30,1*79
$GLGSV,2,2,07,75,21,255,30,83,20,075,20,82,19,032,29,1*4E
$GAGSV,3,1,10,06,71,246,35,04,60,177,32,09,55,295,33,31,52,221,33,7*77
$GAGSV,3,2,10,21,19,053,25,19,08,147,22,05,07,317,22,15,04,005,24,7*7F
$GAGSV,3,3,10,13,03,053,19,24,02,229,22,7*70
$GBGSV,4,1,14,23,64,067,31,37,59,266,31,58,51,283,,20,44,283,31,1*77
$GBGSV,4,2,14,32,34,207,27,43,23,098,26,11,22,075,16,08,22,330,20,1*7F
$GBGSV,4,3,14,38,21,318,20,34,18,050,26,13,15,339,19,19,13,326,24,1*77
$GBGSV,4,4,14,25,12,076,24,12,08,024,20,1*7F
$GNRMC,215954.000,A,4910.424478,N,12304.398582,W,0.03,196.10,291124,,,D,V*1E
$GNVTG,196.10,T,,M,0.03,N,0.05,K,D*2F
$PAIRLOG,Full*51
$GNGGA,215955.000,4910.424544,N,12304.398660,W,2,36,0.43,2.750,M,-16.817,M,,*47
$GNGLL,4910.424544,N,12304.398660,W,215955.000,A,D*52
$GNGSA,A,3,30,07,14,08,13,22,05,09,27,20,,,0.80,0.43,0.68,1*00
$GNGSA,A,3,72,73,71,65,75,83,82,,,,,,0.80,0.43,0.68,2*04
$GNGSA,A,3,06,04,09,31,21,19,,,,,,,0.80,0.43,0.68,3*00
$GNGSA,A,3,23,37,20,32,43,11,08,38,34,13,19,25,0.80,0.43,0.68,4*0D
$GNGSA,A,3,12,,,,,,,,,,,,0.80,0.43,0.68,4*06
$GPGSV,3,1,11,30,79,306,39,07,61,090,36,14,47,225,34,08,37,068,33,1*6E
$GPGSV,3,2,11,46,33,188,33,13,29,310,35,22,26,225,31,05,22,285,30,1*61
$GPGSV,3,3,11,09,18,157,27,27,16,038,28,20,13,253,23,1*54
$GLGSV,2,1,07,72,62,263,33,73,51,048,34,71,34,189,33,65,23,329,30,1*79
$GLGSV,2,2,07,75,21,255,30,83,20,075,20,82,19,032,29,1*4E
$GAGSV,3,1,10,06,71,246,35,04,60,177,32,09,55,295,33,31,52,221,33,7*77
$GAGSV,3,2,10,21,19,053,26,19,08,147,22,05,07,317,22,15,04,005,25,7*7D
$GAGSV,3,3,10,13,03,053,19,24,02,229,22,7*70
$GBGSV,4,1,14,23,64,067,31,37,59,266,31,58,51,283,,20,44,283,31,1*77
$GBGSV,4,2,14,32,34,207,27,43,23,098,27,11,22,075,16,08,22,330,21,1*7F
$GBGSV,4,3,14,38,21,318,20,34,18,050,26,13,15,339,19,19,13,326,24,1*77
$GBGSV,4,4,14,25,12,076,24,12,08,024,21,1*7E
$GNRMC,215955.000,A,4910.424544,N,12304.398660,W,0.03,196.10,291124,,,D,V*1E
$GNVTG,196.10,T,,M,0.03,N,0.05,K,D*2F
$PAIRLOG,Full*51
$GNGGA,215956.000,4910.424592,N,12304.398720,W,2,36,0.43,2.853,M,-16.817,M,,*46
$GNGLL,4910.424592,N,12304.398720,W,215956.000,A,D*5F
$GNGSA,A,3,30,07,14,08,13,22,05,09,27,20,,,0.80,0.43,0.68,1*00
$GNGSA,A,3,72,73,71,65,75,83,82,,,,,,0.80,0.43,0.68,2*04
$GNGSA,A,3,06,04,09,31,21,19,,,,,,,0.80,0.43,0.68,3*00
$GNGSA,A,3,23,37,20,32,43,11,08,38,34,13,19,25,0.80,0.43,0.68,4*0D
$GNGSA,A,3,12,,,,,,,,,,,,0.80,0.43,0.68,4*06
$GPGSV,3,1,11,30,79,306,39,07,61,090,36,14,47,225,34,08,37,068,33,1*6E
$GPGSV,3,2,11,46,33,188,33,13,29,310,35,22,26,225,31,05,22,285,30,1*61
$GPGSV,3,3,11,09,18,157,25,27,16,038,28,20,13,253,23,1*56
$GLGSV,2,1,07,72,62,263,33,73,51,048,34,71,34,189,33,65,23,329,30,1*79
$GLGSV,2,2,07,75,21,255,30,83,20,075,20,82,19,032,29,1*4E
$GAGSV,3,1,10,06,71,246,35,04,60,177,32,09,55,295,33,31,52,221,33,7*77
$GAGSV,3,2,10,21,19,053,26,19,08,147,21,05,07,317,22,15,04,005,24,7*7F
$GAGSV,3,3,10,13,03,053,19,24,02,229,21,7*73
$GBGSV,4,1,14,23,64,067,31,37,59,266,31,58,51,283,,20,44,283,31,1*77
$GBGSV,4,2,14,32,34,207,27,43,23,098,25,11,22,075,16,08,22,330,20,1*7C
$GBGSV,4,3,14,38,21,318,20,34,18,050,26,13,15,339,19,19,13,326,24,1*77
$GBGSV,4,4,14,25,12,076,24,12,08,024,21,1*7E
$GNRMC,215956.000,A,4910.424592,N,12304.398720,W,0.02,196.10,291124,,,D,V*12
$GNVTG,196.10,T,,M,0.02,N,0.04,K,D*2F
$PAIRLOG,Full*51
$GNGGA,215957.000,4910.424634,N,12304.398792,W,2,36,0.43,2.938,M,-16.816,M,,*4C
$GNGLL,4910.424634,N,12304.398792,W,215957.000,A,D*58
$GNGSA,A,3,30,07,14,08,13,22,05,09,27,20,,,0.80,0.43,0.68,1*00
$GNGSA,A,3,72,73,71,65,75,83,82,,,,,,0.80,0.43,0.68,2*04
$GNGSA,A,3,06,04,09,31,21,19,,,,,,,0.80,0.43,0.68,3*00
$GNGSA,A,3,23,37,20,32,43,11,08,38,34,13,19,25,0.80,0.43,0.68,4*0D
$GNGSA,A,3,12,,,,,,,,,,,,0.80,0.43,0.68,4*06
$GPGSV,3,1,11,30,79,306,39,07,61,090,36,14,47,225,34,08,37,068,33,1*6E
$GPGSV,3,2,11,46,33,188,32,13,29,310,35,22,26,225,31,05,22,285,30,1*60
$GPGSV,3,3,11,09,18,157,25,27,16,038,28,20,13,253,23,1*56
$GLGSV,2,1,07,72,62,263,33,73,51,048,34,71,34,189,33,65,23,329,30,1*79
$GLGSV,2,2,07,75,21,255,30,83,20,075,20,82,19,032,29,1*4E
$GAGSV,3,1,10,06,71,246,35,04,60,177,32,09,55,295,33,31,52,221,33,7*77
$GAGSV,3,2,10,21,19,053,26,19,08,147,21,05,07,317,22,15,04,005,25,7*7E
$GAGSV,3,3,10,13,03,053,19,24,02,229,22,7*70
$GBGSV,4,1,14,23,64,067,31,37,59,266,31,58,51,283,,20,44,283,31,1*77
$GBGSV,4,2,14,32,34,207,28,43,23,098,26,11,22,075,16,08,22,330,20,1*70
$GBGSV,4,3,14,38,21,318,20,34,18,050,26,13,15,339,19,19,13,326,25,1*76
$GBGSV,4,4,14,25,12,076,25,12,08,024,21,1*7F
$GNRMC,215957.000,A,4910.424634,N,12304.398792,W,0.02,196.10,291124,,,D,V*15
$GNVTG,196.10,T,,M,0.02,N,0.03,K,D*28
$PAIRLOG,Full*51
$GNGGA,215958.000,4910.424682,N,12304.398906,W,2,36,0.43,2.952,M,-16.816,M,,*41
$GNGLL,4910.424682,N,12304.398906,W,215958.000,A,D*59
$GNGSA,A,3,30,07,14,08,13,22,05,09,27,20,,,0.80,0.43,0.68,1*00
$GNGSA,A,3,72,73,71,65,75,83,82,,,,,,0.80,0.43,0.68,2*04
$GNGSA,A,3,06,04,09,31,21,19,,,,,,,0.80,0.43,0.68,3*00
$GNGSA,A,3,23,37,20,32,43,11,08,38,34,13,19,25,0.80,0.43,0.68,4*0D
$GNGSA,A,3,12,,,,,,,,,,,,0.80,0.43,0.68,4*06
$GPGSV,3,1,11,30,79,306,39,07,61,090,36,14,47,225,34,08,37,068,33,1*6E
$GPGSV,3,2,11,46,33,188,32,13,29,310,35,22,26,225,31,05,22,285,30,1*60
$GPGSV,3,3,11,09,18,157,25,27,16,038,27,20,13,253,23,1*59
$GLGSV,2,1,07,72,62,263,33,73,51,048,34,71,33,189,33,65,23,329,30,1*7E
$GLGSV,2,2,07,75,21,255,30,83,20,075,20,82,19,032,29,1*4E
$GAGSV,3,1,10,06,71,246,35,04,60,177,32,09,55,295,33,31,52,221,33,7*77
$GAGSV,3,2,10,21,19,053,26,19,08,147,21,05,07,317,22,15,04,005,25,7*7E
$GAGSV,3,3,10,13,03,053,19,24,02,229,22,7*70
$GBGSV,4,1,14,23,64,067,31,37,59,266,31,58,51,283,,20,44,283,31,1*77
$GBGSV,4,2,14,32,34,207,28,43,23,098,25,11,22,075,14,08,22,330,20,1*71
$GBGSV,4,3,14,38,21,318,20,34,18,050,26,13,15,339,19,19,13,326,24,1*77
$GBGSV,4,4,14,25,12,076,23,12,08,024,21,1*79
$GNRMC,215958.000,A,4910.424682,N,12304.398906,W,0.01,196.10,291124,,,D,V*17
$GNVTG,196.10,T,,M,0.01,N,0.02,K,D*2A
$PAIRLOG,Full*51
$GNGGA,215959.000,4910.424658,N,12304.399014,W,2,36,0.43,3.034,M,-16.817,M,,*45
$GNGLL,4910.424658,N,12304.399014,W,215959.000,A,D*54
$GNGSA,A,3,30,07,14,08,13,22,05,09,27,20,,,0.80,0.43,0.68,1*00
$GNGSA,A,3,72,73,71,65,75,83,82,,,,,,0.80,0.43,0.68,2*04
$GNGSA,A,3,06,04,09,31,21,19,,,,,,,0.80,0.43,0.68,3*00
$GNGSA,A,3,23,37,20,32,43,11,08,38,34,13,19,25,0.80,0.43,0.68,4*0D
$GNGSA,A,3,12,,,,,,,,,,,,0.80,0.43,0.68,4*06
$GPGSV,3,1,11,30,79,306,38,07,61,090,36,14,47,225,34,08,37,068,33,1*6F
$GPGSV,3,2,11,46,33,188,32,13,29,310,35,22,26,225,30,05,22,285,30,1*61
$GPGSV,3,3,11,09,18,157,25,27,16,038,27,20,13,253,23,1*59
$GLGSV,2,1,07,72,62,261,33,73,51,048,35,71,33,189,33,65,23,329,30,1*7D
$GLGSV,2,2,07,75,21,255,30,83,20,075,20,82,19,032,29,1*4E
$GAGSV,3,1,10,06,71,246,35,04,60,177,31,09,55,295,33,31,52,221,32,7*75
$GAGSV,3,2,10,21,19,053,26,19,08,147,21,05,07,317,22,15,04,005,25,7*7E
$GAGSV,3,3,10,13,03,053,19,24,02,229,21,7*73
$GBGSV,4,1,14,23,64,067,31,37,59,266,31,58,51,283,,20,44,283,31,1*77
$GBGSV,4,2,14,32,34,207,28,43,23,098,25,11,22,075,15,08,22,330,20,1*70
$GBGSV,4,3,14,38,21,318,20,34,18,050,26,13,15,339,19,19,13,326,23,1*70
$GBGSV,4,4,14,25,12,076,23,12,08,024,21,1*79
$GNRMC,215959.000,A,4910.424658,N,12304.399014,W,0.02,196.10,291124,,,D,V*19
$GNVTG,196.10,T,,M,0.02,N,0.03,K,D*28
$PAIRLOG,Full*51
$GNGGA,220000.000,4910.424706,N,12304.399074,W,2,36,0.43,3.112,M,-16.816,M,,*4E
$GNGLL,4910.424706,N,12304.399074,W,220000.000,A,D*5B
$GNGSA,A,3,30,07,14,08,13,22,05,09,27,20,,,0.80,0.43,0.68,1*00
$GNGSA,A,3,72,73,71,65,75,83,82,,,,,,0.80,0.43,0.68,2*04
$GNGSA,A,3,06,04,09,31,21,19,,,,,,,0.80,0.43,0.68,3*00
$GNGSA,A,3,23,37,20,32,43,11,08,38,34,13,19,25,0.80,0.43,0.68,4*0D
$GNGSA,A,3,12,,,,,,,,,,,,0.80,0.43,0.68,4*06
$GPGSV,3,1,11,30,79,306,38,07,61,090,36,14,47,225,34,08,37,068,33,1*6F
$GPGSV,3,2,11,46,33,188,31,13,29,310,35,22,26,225,30,05,22,285,30,1*62
$GPGSV,3,3,11,09,18,157,25,27,16,038,27,20,13,253,23,1*59
$GLGSV,2,1,07,72,62,261,33,73,50,048,35,71,33,189,33,65,23,329,30,1*7C
$GLGSV,2,2,07,75,21,255,31,83,20,075,20,82,19,032,30,1*47
$GAGSV,3,1,10,06,71,246,35,04,60,177,31,09,55,295,33,31,52,221,32,7*75
$GAGSV,3,2,10,21,19,053,25,19,08,147,20,05,07,317,21,15,04,005,25,7*7F
$GAGSV,3,3,10,13,03,053,19,24,02,229,21,7*73
$GBGSV,4,1,14,23,64,067,30,37,59,266,30,58,51,283,,20,44,283,30,1*76
$GBGSV,4,2,14,32,34,207,27,43,23,098,24,11,22,075,13,08,22,330,20,1*78
$GBGSV,4,3,14,38,21,318,20,34,18,050,25,13,15,339,18,19,13,326,22,1*73
$GBGSV,4,4,14,25,12,076,23,12,08,024,20,1*78
$GNRMC,220000.000,A,4910.424706,N,12304.399074,W,0.02,196.10,291124,,,D,V*16
$GNVTG,196.10,T,,M,0.02,N,0.04,K,D*2F
$PAIRLOG,Full*51
$GNGGA,220001.000,4910.424730,N,12304.399170,W,2,36,0.43,3.137,M,-16.816,M,,*48
$GNGLL,4910.424730,N,12304.399170,W,220001.000,A,D*5A
$GNGSA,A,3,30,07,14,08,13,22,05,09,27,20,,,0.80,0.43,0.68,1*00
$GNGSA,A,3,72,73,71,65,75,83,82,,,,,,0.80,0.43,0.68,2*04
$GNGSA,A,3,06,04,09,31,21,19,,,,,,,0.80,0.43,0.68,3*00
$GNGSA,A,3,23,37,20,32,43,11,08,38,34,13,19,25,0.80,0.43,0.68,4*0D
$GNGSA,A,3,12,,,,,,,,,,,,0.80,0.43,0.68,4*06
$GPGSV,3,1,11,30,79,306,38,07,61,090,36,14,47,225,34,08,37,068,33,1*6F
