$GNGGA,232340.000,4910.425858,N,12304.399020,W,2,36,0.43,4.462,M,-16.816,M,,*4B
$GNGLL,4910.425858,N,12304.399020,W,232340.000,A,D*5B
$GNGSA,A,3,14,22,30,13,17,15,07,02,21,08,19,23,0.84,0.43,0.72,1*0E
$GNGSA,A,3,75,65,84,72,83,73,,,,,,,0.84,0.43,0.72,2*0B
$GNGSA,A,3,31,09,06,05,24,04,26,13,,,,,0.84,0.43,0.72,3*01
$GNGSA,A,3,37,23,28,43,19,20,11,08,13,38,,,0.84,0.43,0.72,4*09
$GPGSV,4,1,13,14,85,279,33,22,63,250,32,30,62,120,32,13,56,273,32,1*67
$GPGSV,4,2,13,17,38,174,30,46,33,188,28,15,30,304,31,07,27,118,27,1*68
$GPGSV,4,3,13,02,19,088,21,21,19,068,18,08,13,041,20,19,11,190,25,1*6E
$GPGSV,4,4,13,23,05,340,19,1*5D
$GLGSV,2,1,07,75,53,296,41,65,43,286,35,84,32,103,24,72,26,215,24,1*76
$GLGSV,2,2,07,83,23,031,20,66,17,337,,73,16,078,26,1*4C
$GAGSV,3,1,09,31,81,261,31,09,58,238,29,06,47,199,27,05,31,310,24,7*70
$GAGSV,3,2,09,24,27,247,26,04,26,178,27,26,15,078,20,13,10,028,20,7*70
$GAGSV,3,3,09,33,03,123,18,7*40
$GBGSV,4,1,13,37,83,017,36,58,82,332,,23,33,090,31,28,31,136,29,1*75
$GBGSV,4,2,13,43,31,062,31,19,28,298,29,20,28,243,32,11,20,041,24,1*76
$GBGSV,4,3,13,08,17,317,21,13,14,327,25,38,12,306,24,27,05,172,19,1*7A
$GBGSV,4,4,13,34,03,025,24,1*41
$GNRMC,232340.000,A,4910.425858,N,12304.399020,W,0.02,196.10,291124,,,D,V*16
$GNVTG,196.10,T,,M,0.02,N,0.04,K,D*2F
$PAIRLOG,Full*51
$GNGGA,232341.000,4910.425906,N,12304.398984,W,2,36,0.43,4.433,M,-16.816,M,,*42
$GNGLL,4910.425906,N,12304.398984,W,232341.000,A,D*56
$GNGSA,A,3,14,22,30,13,17,15,07,02,21,08,19,23,0.84,0.43,0.72,1*0E
$GNGSA,A,3,75,65,84,72,83,73,,,,,,,0.84,0.43,0.72,2*0B
$GNGSA,A,3,31,09,06,05,24,04,26,13,,,,,0.84,0.43,0.72,3*01
$GNGSA,A,3,37,23,28,43,19,20,11,08,13,38,,,0.84,0.43,0.72,4*09
$GPGSV,4,1,13,14,85,279,33,22,63,250,32,30,62,120,32,13,56,273,32,1*67
$GPGSV,4,2,13,17,38,174,30,46,33,188,28,15,30,304,31,07,27,118,27,1*68
$GPGSV,4,3,13,02,19,088,21,21,19,068,19,08,13,041,20,19,11,190,25,1*6F
$GPGSV,4,4,13,23,05,340,19,1*5D
$GLGSV,2,1,07,75,53,296,41,65,43,286,35,84,32,103,25,72,26,215,24,1*77
$GLGSV,2,2,07,83,23,031,20,66,17,337,,73,16,078,26,1*4C
$GAGSV,3,1,09,31,81,261,31,09,58,238,29,06,47,199,27,05,32,310,24,7*73
$GAGSV,3,2,09,24,27,247,25,04,26,178,27,26,15,078,20,13,10,028,20,7*73
$GAGSV,3,3,09,33,03,123,18,7*40
$GBGSV,4,1,13,37,83,017,36,58,82,332,,23,33,090,31,28,31,136,29,1*75
$GBGSV,4,2,13,43,31,062,32,19,28,298,29,20,28,243,32,11,20,041,24,1*75
$GBGSV,4,3,13,08,17,317,21,13,14,327,25,38,12,306,25,27,05,172,19,1*7B
$GBGSV,4,4,13,34,03,025,24,1*41
$GNRMC,232341.000,A,4910.425906,N,12304.398984,W,0.02,196.10,291124,,,D,V*1B
$GNVTG,196.10,T,,M,0.02,N,0.03,K,D*28
$PAIRLOG,Full*51
$GNGGA,232342.000,4910.426002,N,12304.398960,W,2,36,0.43,4.439,M,-16.816,M,,*4F
$GNGLL,4910.426002,N,12304.398960,W,232342.000,A,D*51
$GNGSA,A,3,14,22,30,13,17,15,07,02,21,08,19,23,0.84,0.43,0.72,1*0E
$GNGSA,A,3,75,65,84,72,83,73,,,,,,,0.84,0.43,0.72,2*0B
$GNGSA,A,3,31,09,06,05,24,04,26,13,,,,,0.84,0.43,0.72,3*01
$GNGSA,A,3,37,23,28,43,19,20,11,08,13,38,,,0.84,0.43,0.72,4*09
$GPGSV,4,1,13,14,85,279,33,22,63,250,32,30,62,120,32,13,56,273,32,1*67
$GPGSV,4,2,13,17,38,174,30,46,33,188,28,15,30,304,31,07,27,118,27,1*68
$GPGSV,4,3,13,02,19,088,21,21,19,068,19,08,13,041,18,19,11,190,25,1*64
$GPGSV,4,4,13,23,05,340,18,1*5C
$GLGSV,2,1,07,75,53,296,41,65,43,286,35,84,32,103,23,72,26,215,24,1*71
$GLGSV,2,2,07,83,23,031,20,66,17,337,,73,16,078,26,1*4C
$GAGSV,3,1,09,31,81,261,31,09,58,238,29,06,46,199,27,05,32,310,24,7*72
$GAGSV,3,2,09,24,27,247,25,04,26,178,27,26,15,078,20,13,10,028,20,7*73
$GAGSV,3,3,09,33,03,123,18,7*40
$GBGSV,4,1,13,37,83,017,36,58,82,332,,23,33,090,31,28,31,136,29,1*75
$GBGSV,4,2,13,43,31,062,32,19,28,298,29,20,28,243,32,11,20,041,24,1*75
$GBGSV,4,3,13,08,17,317,21,13,14,327,25,38,12,306,24,27,05,172,19,1*7A
$GBGSV,4,4,13,34,03,025,24,1*41
$GNRMC,232342.000,A,4910.426002,N,12304.398960,W,0.02,196.10,291124,,,D,V*1C
$GNVTG,196.10,T,,M,0.02,N,0.04,K,D*2F
$PAIRLOG,Full*51
$GNGGA,232343.000,4910.426068,N,12304.398936,W,2,36,0.43,4.468,M,-16.816,M,,*45
$GNGLL,4910.426068,N,12304.398936,W,232343.000,A,D*5F
$GNGSA,A,3,14,22,30,13,17,15,07,02,21,08,19,23,0.84,0.43,0.72,1*0E
$GNGSA,A,3,75,65,84,72,83,73,,,,,,,0.84,0.43,0.72,2*0B
$GNGSA,A,3,31,09,06,05,24,04,26,13,,,,,0.84,0.43,0.72,3*01
$GNGSA,A,3,37,23,28,43,19,20,11,08,13,38,,,0.84,0.43,0.72,4*09
$GPGSV,4,1,13,14,85,279,33,22,63,250,32,30,62,120,31,13,56,273,32,1*64
$GPGSV,4,2,13,17,38,174,30,46,33,188,28,15,30,304,31,07,27,118,27,1*68
$GPGSV,4,3,13,02,19,088,22,21,19,068,20,08,13,041,19,19,11,190,25,1*6C
$GPGSV,4,4,13,23,05,340,18,1*5C
$GLGSV,2,1,07,75,53,296,41,65,43,286,35,84,32,103,24,72,26,215,24,1*76
$GLGSV,2,2,07,83,23,031,20,66,17,337,,73,16,078,27,1*4D
$GAGSV,3,1,09,31,81,261,31,09,58,238,29,06,46,199,27,05,32,310,23,7*75
$GAGSV,3,2,09,24,27,247,25,04,26,178,26,26,15,078,20,13,10,028,20,7*72
$GAGSV,3,3,09,33,03,123,18,7*40
$GBGSV,4,1,13,37,83,017,36,58,82,332,,23,33,090,31,28,31,136,28,1*74
$GBGSV,4,2,13,43,31,062,32,19,28,298,29,20,28,243,31,11,20,041,23,1*71
$GBGSV,4,3,13,08,17,317,21,13,14,327,25,38,12,306,24,27,05,172,19,1*7A
$GBGSV,4,4,13,34,03,025,24,1*41
$GNRMC,232343.000,A,4910.426068,N,12304.398936,W,0.02,196.10,291124,,,D,V*12
$GNVTG,196.10,T,,M,0.02,N,0.04,K,D*2F
$PAIRLOG,Full*51
$GNGGA,232344.000,4910.426152,N,12304.398888,W,2,36,0.43,4.467,M,-16.816,M,,*41
$GNGLL,4910.426152,N,12304.398888,W,232344.000,A,D*54
$GNGSA,A,3,14,22,30,13,17,15,07,02,21,08,19,23,0.84,0.43,0.72,1*0E
$GNGSA,A,3,75,65,84,72,83,73,,,,,,,0.84,0.43,0.72,2*0B
$GNGSA,A,3,31,09,06,05,24,04,26,13,,,,,0.84,0.43,0.72,3*01
$GNGSA,A,3,37,23,28,43,19,20,11,08,13,38,,,0.84,0.43,0.72,4*09
$GPGSV,4,1,13,14,85,279,32,22,63,250,32,30,62,120,31,13,56,273,32,1*65
$GPGSV,4,2,13,17,38,174,29,46,33,188,28,15,30,304,31,07,27,118,27,1*60
$GPGSV,4,3,13,02,19,088,23,21,19,068,21,08,13,041,20,19,11,190,24,1*67
$GPGSV,4,4,13,23,05,340,18,1*5C
$GLGSV,2,1,07,75,53,296,41,65,43,286,34,84,32,103,25,72,26,215,24,1*76
$GLGSV,2,2,07,83,23,031,20,66,17,337,,73,16,078,27,1*4D
$GAGSV,3,1,09,31,81,261,31,09,58,238,29,06,46,199,27,05,32,310,23,7*75
$GAGSV,3,2,09,24,27,247,25,04,26,178,26,26,15,078,20,13,10,028,20,7*72
$GAGSV,3,3,09,33,03,123,18,7*40
$GBGSV,4,1,13,37,83,017,36,58,82,332,,23,33,090,31,28,31,136,28,1*74
$GBGSV,4,2,13,43,31,062,32,19,28,298,29,20,28,243,31,11,20,041,23,1*71
$GBGSV,4,3,13,08,17,317,21,13,14,327,25,38,12,306,24,27,05,172,19,1*7A
$GBGSV,4,4,13,34,03,025,24,1*41
$GNRMC,232344.000,A,4910.426152,N,12304.398888,W,0.03,196.10,291124,,,D,V*18
$GNVTG,196.10,T,,M,0.03,N,0.05,K,D*2F
$PAIRLOG,Full*51
$GNGGA,232345.000,4910.426218,N,12304.398960,W,2,36,0.43,4.520,M,-16.817,M,,*49
$GNGLL,4910.426218,N,12304.398960,W,232345.000,A,D*5F
$GNGSA,A,3,14,22,30,13,17,15,07,02,21,08,19,23,0.84,0.43,0.72,1*0E
$GNGSA,A,3,75,65,84,72,83,73,,,,,,,0.84,0.43,0.72,2*0B
$GNGSA,A,3,31,09,06,05,24,04,26,13,,,,,0.84,0.43,0.72,3*01
$GNGSA,A,3,37,23,28,43,19,20,11,08,13,38,,,0.84,0.43,0.72,4*09
$GPGSV,4,1,13,14,85,279,32,22,63,250,32,30,62,120,31,13,56,273,32,1*65
$GPGSV,4,2,13,17,38,174,29,46,33,188,28,15,30,304,31,07,27,118,27,1*60
$GPGSV,4,3,13,02,19,088,24,21,19,068,21,08,13,041,19,19,11,190,24,1*6A
$GPGSV,4,4,13,23,05,340,18,1*5C
$GLGSV,2,1,07,75,53,296,41,65,43,286,34,84,32,103,24,72,26,215,23,1*70
$GLGSV,2,2,07,83,23,031,20,66,17,337,,73,16,078,27,1*4D
$GAGSV,3,1,09,31,81,261,31,09,57,236,29,06,46,199,27,05,32,310,23,7*74
$GAGSV,3,2,09,24,27,247,25,04,26,178,26,26,15,078,20,13,10,028,20,7*72
$GAGSV,3,3,09,33,03,123,18,7*40
$GBGSV,4,1,13,37,83,017,36,23,33,090,31,46,33,279,,28,31,136,28,1*7F
$GBGSV,4,2,13,43,31,062,32,19,28,298,29,20,28,243,31,11,20,041,23,1*71
$GBGSV,4,3,13,08,17,317,21,13,14,327,25,38,12,306,24,27,05,172,19,1*7A
$GBGSV,4,4,13,34,03,025,24,1*41
$GNRMC,232345.000,A,4910.426218,N,12304.398960,W,0.03,196.10,291124,,,D,V*13
$GNVTG,196.10,T,,M,0.03,N,0.06,K,D*2C
$PAIRLOG,Full*51
$GNGGA,232346.000,4910.426284,N,12304.398972,W,2,36,0.43,4.589,M,-16.816,M,,*4E
$GNGLL,4910.426284,N,12304.398972,W,232346.000,A,D*5A
$GNGSA,A,3,14,22,30,13,17,15,07,02,21,08,19,23,0.84,0.43,0.72,1*0E
$GNGSA,A,3,75,65,84,72,83,73,,,,,,,0.84,0.43,0.72,2*0B
$GNGSA,A,3,31,09,06,05,24,04,26,13,,,,,0.84,0.43,0.72,3*01
$GNGSA,A,3,37,23,28,43,19,20,11,08,13,38,,,0.84,0.43,0.72,4*09
$GPGSV,4,1,13,14,85,279,32,22,63,250,32,30,62,120,31,13,56,273,31,1*66
$GPGSV,4,2,13,17,38,174,28,46,33,188,28,15,30,304,31,07,27,118,27,1*61
$GPGSV,4,3,13,02,19,088,25,21,19,068,22,08,13,041,19,19,11,190,24,1*68
$GPGSV,4,4,13,23,05,340,18,1*5C
$GLGSV,2,1,07,75,53,296,40,65,43,286,34,84,32,103,24,72,26,215,23,1*71
$GLGSV,2,2,07,83,23,031,20,66,17,337,,73,16,078,27,1*4D
$GAGSV,3,1,09,31,81,261,31,09,57,236,29,06,46,199,27,05,32,310,23,7*74
$GAGSV,3,2,09,24,27,247,25,04,26,178,26,26,15,078,20,13,10,028,20,7*72
$GAGSV,3,3,09,33,03,123,18,7*40
$GBGSV,4,1,13,37,83,017,36,58,82,332,,23,33,090,31,28,31,136,28,1*74
$GBGSV,4,2,13,43,31,062,32,19,28,298,29,20,28,243,32,11,20,041,23,1*72
$GBGSV,4,3,13,08,17,317,21,13,14,327,25,38,12,306,24,27,05,172,19,1*7A
$GBGSV,4,4,13,34,03,025,24,1*41
$GNRMC,232346.000,A,4910.426284,N,12304.398972,W,0.03,196.10,291124,,,D,V*16
$GNVTG,196.10,T,,M,0.03,N,0.06,K,D*2C
$PAIRLOG,Full*51
$GNGGA,232347.000,4910.426302,N,12304.398930,W,2,36,0.43,4.588,M,-16.816,M,,*47
$GNGLL,4910.426302,N,12304.398930,W,232347.000,A,D*52
$GNGSA,A,3,14,22,30,13,17,15,07,02,21,08,19,23,0.84,0.43,0.72,1*0E
$GNGSA,A,3,75,65,84,72,83,73,,,,,,,0.84,0.43,0.72,2*0B
$GNGSA,A,3,31,09,06,05,24,04,26,13,,,,,0.84,0.43,0.72,3*01
$GNGSA,A,3,37,23,28,43,19,20,11,08,13,38,,,0.84,0.43,0.72,4*09
$GPGSV,4,1,13,14,85,279,32,22,63,250,31,30,62,120,31,13,56,273,31,1*65
$GPGSV,4,2,13,17,38,174,27,46,33,188,28,15,30,304,31,07,27,118,27,1*6E
$GPGSV,4,3,13,02,19,088,26,21,19,068,22,08,13,041,18,19,11,190,23,1*6D
$GPGSV,4,4,13,23,05,340,18,1*5C
$GLGSV,2,1,07,75,53,296,40,65,43,286,34,84,32,103,24,72,26,215,23,1*71
$GLGSV,2,2,07,83,23,031,20,66,17,337,,73,16,078,28,1*42
$GAGSV,3,1,09,31,81,261,31,09,57,236,28,06,46,199,27,05,32,310,23,7*75
$GAGSV,3,2,09,24,27,247,25,04,26,178,26,26,15,078,20,13,10,028,20,7*72
$GAGSV,3,3,09,33,03,123,18,7*40
$GBGSV,4,1,13,37,83,017,36,58,82,332,,23,33,090,31,28,31,136,28,1*74
$GBGSV,4,2,13,43,31,062,32,19,28,298,29,20,28,243,32,11,20,041,23,1*72
$GBGSV,4,3,13,08,17,317,20,13,14,327,25,38,12,306,24,27,05,172,19,1*7B
$GBGSV,4,4,13,34,03,025,23,1*46
$GNRMC,232347.000,A,4910.426302,N,12304.398930,W,0.03,196.10,291124,,,D,V*1E
$GNVTG,196.10,T,,M,0.03,N,0.05,K,D*2F
$PAIRLOG,Full*51
$GNGGA,232348.000,4910.426362,N,12304.398996,W,2,36,0.43,4.702,M,-16.816,M,,*42
$GNGLL,4910.426362,N,12304.398996,W,232348.000,A,D*57
$GNGSA,A,3,14,22,30,13,17,15,07,02,21,08,19,23,0.84,0.43,0.72,1*0E
$GNGSA,A,3,75,65,84,72,83,73,,,,,,,0.84,0.43,0.72,2*0B
$GNGSA,A,3,31,09,06,05,24,04,26,13,,,,,0.84,0.43,0.72,3*01
$GNGSA,A,3,37,23,28,43,19,20,11,08,13,38,,,0.84,0.43,0.72,4*09
$GPGSV,4,1,13,14,85,279,31,22,63,250,30,30,62,120,31,13,56,273,31,1*67
$GPGSV,4,2,13,17,38,174,27,46,33,188,28,15,30,304,31,07,27,118,26,1*6F
$GPGSV,4,3,13,02,19,088,26,21,19,068,22,08,13,041,18,19,11,190,23,1*6D
$GPGSV,4,4,13,23,05,340,17,1*53
$GLGSV,2,1,07,75,53,296,40,65,43,286,34,84,32,103,24,72,26,215,22,1*70
$GLGSV,2,2,07,83,23,031,20,66,17,337,,73,16,078,28,1*42
$GAGSV,3,1,09,31,81,261,31,09,57,236,28,06,46,199,27,05,32,310,23,7*75
$GAGSV,3,2,09,24,27,247,24,04,26,178,25,26,15,078,20,13,10,028,19,7*7A
$GAGSV,3,3,09,33,03,123,18,7*40
$GBGSV,4,1,13,37,83,017,35,58,82,332,,23,33,090,31,28,31,136,28,1*77
$GBGSV,4,2,13,43,31,062,32,19,28,298,29,20,28,243,32,11,20,041,23,1*72
$GBGSV,4,3,13,08,17,317,20,13,14,327,25,38,12,306,24,27,05,172,19,1*7B
$GBGSV,4,4,13,34,03,025,23,1*46
$GNRMC,232348.000,A,4910.426362,N,12304.398996,W,0.02,196.10,291124,,,D,V*1A
$GNVTG,196.10,T,,M,0.02,N,0.04,K,D*2F
$PAIRLOG,Full*51
$GNGGA,232349.000,4910.426410,N,12304.399032,W,2,36,0.43,4.865,M,-16.816,M,,*49
$GNGLL,4910.426410,N,12304.399032,W,232349.000,A,D*52
$GNGSA,A,3,14,22,30,13,17,15,07,02,21,08,19,23,0.84,0.43,0.72,1*0E
$GNGSA,A,3,75,65,84,72,83,73,,,,,,,0.84,0.43,0.72,2*0B
$GNGSA,A,3,31,09,06,05,24,04,26,13,,,,,0.84,0.43,0.72,3*01
$GNGSA,A,3,37,23,28,43,19,20,11,08,13,38,,,0.84,0.43,0.72,4*09
$GPGSV,4,1,13,14,85,279,31,22,63,250,30,30,62,120,31,13,56,273,31,1*67
$GPGSV,4,2,13,17,38,174,27,46,33,188,28,15,30,304,30,07,27,118,26,1*6E
$GPGSV,4,3,13,02,19,088,26,21,19,068,22,08,13,041,18,19,11,190,23,1*6D
$GPGSV,4,4,13,23,05,340,17,1*53
$GLGSV,2,1,07,75,53,296,40,65,43,286,34,84,32,103,24,72,26,215,22,1*70
$GLGSV,2,2,07,83,23,031,20,66,17,337,,73,16,078,29,1*43
$GAGSV,3,1,09,31,81,261,31,09,57,236,28,06,46,199,27,05,32,310,22,7*74
$GAGSV,3,2,09,24,27,247,24,04,26,178,25,26,15,078,20,13,10,027,19,7*75
$GAGSV,3,3,09,33,03,123,18,7*40
$GBGSV,4,1,13,37,83,017,35,58,82,332,,23,33,090,31,28,31,136,28,1*77
$GBGSV,4,2,13,43,31,062,32,19,28,298,29,20,28,243,32,11,20,041,23,1*72
$GBGSV,4,3,13,08,17,317,20,13,14,327,25,38,12,306,23,27,05,172,19,1*7C
$GBGSV,4,4,13,34,03,025,23,1*46
$GNRMC,232349.000,A,4910.426410,N,12304.399032,W,0.02,196.10,291124,,,D,V*1F
$GNVTG,196.10,T,,M,0.02,N,0.03,K,D*28
$PAIRLOG,Full*51
$GNGGA,232350.000,4910.426470,N,12304.399014,W,2,36,0.43,5.027,M,-16.816,M,,*4C
$GNGLL,4910.426470,N,12304.399014,W,232350.000,A,D*58
$GNGSA,A,3,14,22,30,13,17,15,07,02,21,08,19,23,0.84,0.43,0.72,1*0E
$GNGSA,A,3,75,65,84,72,83,73,,,,,,,0.84,0.43,0.72,2*0B
$GNGSA,A,3,31,09,06,05,24,04,26,13,,,,,0.84,0.43,0.72,3*01
$GNGSA,A,3,37,23,28,43,19,20,11,08,13,38,,,0.84,0.43,0.72,4*09
$GPGSV,4,1,13,14,85,279,31,22,63,250,30,30,62,120,31,13,56,273,31,1*67
$GPGSV,4,2,13,17,38,174,27,46,33,188,28,15,30,304,30,07,27,118,26,1*6E
$GPGSV,4,3,13,02,19,088,26,21,19,068,22,08,13,041,18,19,11,190,23,1*6D
$GPGSV,4,4,13,23,05,340,17,1*53
$GLGSV,2,1,07,75,53,296,40,65,43,286,34,84,32,103,24,72,26,215,22,1*70
$GLGSV,2,2,07,83,23,031,20,66,17,337,,73,16,078,29,1*43
$GAGSV,3,1,09,31,81,261,31,09,57,236,28,06,46,199,27,05,32,310,22,7*74
$GAGSV,3,2,09,24,27,247,24,04,26,178,25,26,15,078,20,13,10,027,19,7*75
$GAGSV,3,3,09,33,03,123,18,7*40
$GBGSV,4,1,13,37,83,017,35,58,82,332,,23,33,090,30,28,31,136,28,1*76
$GBGSV,4,2,13,43,31,062,32,19,28,298,29,20,28,243,32,11,20,041,23,1*72
$GBGSV,4,3,13,08,17,317,20,13,14,327,25,38,12,306,23,27,05,172,20,1*76
$GBGSV,4,4,13,34,03,025,23,1*46
$GNRMC,232350.000,A,4910.426470,N,12304.399014,W,0.02,196.10,291124,,,D,V*15
$GNVTG,196.10,T,,M,0.02,N,0.03,K,D*28
$PAIRLOG,Full*51
$GNGGA,232351.000,4910.426530,N,12304.399122,W,2,36,0.43,5.212,M,-16.817,M,,*49
$GNGLL,4910.426530,N,12304.399122,W,232351.000,A,D*58
$GNGSA,A,3,14,22,30,13,17,15,07,02,21,08,19,23,0.84,0.43,0.72,1*0E
$GNGSA,A,3,75,65,84,72,83,73,,,,,,,0.84,0.43,0.72,2*0B
$GNGSA,A,3,31,09,06,05,24,04,26,13,,,,,0.84,0.43,0.72,3*01
$GNGSA,A,3,37,23,28,43,19,20,11,08,13,38,,,0.84,0.43,0.72,4*09
$GPGSV,4,1,13,14,85,279,31,22,63,250,30,30,62,120,31,13,56,273,31,1*67
$GPGSV,4,2,13,17,38,174,27,46,33,188,28,15,30,304,30,07,27,118,26,1*6E
$GPGSV,4,3,13,02,19,088,26,21,19,068,22,08,13,041,18,19,11,190,23,1*6D
$GPGSV,4,4,13,23,05,340,16,1*52
$GLGSV,2,1,07,75,53,296,40,65,43,286,34,84,32,103,24,72,26,215,22,1*70
$GLGSV,2,2,07,83,23,031,20,66,17,337,,73,16,078,29,1*43
$GAGSV,3,1,09,31,81,261,31,09,57,236,28,06,46,199,26,05,32,310,22,7*75
$GAGSV,3,2,09,24,27,247,24,04,26,178,25,26,15,078,20,13,10,027,19,7*75
$GAGSV,3,3,09,33,03,123,18,7*40
$GBGSV,4,1,13,37,83,017,35,58,82,332,,23,33,090,30,28,31,136,29,1*77
$GBGSV,4,2,13,43,31,062,32,19,28,298,30,20,28,243,32,11,20,041,23,1*7A
$GBGSV,4,3,13,08,17,317,20,13,14,327,25,38,12,306,23,27,05,172,20,1*76
$GBGSV,4,4,13,34,03,025,23,1*46
$GNRMC,232351.000,A,4910.426530,N,12304.399122,W,0.02,196.10,291124,,,D,V*15
$GNVTG,196.10,T,,M,0.02,N,0.03,K,D*28
$PAIRLOG,Full*51
$GNGGA,232352.000,4910.426632,N,12304.399122,W,2,36,0.43,5.283,M,-16.816,M,,*42
$GNGLL,4910.426632,N,12304.399122,W,232352.000,A,D*5A
$GNGSA,A,3,14,22,30,13,17,15,07,02,21,08,19,23,0.84,0.43,0.72,1*0E
$GNGSA,A,3,75,65,84,72,83,73,,,,,,,0.84,0.43,0.72,2*0B
$GNGSA,A,3,31,09,06,05,24,04,26,13,,,,,0.84,0.43,0.72,3*01
$GNGSA,A,3,37,23,28,43,19,20,11,08,13,38,,,0.84,0.43,0.72,4*09
$GPGSV,4,1,13,14,85,279,31,22,63,250,30,30,62,120,31,13,56,273,31,1*67
$GPGSV,4,2,13,17,38,174,27,46,33,188,28,15,30,304,30,07,27,118,26,1*6E
$GPGSV,4,3,13,02,19,088,26,21,19,068,22,08,13,041,18,19,11,190,23,1*6D
$GPGSV,4,4,13,23,05,340,16,1*52
$GLGSV,2,1,07,75,53,296,40,65,43,286,34,84,32,103,24,72,26,215,22,1*70
$GLGSV,2,2,07,83,23,031,20,66,17,337,,73,16,078,30,1*4B
$GAGSV,3,1,09,31,81,261,31,09,57,236,28,06,46,199,26,05,32,310,22,7*75
$GAGSV,3,2,09,24,27,247,24,04,26,178,25,26,15,078,21,13,10,027,19,7*74
$GAGSV,3,3,09,33,03,123,18,7*40
$GBGSV,4,1,13,37,83,017,35,58,82,332,,23,33,090,30,28,31,136,29,1*77
$GBGSV,4,2,13,43,31,062,32,19,28,298,30,20,28,243,32,11,20,041,23,1*7A
$GBGSV,4,3,13,08,17,317,20,13,14,327,25,38,12,306,23,27,05,172,20,1*76
$GBGSV,4,4,13,34,03,025,23,1*46
$GNRMC,232352.000,A,4910.426632,N,12304.399122,W,0.02,196.10,291124,,,D,V*17
$GNVTG,196.10,T,,M,0.02,N,0.04,K,D*2F
$PAIRLOG,Full*51
$GNGGA,232353.000,4910.426680,N,12304.399128,W,2,36,0.43,5.322,M,-16.816,M,,*4A
$GNGLL,4910.426680,N,12304.399128,W,232353.000,A,D*58
$GNGSA,A,3,14,22,30,13,17,15,07,02,21,08,19,23,0.84,0.43,0.72,1*0E
$GNGSA,A,3,75,65,84,72,83,73,,,,,,,0.84,0.43,0.72,2*0B
$GNGSA,A,3,31,09,06,05,24,04,26,13,,,,,0.84,0.43,0.72,3*01
$GNGSA,A,3,37,23,28,43,19,20,11,08,13,38,,,0.84,0.43,0.72,4*09
$GPGSV,4,1,13,14,85,279,32,22,63,250,30,30,62,120,31,13,56,273,31,1*64
$GPGSV,4,2,13,17,38,174,27,46,33,188,28,15,30,304,30,07,27,118,26,1*6E
$GPGSV,4,3,13,02,19,088,26,21,19,068,22,08,13,041,18,19,11,190,23,1*6D
$GPGSV,4,4,13,23,05,340,16,1*52
$GLGSV,2,1,07,75,53,296,40,65,43,286,34,84,32,103,24,72,26,215,22,1*70
$GLGSV,2,2,07,83,23,031,20,66,17,337,,73,16,078,30,1*4B
$GAGSV,3,1,09,31,81,261,31,09,57,236,28,06,46,199,26,05,32,310,22,7*75
$GAGSV,3,2,09,24,27,247,24,04,26,178,25,26,15,078,21,13,10,027,19,7*74
$GAGSV,3,3,09,33,03,123,18,7*40
$GBGSV,4,1,13,37,83,017,35,58,82,332,,23,33,090,30,28,31,136,29,1*77
$GBGSV,4,2,13,43,31,062,32,19,28,298,30,20,28,243,32,11,20,041,23,1*7A
$GBGSV,4,3,13,08,17,317,20,13,14,327,25,38,12,306,23,27,05,172,20,1*76
$GBGSV,4,4,13,34,03,025,23,1*46
$GNRMC,232353.000,A,4910.426680,N,12304.399128,W,0.03,196.10,291124,,,D,V*14
$GNVTG,196.10,T,,M,0.03,N,0.05,K,D*2F
$PAIRLOG,Full*51
$GNGGA,232354.000,4910.426692,N,12304.399020,W,2,36,0.43,5.334,M,-16.817,M,,*41
$GNGLL,4910.426692,N,12304.399020,W,232354.000,A,D*55
$GNGSA,A,3,14,22,30,13,17,15,07,02,21,08,19,23,0.84,0.43,0.72,1*0E
$GNGSA,A,3,75,65,84,72,83,73,,,,,,,0.84,0.43,0.72,2*0B
$GNGSA,A,3,31,09,06,05,24,04,26,13,,,,,0.84,0.43,0.72,3*01
$GNGSA,A,3,37,23,28,43,19,20,11,08,13,38,,,0.84,0.43,0.72,4*09
$GPGSV,4,1,13,14,85,279,32,22,63,250,30,30,62,120,30,13,56,273,31,1*65
$GPGSV,4,2,13,17,38,174,27,46,33,188,28,15,30,304,30,07,27,118,26,1*6E
$GPGSV,4,3,13,02,19,088,26,21,19,068,22,08,13,041,18,19,11,190,23,1*6D
$GPGSV,4,4,13,23,05,340,16,1*52
$GLGSV,2,1,07,75,53,296,40,65,43,286,34,84,32,103,24,72,26,215,22,1*70
$GLGSV,2,2,07,83,23,031,20,66,17,337,,73,16,078,30,1*4B
$GAGSV,3,1,09,31,81,261,31,09,57,236,28,06,46,199,26,05,32,310,21,7*76
$GAGSV,3,2,09,24,27,247,24,04,26,178,25,26,15,078,21,13,10,027,19,7*74
$GAGSV,3,3,09,33,03,123,18,7*40
$GBGSV,4,1,13,37,83,017,35,58,82,332,,23,33,090,30,28,31,136,29,1*77
$GBGSV,4,2,13,43,31,062,32,19,28,298,30,20,28,243,32,11,20,041,23,1*7A
$GBGSV,4,3,13,08,17,317,20,13,14,327,25,38,12,306,23,27,05,172,20,1*76
$GBGSV,4,4,13,34,03,025,23,1*46
$GNRMC,232354.000,A,4910.426692,N,12304.399020,W,0.03,196.10,291124,,,D,V*19
$GNVTG,196.10,T,,M,0.03,N,0.05,K,D*2F
$PAIRLOG,Full*51
$GNGGA,232355.000,4910.426740,N,12304.398882,W,2,36,0.43,5.262,M,-16.817,M,,*4D
$GNGLL,4910.426740,N,12304.398882,W,232355.000,A,D*5B
$GNGSA,A,3,14,22,30,13,17,15,07,02,21,08,19,23,0.84,0.43,0.72,1*0E
$GNGSA,A,3,75,65,84,72,83,73,,,,,,,0.84,0.43,0.72,2*0B
$GNGSA,A,3,31,09,06,05,24,04,26,13,,,,,0.84,0.43,0.72,3*01
$GNGSA,A,3,37,23,28,43,19,20,11,08,13,38,,,0.84,0.43,0.72,4*09
$GPGSV,4,1,13,14,85,279,32,22,63,250,30,30,62,120,30,13,56,273,31,1*65
$GPGSV,4,2,13,17,38,174,27,46,33,188,28,15,30,304,30,07,27,118,26,1*6E
$GPGSV,4,3,13,02,19,088,26,21,19,068,22,08,13,041,19,19,11,190,23,1*6C
$GPGSV,4,4,13,23,05,340,16,1*52
$GLGSV,2,1,07,75,53,296,40,65,43,286,34,84,32,103,24,72,26,215,22,1*70
$GLGSV,2,2,07,83,23,031,20,66,17,337,,73,16,078,30,1*4B
$GAGSV,3,1,09,31,81,261,31,09,57,236,28,06,46,199,26,05,32,310,21,7*76
$GAGSV,3,2,09,24,27,247,24,04,26,178,25,26,15,078,21,13,10,027,19,7*74
$GAGSV,3,3,09,33,03,123,18,7*40
$GBGSV,4,1,13,37,83,017,35,58,82,332,,23,33,090,31,28,31,136,29,1*76
$GBGSV,4,2,13,43,31,062,32,19,28,298,30,20,28,243,32,11,20,041,23,1*7A
$GBGSV,4,3,13,08,17,317,20,13,14,327,25,38,12,306,23,27,05,172,20,1*76
$GBGSV,4,4,13,34,03,025,23,1*46
$GNRMC,232355.000,A,4910.426740,N,12304.398882,W,0.03,196.10,291124,,,D,V*17
$GNVTG,196.10,T,,M,0.03,N,0.05,K,D*2F
$PAIRLOG,Full*51
$GNGGA,232356.000,4910.426728,N,12304.398750,W,2,36,0.43,5.247,M,-16.817,M,,*47
$GNGLL,4910.426728,N,12304.398750,W,232356.000,A,D*56
$GNGSA,A,3,14,22,30,13,17,15,07,02,21,08,19,23,0.84,0.43,0.72,1*0E
$GNGSA,A,3,75,65,84,72,83,73,,,,,,,0.84,0.43,0.72,2*0B
$GNGSA,A,3,31,09,06,05,24,04,26,13,,,,,0.84,0.43,0.72,3*01
$GNGSA,A,3,37,23,28,43,19,20,11,08,13,38,,,0.84,0.43,0.72,4*09
$GPGSV,4,1,13,14,85,279,32,22,63,250,30,30,62,120,30,13,56,273,30,1*64
$GPGSV,4,2,13,17,38,174,26,46,33,188,28,15,30,304,30,07,27,118,26,1*6F
$GPGSV,4,3,13,02,19,088,26,21,19,068,22,08,13,041,19,19,11,190,23,1*6C
$GPGSV,4,4,13,23,05,340,16,1*52
$GLGSV,2,1,07,75,53,296,40,65,43,286,34,84,32,103,24,72,26,215,22,1*70
$GLGSV,2,2,07,83,23,031,21,66,17,337,,73,16,078,30,1*4A
$GAGSV,3,1,09,31,81,261,31,09,57,236,28,06,46,199,26,05,32,310,21,7*76
$GAGSV,3,2,09,24,27,247,24,04,26,178,25,26,15,078,21,13,10,027,19,7*74
$GAGSV,3,3,09,33,03,123,17,7*4F
$GBGSV,4,1,13,37,83,017,35,58,82,332,,23,33,090,31,28,31,136,29,1*76
$GBGSV,4,2,13,43,31,062,32,19,28,298,30,20,28,243,32,11,20,041,23,1*7A
$GBGSV,4,3,13,08,17,317,20,13,14,327,25,38,12,306,23,27,05,172,20,1*76
$GBGSV,4,4,13,34,03,025,23,1*46
$GNRMC,232356.000,A,4910.426728,N,12304.398750,W,0.03,196.10,291124,,,D,V*1A
$GNVTG,196.10,T,,M,0.03,N,0.05,K,D*2F
$PAIRLOG,Full*51
$GNGGA,232357.000,4910.426758,N,12304.398660,W,2,36,0.43,5.216,M,-16.817,M,,*47
$GNGLL,4910.426758,N,12304.398660,W,232357.000,A,D*52
$GNGSA,A,3,14,22,30,13,17,15,07,02,21,08,19,23,0.84,0.43,0.72,1*0E
$GNGSA,A,3,75,65,84,72,83,73,,,,,,,0.84,0.43,0.72,2*0B
$GNGSA,A,3,31,09,06,05,24,04,26,13,,,,,0.84,0.43,0.72,3*01
$GNGSA,A,3,37,23,28,43,19,20,11,08,13,38,,,0.84,0.43,0.72,4*09
$GPGSV,4,1,13,14,85,279,32,22,63,250,30,30,62,120,30,13,56,273,30,1*64
$GPGSV,4,2,13,17,38,174,25,46,33,188,28,15,30,304,30,07,27,118,26,1*6C
$GPGSV,4,3,13,02,19,088,27,21,19,068,21,08,13,041,19,19,11,190,23,1*6E
$GPGSV,4,4,13,23,05,340,16,1*52
$GLGSV,2,1,07,75,53,296,40,65,43,286,34,84,32,103,25,72,26,215,22,1*71
$GLGSV,2,2,07,83,23,031,21,66,17,337,,73,16,078,30,1*4A
$GAGSV,3,1,09,31,81,261,31,09,57,236,28,06,46,199,26,05,32,310,21,7*76
$GAGSV,3,2,09,24,27,247,24,04,26,178,25,26,15,078,21,13,10,027,19,7*74
$GAGSV,3,3,09,33,03,123,17,7*4F
$GBGSV,4,1,13,37,83,017,35,58,82,332,,23,33,090,31,28,31,136,29,1*76
$GBGSV,4,2,13,43,31,062,32,19,28,298,30,20,28,243,32,11,20,041,23,1*7A
$GBGSV,4,3,13,08,17,317,20,13,14,327,24,38,12,306,23,27,05,172,20,1*77
$GBGSV,4,4,13,34,03,025,24,1*41
$GNRMC,232357.000,A,4910.426758,N,12304.398660,W,0.03,196.10,291124,,,D,V*1E
$GNVTG,196.10,T,,M,0.03,N,0.05,K,D*2F
$PAIRLOG,Full*51
$GNGGA,232358.000,4910.426806,N,12304.398558,W,2,36,0.43,5.236,M,-16.816,M,,*47
$GNGLL,4910.426806,N,12304.398558,W,232358.000,A,D*51
$GNGSA,A,3,14,22,30,13,17,15,07,02,21,08,19,23,0.84,0.43,0.72,1*0E
$GNGSA,A,3,75,65,84,72,83,73,,,,,,,0.84,0.43,0.72,2*0B
$GNGSA,A,3,31,09,06,05,24,04,26,13,,,,,0.84,0.43,0.72,3*01
$GNGSA,A,3,37,23,28,43,19,20,11,08,13,38,,,0.84,0.43,0.72,4*09
$GPGSV,4,1,13,14,85,279,32,22,63,250,30,30,62,120,30,13,56,273,30,1*64
$GPGSV,4,2,13,17,38,174,25,46,33,188,28,15,30,304,30,07,27,118,26,1*6C
$GPGSV,4,3,13,02,19,088,27,21,19,068,21,08,13,041,19,19,11,190,23,1*6E
$GPGSV,4,4,13,23,05,340,16,1*52
$GLGSV,2,1,07,75,53,296,40,65,43,286,34,84,32,103,25,72,26,215,22,1*71
$GLGSV,2,2,07,83,23,031,21,66,17,337,,73,16,078,30,1*4A
$GAGSV,3,1,09,31,81,261,31,09,57,236,28,06,46,199,26,05,32,310,21,7*76
$GAGSV,3,2,09,24,27,247,24,04,26,178,25,26,15,078,21,13,10,027,19,7*74
$GAGSV,3,3,09,33,03,123,17,7*4F
$GBGSV,4,1,13,37,83,017,35,58,82,332,,23,33,090,31,28,31,136,29,1*76
$GBGSV,4,2,13,43,31,062,32,19,28,298,30,20,28,243,32,11,20,041,23,1*7A
$GBGSV,4,3,13,08,17,317,20,13,14,327,24,38,12,306,23,27,05,172,20,1*77
$GBGSV,4,4,13,34,03,025,24,1*41
$GNRMC,232358.000,A,4910.426806,N,12304.398558,W,0.02,196.10,291124,,,D,V*1C
$GNVTG,196.10,T,,M,0.02,N,0.04,K,D*2F
$PAIRLOG,Full*51
$GNGGA,232359.000,4910.426824,N,12304.398468,W,2,36,0.43,5.200,M,-16.817,M,,*40
$GNGLL,4910.426824,N,12304.398468,W,232359.000,A,D*52
$GNGSA,A,3,14,22,30,13,17,15,07,02,21,08,19,23,0.84,0.43,0.72,1*0E
$GNGSA,A,3,75,65,84,72,83,73,,,,,,,0.84,0.43,0.72,2*0B
$GNGSA,A,3,31,09,06,05,24,04,26,13,,,,,0.84,0.43,0.72,3*01
$GNGSA,A,3,37,23,28,43,19,20,11,08,13,38,,,0.84,0.43,0.72,4*09
$GPGSV,4,1,13,14,85,279,32,22,63,250,30,30,62,120,30,13,56,273,30,1*64
$GPGSV,4,2,13,17,38,174,26,46,33,188,28,15,30,304,30,07,27,118,25,1*6C
$GPGSV,4,3,13,02,19,088,28,21,19,068,21,08,13,041,19,19,11,190,23,1*61
$GPGSV,4,4,13,23,05,340,16,1*52
$GLGSV,2,1,07,75,53,296,40,65,43,286,34,84,32,103,25,72,26,215,23,1*70
$GLGSV,2,2,07,83,23,031,21,66,17,337,,73,16,078,30,1*4A
$GAGSV,3,1,09,31,81,261,31,09,57,236,28,06,46,199,26,05,32,310,21,7*76
$GAGSV,3,2,09,24,27,247,24,04,26,178,25,26,15,078,21,13,10,027,19,7*74
$GAGSV,3,3,09,33,03,123,17,7*4F
$GBGSV,4,1,13,37,83,017,35,58,82,332,,23,33,090,31,28,31,136,30,1*7E
$GBGSV,4,2,13,43,31,062,32,19,28,298,30,20,28,243,32,11,20,041,23,1*7A
$GBGSV,4,3,13,08,17,317,20,13,14,327,25,38,12,306,23,27,05,172,20,1*76
$GBGSV,4,4,13,34,03,025,24,1*41
$GNRMC,232359.000,A,4910.426824,N,12304.398468,W,0.02,196.10,291124,,,D,V*1F
$GNVTG,196.10,T,,M,0.02,N,0.04,K,D*2F
$PAIRLOG,Full*51
$GNGGA,232400.000,4910.426902,N,12304.398342,W,2,36,0.43,5.181,M,-16.816,M,,*4A
$GNGLL,4910.426902,N,12304.398342,W,232400.000,A,D*53
$GNGSA,A,3,14,22,30,13,17,15,07,02,21,08,19,23,0.84,0.43,0.72,1*0E
$GNGSA,A,3,75,65,84,72,83,73,,,,,,,0.84,0.43,0.72,2*0B
$GNGSA,A,3,31,09,06,05,24,04,26,13,,,,,0.84,0.43,0.72,3*01
$GNGSA,A,3,37,23,28,43,19,20,11,08,13,38,,,0.84,0.43,0.72,4*09
$GPGSV,4,1,13,14,85,279,32,22,63,250,30,30,62,120,30,13,56,273,30,1*64
$GPGSV,4,2,13,17,38,174,27,46,33,188,28,15,30,304,30,07,27,118,25,1*6D
$GPGSV,4,3,13,02,19,088,28,21,19,068,21,08,13,041,19,19,11,190,23,1*61
$GPGSV,4,4,13,23,05,340,16,1*52
$GLGSV,2,1,07,75,53,296,40,65,43,286,34,84,32,103,25,72,26,215,23,1*70
$GLGSV,2,2,07,83,23,031,21,66,17,337,,73,16,078,30,1*4A
$GAGSV,3,1,09,31,81,261,31,09,57,236,28,06,46,199,26,05,32,310,21,7*76
$GAGSV,3,2,09,24,28,247,24,04,26,178,25,26,15,078,22,13,10,027,19,7*78
$GAGSV,3,3,09,33,03,123,18,7*40
$GBGSV,4,1,13,37,83,017,35,58,82,332,,23,33,090,31,28,31,136,30,1*7E
$GBGSV,4,2,13,43,31,062,32,19,28,298,30,20,28,243,32,11,20,041,23,1*7A
$GBGSV,4,3,13,08,17,317,20,13,14,327,25,38,12,306,23,27,05,172,20,1*76
$GBGSV,4,4,13,34,03,025,24,1*41
$GNRMC,232400.000,A,4910.426902,N,12304.398342,W,0.02,196.10,291124,,,D,V*1E
$GNVTG,196.10,T,,M,0.02,N,0.03,K,D*28
$PAIRLOG,Full*51
$GNGGA,232401.000,4910.426956,N,12304.398156,W,2,36,0.43,5.099,M,-16.816,M,,*45
$GNGLL,4910.426956,N,12304.398156,W,232401.000,A,D*54
$GNGSA,A,3,14,22,30,13,17,15,07,02,21,08,19,23,0.84,0.43,0.72,1*0E
$GNGSA,A,3,75,65,84,72,83,73,,,,,,,0.84,0.43,0.72,2*0B
$GNGSA,A,3,31,09,06,05,24,04,26,13,,,,,0.84,0.43,0.72,3*01
$GNGSA,A,3,37,23,28,43,19,20,11,08,13,38,,,0.84,0.43,0.72,4*09
$GPGSV,4,1,13,14,85,279,32,22,63,250,31,30,62,120,30,13,56,273,30,1*65
$GPGSV,4,2,13,17,38,174,27,46,33,188,28,15,30,304,30,07,27,118,25,1*6D
$GPGSV,4,3,13,02,19,088,29,21,19,068,21,08,13,041,20,19,11,190,23,1*6A
$GPGSV,4,4,13,23,05,340,16,1*52
$GLGSV,2,1,07,75,53,296,40,65,43,286,34,84,32,103,25,72,26,215,23,1*70
$GLGSV,2,2,07,83,23,031,20,66,17,337,,73,16,078,30,1*4B
$GAGSV,3,1,09,31,81,261,31,09,57,236,28,06,46,199,26,05,32,310,21,7*76
$GAGSV,3,2,09,24,28,247,24,04,26,178,25,26,15,078,22,13,10,027,19,7*78
$GAGSV,3,3,09,33,03,123,18,7*40
$GBGSV,4,1,13,37,83,017,35,58,82,332,,23,33,090,31,28,31,136,30,1*7E
$GBGSV,4,2,13,43,31,062,32,19,28,298,30,20,28,243,32,11,20,041,23,1*7A
$GBGSV,4,3,13,08,17,317,21,13,14,327,25,38,12,306,23,27,05,172,20,1*77
$GBGSV,4,4,13,34,03,025,24,1*41
$GNRMC,232401.000,A,4910.426956,N,12304.398156,W,0.02,196.10,291124,,,D,V*19
$GNVTG,196.10,T,,M,0.02,N,0.04,K,D*2F
$PAIRLOG,Full*51
$GNGGA,232402.000,4910.427076,N,12304.398042,W,2,36,0.43,4.910,M,-16.816,M,,*41
$GNGLL,4910.427076,N,12304.398042,W,232402.000,A,D*59
$GNGSA,A,3,14,22,30,13,17,15,07,02,21,08,19,23,0.84,0.43,0.72,1*0E
$GNGSA,A,3,75,65,84,72,83,73,,,,,,,0.84,0.43,0.72,2*0B
$GNGSA,A,3,31,09,06,05,24,04,26,13,,,,,0.84,0.43,0.72,3*01
$GNGSA,A,3,37,23,28,43,19,20,11,08,13,38,,,0.84,0.43,0.72,4*09
$GPGSV,4,1,13,14,85,279,33,22,63,250,31,30,62,120,30,13,56,273,31,1*65
$GPGSV,4,2,13,17,38,174,26,46,33,188,28,15,30,304,30,07,27,118,25,1*6C
$GPGSV,4,3,13,02,19,088,29,21,19,068,21,08,13,041,21,19,11,190,23,1*6B
$GPGSV,4,4,13,23,05,340,16,1*52
$GLGSV,2,1,07,75,53,296,40,65,43,286,34,84,32,103,24,72,26,215,23,1*71
$GLGSV,2,2,07,83,23,031,20,66,17,337,,73,16,078,30,1*4B
$GAGSV,3,1,09,31,81,261,31,09,57,236,28,06,46,199,26,05,32,310,21,7*76
$GAGSV,3,2,09,24,28,247,24,04,26,178,24,26,15,077,23,13,10,027,19,7*77
$GAGSV,3,3,09,33,03,123,18,7*40
$GBGSV,4,1,13,37,83,017,35,58,82,332,,23,33,090,31,28,31,136,30,1*7E
$GBGSV,4,2,13,43,31,062,32,19,28,298,30,20,28,243,32,11,20,041,23,1*7A
$GBGSV,4,3,13,08,17,317,21,13,14,327,25,38,12,306,23,27,05,172,20,1*77
$GBGSV,4,4,13,34,03,025,24,1*41
$GNRMC,232402.000,A,4910.427076,N,12304.398042,W,0.02,196.10,291124,,,D,V*14
$GNVTG,196.10,T,,M,0.02,N,0.04,K,D*2F
$PAIRLOG,Full*51
$GNGGA,232403.000,4910.427136,N,12304.397940,W,2,36,0.43,4.693,M,-16.816,M,,*45
$GNGLL,4910.427136,N,12304.397940,W,232403.000,A,D*59
$GNGSA,A,3,14,22,30,13,17,15,07,02,21,08,19,23,0.84,0.43,0.72,1*0E
$GNGSA,A,3,75,65,84,72,83,73,,,,,,,0.84,0.43,0.72,2*0B
$GNGSA,A,3,31,09,06,05,24,04,26,13,,,,,0.84,0.43,0.72,3*01
$GNGSA,A,3,37,23,28,43,19,20,11,08,13,38,,,0.84,0.43,0.72,4*09
$GPGSV,4,1,13,14,85,279,33,22,63,250,31,30,62,120,30,13,56,273,31,1*65
$GPGSV,4,2,13,17,38,174,27,46,33,188,28,15,30,304,30,07,27,118,25,1*6D
$GPGSV,4,3,13,02,19,088,29,21,19,068,21,08,13,041,21,19,11,190,23,1*6B
$GPGSV,4,4,13,23,05,340,17,1*53
$GLGSV,2,1,07,75,53,296,40,65,43,286,34,84,32,103,24,72,26,215,23,1*71
$GLGSV,2,2,07,83,23,031,20,66,17,337,,73,16,078,30,1*4B
$GAGSV,3,1,09,31,81,261,31,09,57,236,28,06,46,199,26,05,32,310,21,7*76
$GAGSV,3,2,09,24,28,247,24,04,26,178,24,26,15,077,23,13,10,027,19,7*77
$GAGSV,3,3,09,33,03,123,18,7*40
$GBGSV,4,1,13,37,83,017,35,23,33,090,31,46,33,279,,28,31,136,31,1*74
$GBGSV,4,2,13,43,31,062,32,19,28,298,31,20,28,243,32,11,20,041,23,1*7B
$GBGSV,4,3,13,08,17,317,21,13,14,327,25,38,12,306,23,27,05,172,20,1*77
$GBGSV,4,4,13,34,03,025,24,1*41
$GNRMC,232403.000,A,4910.427136,N,12304.397940,W,0.03,196.10,291124,,,D,V*15
$GNVTG,196.10,T,,M,0.03,N,0.05,K,D*2F
$PAIRLOG,Full*51
$GNGGA,232404.000,4910.427238,N,12304.397820,W,2,36,0.43,4.465,M,-16.816,M,,*43
$GNGLL,4910.427238,N,12304.397820,W,232404.000,A,D*54
$GNGSA,A,3,14,22,30,13,17,15,07,02,21,08,19,23,0.84,0.43,0.72,1*0E
$GNGSA,A,3,75,65,84,72,83,73,,,,,,,0.84,0.43,0.72,2*0B
$GNGSA,A,3,31,09,06,05,24,04,26,13,,,,,0.84,0.43,0.72,3*01
$GNGSA,A,3,37,23,28,43,19,20,11,08,13,38,,,0.84,0.43,0.72,4*09
$GPGSV,4,1,13,14,85,279,33,22,63,250,31,30,62,120,31,13,56,273,32,1*67
$GPGSV,4,2,13,17,38,174,27,46,33,188,28,15,30,304,30,07,27,118,24,1*6C
$GPGSV,4,3,13,02,19,088,30,21,19,068,22,08,13,041,21,19,11,190,23,1*60
$GPGSV,4,4,13,23,05,340,17,1*53
$GLGSV,2,1,07,75,53,296,40,65,43,286,34,84,32,103,24,72,26,215,24,1*76
$GLGSV,2,2,07,83,23,031,20,66,17,337,,73,16,078,30,1*4B
$GAGSV,3,1,09,31,81,261,31,09,57,236,28,06,46,199,27,05,32,310,21,7*77
$GAGSV,3,2,09,24,28,247,24,04,26,178,24,26,15,077,23,13,10,027,19,7*77
$GAGSV,3,3,09,33,03,123,18,7*40
$GBGSV,4,1,13,37,83,017,35,58,82,332,,23,33,090,31,28,31,136,31,1*7F
$GBGSV,4,2,13,43,31,062,32,19,28,298,31,20,28,243,32,11,20,041,22,1*7A
$GBGSV,4,3,13,08,17,317,21,13,14,327,25,38,12,306,23,27,05,172,20,1*77
$GBGSV,4,4,13,34,03,025,24,1*41
$GNRMC,232404.000,A,4910.427238,N,12304.397820,W,0.03,196.10,291124,,,D,V*18
$GNVTG,196.10,T,,M,0.03,N,0.06,K,D*2C
$PAIRLOG,Full*51
$GNGGA,232405.000,4910.427322,N,12304.397754,W,2,36,0.43,4.271,M,-16.816,M,,*47
$GNGLL,4910.427322,N,12304.397754,W,232405.000,A,D*53
$GNGSA,A,3,14,22,30,13,17,15,07,02,21,08,19,23,0.84,0.43,0.72,1*0E
$GNGSA,A,3,75,65,84,72,83,73,,,,,,,0.84,0.43,0.72,2*0B
$GNGSA,A,3,31,09,06,05,24,04,26,13,,,,,0.84,0.43,0.72,3*01
$GNGSA,A,3,37,23,28,43,19,20,11,08,13,38,,,0.84,0.43,0.72,4*09
$GPGSV,4,1,13,14,85,279,33,22,63,250,31,30,62,120,31,13,56,273,32,1*67
$GPGSV,4,2,13,17,38,174,27,46,33,188,28,15,30,304,30,07,27,118,25,1*6D
$GPGSV,4,3,13,02,19,088,30,21,19,068,22,08,13,041,21,19,11,190,23,1*60
$GPGSV,4,4,13,23,05,340,17,1*53
$GLGSV,2,1,07,75,53,296,39,65,43,286,34,84,32,103,24,72,26,215,24,1*78
$GLGSV,2,2,07,83,23,031,19,66,17,337,,73,16,078,30,1*41
$GAGSV,3,1,09,31,81,261,31,09,57,236,28,06,46,199,27,05,32,310,21,7*77
$GAGSV,3,2,09,24,28,247,24,04,26,178,24,26,15,077,23,13,10,027,19,7*77
$GAGSV,3,3,09,33,03,123,19,7*41
$GBGSV,4,1,13,37,83,017,35,58,82,332,,23,33,090,31,28,31,136,31,1*7F
$GBGSV,4,2,13,43,31,062,32,19,28,298,31,20,28,243,32,11,20,041,23,1*7B
$GBGSV,4,3,13,08,17,317,21,13,14,327,25,38,12,306,23,27,05,172,20,1*77
$GBGSV,4,4,13,34,03,025,24,1*41
$GNRMC,232405.000,A,4910.427322,N,12304.397754,W,0.03,196.10,291124,,,D,V*1F
$GNVTG,196.10,T,,M,0.03,N,0.06,K,D*2C
$PAIRLOG,Full*51
$GNGGA,232406.000,4910.427418,N,12304.397682,W,2,36,0.43,4.108,M,-16.816,M,,*4D
$GNGLL,4910.427418,N,12304.397682,W,232406.000,A,D*54
$GNGSA,A,3,14,22,30,13,17,15,07,02,21,08,19,23,0.84,0.43,0.72,1*0E
$GNGSA,A,3,75,65,84,72,83,73,,,,,,,0.84,0.43,0.72,2*0B
$GNGSA,A,3,31,09,06,05,24,04,26,13,,,,,0.84,0.43,0.72,3*01
$GNGSA,A,3,37,23,28,43,19,20,11,08,13,38,,,0.84,0.43,0.72,4*09
$GPGSV,4,1,13,14,85,279,33,22,63,250,31,30,62,120,31,13,56,273,32,1*67
$GPGSV,4,2,13,17,38,174,27,46,33,188,28,15,30,304,30,07,27,118,24,1*6C
$GPGSV,4,3,13,02,19,088,30,21,19,068,23,08,13,041,21,19,11,190,23,1*61
$GPGSV,4,4,13,23,05,340,17,1*53
$GLGSV,2,1,07,75,53,296,39,65,43,286,34,84,32,103,25,72,26,215,23,1*7E
$GLGSV,2,2,07,83,23,031,19,66,17,337,,73,16,078,30,1*41
$GAGSV,3,1,09,31,81,261,31,09,57,236,28,06,46,199,27,05,32,310,21,7*77
$GAGSV,3,2,09,24,28,247,24,04,26,178,24,26,15,077,24,13,10,027,19,7*70
$GAGSV,3,3,09,33,03,123,19,7*41
$GBGSV,4,1,13,37,83,017,35,58,82,332,,23,33,090,31,28,31,136,31,1*7F
$GBGSV,4,2,13,43,31,062,32,19,28,298,31,20,28,243,31,11,20,041,23,1*78
$GBGSV,4,3,13,08,17,317,21,13,14,327,25,38,12,306,23,27,05,172,20,1*77
$GBGSV,4,4,13,34,03,025,23,1*46
$GNRMC,232406.000,A,4910.427418,N,12304.397682,W,0.03,196.10,291124,,,D,V*18
$GNVTG,196.10,T,,M,0.03,N,0.06,K,D*2C
$PAIRLOG,Full*51
$GNGGA,232407.000,4910.427478,N,12304.397664,W,2,36,0.43,3.984,M,-16.816,M,,*49
$GNGLL,4910.427478,N,12304.397664,W,232407.000,A,D*5B
$GNGSA,A,3,14,22,30,13,17,15,07,02,21,08,19,23,0.84,0.43,0.72,1*0E
$GNGSA,A,3,75,65,84,72,83,73,,,,,,,0.84,0.43,0.72,2*0B
$GNGSA,A,3,31,09,06,05,24,04,26,13,,,,,0.84,0.43,0.72,3*01
$GNGSA,A,3,37,23,28,43,19,20,11,08,13,38,,,0.84,0.43,0.72,4*09
$GPGSV,4,1,13,14,85,279,33,22,63,250,31,30,62,120,31,13,56,273,32,1*67
$GPGSV,4,2,13,17,38,174,27,46,33,188,28,15,30,304,30,07,27,118,24,1*6C
$GPGSV,4,3,13,02,19,088,30,21,19,068,22,08,13,041,22,19,11,190,23,1*63
$GPGSV,4,4,13,23,05,340,17,1*53
$GLGSV,2,1,07,75,53,296,39,65,43,286,34,84,32,103,24,72,26,215,23,1*7F
$GLGSV,2,2,07,83,23,031,19,66,17,337,,73,16,078,31,1*40
$GAGSV,3,1,09,31,82,265,31,09,57,236,28,06,46,199,27,05,32,310,21,7*70
$GAGSV,3,2,09,24,28,247,24,04,26,178,24,26,15,077,24,13,10,027,19,7*70
$GAGSV,3,3,09,33,03,123,19,7*41
$GBGSV,4,1,13,37,83,017,35,58,82,332,,23,33,090,31,28,31,136,31,1*7F
$GBGSV,4,2,13,43,31,062,32,19,28,298,31,20,28,243,31,11,20,041,24,1*7F
$GBGSV,4,3,13,08,17,317,21,13,14,327,25,38,12,306,23,27,05,172,20,1*77
$GBGSV,4,4,13,34,03,025,23,1*46
$GNRMC,232407.000,A,4910.427478,N,12304.397664,W,0.03,196.10,291124,,,D,V*17
$GNVTG,196.10,T,,M,0.03,N,0.05,K,D*2F
$PAIRLOG,Full*51
$GNGGA,232408.000,4910.427520,N,12304.397664,W,2,36,0.43,3.810,M,-16.817,M,,*47
$GNGLL,4910.427520,N,12304.397664,W,232408.000,A,D*58
$GNGSA,A,3,14,22,30,13,17,15,07,02,21,08,19,23,0.84,0.43,0.72,1*0E
$GNGSA,A,3,75,65,84,72,83,73,,,,,,,0.84,0.43,0.72,2*0B
$GNGSA,A,3,31,09,06,05,24,04,26,13,,,,,0.84,0.43,0.72,3*01
$GNGSA,A,3,37,23,28,43,19,20,11,08,13,38,,,0.84,0.43,0.72,4*09
$GPGSV,4,1,13,14,85,279,33,22,63,250,31,30,62,120,31,13,56,273,32,1*67
$GPGSV,4,2,13,17,38,174,27,46,33,188,28,15,30,304,30,07,27,118,23,1*6B
$GPGSV,4,3,13,02,19,088,30,21,19,068,22,08,13,041,22,19,11,190,23,1*63
$GPGSV,4,4,13,23,05,340,17,1*53
$GLGSV,2,1,07,75,53,296,39,65,43,286,35,84,32,103,24,72,26,215,23,1*7E
$GLGSV,2,2,07,83,23,031,19,66,17,337,,73,16,078,31,1*40
$GAGSV,3,1,09,31,82,265,31,09,57,236,28,06,46,199,27,05,32,310,21,7*70
$GAGSV,3,2,09,24,28,247,24,04,26,178,24,26,15,077,24,13,10,027,20,7*7A
$GAGSV,3,3,09,33,03,123,19,7*41
$GBGSV,4,1,13,37,83,017,36,58,82,332,,23,33,090,31,28,31,136,31,1*7C
$GBGSV,4,2,13,43,31,062,32,19,28,298,31,20,28,243,31,11,20,041,23,1*78
$GBGSV,4,3,13,08,17,317,22,13,14,327,25,38,12,306,23,27,05,172,20,1*74
$GBGSV,4,4,13,34,03,025,23,1*46
$GNRMC,232408.000,A,4910.427520,N,12304.397664,W,0.03,196.10,291124,,,D,V*14
$GNVTG,196.10,T,,M,0.03,N,0.05,K,D*2F
$PAIRLOG,Full*51
$GNGGA,232409.000,4910.427598,N,12304.397706,W,2,36,0.43,3.623,M,-16.816,M,,*4F
$GNGLL,4910.427598,N,12304.397706,W,232409.000,A,D*5F
$GNGSA,A,3,14,22,30,13,17,15,07,02,21,08,19,23,0.84,0.43,0.72,1*0E
$GNGSA,A,3,75,65,84,72,83,73,,,,,,,0.84,0.43,0.72,2*0B
$GNGSA,A,3,31,09,06,05,24,04,26,13,,,,,0.84,0.43,0.72,3*01
$GNGSA,A,3,37,23,28,43,19,20,11,08,13,38,,,0.84,0.43,0.72,4*09
$GPGSV,4,1,13,14,85,279,33,22,63,250,32,30,62,120,31,13,56,273,32,1*64
$GPGSV,4,2,13,17,38,174,27,46,33,188,28,15,30,304,30,07,27,118,24,1*6C
$GPGSV,4,3,13,02,19,088,31,21,19,068,22,08,13,041,22,19,11,190,24,1*65
$GPGSV,4,4,13,23,05,340,18,1*5C
$GLGSV,2,1,07,75,53,296,40,65,43,286,35,84,32,103,24,72,26,215,23,1*70
$GLGSV,2,2,07,83,23,031,19,66,17,337,,73,16,078,31,1*40
$GAGSV,3,1,09,31,82,265,31,09,57,236,28,06,46,199,27,05,32,310,21,7*70
$GAGSV,3,2,09,24,28,247,24,04,26,178,23,26,15,077,24,13,10,027,20,7*7D
$GAGSV,3,3,09,33,04,122,19,7*47
$GBGSV,4,1,13,37,83,017,36,58,82,332,,23,33,090,31,28,31,136,31,1*7C
$GBGSV,4,2,13,43,31,062,32,19,28,298,31,20,28,243,31,11,20,041,23,1*78
$GBGSV,4,3,13,08,17,317,22,13,14,327,25,38,12,306,23,27,05,172,20,1*74
$GBGSV,4,4,13,34,03,025,23,1*46
$GNRMC,232409.000,A,4910.427598,N,12304.397706,W,0.02,196.10,291124,,,D,V*12
$GNVTG,196.10,T,,M,0.02,N,0.04,K,D*2F
$PAIRLOG,Full*51
$GNGGA,232410.000,4910.427694,N,12304.397754,W,2,36,0.43,3.419,M,-16.817,M,,*45
