2024-10-15 14:25:46,484 [INFO] Logging setup complete. Logs are being saved to logs/NMEA_20241015_142546483040/console_output_20241015_142546483040.txt
2024-10-15 14:26:51,010 [INFO] Starting log processing for file: C:\PythonProjects\NMEA-Parser-Logger\logs\NMEA_20241015_133240148645\nmea_raw_log_COM7_115200_20241015_133240148645.txt
2024-10-15 14:26:51,010 [INFO] Processing log file: C:\PythonProjects\NMEA-Parser-Logger\logs\NMEA_20241015_133240148645\nmea_raw_log_COM7_115200_20241015_133240148645.txt
2024-10-15 14:26:51,012 [INFO] Total lines read from file: 481
2024-10-15 14:26:51,013 [INFO] Processing sentence: $GNGGA,203346.000,4910.427076,N,12304.402013,W,1,22,0.76,8.918,M,-16.816,M,,*40
2024-10-15 14:26:51,013 [INFO] Received Standard NMEA Message: $GNGGA,203346.000,4910.427076,N,12304.402013,W,1,22,0.76,8.918,M,-16.816,M,,*40
2024-10-15 14:26:51,014 [INFO] GGA - Fix Data:
  Timestamp: 20:33:46+00:00
  Latitude: 49.1737846 N
  Longitude: -123.07336688333334 W
  GPS Quality Indicator: 1
  Number of Satellites in Use: 22
  Horizontal Dilution of Precision (HDOP): 0.76
  Antenna Altitude (Above Mean Sea Level): 8.918 M
  Geoidal Separation: -16.816 M
  Age of Differential GPS Data: 
  Differential Reference Station ID: 

2024-10-15 14:26:51,014 [INFO] Processing sentence: $GNRMC,203346.000,A,4910.427076,N,12304.402013,W,0.012,126.46,151024,,,A,V*23
2024-10-15 14:26:51,014 [INFO] Received Standard NMEA Message: $GNRMC,203346.000,A,4910.427076,N,12304.402013,W,0.012,126.46,151024,,,A,V*23
2024-10-15 14:26:51,015 [INFO] RMC - Recommended Minimum:
  Timestamp: 20:33:46+00:00
  Status: A
  Latitude: 49.1737846 N
  Longitude: -123.07336688333334 W
  Speed over Ground: 0.012 knots
  Course over Ground: 126.46
  Date: 2024-10-15
  Magnetic Variation:  
  Mode Indicator: A
  Navigational Status: V

2024-10-15 14:26:51,015 [INFO] Processing sentence: $GNGLL,4910.427076,N,12304.402013,W,203346.000,A,A*59
2024-10-15 14:26:51,015 [INFO] Received Standard NMEA Message: $GNGLL,4910.427076,N,12304.402013,W,203346.000,A,A*59
2024-10-15 14:26:51,015 [INFO] GLL - Geographic Position:
  Latitude: 49.1737846 N
  Longitude: -123.07336688333334 W
  Timestamp: 20:33:46+00:00
  Status: A
  FAA Mode: A

2024-10-15 14:26:51,015 [INFO] Processing sentence: $GNVTG,126.46,T,,M,0.012,N,0.023,K,A*26
2024-10-15 14:26:51,015 [INFO] Received Standard NMEA Message: $GNVTG,126.46,T,,M,0.012,N,0.023,K,A*26
2024-10-15 14:26:51,016 [INFO] VTG - Course over Ground and Ground Speed:
  True Track: 126.46° T
  Magnetic Track: None° M
  Speed over Ground: 0.012 knots / 0.023 km/h
  FAA Mode: A

2024-10-15 14:26:51,016 [INFO] Processing sentence: $GNGSA,A,3,03,04,06,09,16,26,28,31,,,,,1.36,0.76,1.12,1*05
2024-10-15 14:26:51,016 [INFO] Received Standard NMEA Message: $GNGSA,A,3,03,04,06,09,16,26,28,31,,,,,1.36,0.76,1.12,1*05
2024-10-15 14:26:51,016 [INFO] GSA - Satellite Info:
  Mode: A
  Mode Fix Type: 3
  Satellites Used: 03, 04, 06, 09, 16, 26, 28, 31
  PDOP: 1.36
  HDOP: 0.76
  VDOP: 1.12

2024-10-15 14:26:51,016 [INFO] Processing sentence: $GNGSA,A,3,72,,,,,,,,,,,,1.36,0.76,1.12,2*00
2024-10-15 14:26:51,016 [INFO] Received Standard NMEA Message: $GNGSA,A,3,72,,,,,,,,,,,,1.36,0.76,1.12,2*00
2024-10-15 14:26:51,016 [INFO] GSA - Satellite Info:
  Mode: A
  Mode Fix Type: 3
  Satellites Used: 72
  PDOP: 1.36
  HDOP: 0.76
  VDOP: 1.12

2024-10-15 14:26:51,016 [INFO] Processing sentence: $GNGSA,A,3,03,05,13,24,25,15,,,,,,,1.36,0.76,1.12,3*05
2024-10-15 14:26:51,016 [INFO] Received Standard NMEA Message: $GNGSA,A,3,03,05,13,24,25,15,,,,,,,1.36,0.76,1.12,3*05
2024-10-15 14:26:51,016 [INFO] GSA - Satellite Info:
  Mode: A
  Mode Fix Type: 3
  Satellites Used: 03, 05, 13, 24, 25, 15
  PDOP: 1.36
  HDOP: 0.76
  VDOP: 1.12

2024-10-15 14:26:51,017 [INFO] Processing sentence: $GNGSA,A,3,12,19,20,22,36,37,44,,,,,,1.36,0.76,1.12,4*0B
2024-10-15 14:26:51,017 [INFO] Received Standard NMEA Message: $GNGSA,A,3,12,19,20,22,36,37,44,,,,,,1.36,0.76,1.12,4*0B
2024-10-15 14:26:51,017 [INFO] GSA - Satellite Info:
  Mode: A
  Mode Fix Type: 3
  Satellites Used: 12, 19, 20, 22, 36, 37, 44
  PDOP: 1.36
  HDOP: 0.76
  VDOP: 1.12

2024-10-15 14:26:51,017 [INFO] Processing sentence: $GNGSA,A,3,,,,,,,,,,,,,1.36,0.76,1.12,5*02
2024-10-15 14:26:51,017 [INFO] Received Standard NMEA Message: $GNGSA,A,3,,,,,,,,,,,,,1.36,0.76,1.12,5*02
2024-10-15 14:26:51,017 [INFO] GSA - Satellite Info:
  Mode: A
  Mode Fix Type: 3
  Satellites Used: 
  PDOP: 1.36
  HDOP: 0.76
  VDOP: 1.12

2024-10-15 14:26:51,017 [INFO] Processing sentence: $GPGSV,3,1,10,03,67,180,30,04,67,293,25,06,24,305,23,07,,,18,1*5C
2024-10-15 14:26:51,017 [INFO] Received Standard NMEA Message: $GPGSV,3,1,10,03,67,180,30,04,67,293,25,06,24,305,23,07,,,18,1*5C
2024-10-15 14:26:51,018 [INFO] GSV - Satellites in View:
  Number of Messages: 3
  Message Number: 1
  Total Satellites in View: 10
  Satellite 1 PRN: 03 - Elevation: 67° - Azimuth: 180° - SNR: 30 dB
  Satellite 2 PRN: 04 - Elevation: 67° - Azimuth: 293° - SNR: 25 dB
  Satellite 3 PRN: 06 - Elevation: 24° - Azimuth: 305° - SNR: 23 dB
  Satellite 4 PRN: 07 - Elevation: ° - Azimuth: ° - SNR: 18 dB

2024-10-15 14:26:51,018 [INFO] Processing sentence: $GPGSV,3,2,10,09,34,281,22,16,27,132,25,26,40,091,27,28,14,052,20,1*63
2024-10-15 14:26:51,018 [INFO] Received Standard NMEA Message: $GPGSV,3,2,10,09,34,281,22,16,27,132,25,26,40,091,27,28,14,052,20,1*63
2024-10-15 14:26:51,018 [INFO] GSV - Satellites in View:
  Number of Messages: 3
  Message Number: 2
  Total Satellites in View: 10
  Satellite 1 PRN: 09 - Elevation: 34° - Azimuth: 281° - SNR: 22 dB
  Satellite 2 PRN: 16 - Elevation: 27° - Azimuth: 132° - SNR: 25 dB
  Satellite 3 PRN: 26 - Elevation: 40° - Azimuth: 091° - SNR: 27 dB
  Satellite 4 PRN: 28 - Elevation: 14° - Azimuth: 052° - SNR: 20 dB

2024-10-15 14:26:51,018 [INFO] Processing sentence: $GPGSV,3,3,10,31,47,059,28,44,33,172,25,1*61
2024-10-15 14:26:51,018 [INFO] Received Standard NMEA Message: $GPGSV,3,3,10,31,47,059,28,44,33,172,25,1*61
2024-10-15 14:26:51,018 [INFO] GSV - Satellites in View:
  Number of Messages: 3
  Message Number: 3
  Total Satellites in View: 10
  Satellite 1 PRN: 31 - Elevation: 47° - Azimuth: 059° - SNR: 28 dB
  Satellite 2 PRN: 44 - Elevation: 33° - Azimuth: 172° - SNR: 25 dB
  Satellite 3 PRN: 1 - Elevation: ° - Azimuth: ° - SNR:  dB
  Satellite 4 PRN:  - Elevation: ° - Azimuth: ° - SNR:  dB

2024-10-15 14:26:51,018 [INFO] Processing sentence: $GPGSV,2,1,06,03,67,180,28,04,67,293,26,06,24,305,20,09,34,281,22,8*61
2024-10-15 14:26:51,019 [INFO] Received Standard NMEA Message: $GPGSV,2,1,06,03,67,180,28,04,67,293,26,06,24,305,20,09,34,281,22,8*61
2024-10-15 14:26:51,019 [INFO] GSV - Satellites in View:
  Number of Messages: 2
  Message Number: 1
  Total Satellites in View: 06
  Satellite 1 PRN: 03 - Elevation: 67° - Azimuth: 180° - SNR: 28 dB
  Satellite 2 PRN: 04 - Elevation: 67° - Azimuth: 293° - SNR: 26 dB
  Satellite 3 PRN: 06 - Elevation: 24° - Azimuth: 305° - SNR: 20 dB
  Satellite 4 PRN: 09 - Elevation: 34° - Azimuth: 281° - SNR: 22 dB

2024-10-15 14:26:51,019 [INFO] Processing sentence: $GPGSV,2,2,06,26,40,091,23,28,14,052,17,8*6C
2024-10-15 14:26:51,019 [INFO] Received Standard NMEA Message: $GPGSV,2,2,06,26,40,091,23,28,14,052,17,8*6C
2024-10-15 14:26:51,019 [INFO] GSV - Satellites in View:
  Number of Messages: 2
  Message Number: 2
  Total Satellites in View: 06
  Satellite 1 PRN: 26 - Elevation: 40° - Azimuth: 091° - SNR: 23 dB
  Satellite 2 PRN: 28 - Elevation: 14° - Azimuth: 052° - SNR: 17 dB
  Satellite 3 PRN: 8 - Elevation: ° - Azimuth: ° - SNR:  dB
  Satellite 4 PRN:  - Elevation: ° - Azimuth: ° - SNR:  dB

2024-10-15 14:26:51,019 [INFO] Processing sentence: $GLGSV,1,1,02,65,,,19,72,63,079,20,1*4D
2024-10-15 14:26:51,019 [INFO] Received Standard NMEA Message: $GLGSV,1,1,02,65,,,19,72,63,079,20,1*4D
2024-10-15 14:26:51,019 [INFO] GSV - Satellites in View:
  Number of Messages: 1
  Message Number: 1
  Total Satellites in View: 02
  Satellite 1 PRN: 65 - Elevation: ° - Azimuth: ° - SNR: 19 dB
  Satellite 2 PRN: 72 - Elevation: 63° - Azimuth: 079° - SNR: 20 dB
  Satellite 3 PRN: 1 - Elevation: ° - Azimuth: ° - SNR:  dB
  Satellite 4 PRN:  - Elevation: ° - Azimuth: ° - SNR:  dB

2024-10-15 14:26:51,019 [INFO] Processing sentence: $GAGSV,2,1,05,03,73,299,28,05,47,082,25,13,26,309,20,24,35,078,22,7*70
2024-10-15 14:26:51,020 [INFO] Received Standard NMEA Message: $GAGSV,2,1,05,03,73,299,28,05,47,082,25,13,26,309,20,24,35,078,22,7*70
2024-10-15 14:26:51,020 [INFO] GSV - Satellites in View:
  Number of Messages: 2
  Message Number: 1
  Total Satellites in View: 05
  Satellite 1 PRN: 03 - Elevation: 73° - Azimuth: 299° - SNR: 28 dB
  Satellite 2 PRN: 05 - Elevation: 47° - Azimuth: 082° - SNR: 25 dB
  Satellite 3 PRN: 13 - Elevation: 26° - Azimuth: 309° - SNR: 20 dB
  Satellite 4 PRN: 24 - Elevation: 35° - Azimuth: 078° - SNR: 22 dB

2024-10-15 14:26:51,020 [INFO] Processing sentence: $GAGSV,2,2,05,25,27,139,20,7*4D
2024-10-15 14:26:51,020 [INFO] Received Standard NMEA Message: $GAGSV,2,2,05,25,27,139,20,7*4D
2024-10-15 14:26:51,020 [INFO] GSV - Satellites in View:
  Number of Messages: 2
  Message Number: 2
  Total Satellites in View: 05
  Satellite 1 PRN: 25 - Elevation: 27° - Azimuth: 139° - SNR: 20 dB
  Satellite 2 PRN: 7 - Elevation: ° - Azimuth: ° - SNR:  dB
  Satellite 3 PRN:  - Elevation: ° - Azimuth: ° - SNR:  dB
  Satellite 4 PRN:  - Elevation: ° - Azimuth: ° - SNR:  dB

2024-10-15 14:26:51,020 [INFO] Processing sentence: $GAGSV,2,1,06,03,73,299,25,05,47,082,25,13,26,309,19,15,33,248,20,1*75
2024-10-15 14:26:51,020 [INFO] Received Standard NMEA Message: $GAGSV,2,1,06,03,73,299,25,05,47,082,25,13,26,309,19,15,33,248,20,1*75
2024-10-15 14:26:51,020 [INFO] GSV - Satellites in View:
  Number of Messages: 2
  Message Number: 1
  Total Satellites in View: 06
  Satellite 1 PRN: 03 - Elevation: 73° - Azimuth: 299° - SNR: 25 dB
  Satellite 2 PRN: 05 - Elevation: 47° - Azimuth: 082° - SNR: 25 dB
  Satellite 3 PRN: 13 - Elevation: 26° - Azimuth: 309° - SNR: 19 dB
  Satellite 4 PRN: 15 - Elevation: 33° - Azimuth: 248° - SNR: 20 dB

2024-10-15 14:26:51,020 [INFO] Processing sentence: $GAGSV,2,2,06,24,35,078,20,25,27,139,17,1*71
2024-10-15 14:26:51,020 [INFO] Received Standard NMEA Message: $GAGSV,2,2,06,24,35,078,20,25,27,139,17,1*71
2024-10-15 14:26:51,021 [INFO] GSV - Satellites in View:
  Number of Messages: 2
  Message Number: 2
  Total Satellites in View: 06
  Satellite 1 PRN: 24 - Elevation: 35° - Azimuth: 078° - SNR: 20 dB
  Satellite 2 PRN: 25 - Elevation: 27° - Azimuth: 139° - SNR: 17 dB
  Satellite 3 PRN: 1 - Elevation: ° - Azimuth: ° - SNR:  dB
  Satellite 4 PRN:  - Elevation: ° - Azimuth: ° - SNR:  dB

2024-10-15 14:26:51,021 [INFO] Processing sentence: $GBGSV,2,1,08,12,10,314,23,19,88,328,40,20,39,119,38,22,31,300,35,1*70
2024-10-15 14:26:51,021 [INFO] Received Standard NMEA Message: $GBGSV,2,1,08,12,10,314,23,19,88,328,40,20,39,119,38,22,31,300,35,1*70
2024-10-15 14:26:51,021 [INFO] GSV - Satellites in View:
  Number of Messages: 2
  Message Number: 1
  Total Satellites in View: 08
  Satellite 1 PRN: 12 - Elevation: 10° - Azimuth: 314° - SNR: 23 dB
  Satellite 2 PRN: 19 - Elevation: 88° - Azimuth: 328° - SNR: 40 dB
  Satellite 3 PRN: 20 - Elevation: 39° - Azimuth: 119° - SNR: 38 dB
  Satellite 4 PRN: 22 - Elevation: 31° - Azimuth: 300° - SNR: 35 dB

2024-10-15 14:26:51,021 [INFO] Processing sentence: $GBGSV,2,2,08,34,03,340,22,36,24,192,36,37,34,053,36,44,07,291,17,1*7A
2024-10-15 14:26:51,021 [INFO] Received Standard NMEA Message: $GBGSV,2,2,08,34,03,340,22,36,24,192,36,37,34,053,36,44,07,291,17,1*7A
2024-10-15 14:26:51,021 [INFO] GSV - Satellites in View:
  Number of Messages: 2
  Message Number: 2
  Total Satellites in View: 08
  Satellite 1 PRN: 34 - Elevation: 03° - Azimuth: 340° - SNR: 22 dB
  Satellite 2 PRN: 36 - Elevation: 24° - Azimuth: 192° - SNR: 36 dB
  Satellite 3 PRN: 37 - Elevation: 34° - Azimuth: 053° - SNR: 36 dB
  Satellite 4 PRN: 44 - Elevation: 07° - Azimuth: 291° - SNR: 17 dB

2024-10-15 14:26:51,021 [INFO] Processing sentence: $GBGSV,1,1,04,19,88,328,23,20,39,119,23,22,31,300,20,37,34,053,22,5*70
2024-10-15 14:26:51,021 [INFO] Received Standard NMEA Message: $GBGSV,1,1,04,19,88,328,23,20,39,119,23,22,31,300,20,37,34,053,22,5*70
2024-10-15 14:26:51,021 [INFO] GSV - Satellites in View:
  Number of Messages: 1
  Message Number: 1
  Total Satellites in View: 04
  Satellite 1 PRN: 19 - Elevation: 88° - Azimuth: 328° - SNR: 23 dB
  Satellite 2 PRN: 20 - Elevation: 39° - Azimuth: 119° - SNR: 23 dB
  Satellite 3 PRN: 22 - Elevation: 31° - Azimuth: 300° - SNR: 20 dB
  Satellite 4 PRN: 37 - Elevation: 34° - Azimuth: 053° - SNR: 22 dB

2024-10-15 14:26:51,022 [INFO] Processing sentence: $GQGSV,1,1,00,1*65
2024-10-15 14:26:51,022 [INFO] Received Standard NMEA Message: $GQGSV,1,1,00,1*65
2024-10-15 14:26:51,022 [INFO] GSV - Satellites in View:
  Number of Messages: 1
  Message Number: 1
  Total Satellites in View: 00
  Satellite 1 PRN: 1 - Elevation: ° - Azimuth: ° - SNR:  dB
  Satellite 2 PRN:  - Elevation: ° - Azimuth: ° - SNR:  dB
  Satellite 3 PRN:  - Elevation: ° - Azimuth: ° - SNR:  dB
  Satellite 4 PRN:  - Elevation: ° - Azimuth: ° - SNR:  dB

2024-10-15 14:26:51,022 [INFO] Processing sentence: $GQGSV,1,1,00,8*6C
2024-10-15 14:26:51,022 [INFO] Received Standard NMEA Message: $GQGSV,1,1,00,8*6C
2024-10-15 14:26:51,022 [INFO] GSV - Satellites in View:
  Number of Messages: 1
  Message Number: 1
  Total Satellites in View: 00
  Satellite 1 PRN: 8 - Elevation: ° - Azimuth: ° - SNR:  dB
  Satellite 2 PRN:  - Elevation: ° - Azimuth: ° - SNR:  dB
  Satellite 3 PRN:  - Elevation: ° - Azimuth: ° - SNR:  dB
  Satellite 4 PRN:  - Elevation: ° - Azimuth: ° - SNR:  dB

2024-10-15 14:26:51,022 [INFO] Processing sentence: $GNGGA,203347.000,4910.427077,N,12304.402015,W,1,22,0.76,8.918,M,-16.816,M,,*46
2024-10-15 14:26:51,022 [INFO] Received Standard NMEA Message: $GNGGA,203347.000,4910.427077,N,12304.402015,W,1,22,0.76,8.918,M,-16.816,M,,*46
2024-10-15 14:26:51,022 [INFO] GGA - Fix Data:
  Timestamp: 20:33:47+00:00
  Latitude: 49.173784616666666 N
  Longitude: -123.07336691666667 W
  GPS Quality Indicator: 1
  Number of Satellites in Use: 22
  Horizontal Dilution of Precision (HDOP): 0.76
  Antenna Altitude (Above Mean Sea Level): 8.918 M
  Geoidal Separation: -16.816 M
  Age of Differential GPS Data: 
  Differential Reference Station ID: 

2024-10-15 14:26:51,022 [INFO] Processing sentence: $GNRMC,203347.000,A,4910.427077,N,12304.402015,W,0.007,126.46,151024,,,A,V*21
2024-10-15 14:26:51,023 [INFO] Received Standard NMEA Message: $GNRMC,203347.000,A,4910.427077,N,12304.402015,W,0.007,126.46,151024,,,A,V*21
2024-10-15 14:26:51,023 [INFO] RMC - Recommended Minimum:
  Timestamp: 20:33:47+00:00
  Status: A
  Latitude: 49.173784616666666 N
  Longitude: -123.07336691666667 W
  Speed over Ground: 0.007 knots
  Course over Ground: 126.46
  Date: 2024-10-15
  Magnetic Variation:  
  Mode Indicator: A
  Navigational Status: V

2024-10-15 14:26:51,023 [INFO] Processing sentence: $GNGLL,4910.427077,N,12304.402015,W,203347.000,A,A*5F
2024-10-15 14:26:51,023 [INFO] Received Standard NMEA Message: $GNGLL,4910.427077,N,12304.402015,W,203347.000,A,A*5F
2024-10-15 14:26:51,023 [INFO] GLL - Geographic Position:
  Latitude: 49.173784616666666 N
  Longitude: -123.07336691666667 W
  Timestamp: 20:33:47+00:00
  Status: A
  FAA Mode: A

2024-10-15 14:26:51,023 [INFO] Processing sentence: $GNVTG,126.46,T,,M,0.007,N,0.012,K,A*20
2024-10-15 14:26:51,023 [INFO] Received Standard NMEA Message: $GNVTG,126.46,T,,M,0.007,N,0.012,K,A*20
2024-10-15 14:26:51,023 [INFO] VTG - Course over Ground and Ground Speed:
  True Track: 126.46° T
  Magnetic Track: None° M
  Speed over Ground: 0.007 knots / 0.012 km/h
  FAA Mode: A

2024-10-15 14:26:51,023 [INFO] Processing sentence: $GNGSA,A,3,03,04,06,09,16,26,28,31,,,,,1.36,0.76,1.12,1*05
2024-10-15 14:26:51,023 [INFO] Received Standard NMEA Message: $GNGSA,A,3,03,04,06,09,16,26,28,31,,,,,1.36,0.76,1.12,1*05
2024-10-15 14:26:51,024 [INFO] GSA - Satellite Info:
  Mode: A
  Mode Fix Type: 3
  Satellites Used: 03, 04, 06, 09, 16, 26, 28, 31
  PDOP: 1.36
  HDOP: 0.76
  VDOP: 1.12

2024-10-15 14:26:51,024 [INFO] Processing sentence: $GNGSA,A,3,72,,,,,,,,,,,,1.36,0.76,1.12,2*00
2024-10-15 14:26:51,024 [INFO] Received Standard NMEA Message: $GNGSA,A,3,72,,,,,,,,,,,,1.36,0.76,1.12,2*00
2024-10-15 14:26:51,024 [INFO] GSA - Satellite Info:
  Mode: A
  Mode Fix Type: 3
  Satellites Used: 72
  PDOP: 1.36
  HDOP: 0.76
  VDOP: 1.12

2024-10-15 14:26:51,024 [INFO] Processing sentence: $GNGSA,A,3,03,05,13,24,25,15,,,,,,,1.36,0.76,1.12,3*05
2024-10-15 14:26:51,024 [INFO] Received Standard NMEA Message: $GNGSA,A,3,03,05,13,24,25,15,,,,,,,1.36,0.76,1.12,3*05
2024-10-15 14:26:51,024 [INFO] GSA - Satellite Info:
  Mode: A
  Mode Fix Type: 3
  Satellites Used: 03, 05, 13, 24, 25, 15
  PDOP: 1.36
  HDOP: 0.76
  VDOP: 1.12

2024-10-15 14:26:51,024 [INFO] Processing sentence: $GNGSA,A,3,12,19,20,22,36,37,44,,,,,,1.36,0.76,1.12,4*0B
2024-10-15 14:26:51,024 [INFO] Received Standard NMEA Message: $GNGSA,A,3,12,19,20,22,36,37,44,,,,,,1.36,0.76,1.12,4*0B
2024-10-15 14:26:51,024 [INFO] GSA - Satellite Info:
  Mode: A
  Mode Fix Type: 3
  Satellites Used: 12, 19, 20, 22, 36, 37, 44
  PDOP: 1.36
  HDOP: 0.76
  VDOP: 1.12

2024-10-15 14:26:51,024 [INFO] Processing sentence: $GNGSA,A,3,,,,,,,,,,,,,1.36,0.76,1.12,5*02
2024-10-15 14:26:51,024 [INFO] Received Standard NMEA Message: $GNGSA,A,3,,,,,,,,,,,,,1.36,0.76,1.12,5*02
2024-10-15 14:26:51,024 [INFO] GSA - Satellite Info:
  Mode: A
  Mode Fix Type: 3
  Satellites Used: 
  PDOP: 1.36
  HDOP: 0.76
  VDOP: 1.12

2024-10-15 14:26:51,024 [INFO] Processing sentence: $GPGSV,3,1,10,03,67,180,30,04,67,293,26,06,24,305,23,07,,,18,1*5F
2024-10-15 14:26:51,024 [INFO] Received Standard NMEA Message: $GPGSV,3,1,10,03,67,180,30,04,67,293,26,06,24,305,23,07,,,18,1*5F
2024-10-15 14:26:51,025 [INFO] GSV - Satellites in View:
  Number of Messages: 3
  Message Number: 1
  Total Satellites in View: 10
  Satellite 1 PRN: 03 - Elevation: 67° - Azimuth: 180° - SNR: 30 dB
  Satellite 2 PRN: 04 - Elevation: 67° - Azimuth: 293° - SNR: 26 dB
  Satellite 3 PRN: 06 - Elevation: 24° - Azimuth: 305° - SNR: 23 dB
  Satellite 4 PRN: 07 - Elevation: ° - Azimuth: ° - SNR: 18 dB

2024-10-15 14:26:51,025 [INFO] Processing sentence: $GPGSV,3,2,10,09,34,281,23,16,27,132,23,26,40,091,27,28,14,052,20,1*64
2024-10-15 14:26:51,025 [INFO] Received Standard NMEA Message: $GPGSV,3,2,10,09,34,281,23,16,27,132,23,26,40,091,27,28,14,052,20,1*64
2024-10-15 14:26:51,025 [INFO] GSV - Satellites in View:
  Number of Messages: 3
  Message Number: 2
  Total Satellites in View: 10
  Satellite 1 PRN: 09 - Elevation: 34° - Azimuth: 281° - SNR: 23 dB
  Satellite 2 PRN: 16 - Elevation: 27° - Azimuth: 132° - SNR: 23 dB
  Satellite 3 PRN: 26 - Elevation: 40° - Azimuth: 091° - SNR: 27 dB
  Satellite 4 PRN: 28 - Elevation: 14° - Azimuth: 052° - SNR: 20 dB

2024-10-15 14:26:51,025 [INFO] Processing sentence: $GPGSV,3,3,10,31,47,059,27,44,33,172,25,1*6E
2024-10-15 14:26:51,025 [INFO] Received Standard NMEA Message: $GPGSV,3,3,10,31,47,059,27,44,33,172,25,1*6E
2024-10-15 14:26:51,025 [INFO] GSV - Satellites in View:
  Number of Messages: 3
  Message Number: 3
  Total Satellites in View: 10
  Satellite 1 PRN: 31 - Elevation: 47° - Azimuth: 059° - SNR: 27 dB
  Satellite 2 PRN: 44 - Elevation: 33° - Azimuth: 172° - SNR: 25 dB
  Satellite 3 PRN: 1 - Elevation: ° - Azimuth: ° - SNR:  dB
  Satellite 4 PRN:  - Elevation: ° - Azimuth: ° - SNR:  dB

2024-10-15 14:26:51,025 [INFO] Processing sentence: $GPGSV,2,1,06,03,67,180,27,04,67,293,27,06,24,305,23,09,34,281,22,8*6C
2024-10-15 14:26:51,025 [INFO] Received Standard NMEA Message: $GPGSV,2,1,06,03,67,180,27,04,67,293,27,06,24,305,23,09,34,281,22,8*6C
2024-10-15 14:26:51,025 [INFO] GSV - Satellites in View:
  Number of Messages: 2
  Message Number: 1
  Total Satellites in View: 06
  Satellite 1 PRN: 03 - Elevation: 67° - Azimuth: 180° - SNR: 27 dB
  Satellite 2 PRN: 04 - Elevation: 67° - Azimuth: 293° - SNR: 27 dB
  Satellite 3 PRN: 06 - Elevation: 24° - Azimuth: 305° - SNR: 23 dB
  Satellite 4 PRN: 09 - Elevation: 34° - Azimuth: 281° - SNR: 22 dB

2024-10-15 14:26:51,025 [INFO] Processing sentence: $GPGSV,2,2,06,26,40,091,24,28,14,052,17,8*6B
2024-10-15 14:26:51,025 [INFO] Received Standard NMEA Message: $GPGSV,2,2,06,26,40,091,24,28,14,052,17,8*6B
2024-10-15 14:26:51,026 [INFO] GSV - Satellites in View:
  Number of Messages: 2
  Message Number: 2
  Total Satellites in View: 06
  Satellite 1 PRN: 26 - Elevation: 40° - Azimuth: 091° - SNR: 24 dB
  Satellite 2 PRN: 28 - Elevation: 14° - Azimuth: 052° - SNR: 17 dB
  Satellite 3 PRN: 8 - Elevation: ° - Azimuth: ° - SNR:  dB
  Satellite 4 PRN:  - Elevation: ° - Azimuth: ° - SNR:  dB

2024-10-15 14:26:51,026 [INFO] Processing sentence: $GLGSV,1,1,02,65,,,18,72,63,079,21,1*4D
2024-10-15 14:26:51,026 [INFO] Received Standard NMEA Message: $GLGSV,1,1,02,65,,,18,72,63,079,21,1*4D
2024-10-15 14:26:51,026 [INFO] GSV - Satellites in View:
  Number of Messages: 1
  Message Number: 1
  Total Satellites in View: 02
  Satellite 1 PRN: 65 - Elevation: ° - Azimuth: ° - SNR: 18 dB
  Satellite 2 PRN: 72 - Elevation: 63° - Azimuth: 079° - SNR: 21 dB
  Satellite 3 PRN: 1 - Elevation: ° - Azimuth: ° - SNR:  dB
  Satellite 4 PRN:  - Elevation: ° - Azimuth: ° - SNR:  dB

2024-10-15 14:26:51,027 [INFO] Processing sentence: $GAGSV,2,1,05,03,73,299,26,05,47,082,25,13,26,309,18,24,35,078,22,7*75
2024-10-15 14:26:51,027 [INFO] Received Standard NMEA Message: $GAGSV,2,1,05,03,73,299,26,05,47,082,25,13,26,309,18,24,35,078,22,7*75
2024-10-15 14:26:51,027 [INFO] GSV - Satellites in View:
  Number of Messages: 2
  Message Number: 1
  Total Satellites in View: 05
  Satellite 1 PRN: 03 - Elevation: 73° - Azimuth: 299° - SNR: 26 dB
  Satellite 2 PRN: 05 - Elevation: 47° - Azimuth: 082° - SNR: 25 dB
  Satellite 3 PRN: 13 - Elevation: 26° - Azimuth: 309° - SNR: 18 dB
  Satellite 4 PRN: 24 - Elevation: 35° - Azimuth: 078° - SNR: 22 dB

2024-10-15 14:26:51,027 [INFO] Processing sentence: $GAGSV,2,2,05,25,27,139,21,7*4C
2024-10-15 14:26:51,027 [INFO] Received Standard NMEA Message: $GAGSV,2,2,05,25,27,139,21,7*4C
2024-10-15 14:26:51,027 [INFO] GSV - Satellites in View:
  Number of Messages: 2
  Message Number: 2
  Total Satellites in View: 05
  Satellite 1 PRN: 25 - Elevation: 27° - Azimuth: 139° - SNR: 21 dB
  Satellite 2 PRN: 7 - Elevation: ° - Azimuth: ° - SNR:  dB
  Satellite 3 PRN:  - Elevation: ° - Azimuth: ° - SNR:  dB
  Satellite 4 PRN:  - Elevation: ° - Azimuth: ° - SNR:  dB

2024-10-15 14:26:51,027 [INFO] Processing sentence: $GAGSV,2,1,06,03,73,299,25,05,47,082,24,13,26,309,19,15,33,248,22,1*76
2024-10-15 14:26:51,027 [INFO] Received Standard NMEA Message: $GAGSV,2,1,06,03,73,299,25,05,47,082,24,13,26,309,19,15,33,248,22,1*76
2024-10-15 14:26:51,027 [INFO] GSV - Satellites in View:
  Number of Messages: 2
  Message Number: 1
  Total Satellites in View: 06
  Satellite 1 PRN: 03 - Elevation: 73° - Azimuth: 299° - SNR: 25 dB
  Satellite 2 PRN: 05 - Elevation: 47° - Azimuth: 082° - SNR: 24 dB
  Satellite 3 PRN: 13 - Elevation: 26° - Azimuth: 309° - SNR: 19 dB
  Satellite 4 PRN: 15 - Elevation: 33° - Azimuth: 248° - SNR: 22 dB

2024-10-15 14:26:51,027 [INFO] Processing sentence: $GAGSV,2,2,06,24,35,078,22,25,27,139,18,1*7C
2024-10-15 14:26:51,028 [INFO] Received Standard NMEA Message: $GAGSV,2,2,06,24,35,078,22,25,27,139,18,1*7C
2024-10-15 14:26:51,028 [INFO] GSV - Satellites in View:
  Number of Messages: 2
  Message Number: 2
  Total Satellites in View: 06
  Satellite 1 PRN: 24 - Elevation: 35° - Azimuth: 078° - SNR: 22 dB
  Satellite 2 PRN: 25 - Elevation: 27° - Azimuth: 139° - SNR: 18 dB
  Satellite 3 PRN: 1 - Elevation: ° - Azimuth: ° - SNR:  dB
  Satellite 4 PRN:  - Elevation: ° - Azimuth: ° - SNR:  dB

2024-10-15 14:26:51,028 [INFO] Processing sentence: $GBGSV,2,1,08,12,10,314,25,19,88,328,40,20,39,119,38,22,31,300,35,1*76
2024-10-15 14:26:51,028 [INFO] Received Standard NMEA Message: $GBGSV,2,1,08,12,10,314,25,19,88,328,40,20,39,119,38,22,31,300,35,1*76
2024-10-15 14:26:51,028 [INFO] GSV - Satellites in View:
  Number of Messages: 2
  Message Number: 1
  Total Satellites in View: 08
  Satellite 1 PRN: 12 - Elevation: 10° - Azimuth: 314° - SNR: 25 dB
  Satellite 2 PRN: 19 - Elevation: 88° - Azimuth: 328° - SNR: 40 dB
  Satellite 3 PRN: 20 - Elevation: 39° - Azimuth: 119° - SNR: 38 dB
  Satellite 4 PRN: 22 - Elevation: 31° - Azimuth: 300° - SNR: 35 dB

2024-10-15 14:26:51,028 [INFO] Processing sentence: $GBGSV,2,2,08,34,03,340,24,36,24,192,36,37,34,053,36,44,07,291,17,1*7C
2024-10-15 14:26:51,028 [INFO] Received Standard NMEA Message: $GBGSV,2,2,08,34,03,340,24,36,24,192,36,37,34,053,36,44,07,291,17,1*7C
2024-10-15 14:26:51,028 [INFO] GSV - Satellites in View:
  Number of Messages: 2
  Message Number: 2
  Total Satellites in View: 08
  Satellite 1 PRN: 34 - Elevation: 03° - Azimuth: 340° - SNR: 24 dB
  Satellite 2 PRN: 36 - Elevation: 24° - Azimuth: 192° - SNR: 36 dB
  Satellite 3 PRN: 37 - Elevation: 34° - Azimuth: 053° - SNR: 36 dB
  Satellite 4 PRN: 44 - Elevation: 07° - Azimuth: 291° - SNR: 17 dB

2024-10-15 14:26:51,028 [INFO] Processing sentence: $GBGSV,1,1,04,19,88,328,23,20,39,119,24,22,31,300,21,37,34,053,21,5*75
2024-10-15 14:26:51,028 [INFO] Received Standard NMEA Message: $GBGSV,1,1,04,19,88,328,23,20,39,119,24,22,31,300,21,37,34,053,21,5*75
2024-10-15 14:26:51,029 [INFO] GSV - Satellites in View:
  Number of Messages: 1
  Message Number: 1
  Total Satellites in View: 04
  Satellite 1 PRN: 19 - Elevation: 88° - Azimuth: 328° - SNR: 23 dB
  Satellite 2 PRN: 20 - Elevation: 39° - Azimuth: 119° - SNR: 24 dB
  Satellite 3 PRN: 22 - Elevation: 31° - Azimuth: 300° - SNR: 21 dB
  Satellite 4 PRN: 37 - Elevation: 34° - Azimuth: 053° - SNR: 21 dB

2024-10-15 14:26:51,029 [INFO] Processing sentence: $GQGSV,1,1,00,1*65
2024-10-15 14:26:51,029 [INFO] Received Standard NMEA Message: $GQGSV,1,1,00,1*65
2024-10-15 14:26:51,029 [INFO] GSV - Satellites in View:
  Number of Messages: 1
  Message Number: 1
  Total Satellites in View: 00
  Satellite 1 PRN: 1 - Elevation: ° - Azimuth: ° - SNR:  dB
  Satellite 2 PRN:  - Elevation: ° - Azimuth: ° - SNR:  dB
  Satellite 3 PRN:  - Elevation: ° - Azimuth: ° - SNR:  dB
  Satellite 4 PRN:  - Elevation: ° - Azimuth: ° - SNR:  dB

2024-10-15 14:26:51,029 [INFO] Processing sentence: $GQGSV,1,1,00,8*6C
2024-10-15 14:26:51,029 [INFO] Received Standard NMEA Message: $GQGSV,1,1,00,8*6C
2024-10-15 14:26:51,029 [INFO] GSV - Satellites in View:
  Number of Messages: 1
  Message Number: 1
  Total Satellites in View: 00
  Satellite 1 PRN: 8 - Elevation: ° - Azimuth: ° - SNR:  dB
  Satellite 2 PRN:  - Elevation: ° - Azimuth: ° - SNR:  dB
  Satellite 3 PRN:  - Elevation: ° - Azimuth: ° - SNR:  dB
  Satellite 4 PRN:  - Elevation: ° - Azimuth: ° - SNR:  dB

2024-10-15 14:26:51,029 [INFO] Processing sentence: $GNGGA,203348.000,4910.427079,N,12304.402012,W,1,22,0.76,8.918,M,-16.816,M,,*40
2024-10-15 14:26:51,029 [INFO] Received Standard NMEA Message: $GNGGA,203348.000,4910.427079,N,12304.402012,W,1,22,0.76,8.918,M,-16.816,M,,*40
2024-10-15 14:26:51,029 [INFO] GGA - Fix Data:
  Timestamp: 20:33:48+00:00
  Latitude: 49.17378465 N
  Longitude: -123.07336686666666 W
  GPS Quality Indicator: 1
  Number of Satellites in Use: 22
  Horizontal Dilution of Precision (HDOP): 0.76
  Antenna Altitude (Above Mean Sea Level): 8.918 M
  Geoidal Separation: -16.816 M
  Age of Differential GPS Data: 
  Differential Reference Station ID: 

2024-10-15 14:26:51,030 [INFO] Processing sentence: $GNRMC,203348.000,A,4910.427079,N,12304.402012,W,0.014,126.46,151024,,,A,V*25
2024-10-15 14:26:51,030 [INFO] Received Standard NMEA Message: $GNRMC,203348.000,A,4910.427079,N,12304.402012,W,0.014,126.46,151024,,,A,V*25
2024-10-15 14:26:51,030 [INFO] RMC - Recommended Minimum:
  Timestamp: 20:33:48+00:00
  Status: A
  Latitude: 49.17378465 N
  Longitude: -123.07336686666666 W
  Speed over Ground: 0.014 knots
  Course over Ground: 126.46
  Date: 2024-10-15
  Magnetic Variation:  
  Mode Indicator: A
  Navigational Status: V

2024-10-15 14:26:51,030 [INFO] Processing sentence: $GNGLL,4910.427079,N,12304.402012,W,203348.000,A,A*59
2024-10-15 14:26:51,030 [INFO] Received Standard NMEA Message: $GNGLL,4910.427079,N,12304.402012,W,203348.000,A,A*59
2024-10-15 14:26:51,030 [INFO] GLL - Geographic Position:
  Latitude: 49.17378465 N
  Longitude: -123.07336686666666 W
  Timestamp: 20:33:48+00:00
  Status: A
  FAA Mode: A

2024-10-15 14:26:51,030 [INFO] Processing sentence: $GNVTG,126.46,T,,M,0.014,N,0.026,K,A*25
2024-10-15 14:26:51,030 [INFO] Received Standard NMEA Message: $GNVTG,126.46,T,,M,0.014,N,0.026,K,A*25
2024-10-15 14:26:51,030 [INFO] VTG - Course over Ground and Ground Speed:
  True Track: 126.46° T
  Magnetic Track: None° M
  Speed over Ground: 0.014 knots / 0.026 km/h
  FAA Mode: A

2024-10-15 14:26:51,030 [INFO] Processing sentence: $GNGSA,A,3,03,04,06,09,16,26,28,31,,,,,1.36,0.76,1.12,1*05
2024-10-15 14:26:51,030 [INFO] Received Standard NMEA Message: $GNGSA,A,3,03,04,06,09,16,26,28,31,,,,,1.36,0.76,1.12,1*05
2024-10-15 14:26:51,030 [INFO] GSA - Satellite Info:
  Mode: A
  Mode Fix Type: 3
  Satellites Used: 03, 04, 06, 09, 16, 26, 28, 31
  PDOP: 1.36
  HDOP: 0.76
  VDOP: 1.12

2024-10-15 14:26:51,031 [INFO] Processing sentence: $GNGSA,A,3,72,,,,,,,,,,,,1.36,0.76,1.12,2*00
2024-10-15 14:26:51,031 [INFO] Received Standard NMEA Message: $GNGSA,A,3,72,,,,,,,,,,,,1.36,0.76,1.12,2*00
2024-10-15 14:26:51,031 [INFO] GSA - Satellite Info:
  Mode: A
  Mode Fix Type: 3
  Satellites Used: 72
  PDOP: 1.36
  HDOP: 0.76
  VDOP: 1.12

2024-10-15 14:26:51,031 [INFO] Processing sentence: $GNGSA,A,3,03,05,13,24,25,15,,,,,,,1.36,0.76,1.12,3*05
2024-10-15 14:26:51,031 [INFO] Received Standard NMEA Message: $GNGSA,A,3,03,05,13,24,25,15,,,,,,,1.36,0.76,1.12,3*05
2024-10-15 14:26:51,031 [INFO] GSA - Satellite Info:
  Mode: A
  Mode Fix Type: 3
  Satellites Used: 03, 05, 13, 24, 25, 15
  PDOP: 1.36
  HDOP: 0.76
  VDOP: 1.12

2024-10-15 14:26:51,031 [INFO] Processing sentence: $GNGSA,A,3,12,19,20,22,36,37,44,,,,,,1.36,0.76,1.12,4*0B
2024-10-15 14:26:51,031 [INFO] Received Standard NMEA Message: $GNGSA,A,3,12,19,20,22,36,37,44,,,,,,1.36,0.76,1.12,4*0B
2024-10-15 14:26:51,031 [INFO] GSA - Satellite Info:
  Mode: A
  Mode Fix Type: 3
  Satellites Used: 12, 19, 20, 22, 36, 37, 44
  PDOP: 1.36
  HDOP: 0.76
  VDOP: 1.12

2024-10-15 14:26:51,031 [INFO] Processing sentence: $GNGSA,A,3,,,,,,,,,,,,,1.36,0.76,1.12,5*02
2024-10-15 14:26:51,031 [INFO] Received Standard NMEA Message: $GNGSA,A,3,,,,,,,,,,,,,1.36,0.76,1.12,5*02
2024-10-15 14:26:51,031 [INFO] GSA - Satellite Info:
  Mode: A
  Mode Fix Type: 3
  Satellites Used: 
  PDOP: 1.36
  HDOP: 0.76
  VDOP: 1.12

2024-10-15 14:26:51,031 [INFO] Processing sentence: $GPGSV,3,1,10,03,67,180,29,04,67,293,26,06,24,305,22,07,,,20,1*5D
2024-10-15 14:26:51,031 [INFO] Received Standard NMEA Message: $GPGSV,3,1,10,03,67,180,29,04,67,293,26,06,24,305,22,07,,,20,1*5D
2024-10-15 14:26:51,031 [INFO] GSV - Satellites in View:
  Number of Messages: 3
  Message Number: 1
  Total Satellites in View: 10
  Satellite 1 PRN: 03 - Elevation: 67° - Azimuth: 180° - SNR: 29 dB
  Satellite 2 PRN: 04 - Elevation: 67° - Azimuth: 293° - SNR: 26 dB
  Satellite 3 PRN: 06 - Elevation: 24° - Azimuth: 305° - SNR: 22 dB
  Satellite 4 PRN: 07 - Elevation: ° - Azimuth: ° - SNR: 20 dB

2024-10-15 14:26:51,031 [INFO] Processing sentence: $GPGSV,3,2,10,09,34,281,23,16,27,132,25,26,40,091,27,28,14,052,19,1*68
2024-10-15 14:26:51,031 [INFO] Received Standard NMEA Message: $GPGSV,3,2,10,09,34,281,23,16,27,132,25,26,40,091,27,28,14,052,19,1*68
2024-10-15 14:26:51,032 [INFO] GSV - Satellites in View:
  Number of Messages: 3
  Message Number: 2
  Total Satellites in View: 10
  Satellite 1 PRN: 09 - Elevation: 34° - Azimuth: 281° - SNR: 23 dB
  Satellite 2 PRN: 16 - Elevation: 27° - Azimuth: 132° - SNR: 25 dB
  Satellite 3 PRN: 26 - Elevation: 40° - Azimuth: 091° - SNR: 27 dB
  Satellite 4 PRN: 28 - Elevation: 14° - Azimuth: 052° - SNR: 19 dB

2024-10-15 14:26:51,032 [INFO] Processing sentence: $GPGSV,3,3,10,31,47,059,28,44,33,172,24,1*60
2024-10-15 14:26:51,032 [INFO] Received Standard NMEA Message: $GPGSV,3,3,10,31,47,059,28,44,33,172,24,1*60
2024-10-15 14:26:51,032 [INFO] GSV - Satellites in View:
  Number of Messages: 3
  Message Number: 3
  Total Satellites in View: 10
  Satellite 1 PRN: 31 - Elevation: 47° - Azimuth: 059° - SNR: 28 dB
  Satellite 2 PRN: 44 - Elevation: 33° - Azimuth: 172° - SNR: 24 dB
  Satellite 3 PRN: 1 - Elevation: ° - Azimuth: ° - SNR:  dB
  Satellite 4 PRN:  - Elevation: ° - Azimuth: ° - SNR:  dB

2024-10-15 14:26:51,032 [INFO] Processing sentence: $GPGSV,2,1,06,03,67,180,28,04,67,293,27,06,24,305,22,09,34,281,23,8*63
2024-10-15 14:26:51,032 [INFO] Received Standard NMEA Message: $GPGSV,2,1,06,03,67,180,28,04,67,293,27,06,24,305,22,09,34,281,23,8*63
2024-10-15 14:26:51,032 [INFO] GSV - Satellites in View:
  Number of Messages: 2
  Message Number: 1
  Total Satellites in View: 06
  Satellite 1 PRN: 03 - Elevation: 67° - Azimuth: 180° - SNR: 28 dB
  Satellite 2 PRN: 04 - Elevation: 67° - Azimuth: 293° - SNR: 27 dB
  Satellite 3 PRN: 06 - Elevation: 24° - Azimuth: 305° - SNR: 22 dB
  Satellite 4 PRN: 09 - Elevation: 34° - Azimuth: 281° - SNR: 23 dB

2024-10-15 14:26:51,032 [INFO] Processing sentence: $GPGSV,2,2,06,26,40,091,23,28,14,052,17,8*6C
2024-10-15 14:26:51,032 [INFO] Received Standard NMEA Message: $GPGSV,2,2,06,26,40,091,23,28,14,052,17,8*6C
2024-10-15 14:26:51,032 [INFO] GSV - Satellites in View:
  Number of Messages: 2
  Message Number: 2
  Total Satellites in View: 06
  Satellite 1 PRN: 26 - Elevation: 40° - Azimuth: 091° - SNR: 23 dB
  Satellite 2 PRN: 28 - Elevation: 14° - Azimuth: 052° - SNR: 17 dB
  Satellite 3 PRN: 8 - Elevation: ° - Azimuth: ° - SNR:  dB
  Satellite 4 PRN:  - Elevation: ° - Azimuth: ° - SNR:  dB

2024-10-15 14:26:51,032 [INFO] Processing sentence: $GLGSV,1,1,02,65,,,17,72,62,079,20,1*42
2024-10-15 14:26:51,032 [INFO] Received Standard NMEA Message: $GLGSV,1,1,02,65,,,17,72,62,079,20,1*42
2024-10-15 14:26:51,032 [INFO] GSV - Satellites in View:
  Number of Messages: 1
  Message Number: 1
  Total Satellites in View: 02
  Satellite 1 PRN: 65 - Elevation: ° - Azimuth: ° - SNR: 17 dB
  Satellite 2 PRN: 72 - Elevation: 62° - Azimuth: 079° - SNR: 20 dB
  Satellite 3 PRN: 1 - Elevation: ° - Azimuth: ° - SNR:  dB
  Satellite 4 PRN:  - Elevation: ° - Azimuth: ° - SNR:  dB

2024-10-15 14:26:51,033 [INFO] Processing sentence: $GAGSV,2,1,05,03,73,299,25,05,47,082,23,13,26,309,19,24,35,078,21,7*72
2024-10-15 14:26:51,033 [INFO] Received Standard NMEA Message: $GAGSV,2,1,05,03,73,299,25,05,47,082,23,13,26,309,19,24,35,078,21,7*72
2024-10-15 14:26:51,033 [INFO] GSV - Satellites in View:
  Number of Messages: 2
  Message Number: 1
  Total Satellites in View: 05
  Satellite 1 PRN: 03 - Elevation: 73° - Azimuth: 299° - SNR: 25 dB
  Satellite 2 PRN: 05 - Elevation: 47° - Azimuth: 082° - SNR: 23 dB
  Satellite 3 PRN: 13 - Elevation: 26° - Azimuth: 309° - SNR: 19 dB
  Satellite 4 PRN: 24 - Elevation: 35° - Azimuth: 078° - SNR: 21 dB

2024-10-15 14:26:51,033 [INFO] Processing sentence: $GAGSV,2,2,05,25,27,138,20,7*4C
2024-10-15 14:26:51,033 [INFO] Received Standard NMEA Message: $GAGSV,2,2,05,25,27,138,20,7*4C
2024-10-15 14:26:51,033 [INFO] GSV - Satellites in View:
  Number of Messages: 2
  Message Number: 2
  Total Satellites in View: 05
  Satellite 1 PRN: 25 - Elevation: 27° - Azimuth: 138° - SNR: 20 dB
  Satellite 2 PRN: 7 - Elevation: ° - Azimuth: ° - SNR:  dB
  Satellite 3 PRN:  - Elevation: ° - Azimuth: ° - SNR:  dB
  Satellite 4 PRN:  - Elevation: ° - Azimuth: ° - SNR:  dB

2024-10-15 14:26:51,033 [INFO] Processing sentence: $GAGSV,2,1,06,03,73,299,25,05,47,082,25,13,26,309,20,15,33,248,22,1*7D
2024-10-15 14:26:51,033 [INFO] Received Standard NMEA Message: $GAGSV,2,1,06,03,73,299,25,05,47,082,25,13,26,309,20,15,33,248,22,1*7D
2024-10-15 14:26:51,033 [INFO] GSV - Satellites in View:
  Number of Messages: 2
  Message Number: 1
  Total Satellites in View: 06
  Satellite 1 PRN: 03 - Elevation: 73° - Azimuth: 299° - SNR: 25 dB
  Satellite 2 PRN: 05 - Elevation: 47° - Azimuth: 082° - SNR: 25 dB
  Satellite 3 PRN: 13 - Elevation: 26° - Azimuth: 309° - SNR: 20 dB
  Satellite 4 PRN: 15 - Elevation: 33° - Azimuth: 248° - SNR: 22 dB

2024-10-15 14:26:51,033 [INFO] Processing sentence: $GAGSV,2,2,06,24,35,078,20,25,27,138,18,1*7F
2024-10-15 14:26:51,033 [INFO] Received Standard NMEA Message: $GAGSV,2,2,06,24,35,078,20,25,27,138,18,1*7F
2024-10-15 14:26:51,033 [INFO] GSV - Satellites in View:
  Number of Messages: 2
  Message Number: 2
  Total Satellites in View: 06
  Satellite 1 PRN: 24 - Elevation: 35° - Azimuth: 078° - SNR: 20 dB
  Satellite 2 PRN: 25 - Elevation: 27° - Azimuth: 138° - SNR: 18 dB
  Satellite 3 PRN: 1 - Elevation: ° - Azimuth: ° - SNR:  dB
  Satellite 4 PRN:  - Elevation: ° - Azimuth: ° - SNR:  dB

2024-10-15 14:26:51,033 [INFO] Processing sentence: $GBGSV,2,1,08,12,10,314,25,19,88,328,40,20,39,119,39,22,32,300,35,1*74
2024-10-15 14:26:51,033 [INFO] Received Standard NMEA Message: $GBGSV,2,1,08,12,10,314,25,19,88,328,40,20,39,119,39,22,32,300,35,1*74
2024-10-15 14:26:51,033 [INFO] GSV - Satellites in View:
  Number of Messages: 2
  Message Number: 1
  Total Satellites in View: 08
  Satellite 1 PRN: 12 - Elevation: 10° - Azimuth: 314° - SNR: 25 dB
  Satellite 2 PRN: 19 - Elevation: 88° - Azimuth: 328° - SNR: 40 dB
  Satellite 3 PRN: 20 - Elevation: 39° - Azimuth: 119° - SNR: 39 dB
  Satellite 4 PRN: 22 - Elevation: 32° - Azimuth: 300° - SNR: 35 dB

2024-10-15 14:26:51,033 [INFO] Processing sentence: $GBGSV,2,2,08,34,03,340,22,36,24,192,36,37,34,053,36,44,06,291,17,1*7B
2024-10-15 14:26:51,033 [INFO] Received Standard NMEA Message: $GBGSV,2,2,08,34,03,340,22,36,24,192,36,37,34,053,36,44,06,291,17,1*7B
2024-10-15 14:26:51,034 [INFO] GSV - Satellites in View:
  Number of Messages: 2
  Message Number: 2
  Total Satellites in View: 08
  Satellite 1 PRN: 34 - Elevation: 03° - Azimuth: 340° - SNR: 22 dB
  Satellite 2 PRN: 36 - Elevation: 24° - Azimuth: 192° - SNR: 36 dB
  Satellite 3 PRN: 37 - Elevation: 34° - Azimuth: 053° - SNR: 36 dB
  Satellite 4 PRN: 44 - Elevation: 06° - Azimuth: 291° - SNR: 17 dB

2024-10-15 14:26:51,034 [INFO] Processing sentence: $GBGSV,1,1,04,19,88,328,24,20,39,119,24,22,32,300,20,37,34,053,21,5*70
2024-10-15 14:26:51,034 [INFO] Received Standard NMEA Message: $GBGSV,1,1,04,19,88,328,24,20,39,119,24,22,32,300,20,37,34,053,21,5*70
2024-10-15 14:26:51,034 [INFO] GSV - Satellites in View:
  Number of Messages: 1
  Message Number: 1
  Total Satellites in View: 04
  Satellite 1 PRN: 19 - Elevation: 88° - Azimuth: 328° - SNR: 24 dB
  Satellite 2 PRN: 20 - Elevation: 39° - Azimuth: 119° - SNR: 24 dB
  Satellite 3 PRN: 22 - Elevation: 32° - Azimuth: 300° - SNR: 20 dB
  Satellite 4 PRN: 37 - Elevation: 34° - Azimuth: 053° - SNR: 21 dB

2024-10-15 14:26:51,035 [INFO] Processing sentence: $GQGSV,1,1,00,1*65
2024-10-15 14:26:51,035 [INFO] Received Standard NMEA Message: $GQGSV,1,1,00,1*65
2024-10-15 14:26:51,035 [INFO] GSV - Satellites in View:
  Number of Messages: 1
  Message Number: 1
  Total Satellites in View: 00
  Satellite 1 PRN: 1 - Elevation: ° - Azimuth: ° - SNR:  dB
  Satellite 2 PRN:  - Elevation: ° - Azimuth: ° - SNR:  dB
  Satellite 3 PRN:  - Elevation: ° - Azimuth: ° - SNR:  dB
  Satellite 4 PRN:  - Elevation: ° - Azimuth: ° - SNR:  dB

2024-10-15 14:26:51,035 [INFO] Processing sentence: $GQGSV,1,1,00,8*6C
2024-10-15 14:26:51,035 [INFO] Received Standard NMEA Message: $GQGSV,1,1,00,8*6C
2024-10-15 14:26:51,035 [INFO] GSV - Satellites in View:
  Number of Messages: 1
  Message Number: 1
  Total Satellites in View: 00
  Satellite 1 PRN: 8 - Elevation: ° - Azimuth: ° - SNR:  dB
  Satellite 2 PRN:  - Elevation: ° - Azimuth: ° - SNR:  dB
  Satellite 3 PRN:  - Elevation: ° - Azimuth: ° - SNR:  dB
  Satellite 4 PRN:  - Elevation: ° - Azimuth: ° - SNR:  dB

2024-10-15 14:26:51,036 [INFO] Processing sentence: $GNGGA,203349.000,4910.427082,N,12304.402008,W,1,22,0.76,8.920,M,-16.816,M,,*45
2024-10-15 14:26:51,036 [INFO] Received Standard NMEA Message: $GNGGA,203349.000,4910.427082,N,12304.402008,W,1,22,0.76,8.920,M,-16.816,M,,*45
2024-10-15 14:26:51,036 [INFO] GGA - Fix Data:
  Timestamp: 20:33:49+00:00
  Latitude: 49.1737847 N
  Longitude: -123.0733668 W
  GPS Quality Indicator: 1
  Number of Satellites in Use: 22
  Horizontal Dilution of Precision (HDOP): 0.76
  Antenna Altitude (Above Mean Sea Level): 8.92 M
  Geoidal Separation: -16.816 M
  Age of Differential GPS Data: 
  Differential Reference Station ID: 

2024-10-15 14:26:51,036 [INFO] Processing sentence: $GNRMC,203349.000,A,4910.427082,N,12304.402008,W,0.009,126.46,151024,,,A,V*27
2024-10-15 14:26:51,036 [INFO] Received Standard NMEA Message: $GNRMC,203349.000,A,4910.427082,N,12304.402008,W,0.009,126.46,151024,,,A,V*27
2024-10-15 14:26:51,036 [INFO] RMC - Recommended Minimum:
  Timestamp: 20:33:49+00:00
  Status: A
  Latitude: 49.1737847 N
  Longitude: -123.0733668 W
  Speed over Ground: 0.009 knots
  Course over Ground: 126.46
  Date: 2024-10-15
  Magnetic Variation:  
  Mode Indicator: A
  Navigational Status: V

2024-10-15 14:26:51,036 [INFO] Processing sentence: $GNGLL,4910.427082,N,12304.402008,W,203349.000,A,A*57
2024-10-15 14:26:51,036 [INFO] Received Standard NMEA Message: $GNGLL,4910.427082,N,12304.402008,W,203349.000,A,A*57
2024-10-15 14:26:51,036 [INFO] GLL - Geographic Position:
  Latitude: 49.1737847 N
  Longitude: -123.0733668 W
  Timestamp: 20:33:49+00:00
  Status: A
  FAA Mode: A

2024-10-15 14:26:51,037 [INFO] Processing sentence: $GNVTG,126.46,T,,M,0.009,N,0.017,K,A*2B
2024-10-15 14:26:51,037 [INFO] Received Standard NMEA Message: $GNVTG,126.46,T,,M,0.009,N,0.017,K,A*2B
2024-10-15 14:26:51,037 [INFO] VTG - Course over Ground and Ground Speed:
  True Track: 126.46° T
  Magnetic Track: None° M
  Speed over Ground: 0.009 knots / 0.017 km/h
  FAA Mode: A

2024-10-15 14:26:51,037 [INFO] Processing sentence: $GNGSA,A,3,03,04,06,09,16,26,28,31,,,,,1.36,0.76,1.12,1*05
2024-10-15 14:26:51,037 [INFO] Received Standard NMEA Message: $GNGSA,A,3,03,04,06,09,16,26,28,31,,,,,1.36,0.76,1.12,1*05
2024-10-15 14:26:51,037 [INFO] GSA - Satellite Info:
  Mode: A
  Mode Fix Type: 3
  Satellites Used: 03, 04, 06, 09, 16, 26, 28, 31
  PDOP: 1.36
  HDOP: 0.76
  VDOP: 1.12

2024-10-15 14:26:51,037 [INFO] Processing sentence: $GNGSA,A,3,72,,,,,,,,,,,,1.36,0.76,1.12,2*00
2024-10-15 14:26:51,037 [INFO] Received Standard NMEA Message: $GNGSA,A,3,72,,,,,,,,,,,,1.36,0.76,1.12,2*00
2024-10-15 14:26:51,037 [INFO] GSA - Satellite Info:
  Mode: A
  Mode Fix Type: 3
  Satellites Used: 72
  PDOP: 1.36
  HDOP: 0.76
  VDOP: 1.12

2024-10-15 14:26:51,038 [INFO] Processing sentence: $GNGSA,A,3,03,05,13,24,25,15,,,,,,,1.36,0.76,1.12,3*05
2024-10-15 14:26:51,038 [INFO] Received Standard NMEA Message: $GNGSA,A,3,03,05,13,24,25,15,,,,,,,1.36,0.76,1.12,3*05
2024-10-15 14:26:51,038 [INFO] GSA - Satellite Info:
  Mode: A
  Mode Fix Type: 3
  Satellites Used: 03, 05, 13, 24, 25, 15
  PDOP: 1.36
  HDOP: 0.76
  VDOP: 1.12

2024-10-15 14:26:51,038 [INFO] Processing sentence: $GNGSA,A,3,12,19,20,22,36,37,44,,,,,,1.36,0.76,1.12,4*0B
2024-10-15 14:26:51,038 [INFO] Received Standard NMEA Message: $GNGSA,A,3,12,19,20,22,36,37,44,,,,,,1.36,0.76,1.12,4*0B
2024-10-15 14:26:51,038 [INFO] GSA - Satellite Info:
  Mode: A
  Mode Fix Type: 3
  Satellites Used: 12, 19, 20, 22, 36, 37, 44
  PDOP: 1.36
  HDOP: 0.76
  VDOP: 1.12

2024-10-15 14:26:51,038 [INFO] Processing sentence: $GNGSA,A,3,,,,,,,,,,,,,1.36,0.76,1.12,5*02
2024-10-15 14:26:51,038 [INFO] Received Standard NMEA Message: $GNGSA,A,3,,,,,,,,,,,,,1.36,0.76,1.12,5*02
2024-10-15 14:26:51,038 [INFO] GSA - Satellite Info:
  Mode: A
  Mode Fix Type: 3
  Satellites Used: 
  PDOP: 1.36
  HDOP: 0.76
  VDOP: 1.12

2024-10-15 14:26:51,038 [INFO] Processing sentence: $GPGSV,3,1,10,03,67,180,29,04,67,293,26,06,24,305,23,07,,,18,1*57
2024-10-15 14:26:51,038 [INFO] Received Standard NMEA Message: $GPGSV,3,1,10,03,67,180,29,04,67,293,26,06,24,305,23,07,,,18,1*57
2024-10-15 14:26:51,039 [INFO] GSV - Satellites in View:
  Number of Messages: 3
  Message Number: 1
  Total Satellites in View: 10
  Satellite 1 PRN: 03 - Elevation: 67° - Azimuth: 180° - SNR: 29 dB
  Satellite 2 PRN: 04 - Elevation: 67° - Azimuth: 293° - SNR: 26 dB
  Satellite 3 PRN: 06 - Elevation: 24° - Azimuth: 305° - SNR: 23 dB
  Satellite 4 PRN: 07 - Elevation: ° - Azimuth: ° - SNR: 18 dB

2024-10-15 14:26:51,039 [INFO] Processing sentence: $GPGSV,3,2,10,09,34,281,23,16,27,132,24,26,40,091,26,28,14,052,17,1*66
2024-10-15 14:26:51,039 [INFO] Received Standard NMEA Message: $GPGSV,3,2,10,09,34,281,23,16,27,132,24,26,40,091,26,28,14,052,17,1*66
2024-10-15 14:26:51,039 [INFO] GSV - Satellites in View:
  Number of Messages: 3
  Message Number: 2
  Total Satellites in View: 10
  Satellite 1 PRN: 09 - Elevation: 34° - Azimuth: 281° - SNR: 23 dB
  Satellite 2 PRN: 16 - Elevation: 27° - Azimuth: 132° - SNR: 24 dB
  Satellite 3 PRN: 26 - Elevation: 40° - Azimuth: 091° - SNR: 26 dB
  Satellite 4 PRN: 28 - Elevation: 14° - Azimuth: 052° - SNR: 17 dB

2024-10-15 14:26:51,039 [INFO] Processing sentence: $GPGSV,3,3,10,31,47,059,27,44,33,172,24,1*6F
2024-10-15 14:26:51,039 [INFO] Received Standard NMEA Message: $GPGSV,3,3,10,31,47,059,27,44,33,172,24,1*6F
2024-10-15 14:26:51,039 [INFO] GSV - Satellites in View:
  Number of Messages: 3
  Message Number: 3
  Total Satellites in View: 10
  Satellite 1 PRN: 31 - Elevation: 47° - Azimuth: 059° - SNR: 27 dB
  Satellite 2 PRN: 44 - Elevation: 33° - Azimuth: 172° - SNR: 24 dB
  Satellite 3 PRN: 1 - Elevation: ° - Azimuth: ° - SNR:  dB
  Satellite 4 PRN:  - Elevation: ° - Azimuth: ° - SNR:  dB

2024-10-15 14:26:51,039 [INFO] Processing sentence: $GPGSV,2,1,06,03,67,180,28,04,67,293,27,06,24,305,23,09,34,281,21,8*60
2024-10-15 14:26:51,039 [INFO] Received Standard NMEA Message: $GPGSV,2,1,06,03,67,180,28,04,67,293,27,06,24,305,23,09,34,281,21,8*60
2024-10-15 14:26:51,039 [INFO] GSV - Satellites in View:
  Number of Messages: 2
  Message Number: 1
  Total Satellites in View: 06
  Satellite 1 PRN: 03 - Elevation: 67° - Azimuth: 180° - SNR: 28 dB
  Satellite 2 PRN: 04 - Elevation: 67° - Azimuth: 293° - SNR: 27 dB
  Satellite 3 PRN: 06 - Elevation: 24° - Azimuth: 305° - SNR: 23 dB
  Satellite 4 PRN: 09 - Elevation: 34° - Azimuth: 281° - SNR: 21 dB

2024-10-15 14:26:51,040 [INFO] Processing sentence: $GPGSV,2,2,06,26,40,091,24,28,14,052,17,8*6B
2024-10-15 14:26:51,040 [INFO] Received Standard NMEA Message: $GPGSV,2,2,06,26,40,091,24,28,14,052,17,8*6B
2024-10-15 14:26:51,040 [INFO] GSV - Satellites in View:
  Number of Messages: 2
  Message Number: 2
  Total Satellites in View: 06
  Satellite 1 PRN: 26 - Elevation: 40° - Azimuth: 091° - SNR: 24 dB
  Satellite 2 PRN: 28 - Elevation: 14° - Azimuth: 052° - SNR: 17 dB
  Satellite 3 PRN: 8 - Elevation: ° - Azimuth: ° - SNR:  dB
  Satellite 4 PRN:  - Elevation: ° - Azimuth: ° - SNR:  dB

2024-10-15 14:26:51,040 [INFO] Processing sentence: $GLGSV,1,1,02,65,,,18,72,62,079,19,1*47
2024-10-15 14:26:51,040 [INFO] Received Standard NMEA Message: $GLGSV,1,1,02,65,,,18,72,62,079,19,1*47
2024-10-15 14:26:51,040 [INFO] GSV - Satellites in View:
  Number of Messages: 1
  Message Number: 1
  Total Satellites in View: 02
  Satellite 1 PRN: 65 - Elevation: ° - Azimuth: ° - SNR: 18 dB
  Satellite 2 PRN: 72 - Elevation: 62° - Azimuth: 079° - SNR: 19 dB
  Satellite 3 PRN: 1 - Elevation: ° - Azimuth: ° - SNR:  dB
  Satellite 4 PRN:  - Elevation: ° - Azimuth: ° - SNR:  dB

2024-10-15 14:26:51,040 [INFO] Processing sentence: $GAGSV,2,1,05,03,73,299,26,05,47,082,24,13,26,309,19,24,35,078,22,7*75
2024-10-15 14:26:51,040 [INFO] Received Standard NMEA Message: $GAGSV,2,1,05,03,73,299,26,05,47,082,24,13,26,309,19,24,35,078,22,7*75
2024-10-15 14:26:51,040 [INFO] GSV - Satellites in View:
  Number of Messages: 2
  Message Number: 1
  Total Satellites in View: 05
  Satellite 1 PRN: 03 - Elevation: 73° - Azimuth: 299° - SNR: 26 dB
  Satellite 2 PRN: 05 - Elevation: 47° - Azimuth: 082° - SNR: 24 dB
  Satellite 3 PRN: 13 - Elevation: 26° - Azimuth: 309° - SNR: 19 dB
  Satellite 4 PRN: 24 - Elevation: 35° - Azimuth: 078° - SNR: 22 dB

2024-10-15 14:26:51,040 [INFO] Processing sentence: $GAGSV,2,2,05,25,27,138,20,7*4C
2024-10-15 14:26:51,041 [INFO] Received Standard NMEA Message: $GAGSV,2,2,05,25,27,138,20,7*4C
2024-10-15 14:26:51,041 [INFO] GSV - Satellites in View:
  Number of Messages: 2
  Message Number: 2
  Total Satellites in View: 05
  Satellite 1 PRN: 25 - Elevation: 27° - Azimuth: 138° - SNR: 20 dB
  Satellite 2 PRN: 7 - Elevation: ° - Azimuth: ° - SNR:  dB
  Satellite 3 PRN:  - Elevation: ° - Azimuth: ° - SNR:  dB
  Satellite 4 PRN:  - Elevation: ° - Azimuth: ° - SNR:  dB

2024-10-15 14:26:51,041 [INFO] Processing sentence: $GAGSV,2,1,06,03,73,299,25,05,47,082,24,13,26,309,19,15,33,248,22,1*76
2024-10-15 14:26:51,041 [INFO] Received Standard NMEA Message: $GAGSV,2,1,06,03,73,299,25,05,47,082,24,13,26,309,19,15,33,248,22,1*76
2024-10-15 14:26:51,041 [INFO] GSV - Satellites in View:
  Number of Messages: 2
  Message Number: 1
  Total Satellites in View: 06
  Satellite 1 PRN: 03 - Elevation: 73° - Azimuth: 299° - SNR: 25 dB
  Satellite 2 PRN: 05 - Elevation: 47° - Azimuth: 082° - SNR: 24 dB
  Satellite 3 PRN: 13 - Elevation: 26° - Azimuth: 309° - SNR: 19 dB
  Satellite 4 PRN: 15 - Elevation: 33° - Azimuth: 248° - SNR: 22 dB

2024-10-15 14:26:51,041 [INFO] Processing sentence: $GAGSV,2,2,06,24,35,078,20,25,27,138,18,1*7F
2024-10-15 14:26:51,041 [INFO] Received Standard NMEA Message: $GAGSV,2,2,06,24,35,078,20,25,27,138,18,1*7F
2024-10-15 14:26:51,041 [INFO] GSV - Satellites in View:
  Number of Messages: 2
  Message Number: 2
  Total Satellites in View: 06
  Satellite 1 PRN: 24 - Elevation: 35° - Azimuth: 078° - SNR: 20 dB
  Satellite 2 PRN: 25 - Elevation: 27° - Azimuth: 138° - SNR: 18 dB
  Satellite 3 PRN: 1 - Elevation: ° - Azimuth: ° - SNR:  dB
  Satellite 4 PRN:  - Elevation: ° - Azimuth: ° - SNR:  dB

2024-10-15 14:26:51,041 [INFO] Processing sentence: $GBGSV,2,1,08,12,10,314,24,19,88,328,40,20,39,119,38,22,32,300,35,1*74
2024-10-15 14:26:51,041 [INFO] Received Standard NMEA Message: $GBGSV,2,1,08,12,10,314,24,19,88,328,40,20,39,119,38,22,32,300,35,1*74
2024-10-15 14:26:51,042 [INFO] GSV - Satellites in View:
  Number of Messages: 2
  Message Number: 1
  Total Satellites in View: 08
  Satellite 1 PRN: 12 - Elevation: 10° - Azimuth: 314° - SNR: 24 dB
  Satellite 2 PRN: 19 - Elevation: 88° - Azimuth: 328° - SNR: 40 dB
  Satellite 3 PRN: 20 - Elevation: 39° - Azimuth: 119° - SNR: 38 dB
  Satellite 4 PRN: 22 - Elevation: 32° - Azimuth: 300° - SNR: 35 dB

2024-10-15 14:26:51,042 [INFO] Processing sentence: $GBGSV,2,2,08,34,03,340,23,36,24,192,36,37,34,053,36,44,06,291,17,1*7A
2024-10-15 14:26:51,042 [INFO] Received Standard NMEA Message: $GBGSV,2,2,08,34,03,340,23,36,24,192,36,37,34,053,36,44,06,291,17,1*7A
2024-10-15 14:26:51,042 [INFO] GSV - Satellites in View:
  Number of Messages: 2
  Message Number: 2
  Total Satellites in View: 08
  Satellite 1 PRN: 34 - Elevation: 03° - Azimuth: 340° - SNR: 23 dB
  Satellite 2 PRN: 36 - Elevation: 24° - Azimuth: 192° - SNR: 36 dB
  Satellite 3 PRN: 37 - Elevation: 34° - Azimuth: 053° - SNR: 36 dB
  Satellite 4 PRN: 44 - Elevation: 06° - Azimuth: 291° - SNR: 17 dB

2024-10-15 14:26:51,042 [INFO] Processing sentence: $GBGSV,1,1,04,19,88,328,24,20,39,119,23,22,32,300,20,37,34,053,21,5*77
2024-10-15 14:26:51,042 [INFO] Received Standard NMEA Message: $GBGSV,1,1,04,19,88,328,24,20,39,119,23,22,32,300,20,37,34,053,21,5*77
2024-10-15 14:26:51,042 [INFO] GSV - Satellites in View:
  Number of Messages: 1
  Message Number: 1
  Total Satellites in View: 04
  Satellite 1 PRN: 19 - Elevation: 88° - Azimuth: 328° - SNR: 24 dB
  Satellite 2 PRN: 20 - Elevation: 39° - Azimuth: 119° - SNR: 23 dB
  Satellite 3 PRN: 22 - Elevation: 32° - Azimuth: 300° - SNR: 20 dB
  Satellite 4 PRN: 37 - Elevation: 34° - Azimuth: 053° - SNR: 21 dB

2024-10-15 14:26:51,042 [INFO] Processing sentence: $GQGSV,1,1,00,1*65
2024-10-15 14:26:51,042 [INFO] Received Standard NMEA Message: $GQGSV,1,1,00,1*65
2024-10-15 14:26:51,043 [INFO] GSV - Satellites in View:
  Number of Messages: 1
  Message Number: 1
  Total Satellites in View: 00
  Satellite 1 PRN: 1 - Elevation: ° - Azimuth: ° - SNR:  dB
  Satellite 2 PRN:  - Elevation: ° - Azimuth: ° - SNR:  dB
  Satellite 3 PRN:  - Elevation: ° - Azimuth: ° - SNR:  dB
  Satellite 4 PRN:  - Elevation: ° - Azimuth: ° - SNR:  dB

2024-10-15 14:26:51,043 [INFO] Processing sentence: $GQGSV,1,1,00,8*6C
2024-10-15 14:26:51,043 [INFO] Received Standard NMEA Message: $GQGSV,1,1,00,8*6C
2024-10-15 14:26:51,043 [INFO] GSV - Satellites in View:
  Number of Messages: 1
  Message Number: 1
  Total Satellites in View: 00
  Satellite 1 PRN: 8 - Elevation: ° - Azimuth: ° - SNR:  dB
  Satellite 2 PRN:  - Elevation: ° - Azimuth: ° - SNR:  dB
  Satellite 3 PRN:  - Elevation: ° - Azimuth: ° - SNR:  dB
  Satellite 4 PRN:  - Elevation: ° - Azimuth: ° - SNR:  dB

2024-10-15 14:26:51,043 [INFO] Processing sentence: $GNGGA,203350.000,4910.427085,N,12304.402005,W,1,22,0.76,8.922,M,-16.816,M,,*45
2024-10-15 14:26:51,043 [INFO] Received Standard NMEA Message: $GNGGA,203350.000,4910.427085,N,12304.402005,W,1,22,0.76,8.922,M,-16.816,M,,*45
2024-10-15 14:26:51,043 [INFO] GGA - Fix Data:
  Timestamp: 20:33:50+00:00
  Latitude: 49.17378475 N
  Longitude: -123.07336675 W
  GPS Quality Indicator: 1
  Number of Satellites in Use: 22
  Horizontal Dilution of Precision (HDOP): 0.76
  Antenna Altitude (Above Mean Sea Level): 8.922 M
  Geoidal Separation: -16.816 M
  Age of Differential GPS Data: 
  Differential Reference Station ID: 

2024-10-15 14:26:51,043 [INFO] Processing sentence: $GNRMC,203350.000,A,4910.427085,N,12304.402005,W,0.012,126.46,151024,,,A,V*2F
2024-10-15 14:26:51,043 [INFO] Received Standard NMEA Message: $GNRMC,203350.000,A,4910.427085,N,12304.402005,W,0.012,126.46,151024,,,A,V*2F
2024-10-15 14:26:51,043 [INFO] RMC - Recommended Minimum:
  Timestamp: 20:33:50+00:00
  Status: A
  Latitude: 49.17378475 N
  Longitude: -123.07336675 W
  Speed over Ground: 0.012 knots
  Course over Ground: 126.46
  Date: 2024-10-15
  Magnetic Variation:  
  Mode Indicator: A
  Navigational Status: V

2024-10-15 14:26:51,044 [INFO] Processing sentence: $GNGLL,4910.427085,N,12304.402005,W,203350.000,A,A*55
2024-10-15 14:26:51,044 [INFO] Received Standard NMEA Message: $GNGLL,4910.427085,N,12304.402005,W,203350.000,A,A*55
2024-10-15 14:26:51,044 [INFO] GLL - Geographic Position:
  Latitude: 49.17378475 N
  Longitude: -123.07336675 W
  Timestamp: 20:33:50+00:00
  Status: A
  FAA Mode: A

2024-10-15 14:26:51,044 [INFO] Processing sentence: $GNVTG,126.46,T,,M,0.012,N,0.022,K,A*27
2024-10-15 14:26:51,044 [INFO] Received Standard NMEA Message: $GNVTG,126.46,T,,M,0.012,N,0.022,K,A*27
2024-10-15 14:26:51,044 [INFO] VTG - Course over Ground and Ground Speed:
  True Track: 126.46° T
  Magnetic Track: None° M
  Speed over Ground: 0.012 knots / 0.022 km/h
  FAA Mode: A

2024-10-15 14:26:51,044 [INFO] Processing sentence: $GNGSA,A,3,03,04,06,09,16,26,28,31,,,,,1.36,0.76,1.12,1*05
2024-10-15 14:26:51,044 [INFO] Received Standard NMEA Message: $GNGSA,A,3,03,04,06,09,16,26,28,31,,,,,1.36,0.76,1.12,1*05
2024-10-15 14:26:51,044 [INFO] GSA - Satellite Info:
  Mode: A
  Mode Fix Type: 3
  Satellites Used: 03, 04, 06, 09, 16, 26, 28, 31
  PDOP: 1.36
  HDOP: 0.76
  VDOP: 1.12

2024-10-15 14:26:51,044 [INFO] Processing sentence: $GNGSA,A,3,72,,,,,,,,,,,,1.36,0.76,1.12,2*00
2024-10-15 14:26:51,044 [INFO] Received Standard NMEA Message: $GNGSA,A,3,72,,,,,,,,,,,,1.36,0.76,1.12,2*00
2024-10-15 14:26:51,044 [INFO] GSA - Satellite Info:
  Mode: A
  Mode Fix Type: 3
  Satellites Used: 72
  PDOP: 1.36
  HDOP: 0.76
  VDOP: 1.12

2024-10-15 14:26:51,044 [INFO] Processing sentence: $GNGSA,A,3,03,05,13,24,25,15,,,,,,,1.36,0.76,1.12,3*05
2024-10-15 14:26:51,044 [INFO] Received Standard NMEA Message: $GNGSA,A,3,03,05,13,24,25,15,,,,,,,1.36,0.76,1.12,3*05
2024-10-15 14:26:51,045 [INFO] GSA - Satellite Info:
  Mode: A
  Mode Fix Type: 3
  Satellites Used: 03, 05, 13, 24, 25, 15
  PDOP: 1.36
  HDOP: 0.76
  VDOP: 1.12

2024-10-15 14:26:51,045 [INFO] Processing sentence: $GNGSA,A,3,12,19,20,22,36,37,44,,,,,,1.36,0.76,1.12,4*0B
2024-10-15 14:26:51,045 [INFO] Received Standard NMEA Message: $GNGSA,A,3,12,19,20,22,36,37,44,,,,,,1.36,0.76,1.12,4*0B
2024-10-15 14:26:51,045 [INFO] GSA - Satellite Info:
  Mode: A
  Mode Fix Type: 3
  Satellites Used: 12, 19, 20, 22, 36, 37, 44
  PDOP: 1.36
  HDOP: 0.76
  VDOP: 1.12

2024-10-15 14:26:51,045 [INFO] Processing sentence: $GNGSA,A,3,,,,,,,,,,,,,1.36,0.76,1.12,5*02
2024-10-15 14:26:51,045 [INFO] Received Standard NMEA Message: $GNGSA,A,3,,,,,,,,,,,,,1.36,0.76,1.12,5*02
2024-10-15 14:26:51,045 [INFO] GSA - Satellite Info:
  Mode: A
  Mode Fix Type: 3
  Satellites Used: 
  PDOP: 1.36
  HDOP: 0.76
  VDOP: 1.12

2024-10-15 14:26:51,045 [INFO] Processing sentence: $GPGSV,3,1,10,03,67,180,29,04,67,293,28,06,24,305,21,07,,,19,1*5A
2024-10-15 14:26:51,045 [INFO] Received Standard NMEA Message: $GPGSV,3,1,10,03,67,180,29,04,67,293,28,06,24,305,21,07,,,19,1*5A
2024-10-15 14:26:51,045 [INFO] GSV - Satellites in View:
  Number of Messages: 3
  Message Number: 1
  Total Satellites in View: 10
  Satellite 1 PRN: 03 - Elevation: 67° - Azimuth: 180° - SNR: 29 dB
  Satellite 2 PRN: 04 - Elevation: 67° - Azimuth: 293° - SNR: 28 dB
  Satellite 3 PRN: 06 - Elevation: 24° - Azimuth: 305° - SNR: 21 dB
  Satellite 4 PRN: 07 - Elevation: ° - Azimuth: ° - SNR: 19 dB

2024-10-15 14:26:51,045 [INFO] Processing sentence: $GPGSV,3,2,10,09,34,281,23,16,27,132,24,26,40,091,27,28,14,052,18,1*68
2024-10-15 14:26:51,045 [INFO] Received Standard NMEA Message: $GPGSV,3,2,10,09,34,281,23,16,27,132,24,26,40,091,27,28,14,052,18,1*68
2024-10-15 14:26:51,045 [INFO] GSV - Satellites in View:
  Number of Messages: 3
  Message Number: 2
  Total Satellites in View: 10
  Satellite 1 PRN: 09 - Elevation: 34° - Azimuth: 281° - SNR: 23 dB
  Satellite 2 PRN: 16 - Elevation: 27° - Azimuth: 132° - SNR: 24 dB
  Satellite 3 PRN: 26 - Elevation: 40° - Azimuth: 091° - SNR: 27 dB
  Satellite 4 PRN: 28 - Elevation: 14° - Azimuth: 052° - SNR: 18 dB

2024-10-15 14:26:51,045 [INFO] Processing sentence: $GPGSV,3,3,10,31,47,059,29,44,33,172,24,1*61
2024-10-15 14:26:51,045 [INFO] Received Standard NMEA Message: $GPGSV,3,3,10,31,47,059,29,44,33,172,24,1*61
2024-10-15 14:26:51,046 [INFO] GSV - Satellites in View:
  Number of Messages: 3
  Message Number: 3
  Total Satellites in View: 10
  Satellite 1 PRN: 31 - Elevation: 47° - Azimuth: 059° - SNR: 29 dB
  Satellite 2 PRN: 44 - Elevation: 33° - Azimuth: 172° - SNR: 24 dB
  Satellite 3 PRN: 1 - Elevation: ° - Azimuth: ° - SNR:  dB
  Satellite 4 PRN:  - Elevation: ° - Azimuth: ° - SNR:  dB

2024-10-15 14:26:51,046 [INFO] Processing sentence: $GPGSV,2,1,06,03,67,180,28,04,67,293,27,06,24,305,21,09,34,281,23,8*60
2024-10-15 14:26:51,046 [INFO] Received Standard NMEA Message: $GPGSV,2,1,06,03,67,180,28,04,67,293,27,06,24,305,21,09,34,281,23,8*60
2024-10-15 14:26:51,046 [INFO] GSV - Satellites in View:
  Number of Messages: 2
  Message Number: 1
  Total Satellites in View: 06
  Satellite 1 PRN: 03 - Elevation: 67° - Azimuth: 180° - SNR: 28 dB
  Satellite 2 PRN: 04 - Elevation: 67° - Azimuth: 293° - SNR: 27 dB
  Satellite 3 PRN: 06 - Elevation: 24° - Azimuth: 305° - SNR: 21 dB
  Satellite 4 PRN: 09 - Elevation: 34° - Azimuth: 281° - SNR: 23 dB

2024-10-15 14:26:51,046 [INFO] Processing sentence: $GPGSV,2,2,06,26,40,091,24,28,14,052,17,8*6B
2024-10-15 14:26:51,046 [INFO] Received Standard NMEA Message: $GPGSV,2,2,06,26,40,091,24,28,14,052,17,8*6B
2024-10-15 14:26:51,046 [INFO] GSV - Satellites in View:
  Number of Messages: 2
  Message Number: 2
  Total Satellites in View: 06
