$PQTMPVT,1,342270000,20241030,230412.000,,3,29,18,49.17376461,-123.07336811,11.755,-16.816,0.000,-0.000,-0.000,0.000,281.46,0.66,1.21*61
$PQTMDOP,1,342270000,2.27,1.21,1.93,1.01,0.66,0.50,0.43*7C
$GNGGA,230412.000,4910.425876,N,12304.402086,W,1,29,0.66,11.755,M,-16.816,M,,*75
$GNRMC,230412.000,A,4910.425876,N,12304.402086,W,0.001,281.46,301024,,,A,V*28
$GNGLL,4910.425876,N,12304.402086,W,230412.000,A,A*59
$GNVTG,281.46,T,,M,0.001,N,0.001,K,A*2A
$GNGSA,A,3,04,05,07,08,09,14,16,20,27,30,,,1.21,0.66,1.01,1*02
$GNGSA,A,3,65,66,75,76,,,,,,,,,1.21,0.66,1.01,2*00
$GNGSA,A,3,04,06,09,21,31,,,,,,,,1.21,0.66,1.01,3*0B
$GNGSA,A,3,08,13,19,20,22,27,28,36,37,38,,,1.21,0.66,1.01,4*03
$GNGSA,A,3,,,,,,,,,,,,,1.21,0.66,1.01,5*07
$GPGSV,3,1,10,04,17,138,18,05,22,310,20,07,82,021,23,08,34,099,21,1*60
$GPGSV,3,2,10,09,46,151,24,14,22,215,17,16,08,045,15,20,26,276,21,1*65
$GPGSV,3,3,10,27,27,060,23,30,56,278,24,1*69
$GPGSV,2,1,06,04,17,138,18,08,34,099,21,09,46,151,24,14,22,215,21,8*6D
$GPGSV,2,2,06,27,27,060,19,30,56,278,26,8*6C
$GLGSV,1,1,04,65,66,205,24,66,46,316,17,75,69,025,26,76,42,243,19,1*7A
$GAGSV,2,1,06,04,80,213,23,06,61,293,24,09,37,305,20,19,28,137,15,7*7E
$GAGSV,2,2,06,21,37,053,19,31,30,209,20,7*74
$GAGSV,2,1,05,04,80,213,23,06,61,293,22,09,37,305,21,21,37,053,22,1*7E
$GAGSV,2,2,05,31,30,209,19,1*42
$GBGSV,3,1,10,08,18,336,25,13,10,344,23,19,48,201,35,20,10,167,30,1*75
$GBGSV,3,2,10,22,47,291,35,27,08,103,26,28,12,060,29,36,52,248,36,1*7F
$GBGSV,3,3,10,37,15,065,23,38,22,323,29,1*77
$GBGSV,2,1,06,19,48,201,24,20,10,167,17,22,47,291,20,36,52,248,23,5*75
$GBGSV,2,2,06,37,15,065,17,38,22,323,16,5*7F
$GQGSV,1,1,00,1*65
$GQGSV,1,1,00,8*6C
$PQTMGEOFENCESTATUS,1,230412.000,0,0,0,0*23
$PQTMEPE,2,10.035,9.402,17.698,13.751,22.412*5B
$PQTMPL,1,342270000,5.00,1,1,20069,18803,35396,533,508,809,,,*12
$PQTMPVT,1,342271000,20241030,230413.000,,3,29,18,49.17376460,-123.07336811,11.755,-16.816,0.000,-0.001,-0.000,0.001,281.46,0.66,1.30*60
$PQTMDOP,1,342271000,2.40,1.30,2.02,1.11,0.66,0.50,0.43*76
$GNGGA,230413.000,4910.425876,N,12304.402087,W,1,29,0.66,11.755,M,-16.816,M,,*75
$GNRMC,230413.000,A,4910.425876,N,12304.402087,W,0.001,281.46,301024,,,A,V*28
$GNGLL,4910.425876,N,12304.402087,W,230413.000,A,A*59
$GNVTG,281.46,T,,M,0.001,N,0.003,K,A*28
$GNGSA,A,3,04,05,07,08,09,14,16,20,27,30,,,1.30,0.66,1.11,1*03
$GNGSA,A,3,65,66,75,76,,,,,,,,,1.30,0.66,1.11,2*01
$GNGSA,A,3,04,06,09,21,31,,,,,,,,1.30,0.66,1.11,3*0A
$GNGSA,A,3,08,13,19,20,22,27,28,36,37,38,,,1.30,0.66,1.11,4*02
$GNGSA,A,3,,,,,,,,,,,,,1.30,0.66,1.11,5*06
$GPGSV,3,1,10,04,17,138,18,05,22,310,21,07,82,021,26,08,34,099,22,1*67
$GPGSV,3,2,10,09,46,151,25,14,22,215,16,16,08,045,15,20,26,276,21,1*65
$GPGSV,3,3,10,27,27,060,25,30,56,278,27,1*6C
$GPGSV,2,1,06,04,17,138,18,08,34,099,25,09,46,151,29,14,22,215,23,8*66
$GPGSV,2,2,06,27,27,060,20,30,56,278,31,8*60
$GLGSV,1,1,04,65,66,205,23,66,46,316,15,75,69,025,27,76,42,243,21,1*75
$GAGSV,2,1,06,04,80,213,25,06,61,293,26,09,37,305,23,19,28,137,15,7*79
$GAGSV,2,2,06,21,37,053,20,31,30,209,22,7*7C
$GAGSV,2,1,05,04,80,213,26,06,61,293,25,09,37,305,24,21,37,053,24,1*7F
$GAGSV,2,2,05,31,30,209,20,1*48
$GBGSV,3,1,10,08,18,336,26,13,10,344,23,19,48,201,38,20,10,167,32,1*79
$GBGSV,3,2,10,22,47,291,37,27,08,103,26,28,12,060,30,36,52,248,38,1*7B
$GBGSV,3,3,10,37,15,065,25,38,22,323,31,1*78
$GBGSV,2,1,06,19,48,201,28,20,10,167,18,22,47,291,24,36,52,248,26,5*77
$GBGSV,2,2,06,37,15,065,18,38,22,323,17,5*71
$GQGSV,1,1,00,1*65
$GQGSV,1,1,00,8*6C
$PQTMGEOFENCESTATUS,1,230413.000,0,0,0,0*22
$PQTMEPE,2,10.070,9.434,19.162,13.799,23.613*55
$PQTMPL,1,342271000,5.00,1,1,20140,18867,38324,533,508,809,,,*1F
$PQTMPVT,1,342272000,20241030,230414.000,,3,29,18,49.17376460,-123.07336810,11.756,-16.817,0.000,-0.000,-0.000,0.000,281.46,0.67,1.22*65
$PQTMDOP,1,342272000,2.29,1.22,1.94,1.02,0.67,0.50,0.43*76
$GNGGA,230414.000,4910.425876,N,12304.402086,W,1,29,0.67,11.756,M,-16.817,M,,*70
$GNRMC,230414.000,A,4910.425876,N,12304.402086,W,0.000,281.46,301024,,,A,V*2F
$GNGLL,4910.425876,N,12304.402086,W,230414.000,A,A*5F
$GNVTG,281.46,T,,M,0.000,N,0.001,K,A*2B
$GNGSA,A,3,04,05,07,08,09,14,16,20,27,30,,,1.22,0.67,1.02,1*03
$GNGSA,A,3,65,66,75,76,,,,,,,,,1.22,0.67,1.02,2*01
$GNGSA,A,3,04,06,09,21,31,,,,,,,,1.22,0.67,1.02,3*0A
$GNGSA,A,3,08,13,19,20,22,27,28,36,37,38,,,1.22,0.67,1.02,4*02
$GNGSA,A,3,,,,,,,,,,,,,1.22,0.67,1.02,5*06
$GPGSV,3,1,10,04,17,138,19,05,22,310,23,07,82,021,28,08,34,099,25,1*6D
$GPGSV,3,2,10,09,46,151,27,14,22,215,17,16,08,045,17,20,26,276,24,1*61
$GPGSV,3,3,10,27,27,060,27,30,56,278,29,1*60
$GPGSV,2,1,06,04,17,138,19,08,34,099,26,09,46,151,29,14,22,215,24,8*63
$GPGSV,2,2,06,27,27,060,21,30,56,278,31,8*61
$GLGSV,1,1,04,65,66,204,22,66,46,316,18,75,69,025,27,76,42,243,19,1*73
$GAGSV,2,1,06,04,80,213,27,06,61,293,29,09,37,305,24,19,28,137,16,7*70
$GAGSV,2,2,06,21,37,053,21,31,30,209,24,7*7B
$GAGSV,2,1,05,04,80,213,27,06,61,293,26,09,37,305,25,21,37,053,24,1*7C
$GAGSV,2,2,05,31,30,209,22,1*4A
$GBGSV,3,1,10,08,18,336,26,13,10,344,23,19,48,201,36,20,10,167,30,1*75
$GBGSV,3,2,10,22,47,291,35,27,08,103,26,28,12,060,29,36,52,248,36,1*7F
$GBGSV,3,3,10,37,15,065,23,38,22,323,29,1*77
$GBGSV,2,1,06,19,48,201,28,20,10,167,19,22,47,291,25,36,52,248,28,5*79
$GBGSV,2,2,06,37,15,065,17,38,22,323,17,5*7E
$GQGSV,1,1,00,1*65
$GQGSV,1,1,00,8*6C
$PQTMGEOFENCESTATUS,1,230414.000,0,0,0,0*25
$PQTMEPE,2,10.051,9.416,17.612,13.772,22.357*59
$PQTMPL,1,342272000,5.00,1,1,20101,18832,35223,533,508,809,,,*12
$PQTMPVT,1,342273000,20241030,230415.000,,3,29,18,49.17376460,-123.07336810,11.754,-16.816,0.000,-0.001,-0.000,0.001,281.46,0.64,1.24*63
$PQTMDOP,1,342273000,2.34,1.24,1.98,1.06,0.64,0.48,0.43*7F
$GNGGA,230415.000,4910.425876,N,12304.402086,W,1,29,0.64,11.754,M,-16.816,M,,*71
$GNRMC,230415.000,A,4910.425876,N,12304.402086,W,0.001,281.46,301024,,,A,V*2F
$GNGLL,4910.425876,N,12304.402086,W,230415.000,A,A*5E
$GNVTG,281.46,T,,M,0.001,N,0.002,K,A*29
$GNGSA,A,3,04,05,07,08,09,14,16,20,27,30,,,1.24,0.64,1.06,1*02
$GNGSA,A,3,65,66,75,76,,,,,,,,,1.24,0.64,1.06,2*00
$GNGSA,A,3,04,06,09,21,31,,,,,,,,1.24,0.64,1.06,3*0B
$GNGSA,A,3,08,13,19,20,22,27,28,36,37,38,,,1.24,0.64,1.06,4*03
$GNGSA,A,3,,,,,,,,,,,,,1.24,0.64,1.06,5*07
$GPGSV,3,1,10,04,17,138,20,05,22,310,23,07,82,021,29,08,34,099,24,1*67
$GPGSV,3,2,10,09,46,151,27,14,22,215,18,16,08,045,16,20,26,276,24,1*6F
$GPGSV,3,3,10,27,27,060,25,30,56,278,30,1*6A
$GPGSV,2,1,06,04,17,138,20,08,34,099,25,09,46,151,28,14,22,215,23,8*6C
$GPGSV,2,2,06,27,27,060,21,30,56,278,31,8*61
$GLGSV,1,1,04,65,66,204,23,66,46,316,17,75,69,025,26,76,42,243,19,1*7C
$GAGSV,2,1,06,04,80,213,27,06,61,293,29,09,37,305,23,19,28,137,16,7*77
$GAGSV,2,2,06,21,37,053,21,31,30,209,24,7*7B
$GAGSV,2,1,05,04,80,213,26,06,61,293,25,09,37,305,24,21,37,053,24,1*7F
$GAGSV,2,2,05,31,30,209,21,1*49
$GBGSV,3,1,10,08,18,336,25,13,10,344,23,19,48,201,36,20,10,167,30,1*76
$GBGSV,3,2,10,22,47,291,35,27,08,103,25,28,12,060,29,36,52,248,36,1*7C
$GBGSV,3,3,10,37,15,065,24,38,22,323,29,1*70
$GBGSV,2,1,06,19,48,201,27,20,10,167,19,22,47,291,24,36,52,248,26,5*79
$GBGSV,2,2,06,37,15,065,17,38,22,323,16,5*7F
$GQGSV,1,1,00,1*65
$GQGSV,1,1,00,8*6C
$PQTMGEOFENCESTATUS,1,230415.000,0,0,0,0*24
$PQTMEPE,2,9.997,9.367,18.675,13.700,23.161*6E
$PQTMPL,1,342273000,5.00,1,1,19993,18734,37350,533,508,809,,,*14
$PQTMPVT,1,342274000,20241030,230416.000,,3,29,18,49.17376460,-123.07336810,11.755,-16.817,0.000,-0.001,-0.000,0.001,281.46,0.65,1.32*61
$PQTMDOP,1,342274000,2.45,1.32,2.07,1.15,0.65,0.48,0.43*7F
$GNGGA,230416.000,4910.425876,N,12304.402086,W,1,29,0.65,11.755,M,-16.817,M,,*73
$GNRMC,230416.000,A,4910.425876,N,12304.402086,W,0.002,281.46,301024,,,A,V*2F
$GNGLL,4910.425876,N,12304.402086,W,230416.000,A,A*5D
$GNVTG,281.46,T,,M,0.002,N,0.004,K,A*2C
$GNGSA,A,3,04,05,07,08,09,14,16,20,27,30,,,1.32,0.65,1.15,1*06
$GNGSA,A,3,65,66,75,76,,,,,,,,,1.32,0.65,1.15,2*04
$GNGSA,A,3,04,06,09,21,31,,,,,,,,1.32,0.65,1.15,3*0F
$GNGSA,A,3,08,13,19,20,22,27,28,36,37,38,,,1.32,0.65,1.15,4*07
$GNGSA,A,3,,,,,,,,,,,,,1.32,0.65,1.15,5*03
$GPGSV,3,1,10,04,17,138,18,05,22,310,23,07,82,021,28,08,34,099,23,1*6A
$GPGSV,3,2,10,09,46,151,25,14,22,215,17,16,08,045,17,20,26,276,22,1*65
$GPGSV,3,3,10,27,27,060,25,30,56,278,29,1*62
$GPGSV,2,1,06,04,17,138,21,08,34,099,27,09,46,151,30,14,22,215,25,8*60
$GPGSV,2,2,06,27,27,060,23,30,56,278,33,8*61
$GLGSV,1,1,04,65,66,204,24,66,46,316,18,75,69,025,29,76,42,244,20,1*76
$GAGSV,2,1,06,04,80,212,26,06,61,293,28,09,37,305,23,19,28,137,16,7*76
$GAGSV,2,2,06,21,37,053,21,31,30,209,23,7*7C
$GAGSV,2,1,05,04,80,212,28,06,61,293,27,09,37,305,26,21,37,053,25,1*71
$GAGSV,2,2,05,31,30,209,23,1*4B
$GBGSV,3,1,10,08,18,336,25,13,10,344,23,19,48,201,37,20,10,167,31,1*76
$GBGSV,3,2,10,22,47,291,37,27,08,103,25,28,12,060,30,36,52,248,37,1*77
$GBGSV,3,3,10,37,15,065,25,38,22,323,31,1*78
$GBGSV,2,1,06,19,48,201,29,20,10,167,20,22,47,291,26,36,52,248,29,5*70
$GBGSV,2,2,06,37,15,065,18,38,22,323,17,5*71
$GQGSV,1,1,00,1*65
$GQGSV,1,1,00,8*6C
$PQTMGEOFENCESTATUS,1,230416.000,0,0,0,0*27
$PQTMEPE,2,9.906,9.285,19.576,13.577,23.823*67
$PQTMPL,1,342274000,5.00,1,1,19811,18569,39151,533,508,809,,,*1F
$PQTMPVT,1,342275000,20241030,230417.000,,3,29,18,49.17376460,-123.07336815,11.754,-16.816,0.000,-0.001,-0.001,0.001,281.46,0.54,1.04*62
$PQTMDOP,1,342275000,1.77,1.04,1.43,0.89,0.54,0.40,0.36*76
$GNGGA,230417.000,4910.425876,N,12304.402089,W,1,29,0.54,11.754,M,-16.816,M,,*7F
$GNRMC,230417.000,A,4910.425876,N,12304.402089,W,0.001,281.46,301024,,,A,V*22
$GNGLL,4910.425876,N,12304.402089,W,230417.000,A,A*53
$GNVTG,281.46,T,,M,0.001,N,0.002,K,A*29
$GNGSA,A,3,04,05,07,08,09,14,16,20,27,30,,,1.04,0.54,0.89,1*05
$GNGSA,A,3,65,66,75,76,,,,,,,,,1.04,0.54,0.89,2*07
$GNGSA,A,3,04,06,09,21,31,,,,,,,,1.04,0.54,0.89,3*0C
$GNGSA,A,3,08,13,19,20,22,27,28,36,37,38,,,1.04,0.54,0.89,4*04
$GNGSA,A,3,,,,,,,,,,,,,1.04,0.54,0.89,5*00
$GPGSV,3,1,10,04,17,138,20,05,22,310,22,07,82,021,28,08,34,099,23,1*60
$GPGSV,3,2,10,09,46,151,26,14,22,215,17,16,08,045,16,20,26,276,22,1*67
$GPGSV,3,3,10,27,27,060,25,30,56,278,29,1*62
$GPGSV,2,1,06,04,17,138,21,08,34,099,26,09,46,151,29,14,22,215,24,8*68
$GPGSV,2,2,06,27,27,060,23,30,56,278,31,8*63
$GLGSV,1,1,04,65,66,204,25,66,46,316,18,75,69,025,27,76,42,244,23,1*7A
$GAGSV,2,1,06,04,80,212,26,06,61,293,28,09,37,305,23,19,28,137,16,7*76
$GAGSV,2,2,06,21,37,053,21,31,30,209,24,7*7B
$GAGSV,2,1,05,04,80,212,28,06,61,293,26,09,37,305,25,21,37,053,24,1*72
$GAGSV,2,2,05,31,30,209,23,1*4B
$GBGSV,3,1,10,08,18,336,25,13,10,344,24,19,48,201,37,20,10,167,32,1*72
$GBGSV,3,2,10,22,47,291,37,27,08,103,26,28,12,060,31,36,52,248,38,1*7A
$GBGSV,3,3,10,37,15,065,25,38,22,323,31,1*78
$GBGSV,2,1,06,19,48,201,28,20,10,167,20,22,47,291,25,36,52,248,28,5*73
$GBGSV,2,2,06,37,15,065,18,38,22,323,19,5*7F
$GQGSV,1,1,00,1*65
$GQGSV,1,1,00,8*6C
$PQTMGEOFENCESTATUS,1,230417.000,0,0,0,0*26
$PQTMEPE,2,9.835,9.220,18.135,13.481,22.597*60
$PQTMPL,1,342275000,5.00,1,1,19670,18440,36270,533,508,809,,,*12
$PQTMPVT,1,342276000,20241030,230418.000,,3,29,18,49.17376460,-123.07336814,11.754,-16.816,0.000,-0.000,0.000,0.000,281.46,0.66,1.32*47
$PQTMDOP,1,342276000,2.45,1.32,2.06,1.15,0.66,0.49,0.44*79
$GNGGA,230418.000,4910.425876,N,12304.402088,W,1,29,0.66,11.754,M,-16.816,M,,*70
$GNRMC,230418.000,A,4910.425876,N,12304.402088,W,0.000,281.46,301024,,,A,V*2D
$GNGLL,4910.425876,N,12304.402088,W,230418.000,A,A*5D
$GNVTG,281.46,T,,M,0.000,N,0.001,K,A*2B
$GNGSA,A,3,04,05,07,08,09,14,16,20,27,30,,,1.32,0.66,1.15,1*05
$GNGSA,A,3,65,66,75,76,,,,,,,,,1.32,0.66,1.15,2*07
$GNGSA,A,3,04,06,09,21,31,,,,,,,,1.32,0.66,1.15,3*0C
$GNGSA,A,3,08,13,19,20,22,27,28,36,37,38,,,1.32,0.66,1.15,4*04
$GNGSA,A,3,,,,,,,,,,,,,1.32,0.66,1.15,5*00
$GPGSV,3,1,10,04,17,138,17,05,22,310,22,07,82,022,27,08,34,099,23,1*68
$GPGSV,3,2,10,09,46,151,26,14,22,215,18,16,08,045,17,20,26,276,22,1*69
$GPGSV,3,3,10,27,27,060,24,30,56,278,29,1*63
$GPGSV,2,1,06,04,17,138,18,08,34,099,24,09,46,151,26,14,22,215,20,8*6B
$GPGSV,2,2,06,27,27,060,19,30,56,278,28,8*62
$GLGSV,1,1,04,65,66,204,22,66,46,316,16,75,69,025,24,76,42,244,18,1*78
$GAGSV,2,1,06,04,80,212,26,06,61,293,28,09,37,305,23,19,28,137,15,7*75
$GAGSV,2,2,06,21,37,053,20,31,30,209,22,7*7C
$GAGSV,2,1,05,04,80,212,23,06,61,293,22,09,37,305,22,21,37,053,21,1*7F
$GAGSV,2,2,05,31,30,209,20,1*48
$GBGSV,3,1,10,08,18,336,25,13,10,344,23,19,48,201,37,20,10,167,31,1*76
$GBGSV,3,2,10,22,47,291,36,27,08,103,25,28,12,060,31,36,52,248,38,1*78
$GBGSV,3,3,10,37,15,065,24,38,22,323,30,1*78
$GBGSV,2,1,06,19,48,201,25,20,10,167,18,22,47,291,20,36,52,248,24,5*7C
$GBGSV,2,2,06,37,15,065,18,38,22,323,15,5*73
$GQGSV,1,1,00,1*65
$GQGSV,1,1,00,8*6C
$PQTMGEOFENCESTATUS,1,230418.000,0,0,0,0*29
$PQTMEPE,2,9.855,9.238,19.068,13.508,23.368*60
$PQTMPL,1,342276000,5.00,1,1,19710,18476,38135,533,508,809,,,*1F
$PQTMPVT,1,342277000,20241030,230419.000,,3,29,18,49.17376459,-123.07336814,11.753,-16.816,0.000,-0.001,-0.001,0.001,281.46,0.64,1.20*67
$PQTMDOP,1,342277000,2.26,1.20,1.92,1.01,0.64,0.47,0.43*7E
$GNGGA,230419.000,4910.425876,N,12304.402089,W,1,29,0.64,11.753,M,-16.816,M,,*75
$GNRMC,230419.000,A,4910.425876,N,12304.402089,W,0.002,281.46,301024,,,A,V*2F
$GNGLL,4910.425876,N,12304.402089,W,230419.000,A,A*5D
$GNVTG,281.46,T,,M,0.002,N,0.004,K,A*2C
$GNGSA,A,3,04,05,07,08,09,14,16,20,27,30,,,1.20,0.64,1.01,1*01
$GNGSA,A,3,65,66,75,76,,,,,,,,,1.20,0.64,1.01,2*03
$GNGSA,A,3,04,06,09,21,31,,,,,,,,1.20,0.64,1.01,3*08
$GNGSA,A,3,08,13,19,20,22,27,28,36,37,38,,,1.20,0.64,1.01,4*00
$GNGSA,A,3,,,,,,,,,,,,,1.20,0.64,1.01,5*04
$GPGSV,3,1,10,04,17,138,18,05,22,310,23,07,82,022,29,08,34,099,23,1*68
$GPGSV,3,2,10,09,46,151,26,14,22,215,17,16,08,045,15,20,26,276,23,1*65
$GPGSV,3,3,10,27,27,060,25,30,56,278,30,1*6A
$GPGSV,2,1,06,04,17,138,20,08,34,099,27,09,46,151,29,14,22,215,24,8*68
$GPGSV,2,2,06,27,27,060,22,30,56,278,32,8*61
$GLGSV,1,1,04,65,66,204,25,66,46,316,16,75,69,025,28,76,42,244,21,1*79
$GAGSV,2,1,06,04,80,212,26,06,61,293,28,09,37,305,23,19,28,137,15,7*75
$GAGSV,2,2,06,21,37,053,19,31,30,209,22,7*76
$GAGSV,2,1,05,04,80,212,28,06,61,293,27,09,37,305,25,21,37,053,25,1*72
$GAGSV,2,2,05,31,30,209,22,1*4A
$GBGSV,3,1,10,08,18,336,26,13,10,344,25,19,48,201,38,20,10,167,32,1*7F
$GBGSV,3,2,10,22,47,291,37,27,08,103,28,28,12,060,31,36,52,248,38,1*74
$GBGSV,3,3,10,37,15,065,25,38,22,323,30,1*79
$GBGSV,2,1,06,19,48,201,28,20,10,167,19,22,47,291,25,36,52,248,27,5*76
$GBGSV,2,2,06,37,15,065,19,38,22,323,16,5*71
$GQGSV,1,1,00,1*65
$GQGSV,1,1,00,8*6C
$PQTMGEOFENCESTATUS,1,230419.000,0,0,0,0*28
$PQTMEPE,2,9.782,9.171,17.620,13.409,22.142*64
$PQTMPL,1,342277000,5.00,1,1,19563,18342,35239,533,508,809,,,*1A
$PQTMPVT,1,342278000,20241030,230420.000,,3,29,18,49.17376459,-123.07336820,11.755,-16.817,0.000,-0.001,-0.000,0.001,281.46,0.54,1.08*6A
$PQTMDOP,1,342278000,1.93,1.08,1.59,0.94,0.54,0.41,0.35*78
$GNGGA,230420.000,4910.425876,N,12304.402092,W,1,29,0.54,11.755,M,-16.817,M,,*71
$GNRMC,230420.000,A,4910.425876,N,12304.402092,W,0.001,281.46,301024,,,A,V*2C
$GNGLL,4910.425876,N,12304.402092,W,230420.000,A,A*5D
$GNVTG,281.46,T,,M,0.001,N,0.003,K,A*28
$GNGSA,A,3,04,05,07,08,09,14,16,20,27,30,,,1.08,0.54,0.94,1*05
$GNGSA,A,3,65,66,75,76,,,,,,,,,1.08,0.54,0.94,2*07
$GNGSA,A,3,04,06,09,21,31,,,,,,,,1.08,0.54,0.94,3*0C
$GNGSA,A,3,08,13,19,20,22,27,28,36,37,38,,,1.08,0.54,0.94,4*04
$GNGSA,A,3,,,,,,,,,,,,,1.08,0.54,0.94,5*00
$GPGSV,3,1,10,04,17,138,20,05,22,310,23,07,82,022,29,08,34,099,23,1*63
$GPGSV,3,2,10,09,46,151,27,14,22,215,18,16,08,045,18,20,26,276,22,1*67
$GPGSV,3,3,10,27,27,060,24,30,56,278,28,1*62
$GPGSV,2,1,06,04,17,138,20,08,34,099,26,09,46,151,28,14,22,215,23,8*6F
$GPGSV,2,2,06,27,27,060,23,30,56,278,31,8*63
$GLGSV,1,1,04,65,66,204,25,66,46,316,17,75,69,025,28,76,42,244,20,1*79
$GAGSV,2,1,06,04,80,212,26,06,61,293,27,09,37,305,24,19,28,137,15,7*7D
$GAGSV,2,2,06,21,37,053,20,31,30,209,23,7*7D
$GAGSV,2,1,05,04,80,212,27,06,61,293,24,09,37,305,24,21,37,053,23,1*79
$GAGSV,2,2,05,31,30,209,22,1*4A
$GBGSV,3,1,10,08,18,336,26,13,10,344,25,19,48,201,38,20,10,167,33,1*7E
$GBGSV,3,2,10,22,47,291,37,27,08,103,28,28,12,060,31,36,52,248,38,1*74
$GBGSV,3,3,10,37,15,065,25,38,22,323,30,1*79
$GBGSV,2,1,06,19,48,201,27,20,10,167,18,22,47,291,25,36,52,248,27,5*78
$GBGSV,2,2,06,37,15,065,17,38,22,323,16,5*7F
$GQGSV,1,1,00,1*65
$GQGSV,1,1,00,8*6C
$PQTMGEOFENCESTATUS,1,230420.000,0,0,0,0*22
