$GNGGA,003534.000,4910.426638,N,12304.400364,W,2,29,0.52,-0.044,M,-16.816,M,,*66
$GNGLL,4910.426638,N,12304.400364,W,003534.000,A,D*51
$GNGSA,A,3,06,19,12,24,11,17,03,32,,,,,0.89,0.52,0.72,1*0D
$GNGSA,A,3,84,75,85,73,66,,,,,,,,0.89,0.52,0.72,2*06
$GNGSA,A,3,21,13,15,27,26,04,06,,,,,,0.89,0.52,0.72,3*06
$GNGSA,A,3,34,25,11,12,23,43,44,24,39,,,,0.89,0.52,0.72,4*0E
$GPGSV,3,1,11,06,59,116,35,19,55,061,34,12,54,297,33,24,48,228,32,1*69
$GPGSV,3,2,11,11,38,169,30,25,38,301,,46,33,188,31,17,24,063,30,1*6A
$GPGSV,3,3,11,03,10,035,27,32,09,321,23,14,01,114,15,1*58
$GLGSV,2,1,07,84,77,071,17,74,66,131,17,75,55,320,28,85,41,204,26,1*75
$GLGSV,2,2,07,73,20,136,23,83,14,033,,66,10,328,20,1*48
$GAGSV,3,1,09,21,86,007,33,13,54,135,30,15,38,053,30,27,35,109,29,7*7F
$GAGSV,3,2,09,26,17,185,23,04,16,291,23,06,13,316,23,09,07,338,22,7*7B
$GAGSV,3,3,09,19,07,237,13,7*41
$GBGSV,3,1,11,34,80,135,32,25,71,193,32,11,61,203,29,12,57,061,30,1*7E
$GBGSV,3,2,11,23,43,302,29,43,38,218,29,44,32,055,28,24,22,145,23,1*7B
$GBGSV,3,3,11,39,09,330,17,19,02,020,,48,01,356,,1*46
$GNRMC,003534.000,A,4910.426638,N,12304.400364,W,0.04,40.82,070125,,,D,V*27
$GNVTG,40.82,T,,M,0.04,N,0.08,K,D*14
$PAIRLOG,Full*51
$GNGGA,003535.000,4910.426686,N,12304.400592,W,2,29,0.52,-0.059,M,-16.816,M,,*61
$GNGLL,4910.426686,N,12304.400592,W,003535.000,A,D*5A
$GNGSA,A,3,06,19,12,24,11,17,03,32,,,,,0.89,0.52,0.72,1*0D
$GNGSA,A,3,84,75,85,73,66,,,,,,,,0.89,0.52,0.72,2*06
$GNGSA,A,3,21,13,15,27,26,04,06,,,,,,0.89,0.52,0.72,3*06
$GNGSA,A,3,34,25,11,12,23,43,44,24,39,,,,0.89,0.52,0.72,4*0E
$GPGSV,3,1,11,06,59,116,35,19,55,061,34,12,54,297,34,24,48,228,33,1*6F
$GPGSV,3,2,11,11,38,169,30,25,38,301,,46,33,188,31,17,24,063,30,1*6A
$GPGSV,3,3,11,03,10,035,27,32,09,321,24,14,01,114,15,1*5F
$GLGSV,2,1,07,84,77,071,17,74,66,131,17,75,55,320,28,85,41,204,26,1*75
$GLGSV,2,2,07,73,20,136,23,83,14,033,,66,10,328,20,1*48
$GAGSV,3,1,09,21,86,007,33,13,54,135,30,15,38,053,31,27,35,109,29,7*7E
$GAGSV,3,2,09,26,17,185,23,04,16,291,23,06,13,316,24,09,07,338,23,7*7D
$GAGSV,3,3,09,19,07,237,13,7*41
$GBGSV,3,1,11,34,80,135,32,25,71,193,32,11,61,203,29,12,57,061,30,1*7E
$GBGSV,3,2,11,23,43,302,29,43,38,218,29,44,32,055,28,24,22,145,23,1*7B
$GBGSV,3,3,11,39,09,330,17,19,02,020,,48,01,356,,1*46
$GNRMC,003535.000,A,4910.426686,N,12304.400592,W,0.04,40.82,070125,,,D,V*2C
$GNVTG,40.82,T,,M,0.04,N,0.08,K,D*14
$PAIRLOG,Full*51
$GNGGA,003536.000,4910.426710,N,12304.400814,W,2,29,0.52,-0.061,M,-16.816,M,,*64
$GNGLL,4910.426710,N,12304.400814,W,003536.000,A,D*54
$GNGSA,A,3,06,19,12,24,11,17,03,32,,,,,0.89,0.52,0.72,1*0D
$GNGSA,A,3,84,75,85,73,66,,,,,,,,0.89,0.52,0.72,2*06
$GNGSA,A,3,21,13,15,27,26,04,06,,,,,,0.89,0.52,0.72,3*06
$GNGSA,A,3,34,25,11,12,23,43,44,24,39,,,,0.89,0.52,0.72,4*0E
$GPGSV,3,1,11,06,59,116,35,19,55,061,34,12,54,297,34,24,48,228,33,1*6F
$GPGSV,3,2,11,11,38,169,30,25,38,301,,46,33,188,31,17,24,063,30,1*6A
$GPGSV,3,3,11,03,10,035,27,32,09,321,24,14,01,114,14,1*5E
$GLGSV,2,1,07,84,77,071,17,74,66,131,17,75,55,320,29,85,41,204,26,1*74
$GLGSV,2,2,07,73,20,136,24,83,14,033,,66,10,328,20,1*4F
$GAGSV,3,1,09,21,86,007,33,13,54,135,30,15,38,053,30,27,35,109,29,7*7F
$GAGSV,3,2,09,26,17,185,23,04,16,291,23,06,13,316,24,09,07,338,23,7*7D
$GAGSV,3,3,09,19,07,237,13,7*41
$GBGSV,3,1,11,34,80,135,32,25,71,193,32,11,61,203,29,12,57,061,30,1*7E
$GBGSV,3,2,11,23,43,302,29,43,38,218,29,44,32,055,28,24,22,145,23,1*7B
$GBGSV,3,3,11,39,09,330,17,19,02,020,,48,01,356,,1*46
$GNRMC,003536.000,A,4910.426710,N,12304.400814,W,0.04,40.82,070125,,,D,V*22
$GNVTG,40.82,T,,M,0.04,N,0.08,K,D*14
$PAIRLOG,Full*51
$GNGGA,003537.000,4910.426788,N,12304.400964,W,2,29,0.52,-0.104,M,-16.816,M,,*60
$GNGLL,4910.426788,N,12304.400964,W,003537.000,A,D*52
$GNGSA,A,3,06,19,12,24,11,17,03,32,,,,,0.89,0.52,0.72,1*0D
$GNGSA,A,3,84,75,85,73,66,,,,,,,,0.89,0.52,0.72,2*06
$GNGSA,A,3,21,13,15,27,26,04,06,,,,,,0.89,0.52,0.72,3*06
$GNGSA,A,3,34,25,11,12,23,43,44,24,39,,,,0.89,0.52,0.72,4*0E
$GPGSV,3,1,11,06,59,116,35,19,55,061,34,12,54,297,34,24,48,228,33,1*6F
$GPGSV,3,2,11,11,38,169,30,25,38,301,,46,33,188,31,17,24,063,30,1*6A
$GPGSV,3,3,11,03,10,035,27,32,09,321,24,14,01,114,15,1*5F
$GLGSV,2,1,07,84,77,071,17,74,66,131,17,75,55,320,29,85,41,204,26,1*74
$GLGSV,2,2,07,73,20,136,25,83,14,033,,66,10,328,20,1*4E
$GAGSV,3,1,09,21,86,007,33,13,54,135,30,15,38,053,30,27,35,109,29,7*7F
$GAGSV,3,2,09,26,17,185,23,04,16,291,23,06,13,316,24,09,07,338,23,7*7D
$GAGSV,3,3,09,19,07,237,14,7*46
$GBGSV,3,1,11,34,80,135,32,25,71,193,32,11,61,203,30,12,57,061,30,1*76
$GBGSV,3,2,11,23,43,302,29,43,38,218,29,44,32,055,28,24,22,145,24,1*7C
$GBGSV,3,3,11,39,09,330,17,19,02,020,,48,01,356,,1*46
$GNRMC,003537.000,A,4910.426788,N,12304.400964,W,0.03,40.82,070125,,,D,V*23
$GNVTG,40.82,T,,M,0.03,N,0.06,K,D*1D
$PAIRLOG,Full*51
$GNGGA,003538.000,4910.426830,N,12304.401108,W,2,29,0.52,-0.198,M,-16.816,M,,*65
$GNGLL,4910.426830,N,12304.401108,W,003538.000,A,D*52
$GNGSA,A,3,06,19,12,24,11,17,03,32,,,,,0.89,0.52,0.72,1*0D
$GNGSA,A,3,84,75,85,73,66,,,,,,,,0.89,0.52,0.72,2*06
$GNGSA,A,3,21,13,15,27,26,04,06,,,,,,0.89,0.52,0.72,3*06
$GNGSA,A,3,34,25,11,12,23,43,44,24,39,,,,0.89,0.52,0.72,4*0E
$GPGSV,3,1,11,06,59,116,35,19,55,061,34,12,54,297,34,24,48,228,33,1*6F
$GPGSV,3,2,11,11,38,169,29,25,38,301,,46,33,188,31,17,24,063,30,1*62
$GPGSV,3,3,11,03,10,035,27,32,09,321,23,14,01,114,15,1*58
$GLGSV,2,1,07,84,77,071,17,74,66,131,17,75,55,320,29,85,41,204,26,1*74
$GLGSV,2,2,07,73,20,136,25,83,14,033,,66,10,328,20,1*4E
$GAGSV,3,1,09,21,86,007,33,13,54,135,30,15,38,053,30,27,35,109,29,7*7F
$GAGSV,3,2,09,26,17,185,23,04,16,291,23,06,13,316,23,09,07,338,23,7*7A
$GAGSV,3,3,09,19,07,237,14,7*46
$GBGSV,3,1,10,34,80,135,33,25,71,193,33,11,61,203,30,12,57,061,30,1*77
$GBGSV,3,2,10,23,43,302,30,43,38,218,29,44,32,055,28,24,22,145,24,1*75
$GBGSV,3,3,10,39,09,330,17,19,02,020,,1*7A
$GNRMC,003538.000,A,4910.426830,N,12304.401108,W,0.03,40.82,070125,,,D,V*23
$GNVTG,40.82,T,,M,0.03,N,0.05,K,D*1E
$PAIRLOG,Full*51
$GNGGA,003539.000,4910.426962,N,12304.401150,W,2,29,0.52,-0.249,M,-16.817,M,,*61
$GNGLL,4910.426962,N,12304.401150,W,003539.000,A,D*58
$GNGSA,A,3,06,19,12,24,11,17,03,32,,,,,0.89,0.52,0.72,1*0D
$GNGSA,A,3,84,75,85,73,66,,,,,,,,0.89,0.52,0.72,2*06
$GNGSA,A,3,21,13,15,27,26,04,06,,,,,,0.89,0.52,0.72,3*06
$GNGSA,A,3,34,25,11,12,23,43,44,24,39,,,,0.89,0.52,0.72,4*0E
$GPGSV,3,1,11,06,59,116,35,19,55,061,34,12,54,297,34,24,48,228,33,1*6F
$GPGSV,3,2,11,11,38,169,29,25,38,301,,46,33,188,31,17,24,063,30,1*62
$GPGSV,3,3,11,03,10,035,27,32,09,321,23,14,01,114,15,1*58
$GLGSV,2,1,07,84,77,071,18,74,66,131,18,75,55,320,30,85,41,204,26,1*7C
$GLGSV,2,2,07,73,20,136,25,83,14,033,,66,10,328,19,1*44
$GAGSV,3,1,09,21,86,007,33,13,54,135,30,15,38,053,30,27,35,109,29,7*7F
$GAGSV,3,2,09,26,17,185,23,04,16,291,23,06,13,316,23,09,07,338,23,7*7A
$GAGSV,3,3,09,19,07,237,14,7*46
$GBGSV,3,1,10,34,80,135,33,25,71,193,33,11,61,203,30,12,57,061,30,1*77
$GBGSV,3,2,10,23,43,302,30,43,38,218,29,44,32,055,29,24,22,145,24,1*74
$GBGSV,3,3,10,39,09,330,18,48,01,356,,1*70
$GNRMC,003539.000,A,4910.426962,N,12304.401150,W,0.03,40.82,070125,,,D,V*29
$GNVTG,40.82,T,,M,0.03,N,0.06,K,D*1D
$PAIRLOG,Full*51
$PAIR010,0,1,2348,174957*3E
$GNGGA,003540.000,4910.427046,N,12304.401228,W,2,29,0.52,-0.323,M,-16.817,M,,*60
$GNGLL,4910.427046,N,12304.401228,W,003540.000,A,D*54
$GNGSA,A,3,06,19,12,24,11,17,03,32,,,,,0.89,0.52,0.72,1*0D
$GNGSA,A,3,84,75,85,73,66,,,,,,,,0.89,0.52,0.72,2*06
$GNGSA,A,3,21,13,15,27,26,04,06,,,,,,0.89,0.52,0.72,3*06
$GNGSA,A,3,34,25,11,12,23,43,44,24,39,,,,0.89,0.52,0.72,4*0E
$GPGSV,3,1,11,06,59,116,35,19,55,061,34,12,54,297,34,24,48,228,33,1*6F
$GPGSV,3,2,11,11,38,169,29,25,38,301,,46,33,188,31,17,24,063,30,1*62
$GPGSV,3,3,11,03,10,035,27,32,09,321,23,14,01,114,16,1*5B
$GLGSV,2,1,07,84,77,071,18,74,66,131,18,75,55,320,31,85,41,204,26,1*7D
$GLGSV,2,2,07,73,20,136,25,83,14,033,,66,10,328,19,1*44
$GAGSV,3,1,09,21,86,007,33,13,54,135,30,15,38,053,30,27,35,109,28,7*7E
$GAGSV,3,2,09,26,17,185,23,04,16,291,23,06,13,316,23,09,07,338,23,7*7A
$GAGSV,3,3,09,19,07,237,14,7*46
$GBGSV,3,1,11,34,80,135,33,25,71,193,33,11,61,203,30,12,57,061,30,1*76
$GBGSV,3,2,11,23,43,302,30,43,38,218,29,44,32,055,29,24,22,145,24,1*75
$GBGSV,3,3,11,39,09,330,18,19,02,020,,48,01,356,,1*49
$GNRMC,003540.000,A,4910.427046,N,12304.401228,W,0.03,40.82,070125,,,D,V*25
$GNVTG,40.82,T,,M,0.03,N,0.06,K,D*1D
$PAIRLOG,Full*51
$GNGGA,003541.000,4910.427130,N,12304.401306,W,2,29,0.52,-0.347,M,-16.816,M,,*6F
$GNGLL,4910.427130,N,12304.401306,W,003541.000,A,D*58
$GNGSA,A,3,06,19,12,24,11,17,03,32,,,,,0.89,0.52,0.72,1*0D
$GNGSA,A,3,84,75,85,73,66,,,,,,,,0.89,0.52,0.72,2*06
$GNGSA,A,3,21,13,15,27,26,04,06,,,,,,0.89,0.52,0.72,3*06
$GNGSA,A,3,34,25,11,12,23,43,44,24,39,,,,0.89,0.52,0.72,4*0E
$GPGSV,3,1,11,06,59,116,35,19,55,061,34,12,54,297,34,24,48,228,33,1*6F
$GPGSV,3,2,11,11,38,169,29,25,38,301,,46,33,188,31,17,24,063,30,1*62
$GPGSV,3,3,11,03,10,035,27,32,09,321,23,14,01,114,16,1*5B
$GLGSV,2,1,07,84,77,071,18,74,66,131,18,75,55,320,31,85,41,204,27,1*7C
$GLGSV,2,2,07,73,20,136,25,83,14,033,,66,10,328,19,1*44
$GAGSV,3,1,09,21,86,007,33,13,54,135,30,15,38,053,30,27,35,109,28,7*7E
$GAGSV,3,2,09,26,17,185,23,04,16,291,23,06,13,316,23,09,07,338,23,7*7A
$GAGSV,3,3,09,19,07,237,14,7*46
$GBGSV,3,1,11,34,80,135,33,25,71,193,33,11,61,203,30,12,57,061,30,1*76
$GBGSV,3,2,11,23,43,302,29,43,38,218,29,44,32,055,29,24,22,145,24,1*7D
$GBGSV,3,3,11,39,09,330,18,19,02,020,,48,01,356,,1*49
$GNRMC,003541.000,A,4910.427130,N,12304.401306,W,0.03,40.82,070125,,,D,V*29
$GNVTG,40.82,T,,M,0.03,N,0.06,K,D*1D
$PAIRLOG,Full*51
$GNGGA,003542.000,4910.427160,N,12304.401402,W,2,29,0.52,-0.430,M,-16.816,M,,*6D
$GNGLL,4910.427160,N,12304.401402,W,003542.000,A,D*5D
$GNGSA,A,3,06,19,12,24,11,17,03,32,,,,,0.89,0.52,0.72,1*0D
$GNGSA,A,3,84,75,85,73,66,,,,,,,,0.89,0.52,0.72,2*06
$GNGSA,A,3,21,13,15,27,26,04,06,,,,,,0.89,0.52,0.72,3*06
$GNGSA,A,3,34,25,11,12,23,43,44,24,39,,,,0.89,0.52,0.72,4*0E
$GPGSV,3,1,11,06,59,116,35,19,55,061,34,12,54,297,34,24,48,228,33,1*6F
$GPGSV,3,2,11,11,38,169,29,25,38,301,,46,33,188,31,17,24,063,30,1*62
$GPGSV,3,3,11,03,10,035,27,32,09,321,23,14,01,114,16,1*5B
$GLGSV,2,1,07,84,77,071,18,74,66,131,19,75,55,320,31,85,41,204,27,1*7D
$GLGSV,2,2,07,73,20,136,25,83,14,033,,66,10,328,19,1*44
$GAGSV,3,1,09,21,86,007,33,13,54,135,30,15,38,053,30,27,35,109,28,7*7E
$GAGSV,3,2,09,26,17,185,23,04,16,291,23,06,13,316,23,09,07,338,23,7*7A
$GAGSV,3,3,09,19,07,237,14,7*46
$GBGSV,3,1,11,34,80,135,33,25,71,193,33,11,61,203,30,12,57,061,30,1*76
$GBGSV,3,2,11,23,43,302,29,43,38,218,29,44,32,055,29,24,22,145,24,1*7D
$GBGSV,3,3,11,39,09,330,18,19,02,020,,48,01,356,,1*49
$GNRMC,003542.000,A,4910.427160,N,12304.401402,W,0.03,40.82,070125,,,D,V*2C
$GNVTG,40.82,T,,M,0.03,N,0.06,K,D*1D
$PAIRLOG,Full*51
$GNGGA,003543.000,4910.427268,N,12304.401462,W,2,29,0.52,-0.512,M,-16.816,M,,*60
$GNGLL,4910.427268,N,12304.401462,W,003543.000,A,D*51
$GNGSA,A,3,06,19,12,24,11,17,03,32,,,,,0.89,0.52,0.72,1*0D
$GNGSA,A,3,84,75,85,73,66,,,,,,,,0.89,0.52,0.72,2*06
$GNGSA,A,3,21,13,15,27,26,04,06,,,,,,0.89,0.52,0.72,3*06
$GNGSA,A,3,34,25,11,12,23,43,44,24,39,,,,0.89,0.52,0.72,4*0E
$GPGSV,3,1,11,06,59,116,35,19,55,061,34,12,54,297,34,24,48,228,33,1*6F
$GPGSV,3,2,11,11,38,169,29,25,38,301,,46,33,188,31,17,24,063,30,1*62
$GPGSV,3,3,11,03,10,035,27,32,09,321,23,14,01,114,16,1*5B
$GLGSV,2,1,07,84,77,071,18,74,66,131,18,75,55,320,31,85,41,204,27,1*7C
$GLGSV,2,2,07,73,20,136,25,83,14,033,,66,10,328,19,1*44
$GAGSV,3,1,09,21,86,007,33,13,54,135,30,15,38,053,30,27,35,109,28,7*7E
$GAGSV,3,2,09,26,17,185,23,04,16,291,23,06,13,316,23,09,07,338,23,7*7A
$GAGSV,3,3,09,19,07,237,14,7*46
$GBGSV,3,1,11,34,80,135,33,25,71,193,33,11,61,203,30,12,57,061,30,1*76
$GBGSV,3,2,11,23,43,302,29,43,38,218,29,44,32,055,29,24,22,145,24,1*7D
$GBGSV,3,3,11,39,09,330,17,19,02,020,,48,01,356,,1*46
$GNRMC,003543.000,A,4910.427268,N,12304.401462,W,0.03,40.82,070125,,,D,V*20
$GNVTG,40.82,T,,M,0.03,N,0.06,K,D*1D
$PAIRLOG,Full*51
$GNGGA,003544.000,4910.427340,N,12304.401528,W,2,29,0.52,-0.626,M,-16.816,M,,*67
$GNGLL,4910.427340,N,12304.401528,W,003544.000,A,D*52
$GNGSA,A,3,06,19,12,24,11,17,03,32,,,,,0.89,0.52,0.72,1*0D
$GNGSA,A,3,84,75,85,73,66,,,,,,,,0.89,0.52,0.72,2*06
$GNGSA,A,3,21,13,15,27,26,04,06,,,,,,0.89,0.52,0.72,3*06
$GNGSA,A,3,34,25,11,12,23,43,44,24,39,,,,0.89,0.52,0.72,4*0E
$GPGSV,3,1,11,06,59,116,35,19,55,061,34,12,54,297,34,24,48,228,33,1*6F
$GPGSV,3,2,11,11,38,169,30,25,38,301,,46,33,188,31,17,24,063,30,1*6A
$GPGSV,3,3,11,03,10,035,27,32,09,321,23,14,01,114,16,1*5B
$GLGSV,2,1,07,84,77,071,18,74,66,131,18,75,55,320,31,85,41,204,27,1*7C
$GLGSV,2,2,07,73,20,136,25,83,14,033,,66,10,328,19,1*44
$GAGSV,3,1,09,21,86,007,33,13,54,135,30,15,38,053,30,27,35,109,29,7*7F
$GAGSV,3,2,09,26,17,185,23,04,16,291,23,06,13,316,23,09,07,338,23,7*7A
$GAGSV,3,3,09,19,07,237,14,7*46
$GBGSV,3,1,11,34,80,135,33,25,71,193,33,11,61,203,30,12,57,061,30,1*76
$GBGSV,3,2,11,23,43,302,29,43,38,218,29,44,32,055,29,24,22,145,24,1*7D
$GBGSV,3,3,11,39,09,330,17,19,02,020,,48,01,356,,1*46
$GNRMC,003544.000,A,4910.427340,N,12304.401528,W,0.03,40.82,070125,,,D,V*23
$GNVTG,40.82,T,,M,0.03,N,0.06,K,D*1D
$PAIRLOG,Full*51
$GNGGA,003545.000,4910.427478,N,12304.401618,W,2,29,0.52,-0.739,M,-16.817,M,,*64
$GNGLL,4910.427478,N,12304.401618,W,003545.000,A,D*5F
$GNGSA,A,3,06,19,12,24,11,17,03,32,,,,,0.89,0.52,0.72,1*0D
$GNGSA,A,3,84,75,85,73,66,,,,,,,,0.89,0.52,0.72,2*06
$GNGSA,A,3,21,13,15,27,26,04,06,,,,,,0.89,0.52,0.72,3*06
$GNGSA,A,3,34,25,11,12,23,43,44,24,39,,,,0.89,0.52,0.72,4*0E
$GPGSV,3,1,11,06,59,116,35,19,55,061,34,12,54,297,34,24,48,228,33,1*6F
$GPGSV,3,2,11,11,38,169,30,25,38,301,,46,33,188,31,17,24,063,30,1*6A
$GPGSV,3,3,11,03,10,035,27,32,09,321,23,14,01,114,16,1*5B
$GLGSV,2,1,07,84,77,071,18,74,66,131,18,75,55,320,30,85,41,204,26,1*7C
$GLGSV,2,2,07,73,20,136,25,83,14,033,,66,10,328,18,1*45
$GAGSV,3,1,09,21,86,007,33,13,54,135,31,15,38,053,30,27,35,109,29,7*7E
$GAGSV,3,2,09,26,17,185,23,04,16,291,23,06,13,316,24,09,07,338,23,7*7D
$GAGSV,3,3,09,19,07,237,14,7*46
$GBGSV,3,1,11,34,80,135,33,25,71,193,33,11,61,203,30,12,57,061,31,1*77
$GBGSV,3,2,11,23,43,302,29,43,38,218,29,44,32,055,29,24,22,145,24,1*7D
$GBGSV,3,3,11,39,09,330,17,19,02,020,,48,01,356,,1*46
$GNRMC,003545.000,A,4910.427478,N,12304.401618,W,0.04,40.82,070125,,,D,V*29
$GNVTG,40.82,T,,M,0.04,N,0.07,K,D*1B
$PAIRLOG,Full*51
$GNGGA,003546.000,4910.427592,N,12304.401708,W,2,29,0.52,-0.825,M,-16.816,M,,*61
