$GNGGA,190546.000,4910.427256,N,12304.400046,W,2,30,0.50,17.567,M,-16.816,M,,*73
$GNGLL,4910.427256,N,12304.400046,W,190546.000,A,D*51
$GNGSA,A,3,09,07,04,16,20,30,26,27,11,03,08,,0.78,0.50,0.60,1*0B
$GNGSA,A,3,68,69,79,67,,,,,,,,,0.78,0.50,0.60,2*00
$GNGSA,A,3,09,06,31,05,04,24,34,15,,,,,0.78,0.50,0.60,3*06
$GNGSA,A,3,37,20,23,32,19,38,25,,,,,,0.78,0.50,0.60,4*0A
$GPGSV,4,1,13,09,89,183,38,07,57,256,35,04,57,116,33,16,42,062,33,1*6D
$GPGSV,4,2,13,46,33,188,30,20,21,317,25,30,20,252,26,26,15,045,26,1*66
$GPGSV,4,3,13,27,14,103,24,11,11,293,23,03,09,173,23,08,05,133,24,1*68
$GPGSV,4,4,13,06,04,258,17,1*5D
$GLGSV,2,1,06,68,63,136,30,69,61,321,28,79,52,210,30,67,13,139,20,1*70
$GLGSV,2,2,06,86,09,006,,85,06,316,15,1*74
$GAGSV,3,1,09,09,86,086,32,06,60,113,29,31,58,131,29,05,37,297,26,7*76
$GAGSV,3,2,09,04,33,114,26,24,23,187,25,34,14,287,18,15,09,336,17,7*7A
$GAGSV,3,3,09,36,03,240,11,7*4A
$GBGSV,4,1,13,37,62,211,36,20,58,295,36,23,58,065,36,32,54,165,35,1*7C
$GBGSV,4,2,13,19,12,316,27,38,12,334,24,46,09,226,,25,08,053,27,1*73
$GBGSV,4,3,13,08,05,341,18,41,04,145,26,12,03,022,,34,01,048,,1*7E
$GBGSV,4,4,13,04,01,262,,1*47
$GNRMC,190546.000,A,4910.427256,N,12304.400046,W,0.01,0.00,051224,,,D,V*1D
$GNVTG,0.00,T,,M,0.01,N,0.03,K,D*24
$GNGGA,190547.000,4910.427286,N,12304.400016,W,2,30,0.50,17.636,M,-16.816,M,,*7D
$GNGLL,4910.427286,N,12304.400016,W,190547.000,A,D*58
$GNGSA,A,3,09,04,07,16,20,30,26,27,11,03,08,,0.78,0.50,0.60,1*0B
$GNGSA,A,3,68,69,79,67,,,,,,,,,0.78,0.50,0.60,2*00
$GNGSA,A,3,09,06,31,05,04,24,34,15,,,,,0.78,0.50,0.60,3*06
$GNGSA,A,3,37,23,20,32,38,19,25,,,,,,0.78,0.50,0.60,4*0A
$GPGSV,4,1,13,09,89,183,38,04,57,116,33,07,57,256,35,16,42,062,33,1*6D
$GPGSV,4,2,13,46,33,188,30,20,21,317,25,30,20,252,26,26,15,045,26,1*66
$GPGSV,4,3,13,27,14,103,24,11,11,293,23,03,09,173,23,08,05,133,24,1*68
$GPGSV,4,4,13,06,04,258,17,1*5D
$GLGSV,2,1,07,78,70,049,,68,63,136,30,69,61,321,28,79,52,210,30,1*7E
$GLGSV,2,2,07,67,13,139,20,86,09,006,,85,06,316,15,1*4F
$GAGSV,3,1,09,09,86,086,32,06,60,113,29,31,58,131,29,05,37,297,26,7*76
$GAGSV,3,2,09,04,33,114,26,24,23,187,25,34,14,287,18,15,09,336,17,7*7A
$GAGSV,3,3,09,36,03,240,11,7*4A
$GBGSV,4,1,13,37,62,211,36,23,58,065,36,20,58,295,36,32,54,165,35,1*7C
$GBGSV,4,2,13,38,12,334,24,19,12,316,27,46,09,226,,25,08,053,27,1*73
$GBGSV,4,3,13,08,05,341,18,41,04,145,26,12,03,022,,34,01,048,,1*7E
$GBGSV,4,4,13,04,01,262,,1*47
$GNRMC,190547.000,A,4910.427286,N,12304.400016,W,0.02,0.00,051224,,,D,V*17
$GNVTG,0.00,T,,M,0.02,N,0.03,K,D*27
$GNGGA,190548.000,4910.427298,N,12304.400028,W,2,30,0.50,17.716,M,-16.816,M,,*73
$GNGLL,4910.427298,N,12304.400028,W,190548.000,A,D*55
$GNGSA,A,3,09,04,07,16,20,30,26,27,11,03,08,,0.78,0.50,0.60,1*0B
$GNGSA,A,3,68,69,79,67,,,,,,,,,0.78,0.50,0.60,2*00
$GNGSA,A,3,09,06,31,05,04,24,34,15,,,,,0.78,0.50,0.60,3*06
$GNGSA,A,3,37,23,20,32,38,19,25,,,,,,0.78,0.50,0.60,4*0A
$GPGSV,4,1,13,09,89,183,38,04,57,116,33,07,57,256,35,16,42,062,33,1*6D
$GPGSV,4,2,13,46,33,188,30,20,21,317,25,30,20,252,26,26,15,045,26,1*66
$GPGSV,4,3,13,27,14,103,23,11,11,293,23,03,09,173,23,08,05,133,24,1*6F
$GPGSV,4,4,13,06,04,258,17,1*5D
$GLGSV,2,1,07,78,70,049,,68,63,136,30,69,61,321,28,79,52,210,30,1*7E
$GLGSV,2,2,07,67,13,139,20,86,09,006,,85,06,316,15,1*4F
$GAGSV,3,1,09,09,86,086,32,06,60,113,29,31,58,131,29,05,37,297,25,7*75
$GAGSV,3,2,09,04,33,114,26,24,23,187,26,34,14,287,18,15,09,336,17,7*79
$GAGSV,3,3,09,36,03,240,11,7*4A
$GBGSV,4,1,13,37,62,211,36,23,58,065,36,20,58,295,36,32,54,165,35,1*7C
$GBGSV,4,2,13,38,12,334,24,19,12,316,27,46,09,226,,25,08,053,27,1*73
$GBGSV,4,3,13,08,05,341,18,41,04,145,25,12,03,022,,34,01,048,,1*7D
$GBGSV,4,4,13,04,01,262,,1*47
$GNRMC,190548.000,A,4910.427298,N,12304.400028,W,0.02,0.00,051224,,,D,V*1A
$GNVTG,0.00,T,,M,0.02,N,0.03,K,D*27
$GNGGA,190549.000,4910.427232,N,12304.400094,W,2,30,0.50,17.745,M,-16.816,M,,*73
$GNGLL,4910.427232,N,12304.400094,W,190549.000,A,D*53
$GNGSA,A,3,09,04,07,16,20,30,26,27,11,03,08,,0.78,0.50,0.60,1*0B
$GNGSA,A,3,68,69,79,67,,,,,,,,,0.78,0.50,0.60,2*00
$GNGSA,A,3,09,06,31,05,04,24,34,15,,,,,0.78,0.50,0.60,3*06
$GNGSA,A,3,37,23,20,32,38,19,25,,,,,,0.78,0.50,0.60,4*0A
$GPGSV,4,1,13,09,89,183,38,04,57,116,32,07,57,256,34,16,42,062,33,1*6D
$GPGSV,4,2,13,46,33,188,30,20,21,317,25,30,20,252,25,26,15,045,26,1*65
$GPGSV,4,3,13,27,14,103,23,11,11,293,23,03,09,173,23,08,05,133,23,1*68
$GPGSV,4,4,13,06,04,258,17,1*5D
$GLGSV,2,1,07,78,70,049,,68,63,136,30,69,61,321,28,79,52,210,31,1*7F
$GLGSV,2,2,07,67,13,139,20,86,09,006,,85,06,316,15,1*4F
$GAGSV,3,1,09,09,86,086,32,06,60,113,29,31,58,131,28,05,37,297,25,7*74
$GAGSV,3,2,09,04,33,114,26,24,23,187,25,34,14,287,18,15,09,336,16,7*7B
$GAGSV,3,3,09,36,03,240,12,7*49
$GBGSV,4,1,13,37,62,211,36,23,58,065,36,20,58,295,36,32,54,165,35,1*7C
$GBGSV,4,2,13,38,12,334,24,19,12,316,26,46,09,226,,25,08,053,27,1*72
$GBGSV,4,3,13,08,05,341,18,41,04,145,25,12,03,022,,34,01,048,,1*7D
$GBGSV,4,4,13,04,01,262,,1*47
$GNRMC,190549.000,A,4910.427232,N,12304.400094,W,0.02,0.00,051224,,,D,V*1C
$GNVTG,0.00,T,,M,0.02,N,0.03,K,D*27
$GNGGA,190550.000,4910.427226,N,12304.400058,W,2,30,0.50,17.734,M,-16.816,M,,*78
$GNGLL,4910.427226,N,12304.400058,W,190550.000,A,D*5E
$GNGSA,A,3,09,04,07,16,20,30,26,27,11,03,08,,0.78,0.50,0.60,1*0B
$GNGSA,A,3,68,69,79,67,,,,,,,,,0.78,0.50,0.60,2*00
$GNGSA,A,3,09,06,31,05,04,24,34,15,,,,,0.78,0.50,0.60,3*06
$GNGSA,A,3,37,23,20,32,38,19,25,,,,,,0.78,0.50,0.60,4*0A
$GPGSV,4,1,13,09,89,183,38,04,57,116,32,07,57,256,34,16,42,062,33,1*6D
$GPGSV,4,2,13,46,33,188,30,20,21,317,25,30,20,252,26,26,15,045,26,1*66
$GPGSV,4,3,13,27,14,103,22,11,11,293,23,03,09,173,21,08,05,133,23,1*6B
$GPGSV,4,4,13,06,04,258,17,1*5D
$GLGSV,2,1,07,78,70,049,,68,63,136,29,69,61,321,28,79,52,210,31,1*77
$GLGSV,2,2,07,67,13,139,20,86,09,006,,85,06,316,16,1*4C
$GAGSV,3,1,09,09,86,086,32,06,60,113,29,31,58,131,28,05,37,297,25,7*74
$GAGSV,3,2,09,04,33,114,26,24,23,187,25,34,14,287,18,15,09,336,16,7*7B
$GAGSV,3,3,09,36,03,240,12,7*49
$GBGSV,4,1,13,37,62,211,36,23,58,065,36,20,58,295,36,32,54,165,35,1*7C
$GBGSV,4,2,13,38,12,334,24,19,12,316,26,46,09,226,,25,08,053,27,1*72
$GBGSV,4,3,13,08,05,341,18,41,04,145,25,12,03,022,,34,01,048,,1*7D
$GBGSV,4,4,13,04,01,262,,1*47
$GNRMC,190550.000,A,4910.427226,N,12304.400058,W,0.02,0.00,051224,,,D,V*11
$GNVTG,0.00,T,,M,0.02,N,0.03,K,D*27
$GNGGA,190551.000,4910.427220,N,12304.400082,W,2,30,0.50,17.748,M,-16.817,M,,*72
