$GNGGA,001622.000,4910.426692,N,12304.401480,W,2,34,0.45,1.661,M,-16.816,M,,*4B
$GNGLL,4910.426692,N,12304.401480,W,001622.000,A,D*5B
$GNGSA,A,3,22,17,14,13,19,30,15,02,24,21,,,0.86,0.45,0.73,1*03
$GNGSA,A,3,79,88,78,80,69,,,,,,,,0.86,0.45,0.73,2*0F
$GNGSA,A,3,21,04,06,13,09,19,31,15,26,,,,0.86,0.45,0.73,3*08
$GNGSA,A,3,26,35,29,45,24,33,14,42,44,13,,,0.86,0.45,0.73,4*00
$GPGSV,4,1,13,22,83,009,30,17,68,150,33,14,64,070,30,13,43,226,30,1*6D
$GPGSV,4,2,13,19,42,192,29,46,33,188,29,30,32,136,27,15,32,270,28,1*6E
$GPGSV,4,3,13,02,26,058,26,24,21,307,26,21,16,040,19,10,03,351,21,1*65
$GPGSV,4,4,13,23,01,314,,1*50
$GLGSV,2,1,07,79,71,000,37,88,44,060,37,78,35,087,19,70,28,308,,1*7A
$GLGSV,2,2,07,80,27,295,32,69,21,238,32,71,07,352,,1*4C
$GAGSV,3,1,10,21,53,070,30,04,45,257,28,06,38,291,26,13,27,087,21,7*76
$GAGSV,3,2,10,09,25,315,26,19,19,192,17,31,18,262,22,15,15,033,25,7*78
$GAGSV,3,3,10,26,12,138,23,27,02,078,,7*76
$GBGSV,3,1,12,26,83,315,34,35,44,152,31,29,41,064,27,45,37,105,30,1*71
$GBGSV,3,2,12,24,30,291,27,33,18,299,24,14,18,273,19,42,13,247,23,1*75
$GBGSV,3,3,12,44,10,188,25,08,06,309,16,13,05,319,19,41,04,345,21,1*75
$GNRMC,001622.000,A,4910.426692,N,12304.401480,W,0.01,177.05,041224,,,D,V*12
$GNVTG,177.05,T,,M,0.01,N,0.02,K,D*21
$PAIRLOG,Full*51
$GNGGA,001623.000,4910.426662,N,12304.401486,W,2,34,0.45,1.776,M,-16.816,M,,*44
$GNGLL,4910.426662,N,12304.401486,W,001623.000,A,D*53
$GNGSA,A,3,22,17,14,13,19,30,15,02,24,21,,,0.86,0.45,0.73,1*03
$GNGSA,A,3,79,88,78,80,69,,,,,,,,0.86,0.45,0.73,2*0F
$GNGSA,A,3,21,04,06,13,09,19,31,15,26,,,,0.86,0.45,0.73,3*08
$GNGSA,A,3,26,35,29,45,24,33,14,42,44,13,,,0.86,0.45,0.73,4*00
$GPGSV,4,1,13,22,83,009,30,17,68,150,33,14,64,070,30,13,43,226,30,1*6D
$GPGSV,4,2,13,19,42,192,29,46,33,188,29,30,32,136,27,15,32,270,28,1*6E
$GPGSV,4,3,13,02,25,057,26,24,21,307,26,21,16,040,19,10,03,351,21,1*69
$GPGSV,4,4,13,23,01,314,,1*50
$GLGSV,2,1,07,79,71,000,37,88,44,060,37,78,35,087,19,70,28,308,,1*7A
$GLGSV,2,2,07,80,27,295,32,69,21,238,32,71,07,352,,1*4C
$GAGSV,3,1,10,21,53,070,30,04,45,257,28,06,38,291,26,13,27,087,20,7*77
$GAGSV,3,2,10,09,25,315,26,19,19,192,17,31,18,262,21,15,15,033,25,7*7B
$GAGSV,3,3,10,26,12,138,23,27,02,078,,7*76
$GBGSV,3,1,12,26,83,315,34,35,44,152,31,29,41,064,27,45,37,105,30,1*71
$GBGSV,3,2,12,24,30,291,27,33,18,299,24,14,18,273,18,42,13,247,24,1*73
$GBGSV,3,3,12,44,10,188,25,08,06,309,16,13,05,319,19,41,04,345,21,1*75
$GNRMC,001623.000,A,4910.426662,N,12304.401486,W,0.01,177.05,041224,,,D,V*1A
$GNVTG,177.05,T,,M,0.01,N,0.02,K,D*21
$PAIRLOG,Full*51
$GNGGA,001624.000,4910.426620,N,12304.401504,W,2,34,0.45,1.824,M,-16.816,M,,*46
$GNGLL,4910.426620,N,12304.401504,W,001624.000,A,D*59
$GNGSA,A,3,22,17,14,13,19,30,15,02,24,21,,,0.86,0.45,0.73,1*03
$GNGSA,A,3,79,88,78,80,69,,,,,,,,0.86,0.45,0.73,2*0F
$GNGSA,A,3,21,04,06,13,09,19,31,15,26,,,,0.86,0.45,0.73,3*08
$GNGSA,A,3,26,35,29,45,24,33,14,42,44,13,,,0.86,0.45,0.73,4*00
$GPGSV,4,1,13,22,83,009,31,17,68,150,33,14,64,070,31,13,43,226,30,1*6D
$GPGSV,4,2,13,19,42,192,29,46,33,188,30,30,32,136,27,15,32,270,28,1*66
$GPGSV,4,3,13,02,25,057,26,24,21,307,26,21,16,040,19,10,03,351,21,1*69
$GPGSV,4,4,13,23,01,314,,1*50
$GLGSV,2,1,07,79,71,000,38,88,44,060,37,78,35,087,20,70,28,308,,1*7F
$GLGSV,2,2,07,80,27,295,33,69,21,238,32,71,07,352,,1*4D
$GAGSV,3,1,10,21,53,070,30,04,45,257,28,06,38,291,26,13,27,087,20,7*77
$GAGSV,3,2,10,09,25,315,26,19,19,192,17,31,18,262,21,15,15,033,25,7*7B
$GAGSV,3,3,10,26,12,138,23,27,02,078,,7*76
$GBGSV,3,1,12,26,83,315,34,35,44,152,31,29,41,064,27,45,37,105,30,1*71
$GBGSV,3,2,12,24,30,291,27,33,18,299,24,14,18,273,18,42,13,247,24,1*73
$GBGSV,3,3,12,44,10,188,25,08,06,309,16,13,05,319,19,41,04,345,21,1*75
$GNRMC,001624.000,A,4910.426620,N,12304.401504,W,0.02,177.05,041224,,,D,V*13
$GNVTG,177.05,T,,M,0.02,N,0.03,K,D*23
$PAIRLOG,Full*51
$GNGGA,001625.000,4910.426554,N,12304.401504,W,2,34,0.45,1.872,M,-16.816,M,,*44
$GNGLL,4910.426554,N,12304.401504,W,001625.000,A,D*58
$GNGSA,A,3,22,17,14,13,19,30,15,02,24,21,,,0.86,0.45,0.73,1*03
$GNGSA,A,3,79,88,78,80,69,,,,,,,,0.86,0.45,0.73,2*0F
$GNGSA,A,3,21,04,06,13,09,19,31,15,26,,,,0.86,0.45,0.73,3*08
$GNGSA,A,3,26,35,29,45,24,33,14,42,44,13,,,0.86,0.45,0.73,4*00
$GPGSV,4,1,13,22,83,009,31,17,68,150,33,14,64,070,31,13,43,226,30,1*6D
$GPGSV,4,2,13,19,42,192,29,46,33,188,30,30,32,136,27,15,32,270,28,1*66
$GPGSV,4,3,13,02,25,057,26,24,21,307,26,21,16,040,19,10,03,351,21,1*69
$GPGSV,4,4,13,23,01,314,,1*50
$GLGSV,2,1,07,79,71,000,38,88,44,060,37,78,35,087,20,70,28,308,,1*7F
$GLGSV,2,2,07,80,27,295,33,69,21,238,32,71,07,352,,1*4D
$GAGSV,3,1,10,21,53,070,30,04,45,257,28,06,38,291,26,13,27,087,20,7*77
$GAGSV,3,2,10,09,25,315,26,19,19,192,17,31,18,262,21,15,15,033,25,7*7B
$GAGSV,3,3,10,26,12,138,23,27,02,078,,7*76
$GBGSV,3,1,12,26,83,315,34,35,44,152,31,29,41,064,27,45,37,105,30,1*71
$GBGSV,3,2,12,24,30,291,27,33,18,299,24,14,18,273,18,42,13,247,24,1*73
$GBGSV,3,3,12,44,10,188,25,08,06,309,16,13,05,319,19,41,04,345,21,1*75
$GNRMC,001625.000,A,4910.426554,N,12304.401504,W,0.02,177.05,041224,,,D,V*12
$GNVTG,177.05,T,,M,0.02,N,0.04,K,D*24
$PAIRLOG,Full*51
$GNGGA,001626.000,4910.426488,N,12304.401444,W,2,34,0.45,1.941,M,-16.816,M,,*43
$GNGLL,4910.426488,N,12304.401444,W,001626.000,A,D*5E
$GNGSA,A,3,22,17,14,13,19,30,15,02,24,21,,,0.86,0.45,0.73,1*03
$GNGSA,A,3,79,88,78,80,69,,,,,,,,0.86,0.45,0.73,2*0F
$GNGSA,A,3,21,04,06,13,09,19,31,15,26,,,,0.86,0.45,0.73,3*08
$GNGSA,A,3,26,35,29,45,24,33,14,42,44,13,,,0.86,0.45,0.73,4*00
$GPGSV,4,1,13,22,83,009,31,17,68,150,33,14,64,070,31,13,43,226,29,1*65
$GPGSV,4,2,13,19,42,192,29,46,33,188,30,30,32,136,27,15,32,270,28,1*66
$GPGSV,4,3,13,02,25,057,26,24,21,307,26,21,16,040,20,10,03,351,21,1*63
$GPGSV,4,4,13,23,01,314,,1*50
$GLGSV,2,1,07,79,71,000,38,88,44,060,37,78,35,087,20,70,28,308,,1*7F
$GLGSV,2,2,07,80,27,295,33,69,21,238,32,71,07,352,,1*4D
$GAGSV,3,1,10,21,53,070,30,04,45,257,28,06,38,291,26,13,27,087,20,7*77
$GAGSV,3,2,10,09,25,315,26,19,19,192,17,31,18,262,21,15,15,033,25,7*7B
$GAGSV,3,3,10,26,12,138,23,27,02,078,,7*76
$GBGSV,3,1,12,26,83,315,34,35,44,152,31,29,41,064,27,45,37,105,30,1*71
$GBGSV,3,2,12,24,30,291,27,33,18,299,24,14,18,273,18,42,13,247,24,1*73
$GBGSV,3,3,12,44,10,188,25,08,06,309,16,13,05,319,20,41,04,345,21,1*7F
$GNRMC,001626.000,A,4910.426488,N,12304.401444,W,0.03,177.05,041224,,,D,V*15
$GNVTG,177.05,T,,M,0.03,N,0.05,K,D*24
$PAIRLOG,Full*51
$GNGGA,001627.000,4910.426440,N,12304.401366,W,2,34,0.45,1.990,M,-16.816,M,,*4D
$GNGLL,4910.426440,N,12304.401366,W,001627.000,A,D*5C
$GNGSA,A,3,22,17,14,13,19,30,15,02,24,21,,,0.86,0.45,0.73,1*03
$GNGSA,A,3,79,88,78,80,69,,,,,,,,0.86,0.45,0.73,2*0F
$GNGSA,A,3,21,04,06,13,09,19,31,15,26,,,,0.86,0.45,0.73,3*08
$GNGSA,A,3,26,35,29,45,24,33,14,42,44,13,,,0.86,0.45,0.73,4*00
$GPGSV,4,1,13,22,83,009,31,17,68,150,33,14,64,070,31,13,43,226,29,1*65
$GPGSV,4,2,13,19,42,192,29,46,33,188,30,30,32,136,27,15,32,270,28,1*66
$GPGSV,4,3,13,02,25,057,26,24,21,307,26,21,16,040,20,10,03,351,21,1*63
$GPGSV,4,4,13,23,01,314,,1*50
$GLGSV,2,1,07,79,71,000,38,88,44,060,37,78,35,087,20,70,28,308,,1*7F
$GLGSV,2,2,07,80,27,295,33,69,21,238,32,71,07,352,,1*4D
$GAGSV,3,1,10,21,53,070,30,04,45,257,28,06,38,291,26,13,27,087,20,7*77
$GAGSV,3,2,10,09,25,315,26,19,19,192,17,31,18,262,21,15,15,033,25,7*7B
$GAGSV,3,3,10,26,12,138,23,27,02,078,,7*76
$GBGSV,3,1,12,26,83,315,34,35,44,152,31,29,41,064,28,45,37,105,30,1*7E
$GBGSV,3,2,12,24,30,291,27,33,18,299,24,14,18,273,18,42,13,247,24,1*73
$GBGSV,3,3,12,44,10,188,25,08,06,309,16,13,05,319,20,41,04,345,22,1*7C
$GNRMC,001627.000,A,4910.426440,N,12304.401366,W,0.03,177.05,041224,,,D,V*17
$GNVTG,177.05,T,,M,0.03,N,0.06,K,D*27
$PAIRLOG,Full*51
$GNGGA,001628.000,4910.426386,N,12304.401222,W,2,34,0.45,2.050,M,-16.817,M,,*49
$GNGLL,4910.426386,N,12304.401222,W,001628.000,A,D*5F
$GNGSA,A,3,22,17,14,13,19,30,15,02,24,21,,,0.86,0.45,0.73,1*03
$GNGSA,A,3,79,88,78,80,69,,,,,,,,0.86,0.45,0.73,2*0F
$GNGSA,A,3,21,04,06,13,09,19,31,15,26,,,,0.86,0.45,0.73,3*08
$GNGSA,A,3,26,35,29,45,24,33,14,42,44,13,,,0.86,0.45,0.73,4*00
$GPGSV,4,1,13,22,83,009,31,17,68,150,33,14,64,070,31,13,43,226,29,1*65
$GPGSV,4,2,13,19,42,192,29,46,33,188,30,30,32,136,28,15,32,270,28,1*69
$GPGSV,4,3,13,02,25,057,26,24,21,307,26,21,16,040,20,10,03,351,21,1*63
$GPGSV,4,4,13,23,01,314,,1*50
$GLGSV,2,1,07,79,71,000,38,88,44,060,37,78,35,087,19,70,28,308,,1*75
$GLGSV,2,2,07,80,27,295,33,69,21,238,32,71,07,352,,1*4D
$GAGSV,3,1,10,21,53,070,30,04,45,257,28,06,38,291,26,13,27,087,19,7*7D
$GAGSV,3,2,10,09,25,315,26,19,19,192,16,31,18,262,20,15,15,033,25,7*7B
$GAGSV,3,3,10,26,12,138,23,27,02,078,,7*76
$GBGSV,3,1,12,26,83,315,35,35,44,152,32,29,41,064,29,45,37,105,30,1*7D
$GBGSV,3,2,12,24,30,291,27,33,18,299,24,14,18,273,18,42,13,247,24,1*73
$GBGSV,3,3,12,44,10,188,25,08,06,309,16,13,05,319,20,41,04,345,23,1*7D
$GNRMC,001628.000,A,4910.426386,N,12304.401222,W,0.03,177.05,041224,,,D,V*14
$GNVTG,177.05,T,,M,0.03,N,0.06,K,D*27
$PAIRLOG,Full*51
$GNGGA,001629.000,4910.426338,N,12304.401132,W,2,34,0.45,2.166,M,-16.816,M,,*4A
$GNGLL,4910.426338,N,12304.401132,W,001629.000,A,D*59
$GNGSA,A,3,22,17,14,13,19,30,15,02,24,21,,,0.86,0.45,0.73,1*03
$GNGSA,A,3,79,88,78,80,69,,,,,,,,0.86,0.45,0.73,2*0F
$GNGSA,A,3,21,04,06,13,09,19,31,15,26,,,,0.86,0.45,0.73,3*08
$GNGSA,A,3,26,35,29,45,24,33,14,42,44,13,,,0.86,0.45,0.73,4*00
$GPGSV,4,1,13,22,83,009,31,17,68,150,33,14,64,070,31,13,43,226,29,1*65
$GPGSV,4,2,13,19,42,192,29,46,33,188,30,30,32,136,28,15,32,270,28,1*69
$GPGSV,4,3,13,02,25,057,25,24,21,307,26,21,16,040,20,10,03,351,21,1*60
$GPGSV,4,4,13,23,01,314,,1*50
$GLGSV,2,1,07,79,71,000,38,88,44,060,37,78,35,087,19,70,28,308,,1*75
$GLGSV,2,2,07,80,27,295,33,69,21,238,32,71,07,352,,1*4D
$GAGSV,3,1,10,21,53,070,30,04,45,257,28,06,38,291,25,13,27,087,19,7*7E
$GAGSV,3,2,10,09,25,315,26,19,19,192,16,31,18,262,20,15,15,033,25,7*7B
$GAGSV,3,3,10,26,12,138,23,27,02,078,,7*76
$GBGSV,3,1,12,26,83,315,35,35,44,152,32,29,41,064,29,45,37,105,31,1*7C
$GBGSV,3,2,12,24,30,291,28,33,18,299,24,14,18,273,18,42,13,247,24,1*7C
$GBGSV,3,3,12,44,10,188,25,08,06,309,16,13,05,319,20,41,04,345,23,1*7D
$GNRMC,001629.000,A,4910.426338,N,12304.401132,W,0.03,177.05,041224,,,D,V*12
$GNVTG,177.05,T,,M,0.03,N,0.06,K,D*27
$PAIRLOG,Full*51
$GNGGA,001630.000,4910.426290,N,12304.401042,W,2,34,0.45,2.318,M,-16.816,M,,*4C
$GNGLL,4910.426290,N,12304.401042,W,001630.000,A,D*54
$GNGSA,A,3,22,17,14,13,19,30,15,02,24,21,,,0.86,0.45,0.73,1*03
$GNGSA,A,3,79,88,78,80,69,,,,,,,,0.86,0.45,0.73,2*0F
$GNGSA,A,3,21,04,06,13,09,19,31,15,26,,,,0.86,0.45,0.73,3*08
$GNGSA,A,3,26,35,29,45,24,33,14,42,44,13,,,0.86,0.45,0.73,4*00
$GPGSV,4,1,13,22,83,009,31,17,68,150,33,14,64,070,31,13,43,226,29,1*65
$GPGSV,4,2,13,19,42,192,29,46,33,188,30,30,32,136,28,15,32,270,28,1*69
$GPGSV,4,3,13,02,25,057,25,24,21,307,26,21,16,040,20,10,03,351,21,1*60
$GPGSV,4,4,13,23,01,314,,1*50
$GLGSV,2,1,07,79,71,000,38,88,44,060,37,78,35,087,20,70,28,308,,1*7F
$GLGSV,2,2,07,80,27,295,33,69,21,238,33,71,07,352,,1*4C
$GAGSV,3,1,10,21,53,070,30,04,45,257,28,06,38,291,25,13,27,087,19,7*7E
$GAGSV,3,2,10,09,25,315,26,19,19,192,16,31,18,262,20,15,15,033,25,7*7B
$GAGSV,3,3,10,26,12,138,23,27,02,078,,7*76
$GBGSV,3,1,12,26,83,315,35,35,44,152,32,29,41,064,29,45,37,105,31,1*7C
$GBGSV,3,2,12,24,30,291,28,33,18,299,24,14,18,273,18,42,13,247,24,1*7C
$GBGSV,3,3,12,44,10,188,26,08,06,309,16,13,05,319,20,41,04,345,23,1*7E
$GNRMC,001630.000,A,4910.426290,N,12304.401042,W,0.03,177.05,041224,,,D,V*1F
$GNVTG,177.05,T,,M,0.03,N,0.05,K,D*24
$PAIRLOG,Full*51
$GNGGA,001631.000,4910.426242,N,12304.400922,W,2,34,0.45,2.366,M,-16.816,M,,*45
$GNGLL,4910.426242,N,12304.400922,W,001631.000,A,D*54
$GNGSA,A,3,22,17,14,13,19,30,15,02,24,21,,,0.86,0.45,0.73,1*03
$GNGSA,A,3,79,88,78,80,69,,,,,,,,0.86,0.45,0.73,2*0F
$GNGSA,A,3,21,04,06,13,09,19,31,15,26,,,,0.86,0.45,0.73,3*08
$GNGSA,A,3,26,35,29,45,24,33,14,42,44,13,,,0.86,0.45,0.73,4*00
$GPGSV,4,1,13,22,83,009,31,17,68,150,33,14,64,070,31,13,43,226,29,1*65
$GPGSV,4,2,13,19,42,192,29,46,33,188,30,30,32,136,29,15,32,270,29,1*69
$GPGSV,4,3,13,02,25,057,25,24,21,307,26,21,16,040,20,10,03,350,22,1*62
$GPGSV,4,4,13,23,01,314,,1*50
$GLGSV,2,1,07,79,71,000,38,88,44,060,37,78,35,087,20,70,28,308,,1*7F
$GLGSV,2,2,07,80,27,295,34,69,21,238,33,71,07,352,,1*4B
$GAGSV,3,1,10,21,53,070,30,04,45,257,28,06,38,291,25,13,27,087,19,7*7E
$GAGSV,3,2,10,09,25,315,26,19,19,192,16,31,18,262,20,15,15,033,25,7*7B
$GAGSV,3,3,10,26,12,138,23,27,02,078,,7*76
$GBGSV,3,1,12,26,83,315,35,35,44,152,32,29,41,064,29,45,37,105,31,1*7C
$GBGSV,3,2,12,24,30,291,28,33,18,299,24,14,18,273,18,42,13,247,24,1*7C
$GBGSV,3,3,12,44,10,188,26,08,06,309,16,13,05,319,20,41,04,345,23,1*7E
$GNRMC,001631.000,A,4910.426242,N,12304.400922,W,0.02,177.05,041224,,,D,V*1E
$GNVTG,177.05,T,,M,0.02,N,0.04,K,D*24
$PAIRLOG,Full*51
$PAIR010,0,1,2343,260209*33
$GNGGA,001632.000,4910.426194,N,12304.400844,W,2,34,0.45,2.408,M,-16.816,M,,*40
$GNGLL,4910.426194,N,12304.400844,W,001632.000,A,D*5E
$GNGSA,A,3,22,17,14,13,19,30,15,02,24,21,,,0.86,0.45,0.73,1*03
$GNGSA,A,3,79,88,78,80,69,,,,,,,,0.86,0.45,0.73,2*0F
$GNGSA,A,3,21,04,06,13,09,19,31,15,26,,,,0.86,0.45,0.73,3*08
$GNGSA,A,3,26,35,29,45,24,33,14,42,44,13,,,0.86,0.45,0.73,4*00
$GPGSV,4,1,13,22,83,009,31,17,68,150,33,14,64,070,32,13,43,226,30,1*6E
$GPGSV,4,2,13,19,42,192,29,46,33,188,30,30,32,136,29,15,32,270,29,1*69
$GPGSV,4,3,13,02,25,057,25,24,21,307,26,21,16,040,20,10,03,350,22,1*62
$GPGSV,4,4,13,23,01,314,,1*50
$GLGSV,2,1,07,79,71,000,38,88,44,060,37,78,35,087,21,70,28,308,,1*7E
$GLGSV,2,2,07,80,27,295,34,69,21,238,33,71,07,352,,1*4B
$GAGSV,3,1,10,21,53,070,30,04,45,257,28,06,38,291,25,13,27,087,19,7*7E
$GAGSV,3,2,10,09,25,315,26,19,19,192,16,31,18,262,20,15,15,033,25,7*7B
$GAGSV,3,3,10,26,12,138,23,27,02,078,,7*76
$GBGSV,3,1,12,26,83,315,35,35,44,152,32,29,41,064,29,45,37,105,31,1*7C
$GBGSV,3,2,12,24,30,291,28,33,18,299,24,14,18,273,18,42,13,247,24,1*7C
$GBGSV,3,3,12,44,10,188,26,08,06,309,16,13,05,319,20,41,04,345,23,1*7E
$GNRMC,001632.000,A,4910.426194,N,12304.400844,W,0.02,177.05,041224,,,D,V*14
$GNVTG,177.05,T,,M,0.02,N,0.04,K,D*24
$PAIRLOG,Full*51
$GNGGA,001633.000,4910.426194,N,12304.400736,W,2,34,0.45,2.510,M,-16.817,M,,*42
$GNGLL,4910.426194,N,12304.400736,W,001633.000,A,D*55
$GNGSA,A,3,22,17,14,13,19,30,15,02,24,21,,,0.86,0.45,0.73,1*03
$GNGSA,A,3,79,88,78,80,69,,,,,,,,0.86,0.45,0.73,2*0F
$GNGSA,A,3,21,04,06,13,09,19,31,15,26,,,,0.86,0.45,0.73,3*08
$GNGSA,A,3,26,35,29,45,24,33,14,42,44,13,,,0.86,0.45,0.73,4*00
$GPGSV,4,1,13,22,83,009,31,17,68,150,33,14,64,070,32,13,43,226,30,1*6E
$GPGSV,4,2,13,19,42,192,29,46,33,188,30,30,32,136,29,15,32,270,29,1*69
$GPGSV,4,3,13,02,25,057,25,24,21,307,26,21,16,040,20,10,03,350,22,1*62
$GPGSV,4,4,13,23,01,314,,1*50
$GLGSV,2,1,07,79,71,000,38,88,44,060,37,78,35,087,21,70,28,308,,1*7E
$GLGSV,2,2,07,80,27,295,34,69,21,238,33,71,07,352,,1*4B
$GAGSV,3,1,10,21,53,070,30,04,45,257,28,06,38,291,25,13,27,087,19,7*7E
$GAGSV,3,2,10,09,25,315,26,19,19,192,16,31,18,262,20,15,15,033,25,7*7B
$GAGSV,3,3,10,26,12,138,23,27,02,078,,7*76
$GBGSV,3,1,12,26,83,315,35,35,44,152,32,29,41,064,29,45,37,105,31,1*7C
$GBGSV,3,2,12,24,30,291,28,33,18,299,25,14,18,273,18,42,13,247,24,1*7D
$GBGSV,3,3,12,44,10,188,26,08,06,309,16,13,05,319,20,41,04,345,23,1*7E
$GNRMC,001633.000,A,4910.426194,N,12304.400736,W,0.02,177.05,041224,,,D,V*1F
$GNVTG,177.05,T,,M,0.02,N,0.04,K,D*24
$PAIRLOG,Full*51
$GNGGA,001634.000,4910.426212,N,12304.400646,W,2,34,0.45,2.612,M,-16.816,M,,*4E
$GNGLL,4910.426212,N,12304.400646,W,001634.000,A,D*59
$GNGSA,A,3,22,17,14,19,13,30,15,02,24,21,,,0.86,0.45,0.73,1*03
$GNGSA,A,3,79,88,78,80,69,,,,,,,,0.86,0.45,0.73,2*0F
$GNGSA,A,3,21,04,06,13,09,19,31,15,26,,,,0.86,0.45,0.73,3*08
$GNGSA,A,3,26,35,29,45,24,33,14,42,44,13,,,0.86,0.45,0.73,4*00
$GPGSV,4,1,13,22,83,009,31,17,68,150,33,14,64,070,31,19,42,192,28,1*63
$GPGSV,4,2,13,13,42,225,30,46,33,188,30,30,32,136,29,15,32,270,29,1*64
$GPGSV,4,3,13,02,25,057,25,24,21,307,24,21,16,040,19,10,03,350,21,1*69
$GPGSV,4,4,13,23,01,314,,1*50
$GLGSV,2,1,07,79,71,000,38,88,44,060,37,78,35,087,22,70,28,308,,1*7D
$GLGSV,2,2,07,80,27,295,34,69,21,238,33,71,07,352,,1*4B
$GAGSV,3,1,10,21,53,070,30,04,45,257,28,06,38,291,25,13,27,087,19,7*7E
$GAGSV,3,2,10,09,25,315,26,19,19,192,16,31,18,262,20,15,15,033,25,7*7B
$GAGSV,3,3,10,26,12,138,22,27,02,078,,7*77
$GBGSV,3,1,12,26,83,315,35,35,44,152,32,29,41,064,29,45,37,105,31,1*7C
$GBGSV,3,2,12,24,30,291,29,33,18,299,25,14,18,273,18,42,13,247,24,1*7C
$GBGSV,3,3,12,44,10,188,26,08,06,309,16,13,05,319,20,41,04,345,24,1*79
$GNRMC,001634.000,A,4910.426212,N,12304.400646,W,0.02,177.05,041224,,,D,V*13
$GNVTG,177.05,T,,M,0.02,N,0.04,K,D*24
$PAIRLOG,Full*51
$GNGGA,001635.000,4910.426194,N,12304.400598,W,2,34,0.45,2.718,M,-16.816,M,,*49
$GNGLL,4910.426194,N,12304.400598,W,001635.000,A,D*55
$GNGSA,A,3,22,17,14,19,13,30,15,02,24,21,,,0.86,0.45,0.73,1*03
$GNGSA,A,3,79,88,78,80,69,,,,,,,,0.86,0.45,0.73,2*0F
$GNGSA,A,3,21,04,06,13,09,19,31,15,26,,,,0.86,0.45,0.73,3*08
$GNGSA,A,3,26,35,29,45,24,33,14,42,44,13,,,0.86,0.45,0.73,4*00
$GPGSV,4,1,13,22,83,009,31,17,68,150,32,14,62,071,31,19,42,192,27,1*6A
$GPGSV,4,2,13,13,42,225,29,46,33,188,30,30,32,136,29,15,32,270,29,1*6C
$GPGSV,4,3,13,02,25,057,24,24,21,307,25,21,16,040,18,10,03,350,21,1*68
$GPGSV,4,4,13,23,01,314,,1*50
$GLGSV,2,1,07,79,71,000,38,88,44,060,36,78,35,087,22,70,28,308,,1*7C
$GLGSV,2,2,07,80,27,295,34,69,21,238,33,71,07,352,,1*4B
$GAGSV,3,1,10,21,53,070,30,04,45,257,28,06,38,291,25,13,27,087,19,7*7E
$GAGSV,3,2,10,09,25,315,26,19,19,192,15,31,18,262,20,15,15,033,25,7*78
$GAGSV,3,3,10,26,12,138,22,27,02,078,,7*77
$GBGSV,3,1,12,26,83,315,35,35,44,152,32,29,41,064,29,45,37,105,31,1*7C
$GBGSV,3,2,12,24,30,291,29,33,18,299,25,14,18,273,18,42,13,247,24,1*7C
$GBGSV,3,3,12,44,10,188,26,08,06,309,16,13,05,319,20,41,04,345,24,1*79
$GNRMC,001635.000,A,4910.426194,N,12304.400598,W,0.02,177.05,041224,,,D,V*1F
$GNVTG,177.05,T,,M,0.02,N,0.03,K,D*23
$PAIRLOG,Full*51
$GNGGA,001636.000,4910.426152,N,12304.400568,W,2,34,0.45,2.819,M,-16.816,M,,*41
$GNGLL,4910.426152,N,12304.400568,W,001636.000,A,D*53
$GNGSA,A,3,22,17,14,19,13,30,15,02,24,21,,,0.86,0.45,0.73,1*03
$GNGSA,A,3,79,88,78,80,69,,,,,,,,0.86,0.45,0.73,2*0F
$GNGSA,A,3,21,04,06,13,09,19,31,15,26,,,,0.86,0.45,0.73,3*08
$GNGSA,A,3,26,35,29,45,24,33,14,42,44,13,,,0.86,0.45,0.73,4*00
$GPGSV,4,1,13,22,83,009,30,17,68,150,32,14,62,071,31,19,42,192,27,1*6B
$GPGSV,4,2,13,13,42,225,29,46,33,188,30,30,32,136,29,15,32,268,29,1*65
$GPGSV,4,3,13,02,25,057,24,24,21,307,27,21,16,040,18,10,03,350,21,1*6A
$GPGSV,4,4,13,23,01,314,,1*50
$GLGSV,2,1,07,79,71,000,38,88,44,060,36,78,35,087,23,70,28,308,,1*7D
$GLGSV,2,2,07,80,27,295,34,69,21,238,33,71,07,352,,1*4B
$GAGSV,3,1,10,21,53,070,30,04,45,257,28,06,38,291,25,13,27,087,19,7*7E
$GAGSV,3,2,10,09,25,315,26,19,19,192,16,31,18,262,20,15,15,033,25,7*7B
$GAGSV,3,3,10,26,12,138,23,27,02,078,,7*76
$GBGSV,3,1,12,26,83,315,35,35,44,152,32,29,41,064,29,45,37,105,31,1*7C
$GBGSV,3,2,12,24,30,291,29,33,18,299,25,14,18,273,18,42,13,247,24,1*7C
$GBGSV,3,3,12,44,10,188,26,08,06,309,16,13,05,319,20,41,04,345,24,1*79
$GNRMC,001636.000,A,4910.426152,N,12304.400568,W,0.02,177.05,041224,,,D,V*19
$GNVTG,177.05,T,,M,0.02,N,0.04,K,D*24
$PAIRLOG,Full*51
$GNGGA,001637.000,4910.426092,N,12304.400514,W,2,34,0.45,2.884,M,-16.816,M,,*42
$GNGLL,4910.426092,N,12304.400514,W,001637.000,A,D*54
$GNGSA,A,3,22,17,14,19,13,30,15,02,24,21,,,0.86,0.45,0.73,1*03
$GNGSA,A,3,79,88,78,80,69,,,,,,,,0.86,0.45,0.73,2*0F
$GNGSA,A,3,21,04,06,13,09,19,31,15,26,,,,0.86,0.45,0.73,3*08
$GNGSA,A,3,26,35,29,45,24,33,14,42,44,13,,,0.86,0.45,0.73,4*00
$GPGSV,4,1,13,22,83,009,30,17,68,150,32,14,62,071,31,19,42,192,26,1*6A
$GPGSV,4,2,13,13,42,225,29,46,33,188,30,30,32,136,28,15,32,268,29,1*64
$GPGSV,4,3,13,02,25,057,24,24,21,307,25,21,16,040,18,10,03,350,20,1*69
$GPGSV,4,4,13,23,01,314,,1*50
$GLGSV,2,1,07,79,71,000,38,88,44,060,36,78,35,087,23,70,28,308,,1*7D
$GLGSV,2,2,07,80,27,295,34,69,21,238,33,71,07,352,,1*4B
$GAGSV,3,1,10,21,53,070,30,04,45,257,28,06,38,291,25,13,27,087,19,7*7E
$GAGSV,3,2,10,09,25,315,26,19,19,192,16,31,18,262,20,15,15,033,25,7*7B
$GAGSV,3,3,10,26,12,138,23,27,02,078,,7*76
$GBGSV,3,1,12,26,83,315,35,35,44,152,32,29,41,064,30,45,37,105,31,1*74
$GBGSV,3,2,12,24,30,291,29,33,18,299,25,14,18,273,18,42,13,247,24,1*7C
$GBGSV,3,3,12,44,10,188,26,08,06,309,16,13,05,319,20,41,04,345,24,1*79
$GNRMC,001637.000,A,4910.426092,N,12304.400514,W,0.02,177.05,041224,,,D,V*1E
$GNVTG,177.05,T,,M,0.02,N,0.03,K,D*23
$PAIRLOG,Full*51
$GNGGA,001638.000,4910.426044,N,12304.400466,W,2,34,0.45,2.925,M,-16.817,M,,*49
$GNGLL,4910.426044,N,12304.400466,W,001638.000,A,D*54
$GNGSA,A,3,22,17,14,19,13,30,15,02,24,21,,,0.86,0.45,0.73,1*03
$GNGSA,A,3,79,88,78,80,69,,,,,,,,0.86,0.45,0.73,2*0F
$GNGSA,A,3,21,04,06,13,09,19,31,15,26,,,,0.86,0.45,0.73,3*08
$GNGSA,A,3,26,35,29,45,24,33,14,42,44,13,,,0.86,0.45,0.73,4*00
$GPGSV,4,1,13,22,83,009,30,17,69,147,32,14,62,071,31,19,42,192,26,1*6D
$GPGSV,4,2,13,13,42,225,29,46,33,188,30,30,32,136,28,15,32,268,29,1*64
$GPGSV,4,3,13,02,25,057,24,24,21,307,26,21,16,040,19,10,03,350,20,1*6B
$GPGSV,4,4,13,23,01,314,,1*50
$GLGSV,2,1,07,79,71,000,38,88,44,060,36,78,35,087,22,70,28,308,,1*7C
$GLGSV,2,2,07,80,27,295,34,69,21,238,33,71,07,352,,1*4B
$GAGSV,3,1,10,21,53,070,30,04,45,257,28,06,38,291,25,13,27,087,19,7*7E
$GAGSV,3,2,10,09,25,315,26,19,19,192,16,31,18,262,20,15,15,033,25,7*7B
$GAGSV,3,3,10,26,12,138,23,27,02,078,,7*76
$GBGSV,3,1,12,26,83,315,35,35,44,152,32,29,41,064,30,45,37,105,31,1*74
$GBGSV,3,2,12,24,30,291,29,33,18,299,25,14,18,273,18,42,13,247,24,1*7C
$GBGSV,3,3,12,44,10,188,26,08,06,309,16,13,05,319,20,41,04,345,24,1*79
$GNRMC,001638.000,A,4910.426044,N,12304.400466,W,0.02,177.05,041224,,,D,V*1E
$GNVTG,177.05,T,,M,0.02,N,0.04,K,D*24
$PAIRLOG,Full*51
$GNGGA,001639.000,4910.426068,N,12304.400460,W,2,34,0.45,2.957,M,-16.817,M,,*45
$GNGLL,4910.426068,N,12304.400460,W,001639.000,A,D*5D
$GNGSA,A,3,22,17,14,19,13,30,15,02,24,21,,,0.86,0.45,0.73,1*03
$GNGSA,A,3,79,88,78,80,69,,,,,,,,0.86,0.45,0.73,2*0F
$GNGSA,A,3,21,04,06,13,09,19,31,15,26,,,,0.86,0.45,0.73,3*08
$GNGSA,A,3,26,35,29,45,24,33,14,42,44,13,,,0.86,0.45,0.73,4*00
$GPGSV,4,1,13,22,83,009,30,17,69,147,32,14,62,071,31,19,42,192,26,1*6D
$GPGSV,4,2,13,13,42,225,29,46,33,188,30,30,32,136,28,15,32,268,29,1*64
$GPGSV,4,3,13,02,25,057,23,24,21,307,26,21,16,040,19,10,03,350,19,1*66
$GPGSV,4,4,13,23,01,314,,1*50
$GLGSV,2,1,07,79,71,000,38,88,44,060,36,78,35,087,21,70,28,308,,1*7F
$GLGSV,2,2,07,80,27,295,34,69,21,238,33,71,07,352,,1*4B
$GAGSV,3,1,10,21,53,070,29,04,45,257,28,06,38,291,25,13,27,087,19,7*76
$GAGSV,3,2,10,09,25,315,26,19,19,192,16,31,18,262,20,15,15,033,25,7*7B
$GAGSV,3,3,10,26,12,138,23,27,02,078,,7*76
$GBGSV,3,1,12,26,83,315,35,35,44,152,32,29,41,064,30,45,37,105,31,1*74
$GBGSV,3,2,12,24,30,291,29,33,18,299,25,14,18,273,18,42,13,247,25,1*7D
$GBGSV,3,3,12,44,10,188,26,08,06,309,16,13,05,319,21,41,04,345,24,1*78
$GNRMC,001639.000,A,4910.426068,N,12304.400460,W,0.02,177.05,041224,,,D,V*17
$GNVTG,177.05,T,,M,0.02,N,0.04,K,D*24
$PAIRLOG,Full*51
$GNGGA,001640.000,4910.426086,N,12304.400430,W,2,34,0.45,3.021,M,-16.816,M,,*46
$GNGLL,4910.426086,N,12304.400430,W,001640.000,A,D*56
$GNGSA,A,3,22,17,14,19,13,30,15,02,24,21,,,0.86,0.45,0.73,1*03
$GNGSA,A,3,79,88,78,80,69,,,,,,,,0.86,0.45,0.73,2*0F
$GNGSA,A,3,21,04,06,13,09,19,31,15,26,,,,0.86,0.45,0.73,3*08
$GNGSA,A,3,26,35,29,45,24,33,14,42,44,13,,,0.86,0.45,0.73,4*00
$GPGSV,4,1,13,22,83,009,29,17,69,147,31,14,62,071,31,19,43,192,26,1*67
$GPGSV,4,2,13,13,42,225,29,46,33,188,30,30,32,136,28,15,32,268,28,1*65
$GPGSV,4,3,13,02,25,057,23,24,21,307,26,21,16,040,19,10,03,350,19,1*66
$GPGSV,4,4,13,23,01,314,,1*50
$GLGSV,2,1,07,79,71,000,38,88,44,060,36,78,35,087,21,70,28,308,,1*7F
$GLGSV,2,2,07,80,27,295,34,69,21,238,33,71,07,352,,1*4B
$GAGSV,3,1,10,21,53,070,29,04,45,257,28,06,38,291,25,13,27,087,20,7*7C
$GAGSV,3,2,10,09,25,315,27,19,19,192,16,31,18,262,20,15,15,033,25,7*7A
$GAGSV,3,3,10,26,12,138,23,27,02,078,,7*76
$GBGSV,3,1,12,26,83,315,35,35,44,152,32,29,41,064,30,45,37,105,31,1*74
$GBGSV,3,2,12,24,30,291,29,33,18,299,26,14,18,273,18,42,13,247,25,1*7E
$GBGSV,3,3,12,44,10,188,26,08,06,309,16,13,05,319,21,41,04,345,24,1*78
$GNRMC,001640.000,A,4910.426086,N,12304.400430,W,0.02,177.05,041224,,,D,V*1C
$GNVTG,177.05,T,,M,0.02,N,0.04,K,D*24
$PAIRLOG,Full*51
$GNGGA,001641.000,4910.426128,N,12304.400340,W,2,34,0.45,3.034,M,-16.816,M,,*46
$GNGLL,4910.426128,N,12304.400340,W,001641.000,A,D*52
$GNGSA,A,3,22,17,14,19,13,30,15,02,24,21,,,0.86,0.45,0.73,1*03
$GNGSA,A,3,79,88,78,80,69,,,,,,,,0.86,0.45,0.73,2*0F
$GNGSA,A,3,21,04,06,13,09,19,31,15,26,,,,0.86,0.45,0.73,3*08
$GNGSA,A,3,26,35,29,45,24,33,14,42,44,13,,,0.86,0.45,0.73,4*00
$GPGSV,4,1,13,22,83,009,29,17,69,147,31,14,62,071,31,19,43,192,26,1*67
$GPGSV,4,2,13,13,42,225,29,46,33,188,29,30,32,136,28,15,32,268,28,1*6D
$GPGSV,4,3,13,02,25,057,23,24,21,307,26,21,16,040,19,10,03,350,19,1*66
$GPGSV,4,4,13,23,01,314,,1*50
$GLGSV,2,1,07,79,71,000,38,88,44,060,36,78,35,087,21,70,28,308,,1*7F
$GLGSV,2,2,07,80,27,295,34,69,21,238,34,71,07,352,,1*4C
$GAGSV,3,1,10,21,53,070,29,04,45,257,28,06,38,291,25,13,27,087,20,7*7C
$GAGSV,3,2,10,09,25,315,27,19,19,192,16,31,18,262,20,15,15,033,25,7*7A
$GAGSV,3,3,10,26,12,138,23,27,02,078,,7*76
$GBGSV,3,1,12,26,83,315,35,35,44,152,32,29,41,064,30,45,37,105,31,1*74
$GBGSV,3,2,12,24,30,291,29,33,18,299,26,14,18,273,18,42,13,247,25,1*7E
$GBGSV,3,3,12,44,10,188,26,08,06,309,16,13,05,319,21,41,04,345,24,1*78
$GNRMC,001641.000,A,4910.426128,N,12304.400340,W,0.02,177.05,041224,,,D,V*18
$GNVTG,177.05,T,,M,0.02,N,0.04,K,D*24
$PAIRLOG,Full*51
$GNGGA,001642.000,4910.426176,N,12304.400334,W,2,34,0.45,3.091,M,-16.817,M,,*43
$GNGLL,4910.426176,N,12304.400334,W,001642.000,A,D*59
$GNGSA,A,3,22,17,14,19,13,30,15,02,24,21,,,0.86,0.45,0.73,1*03
$GNGSA,A,3,79,88,78,80,69,,,,,,,,0.86,0.45,0.73,2*0F
$GNGSA,A,3,21,04,06,13,09,19,31,15,26,,,,0.86,0.45,0.73,3*08
$GNGSA,A,3,26,35,29,45,24,33,14,42,44,13,,,0.86,0.45,0.73,4*00
$GPGSV,4,1,13,22,83,009,29,17,69,147,31,14,62,071,30,19,43,192,26,1*66
$GPGSV,4,2,13,13,42,225,28,46,33,188,28,30,32,136,28,15,32,268,28,1*6D
$GPGSV,4,3,13,02,25,057,23,24,21,307,25,21,16,039,19,10,03,350,19,1*6B
$GPGSV,4,4,13,23,01,314,,1*50
$GLGSV,2,1,07,79,71,000,38,88,44,060,36,78,35,087,21,70,28,308,,1*7F
$GLGSV,2,2,07,80,27,295,34,69,21,238,34,71,07,352,,1*4C
$GAGSV,3,1,10,21,53,070,29,04,45,257,28,06,38,291,25,13,27,087,20,7*7C
$GAGSV,3,2,10,09,25,315,27,19,19,192,16,31,18,262,19,15,15,033,25,7*70
$GAGSV,3,3,10,26,12,138,23,27,02,078,,7*76
$GBGSV,3,1,12,26,83,315,35,35,44,152,32,29,41,064,30,45,37,105,31,1*74
$GBGSV,3,2,12,24,30,291,29,33,18,299,25,14,18,273,18,42,13,247,25,1*7D
$GBGSV,3,3,12,44,10,188,26,08,06,309,16,13,05,319,21,41,04,345,24,1*78
$GNRMC,001642.000,A,4910.426176,N,12304.400334,W,0.02,177.05,041224,,,D,V*13
$GNVTG,177.05,T,,M,0.02,N,0.04,K,D*24
$PAIRLOG,Full*51
$GNGGA,001643.000,4910.426194,N,12304.400244,W,2,34,0.45,3.142,M,-16.816,M,,*46
$GNGLL,4910.426194,N,12304.400244,W,001643.000,A,D*52
$GNGSA,A,3,22,17,14,19,13,30,15,02,24,21,,,0.86,0.45,0.73,1*03
$GNGSA,A,3,79,88,78,80,69,,,,,,,,0.86,0.45,0.73,2*0F
$GNGSA,A,3,21,04,06,13,09,19,31,15,26,,,,0.86,0.45,0.73,3*08
$GNGSA,A,3,26,35,29,45,24,14,33,42,44,13,,,0.86,0.45,0.73,4*00
$GPGSV,4,1,13,22,82,018,29,17,69,147,31,14,62,071,30,19,43,192,27,1*66
$GPGSV,4,2,13,13,42,225,28,46,33,188,28,30,32,136,28,15,32,268,27,1*62
$GPGSV,4,3,13,02,25,057,23,24,21,307,25,21,16,039,19,10,03,350,19,1*6B
$GPGSV,4,4,13,23,01,314,,1*50
$GLGSV,2,1,06,79,71,000,38,88,44,060,36,78,35,087,21,80,27,295,34,1*7C
$GLGSV,2,2,06,69,21,238,34,71,07,352,,1*79
$GAGSV,3,1,10,21,53,070,29,04,45,257,28,06,38,291,25,13,27,087,20,7*7C
$GAGSV,3,2,10,09,25,315,27,19,19,192,16,31,18,262,19,15,15,033,25,7*70
$GAGSV,3,3,10,26,12,138,22,27,02,078,,7*77
$GBGSV,3,1,12,26,83,315,35,35,44,152,32,29,41,064,30,45,37,105,31,1*74
$GBGSV,3,2,12,24,30,291,29,14,18,273,17,33,18,299,25,42,13,247,25,1*72
$GBGSV,3,3,12,44,10,188,26,08,06,309,16,13,05,319,21,41,04,345,23,1*7F
$GNRMC,001643.000,A,4910.426194,N,12304.400244,W,0.02,177.05,041224,,,D,V*18
$GNVTG,177.05,T,,M,0.02,N,0.03,K,D*23
$PAIRLOG,Full*51
$GNGGA,001644.000,4910.426200,N,12304.400202,W,2,34,0.45,3.273,M,-16.816,M,,*4C
$GNGLL,4910.426200,N,12304.400202,W,001644.000,A,D*59
$GNGSA,A,3,22,17,14,19,13,30,15,02,24,21,,,0.86,0.45,0.73,1*03
$GNGSA,A,3,79,88,78,80,69,,,,,,,,0.86,0.45,0.73,2*0F
$GNGSA,A,3,21,04,06,13,09,19,31,15,26,,,,0.86,0.45,0.73,3*08
$GNGSA,A,3,26,35,29,45,24,33,14,42,44,13,,,0.86,0.45,0.73,4*00
$GPGSV,4,1,13,22,82,018,29,17,69,147,31,14,62,071,30,19,43,192,28,1*69
$GPGSV,4,2,13,13,42,225,29,46,33,188,29,30,32,136,28,15,32,268,28,1*6D
$GPGSV,4,3,13,02,25,057,23,24,21,307,26,21,16,039,20,10,03,350,19,1*62
$GPGSV,4,4,13,23,01,313,,1*57
$GLGSV,2,1,07,79,71,000,38,88,44,060,37,78,35,087,21,70,28,308,,1*7E
$GLGSV,2,2,07,80,27,295,34,69,21,238,34,71,07,352,,1*4C
$GAGSV,3,1,10,21,53,070,29,04,45,257,28,06,38,291,26,13,27,087,20,7*7F
$GAGSV,3,2,10,09,25,315,27,19,19,192,16,31,18,262,19,15,15,033,25,7*70
$GAGSV,3,3,10,26,12,138,22,27,02,078,,7*77
$GBGSV,3,1,12,26,83,315,34,35,44,152,32,29,41,064,30,45,37,105,31,1*75
$GBGSV,3,2,12,24,30,291,29,33,18,299,25,14,18,273,17,42,13,247,25,1*72
$GBGSV,3,3,12,44,10,188,26,08,06,309,16,13,05,319,21,41,04,345,23,1*7F
$GNRMC,001644.000,A,4910.426200,N,12304.400202,W,0.02,177.05,041224,,,D,V*13
$GNVTG,177.05,T,,M,0.02,N,0.03,K,D*23
$PAIRLOG,Full*51
$GNGGA,001645.000,4910.426260,N,12304.400166,W,2,34,0.45,3.361,M,-16.816,M,,*48
$GNGLL,4910.426260,N,12304.400166,W,001645.000,A,D*5F
$GNGSA,A,3,22,17,14,19,13,30,15,02,24,21,,,0.86,0.45,0.73,1*03
$GNGSA,A,3,79,88,78,80,69,,,,,,,,0.86,0.45,0.73,2*0F
$GNGSA,A,3,21,04,06,13,09,19,31,15,26,,,,0.86,0.45,0.73,3*08
$GNGSA,A,3,26,35,29,45,24,33,14,42,44,13,,,0.86,0.45,0.73,4*00
$GPGSV,4,1,13,22,82,018,30,17,69,147,32,14,62,071,31,19,43,192,28,1*63
$GPGSV,4,2,13,13,42,225,30,46,33,188,29,30,32,136,28,15,32,268,28,1*65
$GPGSV,4,3,13,02,25,057,24,24,22,307,26,21,16,039,21,10,03,350,19,1*67
$GPGSV,4,4,13,23,01,313,,1*57
$GLGSV,2,1,07,79,71,000,38,88,44,060,37,78,35,087,21,70,28,308,,1*7E
$GLGSV,2,2,07,80,27,295,34,69,21,238,34,71,07,352,,1*4C
$GAGSV,3,1,10,21,53,070,29,04,45,257,28,06,38,291,26,13,27,087,21,7*7E
$GAGSV,3,2,10,09,25,315,27,19,19,192,17,31,18,262,20,15,15,033,25,7*7B
$GAGSV,3,3,10,26,12,138,23,27,02,078,,7*76
$GBGSV,3,1,12,26,83,315,34,35,44,152,32,29,41,064,30,45,37,105,31,1*75
$GBGSV,3,2,12,24,30,291,29,33,18,299,25,14,18,273,17,42,13,247,25,1*72
$GBGSV,3,3,12,44,10,188,26,08,06,309,16,13,05,319,20,41,04,345,24,1*79
$GNRMC,001645.000,A,4910.426260,N,12304.400166,W,0.01,177.05,041224,,,D,V*16
$GNVTG,177.05,T,,M,0.01,N,0.03,K,D*20
$PAIRLOG,Full*51
$GNGGA,001646.000,4910.426290,N,12304.400022,W,2,34,0.45,3.274,M,-16.816,M,,*40
$GNGLL,4910.426290,N,12304.400022,W,001646.000,A,D*52
$GNGSA,A,3,22,17,14,19,13,30,15,02,24,21,,,0.86,0.45,0.73,1*03
$GNGSA,A,3,79,88,78,80,69,,,,,,,,0.86,0.45,0.73,2*0F
$GNGSA,A,3,21,04,06,13,09,19,31,15,26,,,,0.86,0.45,0.73,3*08
$GNGSA,A,3,26,35,29,45,24,33,14,42,44,13,,,0.86,0.45,0.73,4*00
$GPGSV,4,1,13,22,82,018,31,17,69,147,33,14,62,071,32,19,43,192,29,1*61
$GPGSV,4,2,13,13,42,225,31,46,33,188,30,30,32,136,29,15,32,268,28,1*6D
$GPGSV,4,3,13,02,25,057,25,24,22,307,27,21,16,039,22,10,03,350,20,1*6E
$GPGSV,4,4,13,23,01,313,,1*57
$GLGSV,2,1,07,79,71,000,38,88,44,060,37,78,35,087,21,70,28,308,,1*7E
$GLGSV,2,2,07,80,27,295,34,69,21,238,34,71,07,352,,1*4C
$GAGSV,3,1,10,21,53,070,29,04,45,257,28,06,38,291,26,13,27,087,22,7*7D
$GAGSV,3,2,10,09,25,315,27,19,19,192,17,31,18,262,21,15,15,033,25,7*7A
$GAGSV,3,3,10,26,12,138,23,27,02,078,,7*76
$GBGSV,3,1,12,26,83,315,34,35,44,152,32,29,41,064,31,45,37,105,32,1*77
$GBGSV,3,2,12,24,30,291,29,33,18,299,25,14,18,273,17,42,13,247,25,1*72
$GBGSV,3,3,12,44,10,188,26,08,06,309,16,13,05,319,21,41,04,345,24,1*78
$GNRMC,001646.000,A,4910.426290,N,12304.400022,W,0.01,177.05,041224,,,D,V*1B
$GNVTG,177.05,T,,M,0.01,N,0.03,K,D*20
$PAIRLOG,Full*51
$GNGGA,001647.000,4910.426386,N,12304.399944,W,2,34,0.45,3.282,M,-16.817,M,,*41
$GNGLL,4910.426386,N,12304.399944,W,001647.000,A,D*5B
$GNGSA,A,3,22,17,14,19,13,30,15,02,24,21,,,0.86,0.45,0.73,1*03
$GNGSA,A,3,79,88,78,80,69,,,,,,,,0.86,0.45,0.73,2*0F
$GNGSA,A,3,21,04,06,13,09,19,31,15,26,,,,0.86,0.45,0.73,3*08
$GNGSA,A,3,26,35,29,45,24,33,14,42,44,13,,,0.86,0.45,0.73,4*00
$GPGSV,4,1,13,22,82,018,31,17,69,147,33,14,62,071,32,19,43,192,30,1*69
$GPGSV,4,2,13,13,42,225,31,46,33,188,30,30,32,136,29,15,32,268,29,1*6C
$GPGSV,4,3,13,02,25,057,25,24,22,307,28,21,16,039,23,10,03,350,20,1*60
$GPGSV,4,4,13,23,01,313,,1*57
$GLGSV,2,1,07,79,71,000,38,88,44,060,37,78,35,087,21,70,28,308,,1*7E
$GLGSV,2,2,07,80,27,295,34,69,21,238,34,71,07,352,,1*4C
$GAGSV,3,1,10,21,53,070,29,04,45,257,28,06,38,291,26,13,27,087,23,7*7C
$GAGSV,3,2,10,09,25,315,28,19,19,192,17,31,18,262,21,15,15,033,25,7*75
$GAGSV,3,3,10,26,12,138,24,27,02,078,,7*71
$GBGSV,3,1,12,26,83,315,34,35,44,152,32,29,41,064,31,45,37,105,32,1*77
$GBGSV,3,2,12,24,30,291,29,33,18,299,25,14,18,273,17,42,13,247,25,1*72
$GBGSV,3,3,12,44,10,188,26,08,06,309,16,13,05,319,21,41,04,345,24,1*78
$GNRMC,001647.000,A,4910.426386,N,12304.399944,W,0.01,177.05,041224,,,D,V*12
$GNVTG,177.05,T,,M,0.01,N,0.03,K,D*20
$PAIRLOG,Full*51
$GNGGA,001648.000,4910.426482,N,12304.399914,W,2,34,0.45,3.320,M,-16.817,M,,*41
$GNGLL,4910.426482,N,12304.399914,W,001648.000,A,D*52
$GNGSA,A,3,22,17,14,19,13,30,15,02,24,21,,,0.86,0.45,0.73,1*03
$GNGSA,A,3,79,88,78,80,69,,,,,,,,0.86,0.45,0.73,2*0F
$GNGSA,A,3,21,04,06,13,09,19,31,15,26,,,,0.86,0.45,0.73,3*08
$GNGSA,A,3,26,35,29,45,24,33,14,42,44,13,,,0.86,0.45,0.73,4*00
$GPGSV,4,1,13,22,82,018,31,17,69,147,33,14,62,071,32,19,43,192,30,1*69
$GPGSV,4,2,13,13,42,225,31,46,33,188,30,30,32,136,29,15,32,268,29,1*6C
$GPGSV,4,3,13,02,25,057,25,24,22,307,28,21,16,039,25,10,03,350,20,1*66
$GPGSV,4,4,13,23,01,313,,1*57
$GLGSV,2,1,07,79,71,000,38,88,44,060,38,78,35,087,21,70,28,308,,1*71
$GLGSV,2,2,07,80,27,295,34,69,21,238,34,71,07,352,,1*4C
$GAGSV,3,1,10,21,53,070,29,04,45,257,28,06,38,291,26,13,27,087,24,7*7B
$GAGSV,3,2,10,09,25,315,28,19,19,192,16,31,18,262,21,15,15,033,25,7*74
$GAGSV,3,3,10,26,12,138,24,27,02,078,,7*71
$GBGSV,3,1,12,26,83,315,34,35,44,152,32,29,41,064,31,45,37,105,32,1*77
$GBGSV,3,2,12,24,30,291,29,33,18,299,25,14,18,273,17,42,13,247,26,1*71
$GBGSV,3,3,12,44,10,188,26,08,06,309,16,13,05,319,21,41,04,345,24,1*78
$GNRMC,001648.000,A,4910.426482,N,12304.399914,W,0.01,177.05,041224,,,D,V*1B
$GNVTG,177.05,T,,M,0.01,N,0.03,K,D*20
$PAIRLOG,Full*51
$GNGGA,001649.000,4910.426548,N,12304.399866,W,2,34,0.45,3.424,M,-16.816,M,,*41
$GNGLL,4910.426548,N,12304.399866,W,001649.000,A,D*50
$GNGSA,A,3,22,17,14,19,13,30,15,02,24,21,,,0.86,0.45,0.73,1*03
$GNGSA,A,3,79,88,78,80,69,,,,,,,,0.86,0.45,0.73,2*0F
$GNGSA,A,3,21,04,06,13,09,19,31,15,26,,,,0.86,0.45,0.73,3*08
$GNGSA,A,3,26,35,29,45,24,33,14,42,44,13,,,0.86,0.45,0.73,4*00
$GPGSV,4,1,13,22,82,018,31,17,69,147,33,14,62,071,32,19,43,192,30,1*69
$GPGSV,4,2,13,13,42,225,31,46,33,188,30,30,32,136,29,15,32,268,29,1*6C
$GPGSV,4,3,13,02,25,057,25,24,22,307,28,21,16,039,25,10,03,350,20,1*66
$GPGSV,4,4,13,23,01,313,,1*57
$GLGSV,2,1,07,79,71,000,38,88,44,060,38,78,35,087,21,70,28,308,,1*71
$GLGSV,2,2,07,80,27,295,34,69,21,238,35,71,07,352,,1*4D
$GAGSV,3,1,10,21,53,070,29,04,45,257,29,06,38,291,26,13,27,087,24,7*7A
$GAGSV,3,2,10,09,25,315,28,19,19,192,16,31,18,262,21,15,15,033,25,7*74
$GAGSV,3,3,10,26,12,138,24,27,02,078,,7*71
$GBGSV,3,1,12,26,83,315,35,35,44,152,32,29,41,064,31,45,37,105,32,1*76
$GBGSV,3,2,12,24,30,291,30,33,18,299,27,14,18,273,18,42,13,247,27,1*75
$GBGSV,3,3,12,44,10,188,27,08,06,309,16,13,05,319,21,41,04,345,24,1*79
$GNRMC,001649.000,A,4910.426548,N,12304.399866,W,0.01,177.05,041224,,,D,V*19
$GNVTG,177.05,T,,M,0.01,N,0.02,K,D*21
$PAIRLOG,Full*51
$GNGGA,001650.000,4910.426644,N,12304.399824,W,2,34,0.45,3.429,M,-16.817,M,,*4C
$GNGLL,4910.426644,N,12304.399824,W,001650.000,A,D*51
$GNGSA,A,3,22,17,14,19,13,30,15,02,24,21,,,0.86,0.45,0.73,1*03
$GNGSA,A,3,79,88,78,80,69,,,,,,,,0.86,0.45,0.73,2*0F
$GNGSA,A,3,21,04,06,13,09,19,31,15,26,,,,0.86,0.45,0.73,3*08
$GNGSA,A,3,26,35,29,45,24,33,14,42,44,13,,,0.86,0.45,0.73,4*00
$GPGSV,4,1,13,22,82,018,32,17,69,147,33,14,62,071,32,19,43,192,30,1*6A
$GPGSV,4,2,13,13,42,225,31,46,33,188,30,30,32,136,29,15,32,268,29,1*6C
$GPGSV,4,3,13,02,25,057,25,24,22,307,28,21,16,039,25,10,03,350,20,1*66
$GPGSV,4,4,13,23,01,313,,1*57
$GLGSV,2,1,07,79,71,000,38,88,44,060,38,78,35,087,21,70,28,308,,1*71
$GLGSV,2,2,07,80,27,295,34,69,21,238,35,71,07,352,,1*4D
$GAGSV,3,1,10,21,53,070,29,04,45,257,29,06,38,291,26,13,27,087,24,7*7A
$GAGSV,3,2,10,09,25,315,28,19,19,192,17,31,18,262,21,15,15,033,25,7*75
$GAGSV,3,3,10,26,12,138,24,27,02,078,,7*71
$GBGSV,3,1,12,26,83,315,35,35,44,152,32,29,41,064,31,45,37,105,32,1*76
$GBGSV,3,2,12,24,30,291,31,33,18,299,26,14,18,273,18,42,13,247,27,1*75
$GBGSV,3,3,12,44,10,188,27,08,06,309,16,13,05,319,22,41,04,345,24,1*7A
$GNRMC,001650.000,A,4910.426644,N,12304.399824,W,0.01,177.05,041224,,,D,V*18
$GNVTG,177.05,T,,M,0.01,N,0.02,K,D*21
$PAIRLOG,Full*51
$GNGGA,001651.000,4910.426716,N,12304.399770,W,2,34,0.45,3.331,M,-16.816,M,,*4A
$GNGLL,4910.426716,N,12304.399770,W,001651.000,A,D*58
$GNGSA,A,3,22,17,14,19,13,15,30,02,24,21,,,0.86,0.45,0.73,1*03
$GNGSA,A,3,79,88,78,80,69,,,,,,,,0.86,0.45,0.73,2*0F
$GNGSA,A,3,21,04,06,13,09,19,31,15,26,,,,0.86,0.45,0.73,3*08
$GNGSA,A,3,26,35,29,45,24,33,14,42,44,13,,,0.86,0.45,0.73,4*00
$GPGSV,4,1,13,22,82,018,32,17,69,147,33,14,62,071,33,19,43,192,31,1*6A
$GPGSV,4,2,13,13,42,225,32,46,33,188,30,15,32,268,29,30,31,137,29,1*6D
$GPGSV,4,3,13,02,25,057,25,24,22,307,28,21,16,039,25,10,03,350,20,1*66
$GPGSV,4,4,13,23,01,313,,1*57
$GLGSV,2,1,07,79,71,000,38,88,44,060,38,78,35,087,21,70,28,308,,1*71
$GLGSV,2,2,07,80,27,295,34,69,21,238,35,71,07,352,,1*4D
$GAGSV,3,1,10,21,53,070,29,04,45,257,29,06,38,291,26,13,27,087,24,7*7A
