$GNGGA,002521.000,4910.427736,N,12304.402176,W,2,31,0.46,11.657,M,-16.816,M,,*7B
$GNGLL,4910.427736,N,12304.402176,W,002521.000,A,D*59
$GNGSA,A,3,22,17,14,19,13,15,24,02,30,21,,,0.82,0.46,0.68,1*0E
$GNGSA,A,3,73,72,80,71,,,,,,,,,0.82,0.46,0.68,2*0B
$GNGSA,A,3,25,03,24,02,08,10,12,05,33,,,,0.82,0.46,0.68,3*0A
$GNGSA,A,3,36,27,30,45,21,28,22,29,,,,,0.82,0.46,0.68,4*02
$GPGSV,4,1,13,22,77,049,35,17,73,125,36,14,56,076,34,19,51,192,35,1*69
$GPGSV,4,2,13,13,36,219,32,46,33,188,30,15,29,260,31,24,28,306,30,1*6F
$GPGSV,4,3,13,02,24,050,28,30,23,139,29,21,12,033,24,06,03,161,,1*6D
$GPGSV,4,4,13,10,02,344,17,1*50
$GLGSV,2,1,07,73,73,018,28,83,52,109,,82,39,045,,74,39,303,,1*73
$GLGSV,2,2,07,72,29,291,23,80,28,093,25,71,16,240,21,1*41
$GAGSV,3,1,10,25,82,340,31,03,38,233,26,24,36,077,25,02,34,269,26,7*7E
$GAGSV,3,2,10,08,34,299,26,10,30,097,26,12,29,069,22,11,23,126,20,7*73
$GAGSV,3,3,10,05,09,188,19,33,07,020,17,7*74
$GBGSV,3,1,12,36,74,299,40,46,49,108,,27,47,074,38,30,47,155,37,1*7A
$GBGSV,3,2,12,57,22,070,,45,22,293,35,21,15,308,29,28,14,038,33,1*7D
$GBGSV,3,3,12,22,12,258,29,29,06,194,31,13,03,318,25,08,02,307,16,1*74
$GNRMC,002521.000,A,4910.427736,N,12304.402176,W,0.02,342.49,061224,,,D,V*1D
$GNVTG,342.49,T,,M,0.02,N,0.03,K,D*2F
$GNGGA,002522.000,4910.427844,N,12304.402134,W,2,31,0.46,11.598,M,-16.816,M,,*74
$GNGLL,4910.427844,N,12304.402134,W,002522.000,A,D*56
$GNGSA,A,3,22,17,14,19,13,15,24,02,30,21,,,0.82,0.46,0.68,1*0E
$GNGSA,A,3,73,72,80,71,,,,,,,,,0.82,0.46,0.68,2*0B
$GNGSA,A,3,25,03,24,02,08,10,12,05,33,,,,0.82,0.46,0.68,3*0A
$GNGSA,A,3,36,27,30,45,21,28,22,29,,,,,0.82,0.46,0.68,4*02
$GPGSV,4,1,13,22,77,049,35,17,73,125,36,14,56,076,34,19,51,192,35,1*69
$GPGSV,4,2,13,13,36,219,32,46,33,188,30,15,29,260,31,24,28,306,30,1*6F
$GPGSV,4,3,13,02,24,050,28,30,23,139,29,21,12,033,24,06,03,161,,1*6D
$GPGSV,4,4,13,10,02,344,17,1*50
$GLGSV,2,1,07,73,73,018,28,83,52,109,,82,39,045,,74,39,303,,1*73
$GLGSV,2,2,07,72,29,291,23,80,28,093,25,71,16,240,21,1*41
$GAGSV,3,1,10,25,82,340,31,03,38,233,27,24,36,077,25,02,34,269,26,7*7F
$GAGSV,3,2,10,08,34,299,26,10,30,097,26,12,29,069,22,11,23,126,20,7*73
$GAGSV,3,3,10,05,09,188,19,33,07,020,17,7*74
$GBGSV,3,1,12,36,74,299,40,46,49,108,,27,47,074,38,30,47,155,37,1*7A
$GBGSV,3,2,12,57,22,070,,45,22,293,35,21,15,308,29,28,14,038,32,1*7C
$GBGSV,3,3,12,22,12,258,29,29,06,194,31,13,03,318,25,08,02,307,16,1*74
$GNRMC,002522.000,A,4910.427844,N,12304.402134,W,0.02,342.49,061224,,,D,V*12
$GNVTG,342.49,T,,M,0.02,N,0.03,K,D*2F
$GNGGA,002523.000,4910.427922,N,12304.402032,W,2,31,0.46,11.591,M,-16.817,M,,*7B
$GNGLL,4910.427922,N,12304.402032,W,002523.000,A,D*51
$GNGSA,A,3,22,17,14,19,13,15,24,02,30,21,,,0.82,0.46,0.68,1*0E
$GNGSA,A,3,73,72,80,71,,,,,,,,,0.82,0.46,0.68,2*0B
$GNGSA,A,3,25,03,24,02,08,10,12,05,33,,,,0.82,0.46,0.68,3*0A
$GNGSA,A,3,36,27,30,45,21,28,22,29,,,,,0.82,0.46,0.68,4*02
$GPGSV,4,1,13,22,77,049,35,17,73,125,36,14,56,076,34,19,51,192,35,1*69
$GPGSV,4,2,13,13,36,219,32,46,33,188,30,15,29,260,32,24,28,306,30,1*6C
$GPGSV,4,3,13,02,24,050,28,30,23,139,29,21,12,033,24,06,03,161,,1*6D
$GPGSV,4,4,13,10,02,344,17,1*50
$GLGSV,2,1,07,73,73,018,28,83,52,109,,82,39,045,,74,39,303,,1*73
$GLGSV,2,2,07,72,29,291,23,80,28,093,24,71,16,240,21,1*40
$GAGSV,3,1,10,25,82,340,31,03,38,233,27,24,36,077,25,02,34,269,26,7*7F
$GAGSV,3,2,10,08,34,299,26,10,30,097,26,12,29,069,22,11,23,126,20,7*73
$GAGSV,3,3,10,05,09,188,19,33,07,020,17,7*74
$GBGSV,3,1,12,36,74,299,40,46,49,108,,27,47,074,38,30,47,155,37,1*7A
$GBGSV,3,2,12,57,22,070,,45,22,293,35,21,15,308,29,28,14,038,32,1*7C
$GBGSV,3,3,12,22,12,258,29,29,06,194,31,13,03,318,25,08,02,307,16,1*74
$GNRMC,002523.000,A,4910.427922,N,12304.402032,W,0.02,342.49,061224,,,D,V*15
$GNVTG,342.49,T,,M,0.02,N,0.03,K,D*2F
$GNGGA,002524.000,4910.427952,N,12304.402050,W,2,31,0.46,11.555,M,-16.816,M,,*76
$GNGLL,4910.427952,N,12304.402050,W,002524.000,A,D*55
$GNGSA,A,3,22,17,14,19,13,15,24,02,30,21,,,0.82,0.46,0.68,1*0E
$GNGSA,A,3,73,72,80,71,,,,,,,,,0.82,0.46,0.68,2*0B
$GNGSA,A,3,25,03,24,02,08,10,12,05,33,,,,0.82,0.46,0.68,3*0A
$GNGSA,A,3,36,27,30,45,21,28,22,29,,,,,0.82,0.46,0.68,4*02
$GPGSV,4,1,13,22,77,049,35,17,73,125,36,14,56,076,34,19,51,192,35,1*69
$GPGSV,4,2,13,13,36,219,32,46,33,188,30,15,29,260,32,24,28,306,30,1*6C
$GPGSV,4,3,13,02,24,050,28,30,23,139,29,21,12,033,23,06,03,161,,1*6A
$GPGSV,4,4,13,10,02,344,17,1*50
$GLGSV,2,1,07,73,73,018,28,83,52,109,,82,39,045,,74,39,303,,1*73
$GLGSV,2,2,07,72,29,291,23,80,28,093,24,71,16,240,21,1*40
$GAGSV,3,1,10,25,82,340,31,03,38,233,26,24,36,077,24,02,34,269,26,7*7F
$GAGSV,3,2,10,08,34,299,26,10,30,097,26,12,29,069,22,11,23,126,20,7*73
$GAGSV,3,3,10,05,09,188,19,33,07,020,17,7*74
$GBGSV,3,1,12,36,74,299,40,46,49,108,,27,47,074,38,30,47,155,37,1*7A
$GBGSV,3,2,12,57,22,070,,45,22,293,35,21,15,308,29,28,14,038,32,1*7C
$GBGSV,3,3,12,22,12,258,29,29,06,194,31,13,03,318,25,08,02,307,16,1*74
$GNRMC,002524.000,A,4910.427952,N,12304.402050,W,0.02,342.49,061224,,,D,V*11
$GNVTG,342.49,T,,M,0.02,N,0.04,K,D*28
$GNGGA,002525.000,4910.428024,N,12304.402032,W,2,31,0.46,11.510,M,-16.816,M,,*75
$GNGLL,4910.428024,N,12304.402032,W,002525.000,A,D*57
$GNGSA,A,3,22,17,14,19,13,15,24,02,30,21,,,0.82,0.46,0.68,1*0E
$GNGSA,A,3,73,72,80,71,,,,,,,,,0.82,0.46,0.68,2*0B
$GNGSA,A,3,25,03,24,02,08,10,12,05,33,,,,0.82,0.46,0.68,3*0A
$GNGSA,A,3,36,27,30,45,21,28,22,29,,,,,0.82,0.46,0.68,4*02
$GPGSV,4,1,13,22,77,049,35,17,73,125,36,14,56,076,33,19,51,192,35,1*6E
$GPGSV,4,2,13,13,36,219,32,46,33,188,30,15,29,260,32,24,28,306,30,1*6C
$GPGSV,4,3,13,02,24,050,28,30,23,139,29,21,12,033,23,06,03,161,,1*6A
$GPGSV,4,4,13,10,02,344,17,1*50
$GLGSV,2,1,07,73,73,018,27,83,52,109,,82,39,045,,74,39,303,,1*7C
$GLGSV,2,2,07,72,29,291,23,80,28,093,24,71,16,240,21,1*40
$GAGSV,3,1,10,25,82,340,31,03,38,233,26,24,36,077,24,02,34,269,26,7*7F
$GAGSV,3,2,10,08,34,299,26,10,30,097,26,12,29,069,22,11,23,126,20,7*73
$GAGSV,3,3,10,05,09,188,19,33,07,020,17,7*74
$GBGSV,3,1,12,36,74,299,40,46,49,108,,27,47,074,38,30,47,155,37,1*7A
$GBGSV,3,2,12,57,22,070,,45,22,293,35,21,15,308,29,28,14,038,32,1*7C
$GBGSV,3,3,12,22,12,258,29,29,06,194,31,13,03,318,25,08,02,307,16,1*74
$GNRMC,002525.000,A,4910.428024,N,12304.402032,W,0.02,342.49,061224,,,D,V*13
$GNVTG,342.49,T,,M,0.02,N,0.04,K,D*28
$GNGGA,002526.000,4910.428084,N,12304.402020,W,2,31,0.46,11.539,M,-16.816,M,,*74
$GNGLL,4910.428084,N,12304.402020,W,002526.000,A,D*5D
$GNGSA,A,3,22,17,14,19,13,15,24,02,30,21,,,0.82,0.46,0.68,1*0E
$GNGSA,A,3,73,72,80,71,,,,,,,,,0.82,0.46,0.68,2*0B
$GNGSA,A,3,25,03,24,02,08,10,12,05,33,,,,0.82,0.46,0.68,3*0A
$GNGSA,A,3,36,27,30,45,21,28,22,29,,,,,0.82,0.46,0.68,4*02
$GPGSV,4,1,13,22,77,049,35,17,73,125,36,14,56,076,33,19,51,192,35,1*6E
$GPGSV,4,2,13,13,36,219,31,46,33,188,30,15,29,260,32,24,28,306,30,1*6F
$GPGSV,4,3,13,02,24,050,28,30,23,139,28,21,12,033,23,06,03,161,,1*6B
$GPGSV,4,4,13,10,02,344,17,1*50
$GLGSV,2,1,07,73,73,018,27,83,52,109,,82,39,045,,74,39,303,,1*7C
$GLGSV,2,2,07,72,29,291,23,80,28,093,24,71,16,240,21,1*40
$GAGSV,3,1,10,25,82,340,31,03,38,233,26,24,35,077,24,02,34,269,26,7*7C
$GAGSV,3,2,10,08,34,299,25,10,30,097,26,12,29,069,22,11,23,126,20,7*70
$GAGSV,3,3,10,05,09,188,19,33,07,020,17,7*74
$GBGSV,3,1,12,36,74,299,40,46,49,108,,27,47,074,38,30,47,155,37,1*7A
$GBGSV,3,2,12,57,22,070,,45,22,293,35,21,15,308,29,28,14,038,32,1*7C
$GBGSV,3,3,12,22,12,258,29,29,06,194,31,13,03,318,25,08,02,307,16,1*74
$GNRMC,002526.000,A,4910.428084,N,12304.402020,W,0.02,342.49,061224,,,D,V*19
$GNVTG,342.49,T,,M,0.02,N,0.04,K,D*28
$GNGGA,002527.000,4910.428114,N,12304.401960,W,2,31,0.46,11.555,M,-16.817,M,,*78
$GNGLL,4910.428114,N,12304.401960,W,002527.000,A,D*5A
$GNGSA,A,3,22,17,14,19,13,15,24,02,30,21,,,0.82,0.46,0.68,1*0E
$GNGSA,A,3,73,72,80,71,,,,,,,,,0.82,0.46,0.68,2*0B
$GNGSA,A,3,25,03,24,02,08,10,12,05,33,,,,0.82,0.46,0.68,3*0A
$GNGSA,A,3,36,30,27,45,21,28,22,29,,,,,0.82,0.46,0.68,4*02
$GPGSV,4,1,13,22,77,049,35,17,73,125,36,14,56,076,33,19,51,192,35,1*6E
$GPGSV,4,2,13,13,36,219,31,46,33,188,30,15,29,260,32,24,28,306,30,1*6F
$GPGSV,4,3,13,02,24,050,28,30,23,139,28,21,12,033,22,06,03,161,,1*6A
$GPGSV,4,4,13,10,02,344,16,1*51
$GLGSV,2,1,06,73,73,018,26,83,52,109,,74,39,303,,72,29,291,23,1*78
$GLGSV,2,2,06,80,28,093,24,71,16,240,21,1*74
$GAGSV,3,1,10,25,83,347,31,03,38,233,25,24,35,077,24,02,34,269,26,7*79
$GAGSV,3,2,10,08,34,299,24,10,30,097,26,12,29,069,22,11,23,126,20,7*71
$GAGSV,3,3,10,05,09,188,19,33,07,020,17,7*74
$GBGSV,3,1,12,36,74,299,40,46,49,108,,30,47,155,37,27,47,074,38,1*7A
$GBGSV,3,2,12,45,22,293,35,57,22,070,,21,15,308,29,28,14,038,32,1*7C
$GBGSV,3,3,12,22,12,258,29,29,06,194,31,13,03,318,25,08,02,307,16,1*74
$GNRMC,002527.000,A,4910.428114,N,12304.401960,W,0.02,342.49,061224,,,D,V*1E
$GNVTG,342.49,T,,M,0.02,N,0.04,K,D*28
$PAIR010,0,1,2343,433545*3C
$GNGGA,002528.000,4910.428144,N,12304.401924,W,2,31,0.46,11.535,M,-16.816,M,,*75
$GNGLL,4910.428144,N,12304.401924,W,002528.000,A,D*50
$GNGSA,A,3,22,17,14,19,13,15,24,02,30,21,,,0.82,0.46,0.68,1*0E
$GNGSA,A,3,73,72,80,71,,,,,,,,,0.82,0.46,0.68,2*0B
$GNGSA,A,3,25,03,24,02,08,10,12,05,33,,,,0.82,0.46,0.68,3*0A
$GNGSA,A,3,36,27,30,45,21,28,22,29,,,,,0.82,0.46,0.68,4*02
$GPGSV,4,1,13,22,77,049,34,17,73,125,36,14,56,076,32,19,51,192,34,1*6F
$GPGSV,4,2,13,13,36,219,31,46,33,188,29,15,29,260,32,24,28,306,30,1*67
$GPGSV,4,3,13,02,24,050,28,30,23,139,27,21,12,033,22,06,03,161,,1*65
$GPGSV,4,4,13,10,02,344,16,1*51
$GLGSV,2,1,07,73,73,018,26,83,52,109,,82,39,045,,74,39,303,,1*7D
$GLGSV,2,2,07,72,29,291,23,80,28,093,24,71,16,240,21,1*40
$GAGSV,3,1,10,25,83,347,31,03,38,233,24,24,35,077,23,02,34,269,25,7*7C
$GAGSV,3,2,10,08,34,299,24,10,30,097,26,12,29,069,22,11,23,126,19,7*7B
$GAGSV,3,3,10,05,09,188,19,33,07,020,17,7*74
$GBGSV,3,1,12,36,74,299,40,46,49,108,,27,47,074,38,30,47,155,37,1*7A
$GBGSV,3,2,12,57,22,070,,45,22,293,35,21,15,308,29,28,14,038,32,1*7C
$GBGSV,3,3,12,22,12,258,29,29,06,194,31,13,03,318,25,08,02,307,16,1*74
$GNRMC,002528.000,A,4910.428144,N,12304.401924,W,0.02,342.49,061224,,,D,V*14
$GNVTG,342.49,T,,M,0.02,N,0.04,K,D*28
$GNGGA,002529.000,4910.428138,N,12304.401912,W,2,31,0.46,11.469,M,-16.817,M,,*73
$GNGLL,4910.428138,N,12304.401912,W,002529.000,A,D*5F
$GNGSA,A,3,22,17,14,19,13,15,24,02,30,21,,,0.82,0.46,0.68,1*0E
$GNGSA,A,3,73,72,80,71,,,,,,,,,0.82,0.46,0.68,2*0B
$GNGSA,A,3,25,03,24,02,08,10,12,05,33,,,,0.82,0.46,0.68,3*0A
$GNGSA,A,3,36,27,30,45,21,28,22,29,,,,,0.82,0.46,0.68,4*02
$GPGSV,4,1,13,22,77,049,34,17,73,125,36,14,56,076,32,19,51,192,34,1*6F
$GPGSV,4,2,13,13,36,219,31,46,33,188,29,15,29,260,32,24,28,306,30,1*67
$GPGSV,4,3,13,02,24,050,28,30,23,139,26,21,12,033,22,06,03,161,,1*64
$GPGSV,4,4,13,10,02,344,16,1*51
$GLGSV,2,1,07,73,73,018,27,83,52,109,,82,39,045,,74,39,303,,1*7C
$GLGSV,2,2,07,72,29,291,23,80,28,093,24,71,16,240,21,1*40
$GAGSV,3,1,10,25,83,347,31,03,38,233,24,24,35,077,23,02,34,269,25,7*7C
$GAGSV,3,2,10,08,34,299,24,10,30,097,26,12,29,069,21,11,23,126,19,7*78
$GAGSV,3,3,10,05,09,188,19,33,07,020,17,7*74
$GBGSV,3,1,12,36,74,299,40,46,49,108,,27,47,074,38,30,47,155,37,1*7A
$GBGSV,3,2,12,57,22,070,,45,22,293,34,21,15,308,29,28,14,038,32,1*7D
$GBGSV,3,3,12,22,12,258,29,29,06,194,31,13,03,318,25,08,02,307,16,1*74
$GNRMC,002529.000,A,4910.428138,N,12304.401912,W,0.02,342.49,061224,,,D,V*1B
$GNVTG,342.49,T,,M,0.02,N,0.03,K,D*2F
$GNGGA,002530.000,4910.428144,N,12304.401906,W,2,31,0.46,11.440,M,-16.817,M,,*7E
$GNGLL,4910.428144,N,12304.401906,W,002530.000,A,D*59
$GNGSA,A,3,22,17,14,19,13,15,24,02,30,21,,,0.82,0.46,0.68,1*0E
$GNGSA,A,3,73,72,80,71,,,,,,,,,0.82,0.46,0.68,2*0B
$GNGSA,A,3,25,03,24,02,08,10,12,05,33,,,,0.82,0.46,0.68,3*0A
$GNGSA,A,3,36,27,30,45,21,28,22,29,,,,,0.82,0.46,0.68,4*02
$GPGSV,4,1,13,22,77,049,34,17,73,125,36,14,56,076,32,19,51,192,34,1*6F
$GPGSV,4,2,13,13,36,219,31,46,33,188,29,15,29,260,31,24,28,306,30,1*64
$GPGSV,4,3,13,02,24,050,28,30,23,139,26,21,12,033,22,06,03,161,,1*64
$GPGSV,4,4,13,10,02,344,16,1*51
$GLGSV,2,1,07,73,73,018,27,83,52,109,,82,39,045,,74,39,303,,1*7C
$GLGSV,2,2,07,72,29,291,22,80,28,093,24,71,16,240,20,1*40
$GAGSV,3,1,10,25,83,347,30,03,38,233,24,24,35,077,23,02,34,269,25,7*7D
$GAGSV,3,2,10,08,34,299,24,10,30,097,25,12,29,069,21,11,23,126,19,7*7B
$GAGSV,3,3,10,05,09,188,19,33,07,020,17,7*74
$GBGSV,3,1,12,36,74,299,40,46,49,108,,27,47,074,38,30,47,155,37,1*7A
$GBGSV,3,2,12,57,22,070,,45,22,293,34,21,15,308,29,28,14,038,32,1*7D
$GBGSV,3,3,12,22,12,258,29,29,06,194,30,13,03,318,25,08,02,307,16,1*75
$GNRMC,002530.000,A,4910.428144,N,12304.401906,W,0.02,342.49,061224,,,D,V*1D
$GNVTG,342.49,T,,M,0.02,N,0.03,K,D*2F
$GNGGA,002531.000,4910.428174,N,12304.401930,W,2,31,0.46,11.467,M,-16.816,M,,*7D
$GNGLL,4910.428174,N,12304.401930,W,002531.000,A,D*5E
$GNGSA,A,3,22,17,14,19,13,15,24,02,30,21,,,0.82,0.46,0.68,1*0E
$GNGSA,A,3,73,72,80,71,,,,,,,,,0.82,0.46,0.68,2*0B
$GNGSA,A,3,25,03,24,02,08,10,12,05,33,,,,0.82,0.46,0.68,3*0A
$GNGSA,A,3,36,27,30,45,21,28,22,29,,,,,0.82,0.46,0.68,4*02
$GPGSV,4,1,13,22,77,049,34,17,73,125,36,14,56,076,32,19,51,192,34,1*6F
$GPGSV,4,2,13,13,36,219,31,46,33,188,29,15,29,260,32,24,28,306,30,1*67
$GPGSV,4,3,13,02,24,050,28,30,23,139,26,21,12,033,23,06,03,161,,1*65
$GPGSV,4,4,13,10,02,344,16,1*51
$GLGSV,2,1,07,73,73,018,27,83,52,109,,82,39,045,,74,39,303,,1*7C
$GLGSV,2,2,07,72,29,291,22,80,28,093,25,71,16,240,20,1*41
$GAGSV,3,1,10,25,83,347,30,03,38,233,24,24,35,077,24,02,34,269,26,7*79
$GAGSV,3,2,10,08,34,299,24,10,30,097,26,12,29,069,22,11,23,126,19,7*7B
$GAGSV,3,3,10,05,09,188,20,33,07,020,17,7*7E
$GBGSV,3,1,12,36,74,299,40,46,49,108,,27,47,074,38,30,47,155,37,1*7A
$GBGSV,3,2,12,57,22,070,,45,22,293,34,21,15,308,29,28,14,038,32,1*7D
$GBGSV,3,3,12,22,12,258,28,29,06,194,30,13,03,318,25,08,02,307,16,1*74
$GNRMC,002531.000,A,4910.428174,N,12304.401930,W,0.02,342.49,061224,,,D,V*1A
$GNVTG,342.49,T,,M,0.02,N,0.03,K,D*2F
$GNGGA,002532.000,4910.428216,N,12304.401948,W,2,31,0.46,11.506,M,-16.817,M,,*71
$GNGLL,4910.428216,N,12304.401948,W,002532.000,A,D*55
$GNGSA,A,3,22,17,14,19,13,15,24,02,30,21,,,0.82,0.46,0.68,1*0E
$GNGSA,A,3,73,72,80,71,,,,,,,,,0.82,0.46,0.68,2*0B
$GNGSA,A,3,25,03,24,02,08,10,12,05,33,,,,0.82,0.46,0.68,3*0A
$GNGSA,A,3,36,27,30,45,21,28,22,29,,,,,0.82,0.46,0.68,4*02
$GPGSV,4,1,13,22,77,049,34,17,73,125,36,14,56,076,32,19,51,192,34,1*6F
$GPGSV,4,2,13,13,36,219,31,46,33,188,29,15,29,260,32,24,28,306,30,1*67
$GPGSV,4,3,13,02,24,050,28,30,23,139,26,21,12,033,24,06,03,161,,1*62
$GPGSV,4,4,13,10,02,344,16,1*51
$GLGSV,2,1,07,73,73,018,27,83,52,109,,82,39,045,,74,39,303,,1*7C
$GLGSV,2,2,07,72,29,291,22,80,28,093,25,71,16,240,20,1*41
$GAGSV,3,1,10,25,83,347,30,03,38,233,24,24,35,077,24,02,34,269,26,7*79
$GAGSV,3,2,10,08,34,299,24,10,30,097,26,12,29,069,22,11,23,126,19,7*7B
$GAGSV,3,3,10,05,09,188,20,33,07,020,17,7*7E
$GBGSV,3,1,12,36,74,299,40,46,49,108,,27,47,074,38,30,47,155,37,1*7A
$GBGSV,3,2,12,57,22,070,,45,22,293,34,21,15,308,29,28,14,038,32,1*7D
$GBGSV,3,3,12,22,12,258,28,29,06,194,30,13,03,318,25,08,02,307,16,1*74
$GNRMC,002532.000,A,4910.428216,N,12304.401948,W,0.01,342.49,061224,,,D,V*12
$GNVTG,342.49,T,,M,0.01,N,0.03,K,D*2C
$GNGGA,002533.000,4910.428258,N,12304.402002,W,2,31,0.46,11.532,M,-16.816,M,,*78
$GNGLL,4910.428258,N,12304.402002,W,002533.000,A,D*5A
$GNGSA,A,3,22,17,14,19,13,15,24,02,30,21,,,0.82,0.46,0.68,1*0E
$GNGSA,A,3,73,72,80,71,,,,,,,,,0.82,0.46,0.68,2*0B
$GNGSA,A,3,25,03,24,02,08,10,12,05,33,,,,0.82,0.46,0.68,3*0A
$GNGSA,A,3,36,30,27,45,21,28,22,29,,,,,0.82,0.46,0.68,4*02
$GPGSV,4,1,13,22,77,049,35,17,73,125,36,14,56,076,32,19,51,192,34,1*6E
$GPGSV,4,2,13,13,36,219,32,46,33,188,30,15,29,260,32,24,28,306,30,1*6C
$GPGSV,4,3,13,02,24,050,28,30,23,139,26,21,12,033,23,06,03,161,,1*65
$GPGSV,4,4,13,10,02,344,16,1*51
$GLGSV,2,1,06,73,73,018,27,83,52,109,,74,39,303,,72,29,291,23,1*79
$GLGSV,2,2,06,80,28,093,23,71,16,240,20,1*72
$GAGSV,3,1,10,25,83,347,30,03,38,233,24,24,35,077,24,02,34,269,26,7*79
$GAGSV,3,2,10,08,34,299,24,10,30,097,26,12,29,069,22,11,23,126,19,7*7B
$GAGSV,3,3,10,05,09,188,20,33,07,020,17,7*7E
$GBGSV,3,1,12,36,74,299,40,46,49,108,,30,47,155,37,27,47,074,38,1*7A
$GBGSV,3,2,12,45,22,293,34,57,22,070,,21,15,308,29,28,14,038,32,1*7D
$GBGSV,3,3,12,22,12,258,28,29,06,194,30,13,03,318,25,08,02,307,16,1*74
$GNRMC,002533.000,A,4910.428258,N,12304.402002,W,0.02,342.49,061224,,,D,V*1E
$GNVTG,342.49,T,,M,0.02,N,0.03,K,D*2F
$GNGGA,002534.000,4910.428264,N,12304.402056,W,2,31,0.46,11.562,M,-16.816,M,,*74
$GNGLL,4910.428264,N,12304.402056,W,002534.000,A,D*53
$GNGSA,A,3,22,17,14,19,13,15,24,02,30,21,,,0.82,0.46,0.68,1*0E
$GNGSA,A,3,73,72,80,71,,,,,,,,,0.82,0.46,0.68,2*0B
$GNGSA,A,3,25,03,24,02,08,10,12,05,33,,,,0.82,0.46,0.68,3*0A
$GNGSA,A,3,36,27,30,45,21,28,22,29,,,,,0.82,0.46,0.68,4*02
$GPGSV,4,1,13,22,77,049,35,17,73,125,36,14,56,076,32,19,51,192,34,1*6E
$GPGSV,4,2,13,13,36,219,32,46,33,188,30,15,29,260,32,24,28,306,30,1*6C
$GPGSV,4,3,13,02,24,050,28,30,23,139,26,21,12,033,24,06,03,161,,1*62
$GPGSV,4,4,13,10,02,344,16,1*51
$GLGSV,2,1,07,73,73,018,28,83,52,109,,82,39,045,,74,39,303,,1*73
$GLGSV,2,2,07,72,29,291,23,80,28,093,25,71,16,240,20,1*40
$GAGSV,3,1,10,25,83,347,31,03,38,233,24,24,35,077,24,02,34,269,26,7*78
$GAGSV,3,2,10,08,34,299,24,10,30,097,26,12,29,069,22,11,23,126,19,7*7B
$GAGSV,3,3,10,05,09,188,20,33,07,020,17,7*7E
$GBGSV,3,1,12,36,74,299,40,46,49,108,,27,47,074,38,30,47,155,37,1*7A
$GBGSV,3,2,12,57,22,070,,45,22,293,33,21,15,308,29,28,14,038,31,1*79
$GBGSV,3,3,12,22,12,258,28,29,06,194,30,13,03,318,24,08,02,307,16,1*75
$GNRMC,002534.000,A,4910.428264,N,12304.402056,W,0.02,342.49,061224,,,D,V*17
$GNVTG,342.49,T,,M,0.02,N,0.03,K,D*2F
$GNGGA,002535.000,4910.428312,N,12304.402080,W,2,31,0.46,11.682,M,-16.817,M,,*72
$GNGLL,4910.428312,N,12304.402080,W,002535.000,A,D*59
$GNGSA,A,3,22,17,14,19,13,15,24,02,30,21,,,0.82,0.46,0.68,1*0E
$GNGSA,A,3,73,72,80,71,,,,,,,,,0.82,0.46,0.68,2*0B
$GNGSA,A,3,25,03,24,08,02,10,12,05,33,,,,0.82,0.46,0.68,3*0A
$GNGSA,A,3,36,30,27,45,21,28,22,29,,,,,0.82,0.46,0.68,4*02
$GPGSV,4,1,13,22,77,049,35,17,73,125,36,14,56,076,32,19,51,192,34,1*6E
$GPGSV,4,2,13,13,36,219,32,46,33,188,30,15,29,260,32,24,28,306,30,1*6C
$GPGSV,4,3,13,02,24,050,28,30,23,139,26,21,12,033,23,06,03,161,,1*65
$GPGSV,4,4,13,10,02,344,16,1*51
$GLGSV,2,1,07,73,73,018,28,83,52,109,,82,39,045,,74,39,303,,1*73
$GLGSV,2,2,07,72,29,291,23,80,28,093,24,71,16,240,20,1*41
$GAGSV,3,1,11,25,83,347,31,03,38,233,24,24,35,077,25,08,34,299,24,7*7F
$GAGSV,3,2,11,02,34,269,26,10,30,097,26,12,29,069,22,11,23,126,19,7*7D
$GAGSV,3,3,11,05,09,188,20,33,06,019,17,07,01,338,,7*4A
$GBGSV,3,1,11,36,74,299,40,46,49,108,,30,47,155,37,27,47,074,37,1*76
$GBGSV,3,2,11,45,22,293,33,21,15,308,29,28,14,038,31,22,12,258,28,1*79
