11,330,25,19,03,015,20,16,02,334,17,37,01,316,,1*73
$GNRMC,005107.000,A,4910.426692,N,12304.401306,W,0.02,40.82,070125,,,D,V*26
$GNVTG,40.82,T,,M,0.02,N,0.04,K,D*1E
$PAIRLOG,Full*51
$GNGGA,005108.000,4910.426698,N,12304.401150,W,2,30,0.52,-4.434,M,-16.816,M,,*6A
$GNGLL,4910.426698,N,12304.401150,W,005108.000,A,D*52
$GNGSA,A,3,06,12,19,11,24,17,32,03,,,,,0.85,0.52,0.67,1*05
$GNGSA,A,3,75,74,85,73,66,,,,,,,,0.85,0.52,0.67,2*01
$GNGSA,A,3,21,13,15,27,26,04,06,09,,,,,0.85,0.52,0.67,3*07
$GNGSA,A,3,34,11,25,12,23,43,44,24,39,,,,0.85,0.52,0.67,4*06
$GPGSV,3,1,11,06,61,101,35,12,61,299,36,19,49,062,34,11,46,167,33,1*66
$GPGSV,3,2,11,25,44,301,,24,43,222,31,46,33,188,30,17,20,065,26,1*62
$GPGSV,3,3,11,32,09,315,25,03,09,029,25,20,01,153,,1*5E
$GLGSV,2,1,07,84,71,050,20,75,63,319,31,74,58,139,16,85,49,208,30,1*74
$GLGSV,2,2,07,73,13,140,23,67,09,010,18,66,08,321,19,1*4D
$GAGSV,3,1,09,21,85,081,34,13,59,128,32,15,35,049,30,27,31,113,30,7*77
$GAGSV,3,2,09,26,23,185,27,04,14,287,16,06,12,312,25,09,08,334,21,7*78
$GAGSV,3,3,09,19,02,235,18,7*4D
$GBGSV,3,1,12,34,79,099,36,11,67,204,33,25,65,185,35,12,52,058,31,1*79
$GBGSV,3,2,12,23,48,299,33,43,45,221,31,44,26,055,28,24,17,147,27,1*77
$GBGSV,3,3,12,39,11,330,25,19,03,015,20,16,02,334,17,37,01,316,,1*73
$GNRMC,005108.000,A,4910.426698,N,12304.401150,W,0.02,40.82,070125,,,D,V*22
$GNVTG,40.82,T,,M,0.02,N,0.04,K,D*1E
$PAIRLOG,Full*51
$GNGGA,005109.000,4910.426686,N,12304.400988,W,2,30,0.52,-4.476,M,-16.817,M,,*6F
$GNGLL,4910.426686,N,12304.400988,W,005109.000,A,D*50
$GNGSA,A,3,06,12,19,11,24,17,32,03,,,,,0.85,0.52,0.67,1*05
$GNGSA,A,3,75,74,85,73,66,,,,,,,,0.85,0.52,0.67,2*01
$GNGSA,A,3,21,13,15,27,26,04,06,09,,,,,0.85,0.52,0.67,3*07
$GNGSA,A,3,34,11,25,12,23,43,44,24,39,,,,0.85,0.52,0.67,4*06
$GPGSV,3,1,11,06,61,101,35,12,61,299,36,19,49,062,34,11,46,167,33,1*66
$GPGSV,3,2,11,25,44,301,,24,43,222,31,46,33,188,30,17,20,065,26,1*62
$GPGSV,3,3,11,32,09,315,25,03,09,029,25,20,01,153,,1*5E
$GLGSV,2,1,07,84,71,050,20,75,63,319,31,74,58,139,16,85,49,208,30,1*74
$GLGSV,2,2,07,73,13,140,23,67,09,010,18,66,08,321,19,1*4D
$GAGSV,3,1,09,21,85,081,34,13,59,128,32,15,35,049,30,27,31,113,30,7*77
$GAGSV,3,2,09,26,23,185,27,04,14,287,16,06,12,312,25,09,08,334,21,7*78
$GAGSV,3,3,09,19,02,235,17,7*42
$GBGSV,3,1,12,34,79,099,35,11,67,204,33,25,65,185,35,12,52,058,31,1*7A
$GBGSV,3,2,12,23,48,299,33,43,45,221,31,44,26,055,28,24,17,147,26,1*76
$GBGSV,3,3,12,39,11,330,25,19,03,015,20,16,02,334,17,37,01,316,,1*73
$GNRMC,005109.000,A,4910.426686,N,12304.400988,W,0.02,40.82,070125,,,D,V*20
$GNVTG,40.82,T,,M,0.02,N,0.03,K,D*19
$PAIRLOG,Full*51
$GNGGA,005110.000,4910.426686,N,12304.400862,W,2,30,0.52,-4.584,M,-16.816,M,,*6F
$GNGLL,4910.426686,N,12304.400862,W,005110.000,A,D*5D
$GNGSA,A,3,06,12,19,11,24,17,32,03,,,,,0.85,0.52,0.67,1*05
$GNGSA,A,3,75,74,85,73,66,,,,,,,,0.85,0.52,0.67,2*01
$GNGSA,A,3,21,13,15,27,26,04,06,09,,,,,0.85,0.52,0.67,3*07
$GNGSA,A,3,34,11,25,12,23,43,44,24,39,,,,0.85,0.52,0.67,4*06
$GPGSV,3,1,11,06,61,101,36,12,61,299,37,19,49,062,35,11,46,167,33,1*65
$GPGSV,3,2,11,25,44,301,,24,43,222,32,46,33,188,30,17,20,065,26,1*61
$GPGSV,3,3,11,32,09,315,25,03,09,029,25,20,01,153,,1*5E
$GLGSV,2,1,07,84,71,050,20,75,63,319,31,74,58,139,16,85,49,208,30,1*74
$GLGSV,2,2,07,73,13,140,23,67,09,010,18,66,08,321,19,1*4D
$GAGSV,3,1,09,21,85,081,34,13,59,128,32,15,35,049,30,27,31,113,31,7*76
$GAGSV,3,2,09,26,23,185,27,04,14,287,16,06,12,312,25,09,08,334,21,7*78
$GAGSV,3,3,09,19,02,235,17,7*42
$GBGSV,3,1,12,34,79,099,35,11,67,204,33,25,65,185,35,12,52,058,31,1*7A
$GBGSV,3,2,12,23,48,299,33,43,45,221,31,44,26,055,28,24,17,147,26,1*76
$GBGSV,3,3,12,39,11,330,25,19,03,015,20,16,02,334,17,37,01,316,,1*73
$GNRMC,005110.000,A,4910.426686,N,12304.400862,W,0.02,40.82,070125,,,D,V*2D
$GNVTG,40.82,T,,M,0.02,N,0.03,K,D*19
$PAIRLOG,Full*51
$GNGGA,005111.000,4910.426698,N,12304.400796,W,2,30,0.52,-4.709,M,-16.816,M,,*62
$GNGLL,4910.426698,N,12304.400796,W,005111.000,A,D*57
$GNGSA,A,3,06,12,19,11,24,17,32,03,,,,,0.85,0.52,0.67,1*05
$GNGSA,A,3,75,74,85,73,66,,,,,,,,0.85,0.52,0.67,2*01
$GNGSA,A,3,21,13,15,27,26,04,06,09,,,,,0.85,0.52,0.67,3*07
$GNGSA,A,3,34,11,25,12,23,43,44,24,39,,,,0.85,0.52,0.67,4*06
$GPGSV,3,1,11,06,61,101,36,12,61,299,37,19,49,062,35,11,46,167,33,1*65
$GPGSV,3,2,11,25,44,301,,24,43,222,32,46,33,188,31,17,20,065,26,1*60
$GPGSV,3,3,11,32,09,315,25,03,09,029,25,20,01,153,,1*5E
$GLGSV,2,1,07,84,71,050,20,75,63,319,31,74,58,139,16,85,49,208,30,1*74
$GLGSV,2,2,07,73,13,140,23,67,09,010,18,66,08,321,19,1*4D
$GAGSV,3,1,09,21,85,081,34,13,59,128,32,15,35,049,30,27,31,113,31,7*76
$GAGSV,3,2,09,26,23,185,27,04,14,287,16,06,12,312,26,09,08,334,21,7*7B
$GAGSV,3,3,09,19,02,235,17,7*42
$GBGSV,3,1,12,34,79,099,35,11,67,204,33,25,65,185,35,12,52,058,31,1*7A
$GBGSV,3,2,12,23,48,299,33,43,45,221,30,44,26,055,28,24,17,147,26,1*77
$GBGSV,3,3,12,39,11,330,25,19,03,015,20,16,02,334,17,37,01,316,,1*73
$GNRMC,005111.000,A,4910.426698,N,12304.400796,W,0.02,40.82,070125,,,D,V*27
$GNVTG,40.82,T,,M,0.02,N,0.04,K,D*1E
$PAIRLOG,Full*51
$GNGGA,005112.000,4910.426746,N,12304.400664,W,2,30,0.52,-4.739,M,-16.816,M,,*6C
$GNGLL,4910.426746,N,12304.400664,W,005112.000,A,D*5A
$GNGSA,A,3,06,12,19,11,24,17,32,03,,,,,0.85,0.52,0.67,1*05
$GNGSA,A,3,75,74,85,73,66,,,,,,,,0.85,0.52,0.67,2*01
$GNGSA,A,3,21,13,15,27,26,04,06,09,,,,,0.85,0.52,0.67,3*07
$GNGSA,A,3,34,11,25,12,23,43,44,24,39,,,,0.85,0.52,0.67,4*06
$GPGSV,3,1,11,06,61,101,36,12,61,299,37,19,49,062,35,11,46,167,33,1*65
$GPGSV,3,2,11,25,44,301,16,24,43,222,32,46,33,188,31,17,20,065,26,1*67
$GPGSV,3,3,11,32,09,315,25,03,09,029,25,20,01,153,,1*5E
$GLGSV,2,1,07,84,71,050,20,75,63,319,31,74,58,139,16,85,49,208,31,1*75
$GLGSV,2,2,07,73,13,140,23,67,09,010,18,66,08,321,19,1*4D
$GAGSV,3,1,09,21,85,081,34,13,59,128,32,15,35,049,30,27,31,113,31,7*76
$GAGSV,3,2,09,26,23,185,27,04,14,287,16,06,12,312,26,09,08,334,21,7*7B
$GAGSV,3,3,09,19,02,235,17,7*42
$GBGSV,3,1,12,34,79,099,35,11,67,204,33,25,65,185,35,12,52,058,31,1*7A
$GBGSV,3,2,12,23,48,299,33,43,45,221,30,44,26,055,28,24,17,147,25,1*74
$GBGSV,3,3,12,39,11,330,25,19,03,015,19,16,02,334,17,37,01,316,,1*79
$GNRMC,005112.000,A,4910.426746,N,12304.400664,W,0.03,40.82,070125,,,D,V*2B
$GNVTG,40.82,T,,M,0.03,N,0.05,K,D*1E
$PAIRLOG,Full*51
$GNGGA,005113.000,4910.426800,N,12304.400556,W,2,30,0.52,-4.794,M,-16.816,M,,*65
$GNGLL,4910.426800,N,12304.400556,W,005113.000,A,D*54
$GNGSA,A,3,06,12,19,11,24,17,32,03,,,,,0.85,0.52,0.67,1*05
$GNGSA,A,3,75,74,85,73,66,,,,,,,,0.85,0.52,0.67,2*01
$GNGSA,A,3,21,13,15,27,26,04,06,09,,,,,0.85,0.52,0.67,3*07
$GNGSA,A,3,34,11,25,12,23,43,44,24,39,,,,0.85,0.52,0.67,4*06
$GPGSV,3,1,11,06,61,101,36,12,61,299,37,19,49,062,35,11,46,167,32,1*64
$GPGSV,3,2,11,25,44,301,15,24,43,222,32,46,33,188,31,17,19,066,26,1*6D
$GPGSV,3,3,11,32,09,315,25,03,09,029,25,20,01,153,,1*5E
$GLGSV,2,1,07,84,71,050,20,75,63,319,31,74,58,139,16,85,49,208,31,1*75
$GLGSV,2,2,07,73,13,140,23,67,09,010,18,66,08,321,19,1*4D
$GAGSV,3,1,09,21,85,081,33,13,59,128,31,15,35,049,30,27,31,113,30,7*73
$GAGSV,3,2,09,26,23,185,27,04,14,287,16,06,12,312,25,09,08,334,21,7*78
$GAGSV,3,3,09,19,02,235,17,7*42
$GBGSV,3,1,12,34,79,099,35,11,67,204,33,25,65,185,35,12,52,058,31,1*7A
$GBGSV,3,2,12,23,48,299,33,43,45,221,30,44,26,055,28,24,17,147,25,1*74
$GBGSV,3,3,12,39,11,330,25,19,03,015,19,16,02,334,17,37,01,316,,1*79
$GNRMC,005113.000,A,4910.426800,N,12304.400556,W,0.03,40.82,070125,,,D,V*25
$GNVTG,40.82,T,,M,0.03,N,0.06,K,D*1D
$PAIRLOG,Full*51
$GNGGA,005114.000,4910.426830,N,12304.400514,W,2,30,0.52,-4.918,M,-16.816,M,,*6D
$GNGLL,4910.426830,N,12304.400514,W,005114.000,A,D*56
$GNGSA,A,3,06,12,19,11,24,17,32,03,,,,,0.85,0.52,0.67,1*05
$GNGSA,A,3,75,74,85,73,66,,,,,,,,0.85,0.52,0.67,2*01
$GNGSA,A,3,21,13,15,27,26,04,06,09,,,,,0.85,0.52,0.67,3*07
$GNGSA,A,3,34,11,25,12,23,43,44,24,39,,,,0.85,0.52,0.67,4*06
$GPGSV,3,1,11,06,61,101,36,12,61,299,37,19,49,062,35,11,46,167,33,1*65
$GPGSV,3,2,11,25,44,301,14,24,43,222,32,46,33,188,31,17,19,066,26,1*6C
$GPGSV,3,3,11,32,09,315,25,03,09,029,25,20,01,153,,1*5E
$GLGSV,2,1,07,84,71,050,20,75,63,319,31,74,58,139,16,85,49,208,31,1*75
$GLGSV,2,2,07,73,13,140,23,67,09,010,18,66,08,321,19,1*4D
$GAGSV,3,1,09,21,85,081,33,13,59,128,31,15,35,049,30,27,31,113,30,7*73
$GAGSV,3,2,09,26,23,185,27,04,14,287,16,06,12,312,25,09,08,334,21,7*78
$GAGSV,3,3,09,19,02,235,17,7*42
$GBGSV,3,1,12,34,79,099,35,11,67,204,33,25,65,185,35,12,52,058,31,1*7A
$GBGSV,3,2,12,23,48,299,32,43,45,221,30,44,26,055,28,24,17,147,24,1*74
$GBGSV,3,3,12,39,11,330,25,19,03,015,19,16,02,334,17,37,01,316,,1*79
$GNRMC,005114.000,A,4910.426830,N,12304.400514,W,0.03,40.82,070125,,,D,V*27
$GNVTG,40.82,T,,M,0.03,N,0.05,K,D*1E
$PAIRLOG,Full*51
$GNGGA,005115.000,4910.426842,N,12304.400412,W,2,30,0.52,-5.153,M,-16.816,M,,*68
$GNGLL,4910.426842,N,12304.400412,W,005115.000,A,D*55
$GNGSA,A,3,06,12,19,11,24,17,32,03,,,,,0.85,0.52,0.67,1*05
$GNGSA,A,3,75,74,85,73,66,,,,,,,,0.85,0.52,0.67,2*01
$GNGSA,A,3,21,13,15,27,26,04,06,09,,,,,0.85,0.52,0.67,3*07
$GNGSA,A,3,34,11,25,12,23,43,44,24,39,,,,0.85,0.52,0.67,4*06
$GPGSV,3,1,11,06,61,101,36,12,61,299,37,19,48,062,35,11,46,167,34,1*63
$GPGSV,3,2,11,25,44,301,13,24,43,222,32,46,33,188,31,17,19,066,26,1*6B
$GPGSV,3,3,11,32,09,315,25,03,09,029,25,20,01,153,,1*5E
$GLGSV,2,1,07,84,71,050,20,75,63,319,31,74,58,139,16,85,49,208,31,1*75
$GLGSV,2,2,07,73,13,140,23,67,09,010,18,66,08,321,19,1*4D
$GAGSV,3,1,09,21,85,081,33,13,59,128,32,15,35,049,30,27,31,113,30,7*70
$GAGSV,3,2,09,26,23,185,27,04,14,287,16,06,12,312,26,09,08,334,21,7*7B
$GAGSV,3,3,09,19,02,235,17,7*42
$GBGSV,3,1,12,34,79,099,35,11,67,204,33,25,65,185,35,12,52,058,31,1*7A
$GBGSV,3,2,12,23,48,299,32,43,45,221,30,44,26,055,27,24,17,147,24,1*7B
$GBGSV,3,3,12,39,11,330,25,19,03,015,19,16,02,334,17,37,01,316,,1*79
$GNRMC,005115.000,A,4910.426842,N,12304.400412,W,0.03,40.82,070125,,,D,V*24
$GNVTG,40.82,T,,M,0.03,N,0.05,K,D*1E
$PAIRLOG,Full*51
$GNGGA,005116.000,4910.426854,N,12304.400244,W,2,30,0.52,-5.277,M,-16.816,M,,*6C
$GNGLL,4910.426854,N,12304.400244,W,005116.000,A,D*54
$GNGSA,A,3,06,12,19,11,24,17,32,03,,,,,0.85,0.52,0.67,1*05
$GNGSA,A,3,75,74,85,73,66,,,,,,,,0.85,0.52,0.67,2*01
$GNGSA,A,3,21,13,15,27,26,04,06,09,,,,,0.85,0.52,0.67,3*07
$GNGSA,A,3,34,11,25,12,23,43,44,24,39,,,,0.85,0.52,0.67,4*06
$GPGSV,3,1,11,06,61,101,36,12,61,299,37,19,48,062,35,11,46,167,34,1*63
$GPGSV,3,2,11,25,44,301,,24,43,222,32,46,33,188,31,17,19,066,26,1*69
$GPGSV,3,3,11,32,09,315,25,03,09,029,25,20,02,153,,1*5D
$GLGSV,2,1,07,84,71,050,20,75,63,319,31,74,58,139,16,85,49,208,31,1*75
$GLGSV,2,2,07,73,13,140,23,67,09,010,19,66,08,321,19,1*4C
$GAGSV,3,1,09,21,85,081,33,13,59,128,31,15,35,049,30,27,31,113,30,7*73
$GAGSV,3,2,09,26,23,185,27,04,14,287,16,06,12,312,26,09,08,334,21,7*7B
$GAGSV,3,3,09,19,02,235,17,7*42
$GBGSV,3,1,12,34,79,099,35,11,67,204,32,25,65,185,34,12,52,058,31,1*7A
$GBGSV,3,2,12,23,48,299,31,43,45,221,30,44,26,055,27,24,17,147,24,1*78
$GBGSV,3,3,12,39,11,330,24,19,03,015,19,16,02,334,17,37,01,316,,1*78
$GNRMC,005116.000,A,4910.426854,N,12304.400244,W,0.03,40.82,070125,,,D,V*25
$GNVTG,40.82,T,,M,0.03,N,0.05,K,D*1E
$PAIRLOG,Full*51
$GNGGA,005117.000,4910.426842,N,12304.400100,W,2,30,0.52,-5.365,M,-16.817,M,,*6A
$GNGLL,4910.426842,N,12304.400100,W,005117.000,A,D*51
$GNGSA,A,3,06,12,19,11,24,17,32,03,,,,,0.85,0.52,0.67,1*05
$GNGSA,A,3,75,74,85,73,66,,,,,,,,0.85,0.52,0.67,2*01
$GNGSA,A,3,21,13,15,27,26,04,06,09,,,,,0.85,0.52,0.67,3*07
$GNGSA,A,3,34,11,25,12,23,43,44,24,39,,,,0.85,0.52,0.67,4*06
$GPGSV,3,1,11,06,61,101,36,12,61,299,37,19,48,062,35,11,46,167,34,1*63
$GPGSV,3,2,11,25,44,301,,24,43,222,32,46,33,188,31,17,19,066,26,1*69
$GPGSV,3,3,11,32,09,315,25,03,09,029,25,20,02,153,,1*5D
$GLGSV,2,1,07,84,71,050,20,75,63,319,31,74,58,139,16,85,49,208,31,1*75
$GLGSV,2,2,07,73,13,140,23,67,09,010,19,66,08,321,19,1*4C
$GAGSV,3,1,09,21,85,081,33,13,59,128,31,15,35,049,30,27,31,113,30,7*73
$GAGSV,3,2,09,26,23,185,26,04,14,287,16,06,12,312,26,09,08,334,21,7*7A
$GAGSV,3,3,09,19,02,235,16,7*43
$GBGSV,3,1,12,34,79,099,35,11,67,204,32,25,65,185,34,12,52,058,31,1*7A
$GBGSV,3,2,12,23,48,299,31,43,45,221,30,44,26,055,27,24,17,147,24,1*78
$GBGSV,3,3,12,39,11,330,24,19,03,015,19,16,02,334,17,37,01,316,,1*78
$GNRMC,005117.000,A,4910.426842,N,12304.400100,W,0.02,40.82,070125,,,D,V*21
$GNVTG,40.82,T,,M,0.02,N,0.04,K,D*1E
$PAIRLOG,Full*51
$GNGGA,005118.000,4910.426824,N,12304.400100,W,2,30,0.52,-5.427,M,-16.816,M,,*65
$GNGLL,4910.426824,N,12304.400100,W,005118.000,A,D*5E
$GNGSA,A,3,06,12,19,11,24,17,32,03,,,,,0.85,0.52,0.67,1*05
$GNGSA,A,3,75,74,85,73,66,,,,,,,,0.85,0.52,0.67,2*01
$GNGSA,A,3,21,13,15,27,26,04,06,09,,,,,0.85,0.52,0.67,3*07
$GNGSA,A,3,34,11,25,12,23,43,44,24,39,,,,0.85,0.52,0.67,4*06
$GPGSV,3,1,11,06,61,101,36,12,61,299,37,19,48,062,35,11,46,167,34,1*63
$GPGSV,3,2,11,25,44,301,,24,43,222,32,46,33,188,31,17,19,066,26,1*69
$GPGSV,3,3,11,32,09,315,25,03,09,029,25,20,02,153,,1*5D
$GLGSV,2,1,07,84,71,050,20,75,63,319,31,74,58,139,16,85,49,208,31,1*75
$GLGSV,2,2,07,73,13,140,23,67,09,010,19,66,08,321,19,1*4C
$GAGSV,3,1,09,21,85,081,33,13,59,128,31,15,35,049,30,27,31,113,30,7*73
$GAGSV,3,2,09,26,23,185,26,04,14,287,16,06,12,312,26,09,08,334,20,7*7B
$GAGSV,3,3,09,19,02,235,16,7*43
$GBGSV,3,1,12,34,79,099,35,11,67,204,32,25,65,185,34,12,52,058,31,1*7A
$GBGSV,3,2,12,23,48,299,31,43,45,221,30,44,26,055,28,24,17,147,24,1*77
$GBGSV,3,3,12,39,11,330,24,19,03,015,19,16,02,334,17,37,01,316,,1*78
$GNRMC,005118.000,A,4910.426824,N,12304.400100,W,0.02,40.82,070125,,,D,V*2E
$GNVTG,40.82,T,,M,0.02,N,0.04,K,D*1E
$PAIRLOG,Full*51
$GNGGA,005119.000,4910.426824,N,12304.400022,W,2,30,0.52,-5.615,M,-16.817,M,,*67
$GNGLL,4910.426824,N,12304.400022,W,005119.000,A,D*5E
$GNGSA,A,3,06,12,19,11,24,17,32,03,,,,,0.85,0.52,0.67,1*05
$GNGSA,A,3,75,74,85,73,66,,,,,,,,0.85,0.52,0.67,2*01
$GNGSA,A,3,21,13,15,27,26,04,06,09,,,,,0.85,0.52,0.67,3*07
$GNGSA,A,3,34,11,25,12,23,43,44,24,39,,,,0.85,0.52,0.67,4*06
$GPGSV,3,1,11,06,61,101,36,12,61,299,37,19,48,062,35,11,46,167,34,1*63
$GPGSV,3,2,11,25,44,301,,24,43,222,32,46,33,188,31,17,19,066,26,1*69
$GPGSV,3,3,11,32,09,315,25,03,09,029,25,20,02,153,,1*5D
$GLGSV,2,1,07,84,71,050,20,75,63,319,31,74,58,139,16,85,49,208,31,1*75
$GLGSV,2,2,07,73,13,140,23,67,09,010,19,66,08,321,19,1*4C
$GAGSV,3,1,09,21,85,081,33,13,59,128,31,15,35,049,30,27,31,113,30,7*73
$GAGSV,3,2,09,26,23,185,26,04,14,287,17,06,12,312,26,09,08,334,20,7*7A
$GAGSV,3,3,09,19,02,235,17,7*42
$GBGSV,3,1,12,34,79,099,35,11,67,204,32,25,65,185,34,12,52,058,31,1*7A
$GBGSV,3,2,12,23,48,299,32,43,45,221,30,44,26,055,29,24,17,147,24,1*75
$GBGSV,3,3,12,39,11,330,24,19,03,015,19,16,02,334,17,37,01,316,,1*78
$GNRMC,005119.000,A,4910.426824,N,12304.400022,W,0.02,40.82,070125,,,D,V*2E
$GNVTG,40.82,T,,M,0.02,N,0.03,K,D*19
$PAIRLOG,Full*51
$GNGGA,005120.000,4910.426830,N,12304.399998,W,2,30,0.52,-5.758,M,-16.817,M,,*6F
$GNGLL,4910.426830,N,12304.399998,W,005120.000,A,D*5E
$GNGSA,A,3,06,12,19,11,24,17,32,03,,,,,0.85,0.52,0.67,1*05
$GNGSA,A,3,75,74,85,73,66,,,,,,,,0.85,0.52,0.67,2*01
$GNGSA,A,3,21,13,15,27,26,04,06,09,,,,,0.85,0.52,0.67,3*07
$GNGSA,A,3,34,11,25,12,23,43,44,24,39,,,,0.85,0.52,0.67,4*06
$GPGSV,3,1,11,06,61,101,36,12,61,299,37,19,48,062,35,11,46,167,34,1*63
$GPGSV,3,2,11,25,44,301,,24,42,221,32,46,33,188,31,17,19,066,26,1*6B
$GPGSV,3,3,11,32,09,315,25,03,09,029,25,20,02,153,,1*5D
$GLGSV,2,1,07,84,71,050,21,75,63,319,31,74,58,139,16,85,49,208,31,1*74
$GLGSV,2,2,07,73,13,140,23,67,09,010,20,66,08,321,19,1*46
$GAGSV,3,1,09,21,85,081,33,13,59,128,31,15,35,049,30,27,31,113,30,7*73
$GAGSV,3,2,09,26,23,185,26,04,14,287,17,06,12,312,25,09,08,334,20,7*79
$GAGSV,3,3,09,19,02,235,17,7*42
$GBGSV,3,1,12,34,79,099,35,11,67,204,32,25,65,185,34,12,52,058,31,1*7A
$GBGSV,3,2,12,23,48,299,32,43,45,221,30,44,26,055,29,24,17,147,24,1*75
$GBGSV,3,3,12,39,11,330,25,19,03,015,19,16,02,334,17,37,01,316,,1*79
$GNRMC,005120.000,A,4910.426830,N,12304.399998,W,0.01,40.82,070125,,,D,V*2D
$GNVTG,40.82,T,,M,0.01,N,0.02,K,D*1B
$PAIRLOG,Full*51
$GNGGA,005121.000,4910.426848,N,12304.399998,W,2,30,0.52,-5.805,M,-16.817,M,,*66
$GNGLL,4910.426848,N,12304.399998,W,005121.000,A,D*50
$GNGSA,A,3,06,12,19,11,24,17,32,03,,,,,0.85,0.52,0.67,1*05
$GNGSA,A,3,75,74,85,73,66,,,,,,,,0.85,0.52,0.67,2*01
$GNGSA,A,3,21,13,15,27,26,04,06,09,,,,,0.85,0.52,0.67,3*07
$GNGSA,A,3,34,11,25,12,23,43,44,24,39,,,,0.85,0.52,0.67,4*06
$GPGSV,3,1,11,06,61,101,36,12,61,299,37,19,48,062,35,11,46,167,34,1*63
$GPGSV,3,2,11,25,45,301,,24,42,221,33,46,33,188,31,17,19,066,26,1*6B
$GPGSV,3,3,11,32,09,315,26,03,09,029,25,20,02,153,,1*5E
$GLGSV,2,1,07,84,71,050,21,75,63,319,30,74,58,139,16,85,49,208,31,1*75
$GLGSV,2,2,07,73,13,140,23,67,09,010,21,66,08,321,19,1*47
$GAGSV,3,1,09,21,85,081,33,13,59,128,31,15,35,049,30,27,31,113,30,7*73
$GAGSV,3,2,09,26,23,185,26,04,14,287,17,06,12,312,25,09,08,334,20,7*79
$GAGSV,3,3,09,19,02,235,17,7*42
$GBGSV,3,1,12,34,79,099,35,11,67,204,33,25,65,185,34,12,52,058,31,1*7B
$GBGSV,3,2,12,23,48,299,32,43,45,221,31,44,26,055,29,24,17,147,24,1*74
$GBGSV,3,3,12,39,11,330,25,19,03,015,19,16,02,334,18,37,01,316,,1*76
$GNRMC,005121.000,A,4910.426848,N,12304.399998,W,0.01,40.82,070125,,,D,V*23
$GNVTG,40.82,T,,M,0.01,N,0.02,K,D*1B
$PAIRLOG,Full*51
$GNGGA,005122.000,4910.426932,N,12304.399998,W,2,30,0.52,-5.851,M,-16.816,M,,*69
$GNGLL,4910.426932,N,12304.399998,W,005122.000,A,D*5F
$GNGSA,A,3,06,12,19,11,24,17,32,03,,,,,0.85,0.52,0.67,1*05
$GNGSA,A,3,75,74,85,73,66,,,,,,,,0.85,0.52,0.67,2*01
$GNGSA,A,3,21,13,15,27,26,04,06,09,,,,,0.85,0.52,0.67,3*07
$GNGSA,A,3,34,11,25,12,23,43,44,24,39,,,,0.85,0.52,0.67,4*06
$GPGSV,3,1,11,06,61,101,36,12,61,299,37,19,48,062,35,11,46,167,34,1*63
$GPGSV,3,2,11,25,45,301,,24,42,221,33,46,33,188,31,17,19,066,26,1*6B
$GPGSV,3,3,11,32,09,315,26,03,09,029,25,20,02,153,,1*5E
$GLGSV,2,1,07,84,71,050,21,75,63,319,30,74,58,139,16,85,49,208,31,1*75
$GLGSV,2,2,07,73,13,140,23,67,09,010,21,66,08,321,19,1*47
$GAGSV,3,1,09,21,85,081,33,13,59,128,31,15,35,049,30,27,31,113,30,7*73
$GAGSV,3,2,09,26,23,185,26,04,14,287,16,06,12,312,25,09,08,334,20,7*78
$GAGSV,3,3,09,19,02,235,17,7*42
$GBGSV,3,1,12,34,79,099,35,11,67,204,33,25,65,185,35,12,52,058,31,1*7A
$GBGSV,3,2,12,23,48,299,32,43,45,221,31,44,26,055,29,24,17,147,25,1*75
$GBGSV,3,3,12,39,11,330,26,19,03,015,20,16,02,334,18,37,01,316,,1*7F
$GNRMC,005122.000,A,4910.426932,N,12304.399998,W,0.01,40.82,070125,,,D,V*2C
$GNVTG,40.82,T,,M,0.01,N,0.03,K,D*1A
$PAIRLOG,Full*51
$GNGGA,005123.000,4910.426992,N,12304.400040,W,2,30,0.52,-5.834,M,-16.816,M,,*6A
$GNGLL,4910.426992,N,12304.400040,W,005123.000,A,D*5F
$GNGSA,A,3,06,12,19,11,24,17,32,03,,,,,0.85,0.52,0.67,1*05
$GNGSA,A,3,75,74,85,73,66,,,,,,,,0.85,0.52,0.67,2*01
$GNGSA,A,3,21,13,15,27,26,04,06,09,,,,,0.85,0.52,0.67,3*07
$GNGSA,A,3,34,11,25,12,23,43,44,24,39,,,,0.85,0.52,0.67,4*06
$GPGSV,3,1,11,06,61,101,36,12,61,299,37,19,48,062,35,11,46,167,34,1*63
$GPGSV,3,2,11,25,45,301,,24,42,221,33,46,33,188,31,17,19,066,26,1*6B
$GPGSV,3,3,11,32,09,315,26,03,09,029,25,20,02,153,,1*5E
$GLGSV,2,1,07,84,71,050,21,75,63,319,30,74,58,139,17,85,49,208,31,1*74
$GLGSV,2,2,07,73,13,140,23,67,09,010,21,66,08,321,19,1*47
$GAGSV,3,1,09,21,85,081,33,13,59,128,32,15,35,049,30,27,31,113,30,7*70
$GAGSV,3,2,09,26,23,185,27,04,14,287,16,06,12,312,25,09,08,334,20,7*79
$GAGSV,3,3,09,19,02,235,17,7*42
$GBGSV,3,1,12,34,79,099,35,11,67,204,33,25,65,185,35,12,52,058,31,1*7A
$GBGSV,3,2,12,23,48,299,32,43,45,221,31,44,26,055,29,24,17,147,25,1*75
$GBGSV,3,3,12,39,11,330,25,19,03,015,20,16,02,334,18,37,01,316,,1*7C
$GNRMC,005123.000,A,4910.426992,N,12304.400040,W,0.02,40.82,070125,,,D,V*2F
$GNVTG,40.82,T,,M,0.02,N,0.03,K,D*19
$PAIRLOG,Full*51
$GNGGA,005124.000,4910.427034,N,12304.400106,W,2,30,0.52,-5.785,M,-16.816,M,,*6F
$GNGLL,4910.427034,N,12304.400106,W,005124.000,A,D*5F
$GNGSA,A,3,06,12,19,11,24,17,32,03,,,,,0.85,0.52,0.67,1*05
$GNGSA,A,3,75,74,85,73,66,,,,,,,,0.85,0.52,0.67,2*01
$GNGSA,A,3,21,13,15,27,26,04,06,09,,,,,0.85,0.52,0.67,3*07
$GNGSA,A,3,34,11,25,12,23,43,44,24,39,,,,0.85,0.52,0.67,4*06
$GPGSV,3,1,11,06,61,101,36,12,61,299,37,19,48,062,35,11,46,167,34,1*63
$GPGSV,3,2,11,25,45,301,,24,42,221,33,46,33,188,31,17,19,066,26,1*6B
$GPGSV,3,3,11,32,09,315,26,03,09,029,25,20,02,153,,1*5E
$GLGSV,2,1,07,84,71,050,21,75,63,319,31,74,58,139,17,85,49,208,32,1*76
$GLGSV,2,2,07,73,13,140,23,67,09,010,21,66,08,321,19,1*47
$GAGSV,3,1,09,21,85,081,33,13,59,128,32,15,35,049,30,27,31,113,30,7*70
$GAGSV,3,2,09,26,23,185,27,04,14,287,16,06,12,312,25,09,08,334,20,7*79
$GAGSV,3,3,09,19,02,235,17,7*42
$GBGSV,3,1,12,34,79,099,35,11,67,204,33,25,65,185,35,12,52,058,31,1*7A
$GBGSV,3,2,12,23,48,299,32,43,45,221,31,44,26,055,29,24,17,147,24,1*74
$GBGSV,3,3,12,39,11,330,24,19,03,015,20,16,02,334,18,37,01,316,,1*7D
$GNRMC,005124.000,A,4910.427034,N,12304.400106,W,0.02,40.82,070125,,,D,V*2F
$GNVTG,40.82,T,,M,0.02,N,0.03,K,D*19
$PAIRLOG,Full*51
$GNGGA,005125.000,4910.427124,N,12304.400226,W,2,30,0.52,-5.796,M,-16.816,M,,*6D
$GNGLL,4910.427124,N,12304.400226,W,005125.000,A,D*5F
$GNGSA,A,3,06,12,19,11,24,17,32,03,,,,,0.85,0.52,0.67,1*05
$GNGSA,A,3,75,74,85,73,66,,,,,,,,0.85,0.52,0.67,2*01
$GNGSA,A,3,21,13,15,27,26,04,06,09,,,,,0.85,0.52,0.67,3*07
$GNGSA,A,3,34,11,25,12,23,43,44,24,39,,,,0.85,0.52,0.67,4*06
$GPGSV,3,1,11,06,61,101,36,12,61,299,37,19,48,062,35,11,46,167,34,1*63
$GPGSV,3,2,11,25,45,301,,24,42,221,33,46,33,188,31,17,19,066,26,1*6B
$GPGSV,3,3,11,32,09,315,26,03,09,029,25,20,02,153,,1*5E
$GLGSV,2,1,07,84,71,050,21,75,63,319,32,74,58,139,17,85,49,208,32,1*75
$GLGSV,2,2,07,73,13,140,23,67,09,010,22,66,08,321,19,1*44
$GAGSV,3,1,09,21,85,081,33,13,59,128,32,15,35,049,30,27,31,113,30,7*70
$GAGSV,3,2,09,26,23,185,27,04,14,287,17,06,12,312,25,09,08,334,20,7*78
$GAGSV,3,3,09,19,02,235,17,7*42
$GBGSV,3,1,12,34,79,099,35,11,67,204,33,25,65,185,35,12,52,058,31,1*7A
$GBGSV,3,2,12,23,48,299,32,43,45,221,31,44,26,055,29,24,17,147,24,1*74
$GBGSV,3,3,12,39,11,330,25,19,03,015,20,16,02,334,18,37,01,316,,1*7C
$GNRMC,005125.000,A,4910.427124,N,12304.400226,W,0.02,40.82,070125,,,D,V*2F
$GNVTG,40.82,T,,M,0.02,N,0.03,K,D*19
$PAIRLOG,Full*51
$GNGGA,005126.000,4910.427232,N,12304.400298,W,2,30,0.52,-5.840,M,-16.816,M,,*6B
$GNGLL,4910.427232,N,12304.400298,W,005126.000,A,D*5D
$GNGSA,A,3,06,12,19,11,24,17,32,03,,,,,0.85,0.52,0.67,1*05
$GNGSA,A,3,75,74,85,73,66,,,,,,,,0.85,0.52,0.67,2*01
$GNGSA,A,3,21,13,15,27,26,04,06,09,,,,,0.85,0.52,0.67,3*07
$GNGSA,A,3,34,11,25,12,23,43,44,24,39,,,,0.85,0.52,0.67,4*06
$GPGSV,3,1,11,06,61,101,36,12,61,299,37,19,48,062,35,11,46,167,34,1*63
$GPGSV,3,2,11,25,45,301,,24,42,221,33,46,33,188,31,17,19,066,26,1*6B
$GPGSV,3,3,11,32,09,315,26,03,09,029,25,20,02,153,,1*5E
$GLGSV,2,1,07,84,71,050,21,75,63,319,32,74,58,139,17,85,49,208,31,1*76
$GLGSV,2,2,07,73,13,140,23,67,09,010,22,66,08,321,19,1*44
$GAGSV,3,1,09,21,85,081,33,13,59,128,32,15,35,049,30,27,31,113,30,7*70
$GAGSV,3,2,09,26,23,185,26,04,14,287,17,06,12,312,25,09,08,334,20,7*79
$GAGSV,3,3,09,19,02,235,17,7*42
$GBGSV,3,1,12,34,79,099,35,11,67,204,32,25,65,185,35,12,52,058,31,1*7B
$GBGSV,3,2,12,23,48,299,32,43,45,221,31,44,26,055,29,24,17,147,24,1*74
$GBGSV,3,3,12,39,11,330,25,19,03,015,20,16,02,334,18,37,01,316,,1*7C
$GNRMC,005126.000,A,4910.427232,N,12304.400298,W,0.02,40.82,070125,,,D,V*2D
$GNVTG,40.82,T,,M,0.02,N,0.04,K,D*1E
$PAIRLOG,Full*51
$GNGGA,005127.000,4910.427304,N,12304.400412,W,2,30,0.52,-5.908,M,-16.816,M,,*67
$GNGLL,4910.427304,N,12304.400412,W,005127.000,A,D*5C
$GNGSA,A,3,06,12,19,11,24,17,32,03,,,,,0.85,0.52,0.67,1*05
$GNGSA,A,3,75,74,85,73,66,,,,,,,,0.85,0.52,0.67,2*01
$GNGSA,A,3,21,13,15,27,26,04,06,09,,,,,0.85,0.52,0.67,3*07
$GNGSA,A,3,34,11,25,12,23,43,44,24,39,,,,0.85,0.52,0.67,4*06
$GPGSV,3,1,11,06,61,101,36,12,61,299,37,19,48,062,35,11,46,167,34,1*63
$GPGSV,3,2,11,25,45,301,,24,42,221,33,46,33,188,31,17,19,066,25,1*68
$GPGSV,3,3,11,32,09,315,26,03,09,029,24,20,02,153,,1*5F
$GLGSV,2,1,07,84,71,050,21,75,63,319,32,74,58,139,17,85,49,208,31,1*76
$GLGSV,2,2,07,73,13,140,23,67,09,010,22,66,08,321,19,1*44
$GAGSV,3,1,09,21,85,081,33,13,59,128,32,15,35,049,29,27,31,113,30,7*78
$GAGSV,3,2,09,26,23,185,26,04,14,287,16,06,12,312,25,09,08,334,20,7*78
$GAGSV,3,3,09,19,02,235,16,7*43
$GBGSV,3,1,12,34,79,099,35,11,67,204,32,25,65,185,35,12,52,058,31,1*7B
$GBGSV,3,2,12,23,48,299,32,43,45,221,31,44,26,055,28,24,17,147,23,1*72
$GBGSV,3,3,12,39,11,330,24,19,03,015,20,16,02,334,18,37,01,316,,1*7D
$GNRMC,005127.000,A,4910.427304,N,12304.400412,W,0.02,40.82,070125,,,D,V*2C
$GNVTG,40.82,T,,M,0.02,N,0.04,K,D*1E
$PAIRLOG,Full*51
$GNGGA,005128.000,4910.427352,N,12304.400496,W,2,30,0.52,-5.894,M,-16.816,M,,*63
$GNGLL,4910.427352,N,12304.400496,W,005128.000,A,D*5C
$GNGSA,A,3,06,12,19,11,24,17,03,32,,,,,0.85,0.52,0.67,1*05
$GNGSA,A,3,75,74,85,73,66,,,,,,,,0.85,0.52,0.67,2*01
$GNGSA,A,3,21,13,15,27,26,04,06,09,,,,,0.85,0.52,0.67,3*07
$GNGSA,A,3,34,11,25,12,23,43,44,24,39,,,,0.85,0.52,0.67,4*06
$GPGSV,3,1,11,06,61,101,36,12,61,299,37,19,48,062,35,11,46,167,34,1*63
$GPGSV,3,2,11,25,45,301,,24,42,221,32,46,33,188,31,17,19,066,24,1*68
$GPGSV,3,3,11,03,09,029,24,32,08,314,26,20,02,153,,1*5F
$GLGSV,2,1,07,84,71,050,21,75,63,319,32,74,58,139,17,85,49,208,31,1*76
$GLGSV,2,2,07,73,13,140,24,67,09,010,22,66,08,321,19,1*43
$GAGSV,3,1,09,21,85,081,33,13,59,128,32,15,35,049,29,27,31,113,30,7*78
$GAGSV,3,2,09,26,23,185,26,04,14,287,16,06,12,312,25,09,08,334,20,7*78
$GAGSV,3,3,09,19,02,235,16,7*43
$GBGSV,3,1,12,34,79,099,35,11,67,204,31,25,65,185,34,12,52,058,31,1*79
$GBGSV,3,2,12,23,48,299,32,43,45,221,31,44,26,055,28,24,17,147,23,1*72
$GBGSV,3,3,12,39,11,330,24,19,03,015,20,16,02,334,18,37,01,316,16,1*7A
$GNRMC,005128.000,A,4910.427352,N,12304.400496,W,0.02,40.82,070125,,,D,V*2C
$GNVTG,40.82,T,,M,0.02,N,0.04,K,D*1E
$PAIRLOG,Full*51
$GNGGA,005129.000,4910.427424,N,12304.400700,W,2,30,0.52,-5.964,M,-16.816,M,,*66
$GNGLL,4910.427424,N,12304.400700,W,005129.000,A,D*57
$GNGSA,A,3,06,12,19,11,24,17,03,32,,,,,0.85,0.52,0.67,1*05
$GNGSA,A,3,75,74,85,73,66,,,,,,,,0.85,0.52,0.67,2*01
$GNGSA,A,3,21,13,15,27,26,04,06,09,,,,,0.85,0.52,0.67,3*07
$GNGSA,A,3,34,11,25,12,23,43,44,24,39,,,,0.85,0.52,0.67,4*06
$GPGSV,3,1,11,06,61,101,36,12,61,299,37,19,48,062,35,11,46,167,34,1*63
$GPGSV,3,2,11,25,45,301,,24,42,221,32,46,33,188,31,17,19,066,25,1*69
$GPGSV,3,3,11,03,09,029,24,32,08,314,26,20,02,153,,1*5F
$GLGSV,2,1,07,84,71,050,21,75,63,319,32,74,58,139,17,85,49,208,30,1*77
$GLGSV,2,2,07,73,13,140,24,67,09,010,21,66,08,321,19,1*40
$GAGSV,3,1,09,21,85,081,33,13,59,128,32,15,35,049,29,27,31,113,30,7*78
$GAGSV,3,2,09,26,23,185,26,04,14,287,16,06,12,312,24,09,08,334,20,7*79
$GAGSV,3,3,09,19,02,235,16,7*43
$GBGSV,3,1,12,34,79,099,35,11,67,204,31,25,65,185,34,12,52,058,31,1*79
$GBGSV,3,2,12,23,48,299,32,43,45,221,31,44,26,055,28,24,17,147,23,1*72
$GBGSV,3,3,12,39,11,330,24,19,03,015,20,16,02,334,18,37,01,316,16,1*7A
$GNRMC,005129.000,A,4910.427424,N,12304.400700,W,0.03,40.82,070125,,,D,V*26
$GNVTG,40.82,T,,M,0.03,N,0.05,K,D*1E
$PAIRLOG,Full*51
$GNGGA,005130.000,4910.427448,N,12304.400886,W,2,30,0.52,-6.048,M,-16.816,M,,*61
$GNGLL,4910.427448,N,12304.400886,W,005130.000,A,D*54
$GNGSA,A,3,06,12,19,11,24,17,03,32,,,,,0.85,0.52,0.67,1*05
$GNGSA,A,3,75,74,85,73,66,,,,,,,,0.85,0.52,0.67,2*01
$GNGSA,A,3,21,13,15,27,26,04,06,09,,,,,0.85,0.52,0.67,3*07
$GNGSA,A,3,34,11,25,12,23,43,44,24,39,,,,0.85,0.52,0.67,4*06
$GPGSV,3,1,11,06,61,101,36,12,61,299,37,19,48,062,35,11,46,167,34,1*63
$GPGSV,3,2,11,25,45,301,,24,42,221,32,46,33,188,31,17,19,066,23,1*6F
$GPGSV,3,3,11,03,09,029,24,32,08,314,26,20,02,153,,1*5F
$GLGSV,2,1,07,84,71,050,21,75,63,319,32,74,58,139,17,85,49,208,30,1*77
$GLGSV,2,2,07,73,13,140,24,67,09,010,21,66,08,321,19,1*40
$GAGSV,3,1,09,21,85,081,33,13,59,128,32,15,35,049,29,27,31,113,29,7*70
$GAGSV,3,2,09,26,23,185,26,04,14,287,16,06,12,312,24,09,08,334,20,7*79
$GAGSV,3,3,09,19,02,235,16,7*43
$GBGSV,3,1,12,34,79,099,35,11,67,204,31,25,65,185,34,12,52,058,31,1*79
$GBGSV,3,2,12,23,48,299,32,43,45,221,31,44,26,055,28,24,17,147,23,1*72
$GBGSV,3,3,12,39,11,330,24,19,03,015,20,16,02,334,18,37,01,316,16,1*7A
$GNRMC,005130.000,A,4910.427448,N,12304.400886,W,0.03,40.82,070125,,,D,V*25
$GNVTG,40.82,T,,M,0.03,N,0.05,K,D*1E
$PAIRLOG,Full*51
$GNGGA,005131.000,4910.427478,N,12304.401102,W,2,30,0.52,-6.165,M,-16.816,M,,*69
$GNGLL,4910.427478,N,12304.401102,W,005131.000,A,D*52
$GNGSA,A,3,06,12,19,11,24,17,03,32,,,,,0.85,0.52,0.67,1*05
$GNGSA,A,3,75,74,85,73,66,,,,,,,,0.85,0.52,0.67,2*01
$GNGSA,A,3,21,13,15,27,26,04,06,09,,,,,0.85,0.52,0.67,3*07
$GNGSA,A,3,34,11,25,12,23,43,44,24,39,,,,0.85,0.52,0.67,4*06
$GPGSV,3,1,11,06,61,101,36,12,61,299,37,19,48,062,35,11,46,167,34,1*63
$GPGSV,3,2,11,25,45,301,,24,42,221,32,46,33,188,31,17,19,066,23,1*6F
$GPGSV,3,3,11,03,09,029,24,32,08,314,26,20,02,153,,1*5F
$GLGSV,2,1,07,84,71,050,21,75,63,319,32,74,58,139,17,85,49,208,30,1*77
$GLGSV,2,2,07,73,13,140,24,67,09,010,21,66,08,321,19,1*40
$GAGSV,3,1,09,21,85,081,33,13,59,128,32,15,35,049,29,27,31,113,29,7*70
$GAGSV,3,2,09,26,23,185,26,04,14,287,15,06,12,312,24,09,08,334,20,7*7A
$GAGSV,3,3,09,19,02,235,16,7*43
$GBGSV,3,1,12,34,79,099,35,11,67,204,31,25,65,185,34,12,52,058,31,1*79
$GBGSV,3,2,12,23,48,299,32,43,45,221,31,44,26,055,28,24,17,147,23,1*72
$GBGSV,3,3,12,39,11,330,24,19,03,015,20,16,02,334,18,37,01,316,16,1*7A
$GNRMC,005131.000,A,4910.427478,N,12304.401102,W,0.03,40.82,070125,,,D,V*23
$GNVTG,40.82,T,,M,0.03,N,0.06,K,D*1D
$PAIRLOG,Full*51
$GNGGA,005132.000,4910.427496,N,12304.401234,W,2,30,0.52,-6.251,M,-16.816,M,,*68
$GNGLL,4910.427496,N,12304.401234,W,005132.000,A,D*57
$GNGSA,A,3,06,12,19,11,24,17,03,32,,,,,0.85,0.52,0.67,1*05
$GNGSA,A,3,75,74,85,73,66,,,,,,,,0.85,0.52,0.67,2*01
$GNGSA,A,3,21,13,15,27,26,04,06,09,,,,,0.85,0.52,0.67,3*07
$GNGSA,A,3,34,11,25,12,23,43,44,24,39,,,,0.85,0.52,0.67,4*06
$GPGSV,3,1,11,06,61,101,35,12,61,299,36,19,48,062,35,11,46,167,33,1*66
$GPGSV,3,2,11,25,45,301,,24,42,221,31,46,33,188,30,17,19,066,23,1*6D
$GPGSV,3,3,11,03,09,029,23,32,08,314,25,20,02,153,,1*5B
$GLGSV,2,1,07,84,71,050,21,75,63,319,32,74,58,139,17,85,49,208,30,1*77
$GLGSV,2,2,07,73,13,140,24,67,09,010,21,66,08,321,19,1*40
$GAGSV,3,1,09,21,85,081,32,13,59,128,32,15,35,049,29,27,31,113,28,7*70
$GAGSV,3,2,09,26,23,185,25,04,14,287,15,06,12,312,24,09,08,334,19,7*73
$GAGSV,3,3,09,19,02,235,16,7*43
$GBGSV,3,1,12,34,79,099,35,11,67,204,31,25,65,185,34,12,52,058,31,1*79
$GBGSV,3,2,12,23,48,299,32,43,45,221,31,44,26,055,28,24,17,147,23,1*72
$GBGSV,3,3,12,39,11,330,24,19,03,015,20,16,02,334,18,37,01,316,16,1*7A
$GNRMC,005132.000,A,4910.427496,N,12304.401234,W,0.03,40.82,070125,,,D,V*26
$GNVTG,40.82,T,,M,0.03,N,0.06,K,D*1D
$PAIRLOG,Full*51
$GNGGA,005133.000,4910.427562,N,12304.401390,W,2,30,0.52,-6.243,M,-16.816,M,,*6F
$GNGLL,4910.427562,N,12304.401390,W,005133.000,A,D*53
$GNGSA,A,3,06,12,19,11,24,17,03,32,,,,,0.85,0.52,0.67,1*05
$GNGSA,A,3,75,74,85,73,66,,,,,,,,0.85,0.52,0.67,2*01
$GNGSA,A,3,21,13,15,27,26,04,06,09,,,,,0.85,0.52,0.67,3*07
$GNGSA,A,3,34,11,25,12,23,43,44,24,39,,,,0.85,0.52,0.67,4*06
$GPGSV,3,1,11,06,61,101,35,12,61,299,36,19,48,062,35,11,46,167,33,1*66
$GPGSV,3,2,11,25,45,301,,24,42,221,31,46,33,188,30,17,19,066,24,1*6A
$GPGSV,3,3,11,03,09,029,23,32,08,314,25,20,02,153,,1*5B
$GLGSV,2,1,07,84,71,050,21,75,63,319,32,74,58,139,18,85,49,208,30,1*78
$GLGSV,2,2,07,73,13,140,24,67,09,010,21,66,08,321,19,1*40
$GAGSV,3,1,09,21,85,081,32,13,59,128,32,15,35,049,29,27,31,113,28,7*70
$GAGSV,3,2,09,26,23,185,25,04,14,287,15,06,12,312,24,09,08,334,19,7*73
$GAGSV,3,3,09,19,02,235,16,7*43
$GBGSV,3,1,12,34,79,099,35,11,67,204,31,25,65,185,34,12,52,058,31,1*79
$GBGSV,3,2,12,23,48,299,32,43,45,221,32,44,26,055,28,24,17,147,23,1*71
$GBGSV,3,3,12,39,11,330,24,19,03,015,20,16,02,334,18,37,01,316,16,1*7A
$GNRMC,005133.000,A,4910.427562,N,12304.401390,W,0.03,40.82,070125,,,D,V*22
$GNVTG,40.82,T,,M,0.03,N,0.06,K,D*1D
$PAIRLOG,Full*51
$GNGGA,005134.000,4910.427502,N,12304.401564,W,2,30,0.52,-6.190,M,-16.816,M,,*6E
$GNGLL,4910.427502,N,12304.401564,W,005134.000,A,D*5F
$GNGSA,A,3,06,12,19,11,24,17,03,32,,,,,0.85,0.52,0.67,1*05
$GNGSA,A,3,75,74,85,73,66,,,,,,,,0.85,0.52,0.67,2*01
$GNGSA,A,3,21,13,15,27,26,04,06,09,,,,,0.85,0.52,0.67,3*07
$GNGSA,A,3,34,11,25,12,23,43,44,24,39,,,,0.85,0.52,0.67,4*06
$GPGSV,3,1,11,06,61,101,35,12,61,299,36,19,48,062,35,11,46,167,33,1*66
$GPGSV,3,2,11,25,45,301,,24,42,221,31,46,33,188,30,17,19,066,23,1*6D
$GPGSV,3,3,11,03,09,029,23,32,08,314,24,20,02,153,,1*5A
$GLGSV,2,1,07,84,71,050,21,75,63,319,32,74,58,139,19,85,49,208,30,1*79
$GLGSV,2,2,07,73,13,140,24,67,09,010,20,66,08,321,19,1*41
$GAGSV,3,1,09,21,85,081,32,13,59,128,32,15,35,049,29,27,31,113,28,7*70
$GAGSV,3,2,09,26,23,185,25,04,14,287,15,06,12,312,24,09,08,334,19,7*73
$GAGSV,3,3,09,19,02,235,16,7*43
$GBGSV,3,1,12,34,79,099,35,11,67,204,31,25,65,185,34,12,52,058,31,1*79
$GBGSV,3,2,12,23,48,299,31,43,45,221,32,44,26,055,28,24,17,147,23,1*72
$GBGSV,3,3,12,39,11,330,24,19,03,015,20,16,02,334,18,37,01,316,16,1*7A
$GNRMC,005134.000,A,4910.427502,N,12304.401564,W,0.03,40.82,070125,,,D,V*2E
$GNVTG,40.82,T,,M,0.03,N,0.05,K,D*1E
$PAIRLOG,Full*51
$GNGGA,005135.000,4910.427484,N,12304.401852,W,2,30,0.52,-6.093,M,-16.817,M,,*6B
$GNGLL,4910.427484,N,12304.401852,W,005135.000,A,D*59
$GNGSA,A,3,06,12,19,11,24,17,03,32,,,,,0.85,0.52,0.67,1*05
$GNGSA,A,3,75,74,85,73,66,,,,,,,,0.85,0.52,0.67,2*01
$GNGSA,A,3,21,13,15,27,26,04,06,09,,,,,0.85,0.52,0.67,3*07
$GNGSA,A,3,34,11,25,12,23,43,44,24,39,,,,0.85,0.52,0.67,4*06
$GPGSV,3,1,11,06,61,101,35,12,61,299,36,19,48,062,35,11,46,167,34,1*61
$GPGSV,3,2,11,25,45,301,,24,42,221,31,46,33,188,31,17,19,066,24,1*6B
$GPGSV,3,3,11,03,09,029,23,32,08,314,26,20,02,153,,1*58
$GLGSV,2,1,07,84,71,050,21,75,63,319,32,74,58,139,19,85,49,208,30,1*79
$GLGSV,2,2,07,73,13,140,24,67,09,010,20,66,08,321,19,1*41
$GAGSV,3,1,09,21,85,081,32,13,59,128,32,15,35,049,29,27,31,113,28,7*70
$GAGSV,3,2,09,26,23,185,25,04,14,287,15,06,12,312,24,09,08,334,19,7*73
$GAGSV,3,3,09,19,02,235,17,7*42
$GBGSV,3,1,12,34,79,099,35,11,67,204,31,25,65,185,34,12,52,058,31,1*79
$GBGSV,3,2,12,23,48,299,31,43,45,221,32,44,26,055,28,24,17,147,23,1*72
$GBGSV,3,3,12,39,11,330,24,19,03,015,20,16,02,334,18,37,01,316,16,1*7A
$GNRMC,005135.000,A,4910.427484,N,12304.401852,W,0.03,40.82,070125,,,D,V*28
$GNVTG,40.82,T,,M,0.03,N,0.06,K,D*1D
$PAIRLOG,Full*51
$GNGGA,005136.000,4910.427424,N,12304.402008,W,2,30,0.52,-5.988,M,-16.816,M,,*67
$GNGLL,4910.427424,N,12304.402008,W,005136.000,A,D*54
$GNGSA,A,3,06,12,19,11,24,17,03,32,,,,,0.85,0.52,0.67,1*05
$GNGSA,A,3,75,74,85,73,66,,,,,,,,0.85,0.52,0.67,2*01
$GNGSA,A,3,21,13,15,27,26,04,06,09,,,,,0.85,0.52,0.67,3*07
$GNGSA,A,3,34,11,25,12,23,43,44,24,39,,,,0.85,0.52,0.67,4*06
$GPGSV,3,1,11,06,61,101,35,12,61,299,36,19,48,062,35,11,46,167,34,1*61
$GPGSV,3,2,11,25,45,301,,24,42,221,31,46,33,188,31,17,19,066,24,1*6B
$GPGSV,3,3,11,03,09,029,23,32,08,314,24,20,02,153,,1*5A
$GLGSV,2,1,07,84,71,050,22,75,63,319,32,74,58,139,20,85,49,208,30,1*70
$GLGSV,2,2,07,73,13,140,24,67,09,010,20,66,08,321,19,1*41
$GAGSV,3,1,09,21,85,081,32,13,59,128,32,15,35,049,29,27,31,113,28,7*70
$GAGSV,3,2,09,26,23,185,25,04,14,287,15,06,12,312,24,09,08,334,19,7*73
$GAGSV,3,3,09,19,02,235,17,7*42
$GBGSV,3,1,12,34,79,099,34,11,67,204,30,25,65,185,34,12,52,058,30,1*78
$GBGSV,3,2,12,23,48,299,31,43,45,221,31,44,26,055,28,24,17,147,22,1*70
$GBGSV,3,3,12,39,11,330,24,19,03,015,20,16,02,334,18,37,01,316,16,1*7A
$GNRMC,005136.000,A,4910.427424,N,12304.402008,W,0.03,40.82,070125,,,D,V*25
$GNVTG,40.82,T,,M,0.03,N,0.05,K,D*1E
$PAIRLOG,Full*51
$GNGGA,005137.000,4910.427376,N,12304.402062,W,2,30,0.52,-5.829,M,-16.816,M,,*60
$GNGLL,4910.427376,N,12304.402062,W,005137.000,A,D*59
$GNGSA,A,3,06,12,19,11,24,17,03,32,,,,,0.85,0.52,0.67,1*05
