$GNRMC,005108.000,A,4910.425426,N,12304.403982,W,0.21,0.00,070125,,,A,V*19
$GNGGA,005108.000,4910.425426,N,12304.403982,W,1,15,1.16,5.835,M,-16.816,M,,*4F
$GNVTG,0.00,T,,M,0.21,N,0.39,K,A*2A
$GNGSA,A,3,06,12,19,11,24,25,,,,,,,1.48,1.16,0.92,1*0D
$GNGSA,A,3,,,,,,,,,,,,,1.48,1.16,0.92,2*02
$GNGSA,A,3,,,,,,,,,,,,,1.48,1.16,0.92,3*03
$GNGSA,A,3,34,11,23,,,,,,,,,,1.48,1.16,0.92,4*02
$GPGSV,3,1,09,06,61,101,33,12,61,299,34,19,48,062,32,11,46,167,30,1*6F
$GPGSV,3,2,09,24,42,221,29,46,33,187,28,25,21,299,25,17,,,24,1*51
$GPGSV,3,3,09,32,,,23,1*6D
$GPGSV,1,1,04,06,61,101,29,11,46,167,27,24,42,221,25,25,21,299,19,8*6C
$GLGSV,1,1,00,1*78
$GAGSV,1,1,00,7*73
$GAGSV,1,1,00,1*75
$GBGSV,2,1,06,34,79,098,34,11,68,204,33,23,48,299,34,43,,,31,1*49
$GBGSV,2,2,06,12,,,32,25,,,35,1*73
$GBGSV,1,1,03,34,79,098,27,23,48,299,26,25,,,26,5*74
$GNGLL,4910.425426,N,12304.403982,W,005108.000,A,A*56
$GNRMC,005109.000,A,4910.425366,N,12304.404012,W,0.18,0.00,070125,,,A,V*16
$GNGGA,005109.000,4910.425366,N,12304.404012,W,1,15,1.16,5.095,M,-16.816,M,,*48
$GNVTG,0.00,T,,M,0.18,N,0.34,K,A*2D
$GNGSA,A,3,06,12,19,11,24,25,,,,,,,1.48,1.16,0.92,1*0D
$GNGSA,A,3,,,,,,,,,,,,,1.48,1.16,0.92,2*02
$GNGSA,A,3,,,,,,,,,,,,,1.48,1.16,0.92,3*03
$GNGSA,A,3,34,11,23,,,,,,,,,,1.48,1.16,0.92,4*02
$GPGSV,3,1,09,06,61,101,33,12,61,299,34,19,48,062,32,11,46,167,30,1*6F
$GPGSV,3,2,09,24,42,221,29,46,33,187,28,25,21,299,26,17,,,24,1*52
$GPGSV,3,3,09,32,,,23,1*6D
$GPGSV,1,1,04,06,61,101,29,11,46,167,27,24,42,221,25,25,21,299,19,8*6C
$GLGSV,1,1,00,1*78
$GAGSV,1,1,00,7*73
$GAGSV,1,1,00,1*75
$GBGSV,2,1,06,34,79,098,34,11,68,204,33,23,48,299,34,43,,,31,1*49
$GBGSV,2,2,06,12,,,30,25,,,35,1*71
$GBGSV,1,1,03,34,79,098,27,23,48,299,26,25,,,26,5*74
$GNGLL,4910.425366,N,12304.404012,W,005109.000,A,A*53
$GNRMC,005110.000,A,4910.425396,N,12304.403952,W,0.06,0.00,070125,,,A,V*14
$GNGGA,005110.000,4910.425396,N,12304.403952,W,1,15,1.16,4.083,M,-16.816,M,,*43
$GNVTG,0.00,T,,M,0.06,N,0.12,K,A*26
$GNGSA,A,3,06,12,19,11,24,25,,,,,,,1.48,1.16,0.92,1*0D
$GNGSA,A,3,,,,,,,,,,,,,1.48,1.16,0.92,2*02
$GNGSA,A,3,,,,,,,,,,,,,1.48,1.16,0.92,3*03
$GNGSA,A,3,34,11,23,,,,,,,,,,1.48,1.16,0.92,4*02
$GPGSV,3,1,09,06,61,101,33,12,61,299,35,19,48,062,33,11,46,167,31,1*6E
$GPGSV,3,2,09,24,42,221,29,46,33,187,28,25,21,299,27,17,,,24,1*53
$GPGSV,3,3,09,32,,,23,1*6D
$GPGSV,1,1,04,06,61,101,29,11,46,167,27,24,42,221,25,25,21,299,19,8*6C
$GLGSV,1,1,00,1*78
$GAGSV,1,1,00,7*73
$GAGSV,1,1,00,1*75
$GBGSV,2,1,06,34,79,098,34,11,68,204,33,23,48,299,34,43,,,31,1*49
$GBGSV,2,2,06,12,,,31,25,,,35,1*70
$GBGSV,1,1,03,34,79,098,26,23,48,299,26,25,,,26,5*75
$GNGLL,4910.425396,N,12304.403952,W,005110.000,A,A*5E
$GNRMC,005111.000,A,4910.425396,N,12304.403988,W,0.06,0.00,070125,,,A,V*12
$GNGGA,005111.000,4910.425396,N,12304.403988,W,1,15,1.16,3.663,M,-16.816,M,,*4A
$GNVTG,0.00,T,,M,0.06,N,0.10,K,A*24
$GNGSA,A,3,06,12,19,11,24,25,,,,,,,1.48,1.16,0.92,1*0D
$GNGSA,A,3,,,,,,,,,,,,,1.48,1.16,0.92,2*02
$GNGSA,A,3,,,,,,,,,,,,,1.48,1.16,0.92,3*03
$GNGSA,A,3,34,11,23,,,,,,,,,,1.48,1.16,0.92,4*02
$GPGSV,3,1,09,06,61,101,33,12,61,299,35,19,48,062,33,11,46,167,31,1*6E
$GPGSV,3,2,09,24,42,221,29,46,33,187,28,25,21,299,26,17,,,25,1*53
$GPGSV,3,3,09,32,,,23,1*6D
$GPGSV,1,1,04,06,61,101,29,11,46,167,28,24,42,221,25,25,21,299,20,8*69
$GLGSV,1,1,00,1*78
$GAGSV,1,1,00,7*73
$GAGSV,1,1,00,1*75
$GBGSV,2,1,06,34,79,098,35,11,68,204,34,23,48,299,35,43,,,31,1*4E
$GBGSV,2,2,06,12,,,32,25,,,35,1*73
$GBGSV,1,1,03,34,79,098,27,23,48,299,26,25,,,26,5*74
$GNGLL,4910.425396,N,12304.403988,W,005111.000,A,A*58
$GNRMC,005112.000,A,4910.425438,N,12304.403940,W,0.08,0.00,070125,,,A,V*18
$GNGGA,005112.000,4910.425438,N,12304.403940,W,1,15,1.16,3.436,M,-16.816,M,,*4C
$GNVTG,0.00,T,,M,0.08,N,0.15,K,A*2F
$GNGSA,A,3,06,12,19,11,24,25,,,,,,,1.48,1.16,0.92,1*0D
$GNGSA,A,3,,,,,,,,,,,,,1.48,1.16,0.92,2*02
$GNGSA,A,3,,,,,,,,,,,,,1.48,1.16,0.92,3*03
$GNGSA,A,3,34,11,23,,,,,,,,,,1.48,1.16,0.92,4*02
$GPGSV,3,1,09,06,61,101,33,12,61,299,35,19,48,062,33,11,46,167,31,1*6E
$GPGSV,3,2,09,24,42,221,29,46,33,187,28,25,21,299,26,17,,,25,1*53
$GPGSV,3,3,09,32,,,23,1*6D
$GPGSV,1,1,04,06,61,101,29,11,46,167,28,24,42,221,25,25,21,299,20,8*69
$GLGSV,1,1,00,1*78
$GAGSV,1,1,00,7*73
$GAGSV,1,1,00,1*75
$GBGSV,2,1,06,34,79,098,35,11,68,204,34,23,48,299,35,43,,,31,1*4E
$GBGSV,2,2,06,12,,,32,25,,,35,1*73
$GBGSV,1,1,03,34,79,098,27,23,48,299,26,25,,,26,5*74
$GNGLL,4910.425438,N,12304.403940,W,005112.000,A,A*5C
$GNRMC,005113.000,A,4910.425396,N,12304.403982,W,0.00,0.00,070125,,,A,V*1C
$GNGGA,005113.000,4910.425396,N,12304.403982,W,1,15,1.16,3.517,M,-16.816,M,,*42
$GNVTG,0.00,T,,M,0.00,N,0.01,K,A*22
$GNGSA,A,3,06,12,19,11,24,25,,,,,,,1.48,1.16,0.92,1*0D
$GNGSA,A,3,,,,,,,,,,,,,1.48,1.16,0.92,2*02
$GNGSA,A,3,,,,,,,,,,,,,1.48,1.16,0.92,3*03
$GNGSA,A,3,34,11,23,,,,,,,,,,1.48,1.16,0.92,4*02
$GPGSV,3,1,09,06,61,101,33,12,61,299,35,19,48,062,33,11,46,167,31,1*6E
$GPGSV,3,2,09,24,42,221,29,46,33,187,28,25,21,299,26,17,,,25,1*53
$GPGSV,3,3,09,32,,,23,1*6D
$GPGSV,1,1,04,06,61,101,29,11,46,167,28,24,42,221,25,25,21,299,20,8*69
$GLGSV,1,1,00,1*78
$GAGSV,1,1,00,7*73
$GAGSV,1,1,00,1*75
$GBGSV,2,1,06,34,79,098,35,11,68,204,33,23,48,299,35,43,,,31,1*49
$GBGSV,2,2,06,12,,,32,25,,,35,1*73
$GBGSV,1,1,03,34,79,098,27,23,48,299,26,25,,,26,5*74
$GNGLL,4910.425396,N,12304.403982,W,005113.000,A,A*50
$GNRMC,005114.000,A,4910.425312,N,12304.404030,W,0.03,0.00,070125,,,A,V*13
$GNGGA,005114.000,4910.425312,N,12304.404030,W,1,15,1.16,3.281,M,-16.816,M,,*46
$GNVTG,0.00,T,,M,0.03,N,0.05,K,A*25
$GNGSA,A,3,06,12,19,11,24,25,,,,,,,1.48,1.16,0.92,1*0D
$GNGSA,A,3,,,,,,,,,,,,,1.48,1.16,0.92,2*02
$GNGSA,A,3,,,,,,,,,,,,,1.48,1.16,0.92,3*03
$GNGSA,A,3,34,11,23,,,,,,,,,,1.48,1.16,0.92,4*02
$GPGSV,3,1,09,06,61,101,33,12,61,299,35,19,48,062,33,11,46,167,31,1*6E
$GPGSV,3,2,09,24,42,221,30,46,33,187,29,25,21,299,26,17,,,25,1*5A
$GPGSV,3,3,09,32,,,23,1*6D
$GPGSV,1,1,04,06,61,101,29,11,46,167,28,24,42,221,26,25,21,299,21,8*6B
$GLGSV,1,1,00,1*78
$GAGSV,1,1,00,7*73
$GAGSV,1,1,00,1*75
$GBGSV,2,1,06,34,79,098,35,11,68,204,34,23,48,299,35,43,,,31,1*4E
$GBGSV,2,2,06,12,,,32,25,,,35,1*73
$GBGSV,1,1,03,34,79,098,27,23,48,299,27,25,,,27,5*74
$GNGLL,4910.425312,N,12304.404030,W,005114.000,A,A*5C
$GNRMC,005115.000,A,4910.425288,N,12304.404150,W,0.02,0.00,070125,,,A,V*16
$GNGGA,005115.000,4910.425288,N,12304.404150,W,1,17,1.07,3.491,M,-16.817,M,,*46
$GNVTG,0.00,T,,M,0.02,N,0.03,K,A*22
$GNGSA,A,3,12,06,19,11,24,25,,,,,,,1.40,1.07,0.91,1*06
$GNGSA,A,3,,,,,,,,,,,,,1.40,1.07,0.91,2*09
$GNGSA,A,3,,,,,,,,,,,,,1.40,1.07,0.91,3*08
$GNGSA,A,3,34,11,25,23,43,,,,,,,,1.40,1.07,0.91,4*09
$GPGSV,3,1,09,12,61,299,35,06,61,101,34,19,48,062,33,11,46,167,32,1*6A
$GPGSV,3,2,09,24,42,221,30,46,33,187,30,25,21,299,27,32,,,24,1*55
$GPGSV,3,3,09,17,,,25,1*6C
$GPGSV,1,1,04,06,61,101,29,11,46,167,28,24,42,221,26,25,21,299,21,8*6B
$GLGSV,1,1,00,1*78
$GAGSV,1,1,00,7*73
$GAGSV,1,1,00,1*75
$GBGSV,2,1,06,34,79,098,35,11,68,204,34,25,65,185,35,23,48,299,35,1*75
$GBGSV,2,2,06,43,45,221,31,12,,,32,1*47
$GBGSV,1,1,03,34,79,098,27,25,65,185,27,23,48,299,27,5*4B
$GNGLL,4910.425288,N,12304.404150,W,005115.000,A,A*58
$GNRMC,005116.000,A,4910.425258,N,12304.404228,W,0.03,0.00,070125,,,A,V*15
$GNGGA,005116.000,4910.425258,N,12304.404228,W,1,18,1.07,3.708,M,-16.817,M,,*48
$GNVTG,0.00,T,,M,0.03,N,0.05,K,A*25
$GNGSA,A,3,12,06,19,11,24,25,,,,,,,1.40,1.07,0.91,1*06
$GNGSA,A,3,,,,,,,,,,,,,1.40,1.07,0.91,2*09
$GNGSA,A,3,,,,,,,,,,,,,1.40,1.07,0.91,3*08
$GNGSA,A,3,34,11,25,23,43,,,,,,,,1.40,1.07,0.91,4*09
$GPGSV,3,1,09,12,61,299,35,06,61,101,34,19,48,062,33,11,46,167,32,1*6A
$GPGSV,3,2,09,24,42,221,30,46,33,187,30,25,21,299,27,32,,,24,1*55
$GPGSV,3,3,09,17,,,25,1*6C
$GPGSV,1,1,04,06,61,101,29,11,46,167,28,24,42,221,25,25,21,299,20,8*69
$GLGSV,1,1,00,1*78
$GAGSV,1,1,00,7*73
$GAGSV,1,1,00,1*75
$GBGSV,2,1,06,34,79,098,35,11,68,204,33,25,65,185,35,23,48,299,34,1*73
$GBGSV,2,2,06,43,45,221,31,12,,,31,1*44
$GBGSV,1,1,03,34,79,098,26,25,65,185,26,23,48,299,27,5*4B
$GNGLL,4910.425258,N,12304.404228,W,005116.000,A,A*5A
$GNRMC,005117.000,A,4910.425198,N,12304.404264,W,0.02,0.00,070125,,,A,V*12
$GNGGA,005117.000,4910.425198,N,12304.404264,W,1,18,1.06,3.742,M,-16.816,M,,*40
$GNVTG,0.00,T,,M,0.02,N,0.04,K,A*25
$GNGSA,A,3,12,06,19,11,24,25,,,,,,,1.40,1.06,0.91,1*07
$GNGSA,A,3,,,,,,,,,,,,,1.40,1.06,0.91,2*08
$GNGSA,A,3,,,,,,,,,,,,,1.40,1.06,0.91,3*09
$GNGSA,A,3,34,11,25,23,43,,,,,,,,1.40,1.06,0.91,4*08
$GPGSV,3,1,09,12,61,299,35,06,61,101,34,19,48,062,33,11,46,167,32,1*6A
$GPGSV,3,2,09,24,42,221,30,46,33,187,30,25,21,299,26,32,,,24,1*54
$GPGSV,3,3,09,17,,,25,1*6C
$GPGSV,1,1,04,06,61,101,29,11,46,167,28,24,42,221,25,25,21,299,20,8*69
$GLGSV,1,1,00,1*78
$GAGSV,1,1,00,7*73
$GAGSV,1,1,00,1*75
$GBGSV,2,1,06,34,79,098,35,11,68,204,33,25,65,185,35,23,48,299,34,1*73
$GBGSV,2,2,06,43,45,221,31,12,,,31,1*44
$GBGSV,1,1,03,34,79,098,27,25,65,185,26,23,48,299,27,5*4A
$GNGLL,4910.425198,N,12304.404264,W,005117.000,A,A*5C
$GNRMC,005118.000,A,4910.425150,N,12304.404246,W,0.02,0.00,070125,,,A,V*19
$GNGGA,005118.000,4910.425150,N,12304.404246,W,1,19,1.06,3.617,M,-16.816,M,,*4B
$GNVTG,0.00,T,,M,0.02,N,0.04,K,A*25
$GNGSA,A,3,12,06,19,11,24,25,,,,,,,1.40,1.06,0.91,1*07
$GNGSA,A,3,,,,,,,,,,,,,1.40,1.06,0.91,2*08
$GNGSA,A,3,,,,,,,,,,,,,1.40,1.06,0.91,3*09
$GNGSA,A,3,34,11,25,23,43,,,,,,,,1.40,1.06,0.91,4*08
$GPGSV,3,1,09,12,61,299,36,06,61,101,34,19,48,062,34,11,46,167,32,1*6E
$GPGSV,3,2,09,24,42,221,30,46,33,187,30,25,21,299,28,32,,,24,1*5A
$GPGSV,3,3,09,17,,,25,1*6C
$GPGSV,1,1,04,06,61,101,30,11,46,167,28,24,42,221,26,25,21,299,20,8*62
$GLGSV,1,1,00,1*78
$GAGSV,1,1,00,7*73
$GAGSV,1,1,00,1*75
$GBGSV,2,1,06,34,79,098,35,11,68,204,33,25,65,185,35,23,48,299,34,1*73
$GBGSV,2,2,06,43,45,221,31,12,,,31,1*44
$GBGSV,1,1,04,34,79,098,27,25,65,185,26,23,48,299,27,43,45,221,24,5*7C
$GNGLL,4910.425150,N,12304.404246,W,005118.000,A,A*57
$GNRMC,005119.000,A,4910.425120,N,12304.404246,W,0.01,0.00,070125,,,A,V*1C
$GNGGA,005119.000,4910.425120,N,12304.404246,W,1,20,1.01,3.612,M,-16.817,M,,*44
$GNVTG,0.00,T,,M,0.01,N,0.03,K,A*21
$GNGSA,A,3,12,06,19,11,24,25,32,,,,,,1.33,1.01,0.87,1*02
$GNGSA,A,3,,,,,,,,,,,,,1.33,1.01,0.87,2*0C
$GNGSA,A,3,,,,,,,,,,,,,1.33,1.01,0.87,3*0D
$GNGSA,A,3,34,11,25,23,43,,,,,,,,1.33,1.01,0.87,4*0C
$GPGSV,3,1,09,12,61,299,36,06,61,101,34,19,48,062,34,11,46,167,33,1*6F
$GPGSV,3,2,09,24,42,221,30,46,33,187,30,25,21,299,28,32,08,314,25,1*65
$GPGSV,3,3,09,17,,,25,1*6C
$GPGSV,1,1,04,06,61,101,30,11,46,167,28,24,42,221,26,25,21,299,20,8*62
$GLGSV,1,1,00,1*78
$GAGSV,1,1,00,7*73
$GAGSV,1,1,00,1*75
$GBGSV,2,1,06,34,79,098,35,11,68,204,33,25,65,185,35,23,48,299,34,1*73
$GBGSV,2,2,06,43,45,221,31,12,,,31,1*44
$GBGSV,1,1,04,34,79,098,27,25,65,185,26,23,48,299,27,43,45,221,23,5*7B
$GNGLL,4910.425120,N,12304.404246,W,005119.000,A,A*51
$GNRMC,005120.000,A,4910.425138,N,12304.404288,W,0.03,0.00,070125,,,A,V*1F
$GNGGA,005120.000,4910.425138,N,12304.404288,W,1,20,1.01,3.872,M,-16.817,M,,*4D
$GNVTG,0.00,T,,M,0.03,N,0.05,K,A*25
$GNGSA,A,3,12,06,19,11,24,25,32,,,,,,1.33,1.01,0.87,1*02
$GNGSA,A,3,,,,,,,,,,,,,1.33,1.01,0.87,2*0C
$GNGSA,A,3,,,,,,,,,,,,,1.33,1.01,0.87,3*0D
$GNGSA,A,3,34,11,25,23,43,,,,,,,,1.33,1.01,0.87,4*0C
$GPGSV,3,1,09,12,61,299,36,06,61,101,34,19,48,062,34,11,46,167,33,1*6F
$GPGSV,3,2,09,24,42,221,30,46,33,187,30,25,21,299,28,32,08,314,25,1*65
$GPGSV,3,3,09,17,,,25,1*6C
$GPGSV,1,1,04,06,61,101,30,11,46,167,28,24,42,221,26,25,21,299,20,8*62
$GLGSV,1,1,00,1*78
$GAGSV,1,1,00,7*73
$GAGSV,1,1,00,1*75
$GBGSV,2,1,06,34,79,098,35,11,68,204,33,25,65,185,35,23,48,299,34,1*73
$GBGSV,2,2,06,43,45,221,31,12,,,32,1*47
$GBGSV,1,1,04,34,79,098,27,25,65,185,26,23,48,299,27,43,45,221,23,5*7B
$GNGLL,4910.425138,N,12304.404288,W,005120.000,A,A*50
$GNRMC,005121.000,A,4910.425174,N,12304.404270,W,0.02,0.00,070125,,,A,V*10
$GNGGA,005121.000,4910.425174,N,12304.404270,W,1,20,1.01,3.953,M,-16.816,M,,*40
$GNVTG,0.00,T,,M,0.02,N,0.04,K,A*25
$GNGSA,A,3,12,06,19,11,24,25,32,,,,,,1.33,1.01,0.87,1*02
$GNGSA,A,3,,,,,,,,,,,,,1.33,1.01,0.87,2*0C
$GNGSA,A,3,,,,,,,,,,,,,1.33,1.01,0.87,3*0D
$GNGSA,A,3,34,11,25,23,43,,,,,,,,1.33,1.01,0.87,4*0C
$GPGSV,3,1,09,12,61,299,36,06,61,101,34,19,48,062,34,11,46,167,33,1*6F
$GPGSV,3,2,09,24,42,221,31,46,33,187,30,25,21,299,27,32,08,314,25,1*6B
$GPGSV,3,3,09,17,,,25,1*6C
$GPGSV,1,1,04,06,61,101,30,11,46,167,28,24,42,221,26,25,21,299,20,8*62
$GLGSV,1,1,00,1*78
$GAGSV,1,1,00,7*73
$GAGSV,1,1,00,1*75
$GBGSV,2,1,06,34,79,098,36,11,68,204,33,25,65,185,35,23,48,299,34,1*70
$GBGSV,2,2,06,43,45,221,32,12,,,32,1*44
$GBGSV,1,1,04,34,79,098,27,25,65,185,26,23,48,299,27,43,45,221,25,5*7D
$GNGLL,4910.425174,N,12304.404270,W,005121.000,A,A*5E
$GNRMC,005122.000,A,4910.425198,N,12304.404252,W,0.03,0.00,070125,,,A,V*10
$GNGGA,005122.000,4910.425198,N,12304.404252,W,1,20,1.01,4.095,M,-16.816,M,,*45
$GNVTG,0.00,T,,M,0.03,N,0.06,K,A*26
$GNGSA,A,3,12,06,19,11,24,25,32,,,,,,1.33,1.01,0.87,1*02
$GNGSA,A,3,,,,,,,,,,,,,1.33,1.01,0.87,2*0C
$GNGSA,A,3,,,,,,,,,,,,,1.33,1.01,0.87,3*0D
$GNGSA,A,3,34,11,25,23,43,,,,,,,,1.33,1.01,0.87,4*0C
$GPGSV,3,1,09,12,61,299,36,06,61,101,33,19,48,062,33,11,46,167,33,1*6F
$GPGSV,3,2,09,24,42,221,31,46,33,187,29,25,21,299,26,32,08,314,25,1*62
$GPGSV,3,3,09,17,,,25,1*6C
$GPGSV,1,1,04,06,61,101,30,11,46,167,28,24,42,221,26,25,21,299,20,8*62
$GLGSV,1,1,00,1*78
$GAGSV,1,1,00,7*73
$GAGSV,1,1,00,1*75
$GBGSV,2,1,06,34,79,098,36,11,68,204,33,25,65,185,35,23,48,299,34,1*70
$GBGSV,2,2,06,43,45,221,32,12,,,32,1*44
$GBGSV,1,1,04,34,79,098,27,25,65,185,26,23,48,299,27,43,45,221,22,5*7A
$GNGLL,4910.425198,N,12304.404252,W,005122.000,A,A*5F
$GNRMC,005123.000,A,4910.425264,N,12304.404258,W,0.03,0.00,070125,,,A,V*1B
$GNGGA,005123.000,4910.425264,N,12304.404258,W,1,20,1.01,4.422,M,-16.816,M,,*46
$GNVTG,0.00,T,,M,0.03,N,0.05,K,A*25
$GNGSA,A,3,12,06,19,11,24,25,32,,,,,,1.33,1.01,0.87,1*02
$GNGSA,A,3,,,,,,,,,,,,,1.33,1.01,0.87,2*0C
$GNGSA,A,3,,,,,,,,,,,,,1.33,1.01,0.87,3*0D
$GNGSA,A,3,34,11,25,23,43,,,,,,,,1.33,1.01,0.87,4*0C
$GPGSV,3,1,09,12,61,299,36,06,61,101,33,19,48,062,33,11,46,167,33,1*6F
$GPGSV,3,2,09,24,42,221,31,46,33,187,29,25,21,299,27,32,08,314,25,1*63
$GPGSV,3,3,09,17,,,25,1*6C
$GPGSV,1,1,04,06,61,101,30,11,46,167,29,24,42,221,26,25,21,299,20,8*63
$GLGSV,1,1,00,1*78
$GAGSV,1,1,00,7*73
$GAGSV,1,1,00,1*75
$GBGSV,2,1,06,34,79,098,36,11,68,204,33,25,65,185,36,23,48,299,35,1*72
$GBGSV,2,2,06,43,45,221,32,12,,,32,1*44
$GBGSV,1,1,04,34,79,098,27,25,65,185,26,23,48,299,27,43,45,221,22,5*7A
$GNGLL,4910.425264,N,12304.404258,W,005123.000,A,A*54
$GNRMC,005124.000,A,4910.425312,N,12304.404222,W,0.04,0.00,070125,,,A,V*16
$GNGGA,005124.000,4910.425312,N,12304.404222,W,1,20,1.01,4.492,M,-16.816,M,,*47
$GNVTG,0.00,T,,M,0.04,N,0.08,K,A*2F
$GNGSA,A,3,06,12,19,11,24,25,32,,,,,,1.33,1.01,0.87,1*02
$GNGSA,A,3,,,,,,,,,,,,,1.33,1.01,0.87,2*0C
$GNGSA,A,3,,,,,,,,,,,,,1.33,1.01,0.87,3*0D
$GNGSA,A,3,34,11,25,23,43,,,,,,,,1.33,1.01,0.87,4*0C
$GPGSV,3,1,09,06,61,101,33,12,61,299,36,19,48,062,33,11,46,167,33,1*6F
$GPGSV,3,2,09,24,42,221,31,46,33,187,29,25,21,299,27,32,08,314,25,1*63
$GPGSV,3,3,09,17,,,25,1*6C
$GPGSV,1,1,04,06,61,101,30,11,46,167,29,24,42,221,26,25,21,299,20,8*63
$GLGSV,1,1,00,1*78
$GAGSV,1,1,00,7*73
$GAGSV,1,1,00,1*75
$GBGSV,2,1,07,34,79,098,36,11,68,204,34,25,65,185,36,23,48,299,35,1*74
$GBGSV,2,2,07,43,45,221,32,24,,,27,12,,,32,1*46
$GBGSV,1,1,04,34,79,098,27,25,65,185,26,23,48,299,27,43,45,221,22,5*7A
$GNGLL,4910.425312,N,12304.404222,W,005124.000,A,A*5E
$GNRMC,005125.000,A,4910.425378,N,12304.404132,W,0.03,0.00,070125,,,A,V*1E
$GNGGA,005125.000,4910.425378,N,12304.404132,W,1,21,0.88,4.252,M,-16.817,M,,*42
$GNVTG,0.00,T,,M,0.03,N,0.05,K,A*25
$GNGSA,A,3,06,12,19,11,24,25,17,32,,,,,1.20,0.88,0.81,1*00
$GNGSA,A,3,,,,,,,,,,,,,1.20,0.88,0.81,2*08
$GNGSA,A,3,,,,,,,,,,,,,1.20,0.88,0.81,3*09
$GNGSA,A,3,34,11,25,23,43,,,,,,,,1.20,0.88,0.81,4*08
$GPGSV,3,1,09,06,61,101,33,12,61,299,36,19,48,062,33,11,46,167,33,1*6F
$GPGSV,3,2,09,24,42,221,31,46,33,187,29,25,21,299,27,17,18,066,26,1*60
$GPGSV,3,3,09,32,08,314,25,1*55
$GPGSV,1,1,04,06,61,101,30,11,46,167,29,24,42,221,26,25,21,299,21,8*62
$GLGSV,1,1,00,1*78
$GAGSV,1,1,00,7*73
$GAGSV,1,1,00,1*75
$GBGSV,2,1,07,34,79,098,37,11,68,204,34,25,65,185,36,23,48,299,35,1*75
$GBGSV,2,2,07,43,45,221,32,24,,,28,12,,,32,1*49
$GBGSV,1,1,04,34,79,098,28,25,65,185,27,23,48,299,27,43,45,221,23,5*75
$GNGLL,4910.425378,N,12304.404132,W,005125.000,A,A*51
$GNRMC,005126.000,A,4910.425432,N,12304.404108,W,0.03,0.00,070125,,,A,V*1D
$GNGGA,005126.000,4910.425432,N,12304.404108,W,1,21,0.89,4.082,M,-16.817,M,,*4F
$GNVTG,0.00,T,,M,0.03,N,0.05,K,A*25
$GNGSA,A,3,06,12,19,11,24,25,17,32,,,,,1.20,0.89,0.81,1*01
$GNGSA,A,3,,,,,,,,,,,,,1.20,0.89,0.81,2*09
$GNGSA,A,3,,,,,,,,,,,,,1.20,0.89,0.81,3*08
$GNGSA,A,3,34,11,25,23,43,,,,,,,,1.20,0.89,0.81,4*09
$GPGSV,3,1,09,06,61,101,33,12,61,299,36,19,48,062,33,11,46,167,33,1*6F
$GPGSV,3,2,09,24,42,221,31,46,33,187,29,25,21,299,27,17,18,066,26,1*60
$GPGSV,3,3,09,32,08,314,25,1*55
$GPGSV,1,1,04,06,61,101,31,11,46,167,29,24,42,221,26,25,21,299,21,8*63
$GLGSV,1,1,00,1*78
$GAGSV,1,1,00,7*73
$GAGSV,1,1,00,1*75
$GBGSV,2,1,07,34,79,098,37,11,68,204,33,25,65,185,36,23,48,299,35,1*72
$GBGSV,2,2,07,43,45,221,32,24,,,26,12,,,32,1*47
$GBGSV,1,1,04,34,79,098,28,25,65,185,27,23,48,299,27,43,45,221,23,5*75
$GNGLL,4910.425432,N,12304.404108,W,005126.000,A,A*52
$GNRMC,005127.000,A,4910.425492,N,12304.404054,W,0.02,0.00,070125,,,A,V*1F
$GNGGA,005127.000,4910.425492,N,12304.404054,W,1,21,0.89,3.958,M,-16.816,M,,*44
$GNVTG,0.00,T,,M,0.02,N,0.03,K,A*22
$GNGSA,A,3,06,12,19,11,24,25,17,32,,,,,1.20,0.89,0.81,1*01
$GNGSA,A,3,,,,,,,,,,,,,1.20,0.89,0.81,2*09
$GNGSA,A,3,,,,,,,,,,,,,1.20,0.89,0.81,3*08
$GNGSA,A,3,34,11,25,23,43,,,,,,,,1.20,0.89,0.81,4*09
$GPGSV,3,1,09,06,61,101,33,12,61,299,36,19,48,062,33,11,46,167,33,1*6F
$GPGSV,3,2,09,24,42,221,31,46,33,187,29,25,21,299,27,17,18,066,26,1*60
$GPGSV,3,3,09,32,08,314,25,1*55
$GPGSV,1,1,04,06,61,101,31,11,46,167,29,24,42,221,27,25,21,299,21,8*62
$GLGSV,1,1,00,1*78
$GAGSV,1,1,00,7*73
$GAGSV,1,1,00,1*75
$GBGSV,2,1,07,34,79,098,37,11,68,204,33,25,65,185,36,23,48,299,35,1*72
$GBGSV,2,2,07,43,45,221,32,24,,,26,12,,,32,1*47
$GBGSV,1,1,04,34,79,098,28,25,65,185,27,23,48,299,27,43,45,221,23,5*75
$GNGLL,4910.425492,N,12304.404054,W,005127.000,A,A*51
$GNRMC,005128.000,A,4910.425522,N,12304.404078,W,0.02,0.00,070125,,,A,V*14
$GNGGA,005128.000,4910.425522,N,12304.404078,W,1,21,0.89,3.997,M,-16.816,M,,*4C
$GNVTG,0.00,T,,M,0.02,N,0.04,K,A*25
$GNGSA,A,3,06,12,19,11,24,25,17,32,,,,,1.20,0.89,0.81,1*01
$GNGSA,A,3,,,,,,,,,,,,,1.20,0.89,0.81,2*09
$GNGSA,A,3,,,,,,,,,,,,,1.20,0.89,0.81,3*08
$GNGSA,A,3,34,11,25,23,43,,,,,,,,1.20,0.89,0.81,4*09
$GPGSV,3,1,09,06,61,101,33,12,61,299,36,19,48,062,33,11,46,167,33,1*6F
$GPGSV,3,2,09,24,42,221,31,46,33,187,29,25,21,299,27,17,18,066,26,1*60
$GPGSV,3,3,09,32,08,314,24,1*54
$GPGSV,1,1,04,06,61,101,31,11,46,167,29,24,42,221,27,25,21,299,21,8*62
$GLGSV,1,1,00,1*78
$GAGSV,1,1,00,7*73
$GAGSV,1,1,00,1*75
$GBGSV,2,1,07,34,79,098,37,11,68,204,33,25,65,185,36,23,48,299,35,1*72
$GBGSV,2,2,07,43,45,221,32,24,,,26,12,,,32,1*47
$GBGSV,1,1,04,34,79,098,28,25,65,185,27,23,48,299,27,43,45,221,23,5*75
$GNGLL,4910.425522,N,12304.404078,W,005128.000,A,A*5A
$GNRMC,005129.000,A,4910.425576,N,12304.404066,W,0.01,0.00,070125,,,A,V*18
$GNGGA,005129.000,4910.425576,N,12304.404066,W,1,21,0.96,4.003,M,-16.816,M,,*4E
$GNVTG,0.00,T,,M,0.01,N,0.01,K,A*23
$GNGSA,A,3,06,12,19,11,24,25,17,32,,,,,1.69,0.96,1.39,1*00
$GNGSA,A,3,,,,,,,,,,,,,1.69,0.96,1.39,2*08
$GNGSA,A,3,,,,,,,,,,,,,1.69,0.96,1.39,3*09
$GNGSA,A,3,34,11,25,23,43,,,,,,,,1.69,0.96,1.39,4*08
$GPGSV,3,1,09,06,61,101,33,12,61,299,36,19,48,062,33,11,46,167,33,1*6F
$GPGSV,3,2,09,24,42,221,31,46,33,187,29,25,21,299,27,17,18,066,26,1*60
$GPGSV,3,3,09,32,08,314,24,1*54
$GPGSV,1,1,04,06,61,101,31,11,46,167,29,24,42,221,27,25,21,299,21,8*62
$GLGSV,1,1,00,1*78
$GAGSV,1,1,00,7*73
$GAGSV,1,1,00,1*75
$GBGSV,2,1,07,34,79,098,37,11,68,204,33,25,65,185,36,23,48,299,35,1*72
$GBGSV,2,2,07,43,45,221,32,24,,,26,12,,,32,1*47
$GBGSV,1,1,04,34,79,098,28,25,65,185,27,23,48,299,27,43,45,221,23,5*75
$GNGLL,4910.425576,N,12304.404066,W,005129.000,A,A*55
$GNRMC,005130.000,A,4910.425588,N,12304.404072,W,0.01,0.00,070125,,,A,V*14
$GNGGA,005130.000,4910.425588,N,12304.404072,W,1,21,0.96,4.022,M,-16.817,M,,*40
$GNVTG,0.00,T,,M,0.01,N,0.02,K,A*20
$GNGSA,A,3,06,12,19,11,24,25,17,32,,,,,1.69,0.96,1.39,1*00
$GNGSA,A,3,,,,,,,,,,,,,1.69,0.96,1.39,2*08
$GNGSA,A,3,,,,,,,,,,,,,1.69,0.96,1.39,3*09
$GNGSA,A,3,34,11,25,23,43,,,,,,,,1.69,0.96,1.39,4*08
$GPGSV,3,1,09,06,61,101,33,12,61,299,36,19,48,062,33,11,46,167,33,1*6F
$GPGSV,3,2,09,24,42,221,31,46,33,187,29,25,21,299,27,17,18,066,26,1*60
$GPGSV,3,3,09,32,08,314,24,1*54
$GPGSV,1,1,04,06,61,101,31,11,46,167,29,24,42,221,26,25,21,299,21,8*63
$GLGSV,1,1,00,1*78
$GAGSV,1,1,00,7*73
$GAGSV,1,1,00,1*75
$GBGSV,2,1,07,34,79,098,37,11,68,204,33,25,65,185,36,23,48,299,35,1*72
$GBGSV,2,2,07,43,45,221,32,24,,,26,12,,,32,1*47
$GBGSV,1,1,04,34,79,098,28,25,65,185,27,23,48,299,27,43,45,221,23,5*75
$GNGLL,4910.425588,N,12304.404072,W,005130.000,A,A*59
$GNRMC,005131.000,A,4910.425618,N,12304.404030,W,0.03,0.00,070125,,,A,V*1B
$GNGGA,005131.000,4910.425618,N,12304.404030,W,1,21,0.96,4.102,M,-16.817,M,,*4E
$GNVTG,0.00,T,,M,0.03,N,0.06,K,A*26
$GNGSA,A,3,06,12,19,11,24,25,17,32,,,,,1.69,0.96,1.39,1*00
$GNGSA,A,3,,,,,,,,,,,,,1.69,0.96,1.39,2*08
$GNGSA,A,3,,,,,,,,,,,,,1.69,0.96,1.39,3*09
$GNGSA,A,3,34,11,25,23,43,,,,,,,,1.69,0.96,1.39,4*08
$GPGSV,3,1,09,06,61,101,33,12,61,299,36,19,48,062,33,11,46,167,33,1*6F
$GPGSV,3,2,09,24,42,221,31,46,33,187,29,25,21,299,27,17,18,066,26,1*60
$GPGSV,3,3,09,32,08,314,24,1*54
$GPGSV,1,1,04,06,61,101,31,11,46,167,29,24,42,221,26,25,21,299,21,8*63
$GLGSV,1,1,00,1*78
$GAGSV,1,1,00,7*73
$GAGSV,1,1,00,1*75
$GBGSV,2,1,07,34,79,098,37,11,68,204,33,25,65,185,36,23,48,299,35,1*72
$GBGSV,2,2,07,43,45,221,32,24,,,26,12,,,32,1*47
$GBGSV,1,1,04,34,79,098,28,25,65,185,27,23,48,299,27,43,45,221,23,5*75
$GNGLL,4910.425618,N,12304.404030,W,005131.000,A,A*54
$GNRMC,005132.000,A,4910.425660,N,12304.403970,W,0.02,0.00,070125,,,A,V*1C
$GNGGA,005132.000,4910.425660,N,12304.403970,W,1,21,0.96,4.002,M,-16.816,M,,*48
$GNVTG,0.00,T,,M,0.02,N,0.04,K,A*25
$GNGSA,A,3,06,12,19,11,24,25,17,32,,,,,1.69,0.96,1.39,1*00
$GNGSA,A,3,,,,,,,,,,,,,1.69,0.96,1.39,2*08
$GNGSA,A,3,,,,,,,,,,,,,1.69,0.96,1.39,3*09
$GNGSA,A,3,34,11,25,23,43,,,,,,,,1.69,0.96,1.39,4*08
$GPGSV,3,1,09,06,61,101,33,12,61,299,36,19,48,062,33,11,46,167,33,1*6F
$GPGSV,3,2,09,24,42,221,30,46,33,187,29,25,21,299,27,17,18,066,26,1*61
$GPGSV,3,3,09,32,08,314,24,1*54
$GPGSV,1,1,04,06,61,101,31,11,46,167,29,24,42,221,26,25,21,299,21,8*63
$GLGSV,1,1,00,1*78
$GAGSV,1,1,00,7*73
$GAGSV,1,1,00,1*75
$GBGSV,2,1,07,34,79,098,37,11,68,204,33,25,65,185,36,23,48,299,35,1*72
$GBGSV,2,2,07,43,45,221,32,24,,,26,12,,,32,1*47
$GBGSV,1,1,04,34,79,098,28,25,65,185,27,23,48,299,27,43,45,221,23,5*75
$GNGLL,4910.425660,N,12304.403970,W,005132.000,A,A*52
$GNRMC,005133.000,A,4910.425696,N,12304.403982,W,0.01,0.00,070125,,,A,V*1A
$GNGGA,005133.000,4910.425696,N,12304.403982,W,1,21,0.96,4.113,M,-16.816,M,,*4C
$GNVTG,0.00,T,,M,0.01,N,0.02,K,A*20
$GNGSA,A,3,06,12,19,11,24,25,17,32,,,,,1.69,0.96,1.39,1*00
$GNGSA,A,3,,,,,,,,,,,,,1.69,0.96,1.39,2*08
$GNGSA,A,3,,,,,,,,,,,,,1.69,0.96,1.39,3*09
$GNGSA,A,3,34,11,25,23,43,,,,,,,,1.69,0.96,1.39,4*08
$GPGSV,3,1,09,06,61,101,33,12,61,299,36,19,48,062,33,11,46,167,33,1*6F
$GPGSV,3,2,09,24,42,221,30,46,33,187,29,25,21,299,27,17,18,066,26,1*61
$GPGSV,3,3,09,32,08,314,24,1*54
$GPGSV,1,1,04,06,61,101,31,11,46,167,29,24,42,221,26,25,21,299,21,8*63
$GLGSV,1,1,00,1*78
$GAGSV,1,1,00,7*73
$GAGSV,1,1,00,1*75
$GBGSV,2,1,07,34,79,098,37,11,68,204,33,25,65,185,36,23,48,299,35,1*72
$GBGSV,2,2,07,43,45,221,32,24,,,26,12,,,32,1*47
$GBGSV,1,1,04,34,79,098,28,25,65,185,27,23,48,299,27,43,45,221,23,5*75
$GNGLL,4910.425696,N,12304.403982,W,005133.000,A,A*57
$GNRMC,005134.000,A,4910.425726,N,12304.403928,W,0.01,0.00,070125,,,A,V*17
$GNGGA,005134.000,4910.425726,N,12304.403928,W,1,21,0.96,4.045,M,-16.817,M,,*42
$GNVTG,0.00,T,,M,0.01,N,0.02,K,A*20
$GNGSA,A,3,06,12,19,11,24,25,17,32,,,,,1.69,0.96,1.39,1*00
$GNGSA,A,3,,,,,,,,,,,,,1.69,0.96,1.39,2*08
$GNGSA,A,3,,,,,,,,,,,,,1.69,0.96,1.39,3*09
$GNGSA,A,3,34,11,25,23,43,,,,,,,,1.69,0.96,1.39,4*08
$GPGSV,3,1,09,06,61,101,34,12,61,299,36,19,48,062,33,11,46,167,33,1*68
$GPGSV,3,2,09,24,42,221,31,46,33,187,30,25,21,299,27,17,18,066,26,1*68
$GPGSV,3,3,09,32,08,314,24,1*54
$GPGSV,1,1,04,06,61,101,31,11,46,167,29,24,42,221,26,25,21,299,21,8*63
$GLGSV,1,1,00,1*78
$GAGSV,1,1,00,7*73
$GAGSV,1,1,00,1*75
$GBGSV,2,1,08,34,79,098,37,11,68,204,33,25,65,185,36,23,48,299,35,1*7D
$GBGSV,2,2,08,43,45,221,32,44,,,27,12,,,32,24,,,26,1*4D
$GBGSV,1,1,04,34,79,098,28,25,65,185,27,23,48,299,27,43,45,221,23,5*75
$GNGLL,4910.425726,N,12304.403928,W,005134.000,A,A*5A
$GNRMC,005135.000,A,4910.425786,N,12304.403898,W,0.02,0.00,070125,,,A,V*15
$GNGGA,005135.000,4910.425786,N,12304.403898,W,1,21,0.96,4.110,M,-16.816,M,,*43
$GNVTG,0.00,T,,M,0.02,N,0.04,K,A*25
$GNGSA,A,3,06,12,19,11,24,25,17,32,,,,,1.69,0.96,1.39,1*00
$GNGSA,A,3,,,,,,,,,,,,,1.69,0.96,1.39,2*08
$GNGSA,A,3,,,,,,,,,,,,,1.69,0.96,1.39,3*09
$GNGSA,A,3,34,11,25,23,43,,,,,,,,1.69,0.96,1.39,4*08
$GPGSV,3,1,09,06,61,101,34,12,61,299,36,19,48,062,34,11,46,167,33,1*6F
$GPGSV,3,2,09,24,42,221,31,46,33,187,30,25,21,299,27,17,18,066,25,1*6B
$GPGSV,3,3,09,32,08,314,24,1*54
$GPGSV,1,1,04,06,61,101,31,11,46,167,29,24,42,221,26,25,21,299,21,8*63
$GLGSV,1,1,00,1*78
$GAGSV,1,1,00,7*73
$GAGSV,1,1,00,1*75
$GBGSV,2,1,08,34,79,098,37,11,68,204,33,25,65,185,36,23,48,299,35,1*7D
$GBGSV,2,2,08,43,45,221,32,44,,,24,12,,,32,24,,,26,1*4E
$GBGSV,1,1,04,34,79,098,28,25,65,185,27,23,48,299,27,43,45,221,23,5*75
$GNGLL,4910.425786,N,12304.403898,W,005135.000,A,A*5B
$GNRMC,005136.000,A,4910.425798,N,12304.403946,W,0.01,0.00,070125,,,A,V*18
$GNGGA,005136.000,4910.425798,N,12304.403946,W,1,21,0.96,4.472,M,-16.816,M,,*4C
$GNVTG,0.00,T,,M,0.01,N,0.03,K,A*21
$GNGSA,A,3,06,12,19,11,24,25,17,32,,,,,1.69,0.96,1.39,1*00
$GNGSA,A,3,,,,,,,,,,,,,1.69,0.96,1.39,2*08
$GNGSA,A,3,,,,,,,,,,,,,1.69,0.96,1.39,3*09
$GNGSA,A,3,34,11,25,23,43,,,,,,,,1.69,0.96,1.39,4*08
$GPGSV,3,1,09,06,61,101,34,12,61,299,36,19,48,062,34,11,46,167,33,1*6F
$GPGSV,3,2,09,24,42,221,31,46,33,187,30,25,21,299,27,17,18,066,25,1*6B
$GPGSV,3,3,09,32,08,314,24,1*54
$GPGSV,1,1,04,06,61,101,31,11,46,167,29,24,42,221,26,25,21,299,21,8*63
$GLGSV,1,1,00,1*78
$GAGSV,1,1,00,7*73
$GAGSV,1,1,00,1*75
$GBGSV,2,1,08,34,79,098,37,11,68,204,33,25,65,185,36,23,48,299,35,1*7D
$GBGSV,2,2,08,43,45,221,32,44,,,28,12,,,32,24,,,26,1*42
$GBGSV,1,1,04,34,79,098,28,25,65,185,27,23,48,299,27,43,45,221,23,5*75
$GNGLL,4910.425798,N,12304.403946,W,005136.000,A,A*55
$GNRMC,005137.000,A,4910.425846,N,12304.403958,W,0.01,0.00,070125,,,A,V*1A
$GNGGA,005137.000,4910.425846,N,12304.403958,W,1,21,0.96,4.689,M,-16.816,M,,*48
$GNVTG,0.00,T,,M,0.01,N,0.01,K,A*23
$GNGSA,A,3,06,12,19,11,24,25,17,32,,,,,1.69,0.96,1.39,1*00
$GNGSA,A,3,,,,,,,,,,,,,1.69,0.96,1.39,2*08
