$GNGGA,233113.000,4910.424346,N,12304.402434,W,2,32,0.45,2.360,M,-16.816,M,,*4E
$GNGLL,4910.424346,N,12304.402434,W,233113.000,A,D*5F
$GNGSA,A,3,19,24,17,06,12,14,11,03,15,,,,0.76,0.45,0.62,1*0A
$GNGSA,A,3,75,85,76,66,67,,,,,,,,0.76,0.45,0.62,2*09
$GNGSA,A,3,02,30,36,11,07,25,34,08,10,29,,,0.76,0.45,0.62,3*06
$GNGSA,A,3,24,35,26,44,12,25,29,41,,,,,0.76,0.45,0.62,4*0E
$GPGSV,4,1,13,19,81,093,32,24,56,274,32,17,49,059,25,06,36,147,28,1*67
$GPGSV,4,2,13,46,33,188,26,12,28,285,28,14,24,099,23,11,11,175,16,1*6D
$GPGSV,4,3,13,03,05,060,17,15,05,234,15,13,03,202,16,02,03,029,15,1*6F
$GPGSV,4,4,13,32,03,342,19,1*59
$GLGSV,2,1,07,75,75,354,34,85,57,167,30,84,53,051,20,74,40,113,,1*7D
$GLGSV,2,2,07,76,19,308,22,66,17,306,26,67,09,357,21,1*40
$GAGSV,3,1,10,02,75,071,28,30,46,287,23,36,45,113,25,11,30,050,20,7*75
$GAGSV,3,2,10,07,27,279,23,25,23,095,22,34,18,166,19,08,16,226,20,7*7A
$GAGSV,3,3,10,10,12,029,16,29,10,331,20,7*75
$GBGSV,3,1,12,24,66,292,30,35,64,084,25,26,57,138,28,44,51,189,25,1*71
$GBGSV,3,2,12,12,27,200,19,25,13,305,18,29,12,044,18,41,05,312,19,1*7B
$GBGSV,3,3,12,45,04,128,17,34,03,212,15,39,01,328,14,32,01,001,,1*7A
$GNRMC,233113.000,A,4910.424346,N,12304.402434,W,0.02,132.56,070125,,,D,V*12
$GNVTG,132.56,T,,M,0.02,N,0.03,K,D*24
$PAIRLOG,Full*51
$GNGGA,233114.000,4910.424298,N,12304.402512,W,2,32,0.45,2.286,M,-16.817,M,,*46
$GNGLL,4910.424298,N,12304.402512,W,233114.000,A,D*5F
$GNGSA,A,3,19,24,17,06,12,14,11,03,15,,,,0.76,0.45,0.62,1*0A
$GNGSA,A,3,75,85,76,66,67,,,,,,,,0.76,0.45,0.62,2*09
$GNGSA,A,3,02,30,36,11,07,25,34,08,10,29,,,0.76,0.45,0.62,3*06
$GNGSA,A,3,24,35,26,44,12,25,29,41,,,,,0.76,0.45,0.62,4*0E
$GPGSV,4,1,13,19,81,093,32,24,56,274,31,17,49,059,25,06,36,147,28,1*64
$GPGSV,4,2,13,46,33,188,26,12,28,285,29,14,24,099,23,11,11,175,17,1*6D
$GPGSV,4,3,13,03,05,060,17,15,05,234,13,13,03,202,16,02,03,029,15,1*69
$GPGSV,4,4,13,32,03,342,19,1*59
$GLGSV,2,1,07,75,75,354,34,85,57,167,30,84,53,051,20,74,40,113,,1*7D
$GLGSV,2,2,07,76,19,308,22,66,17,306,26,67,09,357,20,1*41
$GAGSV,3,1,10,02,75,071,28,30,46,287,23,36,45,113,25,11,30,050,20,7*75
$GAGSV,3,2,10,07,27,279,23,25,23,095,22,34,18,166,19,08,16,226,20,7*7A
$GAGSV,3,3,10,10,12,029,16,29,10,331,20,7*75
$GBGSV,3,1,12,24,66,292,30,35,64,084,26,26,57,138,28,44,51,189,26,1*71
$GBGSV,3,2,12,12,27,200,20,25,13,305,19,29,12,044,17,41,05,312,18,1*7E
$GBGSV,3,3,12,45,04,128,17,34,03,212,15,39,01,328,14,32,01,001,,1*7A
$GNRMC,233114.000,A,4910.424298,N,12304.402512,W,0.01,132.56,070125,,,D,V*11
$GNVTG,132.56,T,,M,0.01,N,0.02,K,D*26
$PAIRLOG,Full*51
$GNGGA,233115.000,4910.424268,N,12304.402476,W,2,32,0.45,2.280,M,-16.816,M,,*4C
$GNGLL,4910.424268,N,12304.402476,W,233115.000,A,D*52
$GNGSA,A,3,19,24,17,06,12,14,11,03,15,,,,0.76,0.45,0.62,1*0A
$GNGSA,A,3,75,85,76,66,67,,,,,,,,0.76,0.45,0.62,2*09
$GNGSA,A,3,02,30,36,11,07,25,34,08,10,29,,,0.76,0.45,0.62,3*06
$GNGSA,A,3,24,35,26,44,12,25,29,41,,,,,0.76,0.45,0.62,4*0E
$GPGSV,4,1,13,19,81,093,32,24,56,274,31,17,49,059,25,06,36,147,28,1*64
$GPGSV,4,2,13,46,33,188,26,12,28,285,29,14,24,099,23,11,11,175,17,1*6D
$GPGSV,4,3,13,03,05,060,17,15,05,234,14,13,03,202,16,02,03,029,13,1*68
$GPGSV,4,4,13,32,03,342,19,1*59
$GLGSV,2,1,07,75,75,354,35,85,57,167,30,84,53,051,20,74,40,113,,1*7C
$GLGSV,2,2,07,76,19,308,22,66,17,306,27,67,09,357,20,1*40
$GAGSV,3,1,10,02,75,071,29,30,46,287,23,36,45,113,25,11,30,050,20,7*74
$GAGSV,3,2,10,07,27,279,22,25,23,095,22,34,18,166,19,08,16,226,20,7*7B
$GAGSV,3,3,10,10,12,029,16,29,10,331,20,7*75
$GBGSV,3,1,12,24,66,292,31,35,64,084,27,26,57,138,28,44,51,189,27,1*70
$GBGSV,3,2,12,12,27,200,20,25,13,305,20,29,12,044,17,41,05,312,18,1*74
$GBGSV,3,3,12,45,04,128,17,34,03,212,16,39,01,328,14,32,01,001,,1*79
$GNRMC,233115.000,A,4910.424268,N,12304.402476,W,0.01,132.56,070125,,,D,V*1C
$GNVTG,132.56,T,,M,0.01,N,0.01,K,D*25
$PAIRLOG,Full*51
$GNGGA,233116.000,4910.424220,N,12304.402428,W,2,32,0.45,2.376,M,-16.816,M,,*40
$GNGLL,4910.424220,N,12304.402428,W,233116.000,A,D*56
$GNGSA,A,3,19,24,17,06,12,14,11,03,15,,,,0.76,0.45,0.62,1*0A
$GNGSA,A,3,75,85,76,66,67,,,,,,,,0.76,0.45,0.62,2*09
$GNGSA,A,3,02,30,36,11,07,25,34,08,10,29,,,0.76,0.45,0.62,3*06
$GNGSA,A,3,24,35,26,44,12,25,29,41,,,,,0.76,0.45,0.62,4*0E
$GPGSV,4,1,13,19,81,093,33,24,56,274,32,17,49,059,26,06,36,147,28,1*65
$GPGSV,4,2,13,46,33,188,27,12,28,285,29,14,24,099,25,11,11,175,19,1*64
$GPGSV,4,3,13,03,05,060,17,15,05,234,15,13,03,202,16,02,03,029,15,1*6F
$GPGSV,4,4,13,32,03,342,20,1*53
$GLGSV,2,1,07,75,75,354,35,85,57,167,30,84,53,051,20,74,40,113,,1*7C
$GLGSV,2,2,07,76,19,308,23,66,17,306,27,67,09,357,20,1*41
$GAGSV,3,1,10,02,75,071,30,30,46,287,24,36,45,113,26,11,30,050,20,7*78
$GAGSV,3,2,10,07,27,279,22,25,23,095,22,34,18,166,20,08,16,226,20,7*71
$GAGSV,3,3,10,10,12,029,17,29,10,331,21,7*75
$GBGSV,3,1,12,24,66,292,32,35,64,084,28,26,57,138,29,44,51,189,28,1*72
$GBGSV,3,2,12,12,27,200,20,25,13,305,21,29,12,044,18,41,05,312,19,1*7B
$GBGSV,3,3,12,45,04,128,18,34,03,212,16,39,01,328,14,32,01,001,,1*76
$GNRMC,233116.000,A,4910.424220,N,12304.402428,W,0.01,132.56,070125,,,D,V*18
$GNVTG,132.56,T,,M,0.01,N,0.01,K,D*25
$PAIRLOG,Full*51
$GNGGA,233117.000,4910.424190,N,12304.402362,W,2,32,0.45,2.497,M,-16.816,M,,*48
$GNGLL,4910.424190,N,12304.402362,W,233117.000,A,D*56
$GNGSA,A,3,19,24,17,06,12,14,11,03,15,,,,0.76,0.45,0.62,1*0A
$GNGSA,A,3,75,85,76,66,67,,,,,,,,0.76,0.45,0.62,2*09
$GNGSA,A,3,02,30,36,11,07,25,34,08,10,29,,,0.76,0.45,0.62,3*06
$GNGSA,A,3,24,35,26,44,12,25,29,41,,,,,0.76,0.45,0.62,4*0E
$GPGSV,4,1,13,19,81,093,33,24,56,274,32,17,49,059,26,06,36,147,28,1*65
$GPGSV,4,2,13,46,33,188,27,12,28,285,29,14,24,099,23,11,11,175,17,1*6C
$GPGSV,4,3,13,03,05,060,17,15,05,234,16,13,03,202,16,02,03,029,14,1*6D
$GPGSV,4,4,13,32,03,342,20,1*53
$GLGSV,2,1,07,75,75,354,36,85,57,167,30,84,53,051,20,74,40,113,18,1*76
$GLGSV,2,2,07,76,19,308,23,66,17,306,26,67,09,357,20,1*40
$GAGSV,3,1,10,02,75,071,30,30,46,287,24,36,45,113,26,11,30,050,20,7*78
$GAGSV,3,2,10,07,27,279,22,25,23,095,22,34,18,166,20,08,16,226,20,7*71
$GAGSV,3,3,10,10,12,029,17,29,10,331,21,7*75
$GBGSV,3,1,12,24,66,292,30,35,64,084,28,26,57,138,29,44,51,189,28,1*70
$GBGSV,3,2,12,12,27,200,20,25,13,305,21,29,12,044,18,41,05,312,19,1*7B
$GBGSV,3,3,12,45,04,128,18,34,03,212,16,39,01,328,14,32,01,001,,1*76
$GNRMC,233117.000,A,4910.424190,N,12304.402362,W,0.01,132.56,070125,,,D,V*18
$GNVTG,132.56,T,,M,0.01,N,0.02,K,D*26
$PAIRLOG,Full*51
$GNGGA,233118.000,4910.424094,N,12304.402398,W,2,32,0.45,2.681,M,-16.816,M,,*42
$GNGLL,4910.424094,N,12304.402398,W,233118.000,A,D*59
$GNGSA,A,3,19,24,17,06,12,14,11,03,15,,,,0.76,0.45,0.62,1*0A
$GNGSA,A,3,75,85,76,66,67,,,,,,,,0.76,0.45,0.62,2*09
$GNGSA,A,3,02,30,36,11,07,25,34,08,10,29,,,0.76,0.45,0.62,3*06
$GNGSA,A,3,24,35,26,44,12,25,29,41,,,,,0.76,0.45,0.62,4*0E
$GPGSV,4,1,13,19,81,093,32,24,56,274,31,17,49,059,25,06,36,147,27,1*6B
$GPGSV,4,2,13,46,33,188,27,12,28,285,28,14,24,099,20,11,11,175,16,1*6F
$GPGSV,4,3,13,03,05,060,17,15,05,234,14,13,03,202,14,02,03,029,14,1*6D
$GPGSV,4,4,13,32,03,342,20,1*53
$GLGSV,2,1,07,75,75,354,36,85,57,167,30,84,53,051,20,74,40,113,16,1*78
$GLGSV,2,2,07,76,19,308,23,66,17,306,26,67,09,357,20,1*40
$GAGSV,3,1,10,02,75,071,29,30,46,287,23,36,45,113,25,11,30,050,19,7*7E
$GAGSV,3,2,10,07,27,279,21,25,23,095,21,34,18,166,20,08,16,226,20,7*71
$GAGSV,3,3,10,10,12,029,15,29,10,331,20,7*76
$GBGSV,3,1,12,24,66,292,30,35,64,084,28,26,57,138,29,44,51,189,28,1*70
$GBGSV,3,2,12,12,27,200,20,25,13,305,21,29,12,044,19,41,05,312,19,1*7A
$GBGSV,3,3,12,45,04,128,18,34,03,212,16,39,01,328,14,32,01,001,,1*76
$GNRMC,233118.000,A,4910.424094,N,12304.402398,W,0.02,132.56,070125,,,D,V*14
$GNVTG,132.56,T,,M,0.02,N,0.03,K,D*24
$PAIRLOG,Full*51
$GNGGA,233119.000,4910.423956,N,12304.402368,W,2,32,0.45,2.963,M,-16.816,M,,*4F
$GNGLL,4910.423956,N,12304.402368,W,233119.000,A,D*57
$GNGSA,A,3,19,24,17,06,12,14,11,03,15,,,,0.76,0.45,0.62,1*0A
$GNGSA,A,3,75,85,76,66,67,,,,,,,,0.76,0.45,0.62,2*09
$GNGSA,A,3,02,30,36,11,07,25,34,08,10,29,,,0.76,0.45,0.62,3*06
$GNGSA,A,3,24,35,26,44,12,25,29,41,,,,,0.76,0.45,0.62,4*0E
$GPGSV,4,1,13,19,81,093,32,24,56,274,31,17,49,059,25,06,36,147,27,1*6B
$GPGSV,4,2,13,46,33,188,27,12,28,285,28,14,24,099,21,11,11,175,16,1*6E
$GPGSV,4,3,13,03,05,060,17,15,05,234,14,13,03,202,14,02,03,029,15,1*6C
$GPGSV,4,4,13,32,03,342,20,1*53
$GLGSV,2,1,07,75,75,354,36,85,57,167,30,84,53,051,20,74,40,113,17,1*79
$GLGSV,2,2,07,76,19,308,23,66,17,306,26,67,09,357,20,1*40
$GAGSV,3,1,10,02,74,073,29,30,46,287,24,36,45,113,25,11,30,050,19,7*7A
$GAGSV,3,2,10,07,27,279,21,25,23,095,22,34,18,166,20,08,16,226,20,7*72
$GAGSV,3,3,10,10,12,029,15,29,10,331,20,7*76
$GBGSV,3,1,12,24,66,292,30,35,64,084,28,26,57,138,29,44,51,189,27,1*7F
$GBGSV,3,2,12,12,27,200,20,25,13,305,21,29,12,044,19,41,05,312,19,1*7A
$GBGSV,3,3,12,45,04,128,18,34,03,212,16,39,01,328,15,32,01,001,,1*77
$GNRMC,233119.000,A,4910.423956,N,12304.402368,W,0.03,132.56,070125,,,D,V*1B
$GNVTG,132.56,T,,M,0.03,N,0.05,K,D*23
$PAIRLOG,Full*51
$GNGGA,233120.000,4910.423926,N,12304.402410,W,2,32,0.45,3.204,M,-16.816,M,,*41
$GNGLL,4910.423926,N,12304.402410,W,233120.000,A,D*52
$GNGSA,A,3,19,24,17,06,12,14,11,03,15,,,,0.76,0.45,0.62,1*0A
$GNGSA,A,3,75,85,76,66,67,,,,,,,,0.76,0.45,0.62,2*09
$GNGSA,A,3,02,30,36,11,07,25,34,08,10,29,,,0.76,0.45,0.62,3*06
$GNGSA,A,3,24,35,26,44,12,25,29,41,,,,,0.76,0.45,0.62,4*0E
$GPGSV,4,1,13,19,81,093,31,24,56,274,31,17,49,059,25,06,36,147,26,1*69
$GPGSV,4,2,13,46,33,188,27,12,28,285,28,14,24,099,20,11,11,175,16,1*6F
$GPGSV,4,3,13,03,05,060,17,15,05,234,15,13,03,202,13,02,03,029,12,1*6D
$GPGSV,4,4,13,32,03,342,20,1*53
$GLGSV,2,1,07,75,75,354,36,85,57,167,30,84,53,051,20,74,40,113,12,1*7C
$GLGSV,2,2,07,76,19,308,23,66,17,306,26,67,09,357,20,1*40
$GAGSV,3,1,10,02,74,073,28,30,46,287,24,36,45,113,25,11,30,050,18,7*7A
$GAGSV,3,2,10,07,27,279,21,25,23,095,22,34,18,166,20,08,16,226,19,7*78
$GAGSV,3,3,10,10,12,029,15,29,10,331,20,7*76
$GBGSV,3,1,12,24,66,292,29,35,64,084,27,26,57,138,28,44,51,189,26,1*78
$GBGSV,3,2,12,12,27,200,19,25,13,305,21,29,12,044,18,41,05,312,18,1*70
$GBGSV,3,3,12,45,04,128,18,34,03,212,16,39,01,328,15,32,01,001,,1*77
$GNRMC,233120.000,A,4910.423926,N,12304.402410,W,0.03,132.56,070125,,,D,V*1E
$GNVTG,132.56,T,,M,0.03,N,0.05,K,D*23
$PAIRLOG,Full*51
$GNGGA,233121.000,4910.423878,N,12304.402368,W,2,32,0.45,3.413,M,-16.816,M,,*42
$GNGLL,4910.423878,N,12304.402368,W,233121.000,A,D*51
$GNGSA,A,3,19,24,17,06,12,14,11,03,15,,,,0.76,0.45,0.62,1*0A
$GNGSA,A,3,75,85,76,66,67,,,,,,,,0.76,0.45,0.62,2*09
$GNGSA,A,3,02,30,36,11,07,25,34,08,10,29,,,0.76,0.45,0.62,3*06
$GNGSA,A,3,24,35,26,44,12,25,29,41,,,,,0.76,0.45,0.62,4*0E
$GPGSV,4,1,13,19,81,093,31,24,56,274,31,17,49,059,24,06,36,147,26,1*68
$GPGSV,4,2,13,46,33,188,27,12,28,285,28,14,24,099,20,11,11,175,16,1*6F
$GPGSV,4,3,13,03,05,060,16,15,05,234,16,13,03,202,13,02,03,029,15,1*68
$GPGSV,4,4,13,32,03,342,20,1*53
$GLGSV,2,1,07,75,75,354,36,85,57,167,30,84,53,051,20,74,40,113,,1*7F
$GLGSV,2,2,07,76,19,308,23,66,17,306,26,67,09,357,21,1*41
$GAGSV,3,1,10,02,74,073,28,30,46,287,24,36,45,113,25,11,30,050,18,7*7A
$GAGSV,3,2,10,07,27,279,20,25,23,095,22,34,18,166,19,08,16,226,19,7*73
$GAGSV,3,3,10,10,12,029,15,29,10,331,20,7*76
$GBGSV,3,1,12,24,66,292,29,35,64,084,27,26,57,138,28,44,51,189,26,1*78
$GBGSV,3,2,12,12,27,200,18,25,13,305,21,29,12,044,18,41,05,312,18,1*71
$GBGSV,3,3,12,45,04,128,18,34,03,212,15,39,01,328,15,32,01,001,,1*74
$GNRMC,233121.000,A,4910.423878,N,12304.402368,W,0.03,132.56,070125,,,D,V*1D
$GNVTG,132.56,T,,M,0.03,N,0.05,K,D*23
$PAIRLOG,Full*51
$GNGGA,233122.000,4910.423872,N,12304.402230,W,2,32,0.45,3.544,M,-16.816,M,,*44
$GNGLL,4910.423872,N,12304.402230,W,233122.000,A,D*54
$GNGSA,A,3,19,24,17,06,12,14,11,03,15,,,,0.76,0.45,0.62,1*0A
$GNGSA,A,3,75,85,76,66,67,,,,,,,,0.76,0.45,0.62,2*09
$GNGSA,A,3,02,30,36,11,07,25,34,08,10,29,,,0.76,0.45,0.62,3*06
$GNGSA,A,3,24,35,26,44,12,25,29,41,,,,,0.76,0.45,0.62,4*0E
$GPGSV,4,1,13,19,81,093,31,24,56,274,30,17,49,059,23,06,36,147,25,1*6D
$GPGSV,4,2,13,46,33,188,27,12,28,285,27,14,24,099,21,11,11,175,16,1*61
$GPGSV,4,3,13,03,05,060,16,15,05,234,15,13,03,202,14,02,03,029,16,1*6F
$GPGSV,4,4,13,32,03,342,20,1*53
$GLGSV,2,1,07,75,75,354,35,85,57,167,31,84,53,051,20,74,40,113,,1*7D
$GLGSV,2,2,07,76,19,308,23,66,17,306,26,67,09,357,22,1*42
$GAGSV,3,1,10,02,74,073,28,30,46,287,23,36,45,113,25,11,30,050,18,7*7D
$GAGSV,3,2,10,07,27,279,20,25,23,095,22,34,18,166,19,08,16,226,19,7*73
$GAGSV,3,3,10,10,12,029,15,29,10,331,20,7*76
$GBGSV,3,1,12,24,66,292,30,35,64,084,28,26,57,138,29,44,51,189,27,1*7F
$GBGSV,3,2,12,12,27,200,19,25,13,305,21,29,12,044,18,41,05,312,18,1*70
$GBGSV,3,3,12,45,04,128,18,34,03,212,15,39,01,328,15,32,01,001,,1*74
$GNRMC,233122.000,A,4910.423872,N,12304.402230,W,0.03,132.56,070125,,,D,V*18
$GNVTG,132.56,T,,M,0.03,N,0.05,K,D*23
$PAIRLOG,Full*51
$GNGGA,233123.000,4910.423830,N,12304.402206,W,2,32,0.45,3.695,M,-16.817,M,,*48
$GNGLL,4910.423830,N,12304.402206,W,233123.000,A,D*56
$GNGSA,A,3,19,24,17,06,12,14,11,03,15,,,,0.76,0.45,0.62,1*0A
$GNGSA,A,3,75,85,76,66,67,,,,,,,,0.76,0.45,0.62,2*09
$GNGSA,A,3,02,30,36,11,07,25,34,08,10,29,,,0.76,0.45,0.62,3*06
$GNGSA,A,3,24,35,26,44,12,25,29,41,,,,,0.76,0.45,0.62,4*0E
$GPGSV,4,1,13,19,81,093,31,24,56,274,30,17,49,059,26,06,36,147,26,1*6B
$GPGSV,4,2,13,46,33,188,27,12,28,285,27,14,24,099,21,11,11,175,16,1*61
$GPGSV,4,3,13,03,05,060,15,15,05,234,16,13,03,202,14,02,03,029,15,1*6C
$GPGSV,4,4,13,32,03,342,20,1*53
$GLGSV,2,1,07,75,75,354,35,85,57,167,31,84,53,051,20,74,40,113,,1*7D
$GLGSV,2,2,07,76,19,308,23,66,17,306,27,67,09,357,22,1*43
$GAGSV,3,1,10,02,74,073,28,30,46,287,23,36,45,113,25,11,30,050,18,7*7D
$GAGSV,3,2,10,07,27,279,20,25,23,095,22,34,18,166,19,08,16,226,19,7*73
$GAGSV,3,3,10,10,12,029,16,29,10,331,20,7*75
$GBGSV,3,1,12,24,66,292,30,35,64,084,28,26,57,138,29,44,51,189,27,1*7F
$GBGSV,3,2,12,12,27,200,19,25,13,305,21,29,12,044,18,41,05,312,18,1*70
$GBGSV,3,3,12,45,04,128,18,34,03,212,15,39,01,328,15,32,01,001,,1*74
$GNRMC,233123.000,A,4910.423830,N,12304.402206,W,0.02,132.56,070125,,,D,V*1B
$GNVTG,132.56,T,,M,0.02,N,0.04,K,D*23
$PAIRLOG,Full*51
$GNGGA,233124.000,4910.423782,N,12304.402242,W,2,32,0.45,3.897,M,-16.817,M,,*45
$GNGLL,4910.423782,N,12304.402242,W,233124.000,A,D*57
$GNGSA,A,3,19,24,17,06,12,14,11,03,15,,,,0.76,0.45,0.62,1*0A
$GNGSA,A,3,75,85,76,66,67,,,,,,,,0.76,0.45,0.62,2*09
$GNGSA,A,3,02,30,36,11,07,25,34,08,10,29,,,0.76,0.45,0.62,3*06
$GNGSA,A,3,24,35,26,44,12,25,29,41,,,,,0.76,0.45,0.62,4*0E
$GPGSV,4,1,13,19,81,093,31,24,56,274,30,17,49,059,24,06,36,147,26,1*69
$GPGSV,4,2,13,46,33,188,27,12,28,285,28,14,24,099,21,11,11,175,17,1*6F
$GPGSV,4,3,13,03,05,060,15,15,05,234,16,13,03,202,13,02,03,029,13,1*6D
$GPGSV,4,4,13,32,03,342,20,1*53
$GLGSV,2,1,07,75,75,354,35,85,57,167,31,84,53,051,20,74,40,113,,1*7D
$GLGSV,2,2,07,76,19,308,23,66,17,306,27,67,09,357,22,1*43
$GAGSV,3,1,10,02,74,073,28,30,46,287,23,36,45,113,25,11,30,050,18,7*7D
$GAGSV,3,2,10,07,27,278,20,25,23,095,22,34,18,166,19,08,16,226,19,7*72
$GAGSV,3,3,10,10,12,029,15,29,10,331,20,7*76
$GBGSV,3,1,12,24,66,292,31,35,64,084,29,26,57,138,29,44,51,189,28,1*70
$GBGSV,3,2,12,12,27,200,20,25,13,305,22,29,12,044,18,41,05,312,18,1*79
$GBGSV,3,3,12,45,04,128,19,34,03,212,15,39,01,328,15,32,01,001,,1*75
$GNRMC,233124.000,A,4910.423782,N,12304.402242,W,0.02,132.56,070125,,,D,V*1A
$GNVTG,132.56,T,,M,0.02,N,0.04,K,D*23
$PAIRLOG,Full*51
$GNGGA,233125.000,4910.423680,N,12304.402260,W,2,32,0.45,4.112,M,-16.816,M,,*45
$GNGLL,4910.423680,N,12304.402260,W,233125.000,A,D*55
$GNGSA,A,3,19,24,17,06,12,14,11,03,15,,,,0.76,0.45,0.62,1*0A
$GNGSA,A,3,75,85,76,66,67,,,,,,,,0.76,0.45,0.62,2*09
$GNGSA,A,3,02,30,36,11,07,25,34,08,10,29,,,0.76,0.45,0.62,3*06
$GNGSA,A,3,24,35,26,44,12,25,29,41,,,,,0.76,0.45,0.62,4*0E
$GPGSV,4,1,13,19,81,093,31,24,56,274,30,17,49,059,23,06,36,147,26,1*6E
$GPGSV,4,2,13,46,33,188,27,12,28,285,27,14,24,099,20,11,11,175,17,1*61
$GPGSV,4,3,13,03,05,060,14,15,05,234,16,13,03,202,10,02,03,029,13,1*6F
$GPGSV,4,4,13,32,03,342,20,1*53
$GLGSV,2,1,07,75,75,354,35,85,57,167,31,84,53,051,20,74,40,113,,1*7D
$GLGSV,2,2,07,76,19,308,24,66,17,306,27,67,09,357,22,1*44
$GAGSV,3,1,10,02,74,073,27,30,46,287,21,36,45,113,24,11,30,050,18,7*71
$GAGSV,3,2,10,07,27,278,19,25,23,095,21,34,18,166,19,08,15,225,19,7*7B
$GAGSV,3,3,10,10,12,029,15,29,10,331,20,7*76
$GBGSV,3,1,12,24,66,292,31,35,64,084,29,26,57,138,29,44,51,189,28,1*70
$GBGSV,3,2,12,12,27,200,20,25,13,305,22,29,12,044,18,41,05,312,18,1*79
$GBGSV,3,3,12,45,04,128,19,34,03,212,16,39,01,328,16,32,01,001,,1*75
$GNRMC,233125.000,A,4910.423680,N,12304.402260,W,0.02,132.56,070125,,,D,V*18
$GNVTG,132.56,T,,M,0.02,N,0.04,K,D*23
$PAIRLOG,Full*51
$GNGGA,233126.000,4910.423596,N,12304.402302,W,2,32,0.45,4.283,M,-16.817,M,,*4D
$GNGLL,4910.423596,N,12304.402302,W,233126.000,A,D*57
$GNGSA,A,3,19,24,17,06,12,14,11,03,15,,,,0.76,0.45,0.62,1*0A
$GNGSA,A,3,75,85,76,66,67,,,,,,,,0.76,0.45,0.62,2*09
$GNGSA,A,3,02,30,36,11,07,25,34,08,10,29,,,0.76,0.45,0.62,3*06
$GNGSA,A,3,24,35,26,44,12,25,29,41,,,,,0.76,0.45,0.62,4*0E
$GPGSV,4,1,13,19,81,093,31,24,56,274,30,17,49,059,25,06,36,147,25,1*6B
$GPGSV,4,2,13,46,33,188,27,12,28,285,27,14,24,099,20,11,11,175,16,1*60
$GPGSV,4,3,13,03,05,060,15,15,05,234,16,13,03,202,12,02,03,029,12,1*6D
$GPGSV,4,4,13,32,03,342,20,1*53
$GLGSV,2,1,07,75,75,354,35,85,57,167,31,84,53,051,20,74,40,113,,1*7D
$GLGSV,2,2,07,76,19,308,25,66,17,306,27,67,09,357,22,1*45
$GAGSV,3,1,10,02,74,073,26,30,46,287,20,36,45,113,23,11,30,050,17,7*79
$GAGSV,3,2,10,07,27,278,18,25,23,095,20,34,18,166,19,08,15,225,19,7*7B
$GAGSV,3,3,10,10,12,029,14,29,10,331,19,7*7D
$GBGSV,3,1,12,24,66,292,30,35,64,084,29,26,57,138,28,44,51,189,27,1*7F
$GBGSV,3,2,12,12,27,200,20,25,13,305,22,29,12,044,18,41,05,312,18,1*79
$GBGSV,3,3,12,45,04,128,19,34,03,212,16,39,01,328,16,32,01,001,,1*75
$GNRMC,233126.000,A,4910.423596,N,12304.402302,W,0.02,132.56,070125,,,D,V*1A
$GNVTG,132.56,T,,M,0.02,N,0.04,K,D*23
$PAIRLOG,Full*51
$GNGGA,233127.000,4910.423542,N,12304.402386,W,2,32,0.45,4.454,M,-16.816,M,,*44
$GNGLL,4910.423542,N,12304.402386,W,233127.000,A,D*53
$GNGSA,A,3,19,24,17,06,12,14,11,03,15,,,,0.76,0.45,0.62,1*0A
$GNGSA,A,3,75,85,76,66,67,,,,,,,,0.76,0.45,0.62,2*09
$GNGSA,A,3,02,30,36,11,07,25,34,08,10,29,,,0.76,0.45,0.62,3*06
$GNGSA,A,3,24,35,26,44,12,25,29,41,,,,,0.76,0.45,0.62,4*0E
$GPGSV,4,1,13,19,81,093,30,24,56,274,30,17,49,059,26,06,36,147,23,1*6F
$GPGSV,4,2,13,46,33,188,27,12,28,285,26,14,24,099,19,11,11,175,16,1*6B
$GPGSV,4,3,13,03,05,060,16,15,05,234,16,13,03,202,14,02,03,029,11,1*6B
$GPGSV,4,4,13,32,03,342,19,1*59
$GLGSV,2,1,07,75,75,354,35,85,57,167,31,84,53,051,20,74,40,113,,1*7D
$GLGSV,2,2,07,76,19,308,25,66,17,306,27,67,09,357,22,1*45
$GAGSV,3,1,10,02,74,073,25,30,46,287,19,36,45,113,22,11,30,050,17,7*71
$GAGSV,3,2,10,07,27,278,18,25,23,095,19,34,18,166,19,08,15,225,19,7*71
$GAGSV,3,3,10,10,11,029,14,29,10,331,19,7*7E
$GBGSV,3,1,12,24,66,292,30,35,64,084,29,26,57,138,28,44,51,189,27,1*7F
$GBGSV,3,2,12,12,27,200,20,25,13,305,22,29,12,044,18,41,05,312,18,1*79
$GBGSV,3,3,12,45,04,128,19,34,03,212,16,39,01,328,16,32,01,001,,1*75
$GNRMC,233127.000,A,4910.423542,N,12304.402386,W,0.02,132.56,070125,,,D,V*1E
$GNVTG,132.56,T,,M,0.02,N,0.04,K,D*23
$PAIRLOG,Full*51
$GNGGA,233128.000,4910.423572,N,12304.402410,W,2,32,0.45,4.661,M,-16.816,M,,*44
$GNGLL,4910.423572,N,12304.402410,W,233128.000,A,D*57
$GNGSA,A,3,19,24,17,06,12,14,11,03,15,,,,0.76,0.45,0.62,1*0A
$GNGSA,A,3,75,85,76,66,67,,,,,,,,0.76,0.45,0.62,2*09
$GNGSA,A,3,02,30,36,11,07,25,34,08,10,29,,,0.76,0.45,0.62,3*06
$GNGSA,A,3,24,35,26,44,12,25,29,41,,,,,0.76,0.45,0.62,4*0E
$GPGSV,4,1,13,19,81,093,31,24,56,274,30,17,49,059,26,06,36,147,24,1*69
$GPGSV,4,2,13,46,33,188,27,12,28,285,26,14,24,099,17,11,11,175,16,1*65
$GPGSV,4,3,13,03,05,060,15,15,05,234,16,13,03,202,13,02,03,029,13,1*6D
$GPGSV,4,4,13,32,03,342,19,1*59
$GLGSV,2,1,07,75,75,354,35,85,57,167,31,84,53,051,20,74,40,113,,1*7D
$GLGSV,2,2,07,76,19,308,25,66,17,306,27,67,09,357,22,1*45
$GAGSV,3,1,10,02,74,073,25,30,46,287,19,36,45,113,22,11,30,049,17,7*79
$GAGSV,3,2,10,07,27,278,17,25,23,095,19,34,18,166,19,08,15,225,19,7*7E
$GAGSV,3,3,10,10,11,029,14,29,10,331,19,7*7E
$GBGSV,3,1,12,24,66,292,30,35,64,084,29,26,57,138,28,44,51,189,27,1*7F
$GBGSV,3,2,12,12,27,200,20,25,13,305,21,29,12,044,18,41,05,312,18,1*7A
$GBGSV,3,3,12,45,04,128,19,34,03,212,16,39,01,328,16,32,01,001,,1*75
$GNRMC,233128.000,A,4910.423572,N,12304.402410,W,0.02,132.56,070125,,,D,V*1A
$GNVTG,132.56,T,,M,0.02,N,0.03,K,D*24
$PAIRLOG,Full*51
$GNGGA,233129.000,4910.423542,N,12304.402386,W,2,32,0.45,4.455,M,-16.817,M,,*4A
$GNGLL,4910.423542,N,12304.402386,W,233129.000,A,D*5D
$GNGSA,A,3,19,24,17,06,12,14,11,03,15,,,,0.76,0.45,0.62,1*0A
$GNGSA,A,3,75,85,76,66,67,,,,,,,,0.76,0.45,0.62,2*09
$GNGSA,A,3,02,30,36,11,07,25,34,08,10,29,,,0.76,0.45,0.62,3*06
$GNGSA,A,3,24,35,26,44,12,25,29,41,,,,,0.76,0.45,0.62,4*0E
$GPGSV,4,1,13,19,81,093,30,24,56,274,29,17,49,059,23,06,36,147,22,1*63
$GPGSV,4,2,13,46,33,188,27,12,28,285,26,14,24,099,16,11,11,175,16,1*64
$GPGSV,4,3,13,03,05,060,14,15,05,234,16,13,03,202,13,02,03,029,15,1*6A
$GPGSV,4,4,13,32,03,342,18,1*58
$GLGSV,2,1,07,75,75,354,35,85,57,167,31,84,53,051,20,74,40,113,,1*7D
$GLGSV,2,2,07,76,19,308,25,66,17,306,27,67,09,357,22,1*45
$GAGSV,3,1,10,02,74,073,25,30,46,287,19,36,45,113,21,11,30,049,17,7*7A
$GAGSV,3,2,10,07,27,278,16,25,23,095,19,34,18,166,18,08,15,225,19,7*7E
$GAGSV,3,3,10,10,11,029,14,29,10,331,19,7*7E
$GBGSV,3,1,12,24,66,292,30,35,64,084,29,26,57,138,28,44,51,189,27,1*7F
$GBGSV,3,2,12,12,27,200,19,25,13,305,21,29,12,044,18,41,05,312,18,1*70
$GBGSV,3,3,12,45,04,128,19,34,03,212,16,39,01,328,16,32,01,001,,1*75
$GNRMC,233129.000,A,4910.423542,N,12304.402386,W,0.06,132.56,070125,,,D,V*14
$GNVTG,132.56,T,,M,0.06,N,0.11,K,D*23
$PAIRLOG,Full*51
$GNGGA,233130.000,4910.423572,N,12304.402410,W,2,32,0.45,4.653,M,-16.817,M,,*4D
$GNGLL,4910.423572,N,12304.402410,W,233130.000,A,D*5E
$GNGSA,A,3,19,24,17,06,12,14,11,03,15,,,,0.76,0.45,0.62,1*0A
$GNGSA,A,3,75,85,76,66,67,,,,,,,,0.76,0.45,0.62,2*09
$GNGSA,A,3,02,30,36,11,07,25,34,08,10,29,,,0.76,0.45,0.62,3*06
$GNGSA,A,3,24,35,26,44,12,25,29,41,,,,,0.76,0.45,0.62,4*0E
$GPGSV,4,1,13,19,81,093,30,24,56,274,29,17,49,059,22,06,36,147,23,1*63
$GPGSV,4,2,13,46,33,188,27,12,28,285,24,14,24,099,17,11,11,175,17,1*66
$GPGSV,4,3,13,03,05,060,14,15,05,234,16,13,03,202,14,02,03,029,14,1*6C
$GPGSV,4,4,13,32,03,342,18,1*58
$GLGSV,2,1,07,75,75,354,35,85,57,167,31,84,53,051,20,74,40,113,,1*7D
$GLGSV,2,2,07,76,19,308,25,66,17,306,28,67,09,357,22,1*4A
$GAGSV,3,1,10,02,74,073,25,30,46,287,19,36,45,113,21,11,30,049,17,7*7A
$GAGSV,3,2,10,07,27,278,16,25,23,095,19,34,18,166,18,08,15,225,19,7*7E
$GAGSV,3,3,10,10,11,029,14,29,10,331,19,7*7E
$GBGSV,3,1,12,24,66,292,30,35,64,084,28,26,57,138,28,44,51,189,26,1*7F
$GBGSV,3,2,12,12,27,200,19,25,13,305,21,29,12,044,18,41,05,312,17,1*7F
$GBGSV,3,3,12,45,04,128,19,34,03,212,16,39,01,328,15,32,01,001,,1*76
$GNRMC,233130.000,A,4910.423572,N,12304.402410,W,0.33,132.56,070125,,,D,V*11
$GNVTG,132.56,T,,M,0.33,N,0.62,K,D*21
$PAIRLOG,Full*51
$GNGGA,233131.000,4910.423584,N,12304.402398,W,2,32,0.45,4.631,M,-16.816,M,,*47
$GNGLL,4910.423584,N,12304.402398,W,233131.000,A,D*51
$GNGSA,A,3,19,24,17,06,12,14,11,03,15,,,,0.76,0.45,0.62,1*0A
$GNGSA,A,3,75,85,76,66,67,,,,,,,,0.76,0.45,0.62,2*09
$GNGSA,A,3,02,30,36,11,07,25,34,08,10,29,,,0.76,0.45,0.62,3*06
$GNGSA,A,3,24,35,26,44,12,25,29,41,,,,,0.76,0.45,0.62,4*0E
$GPGSV,4,1,13,19,81,093,30,24,56,274,29,17,49,059,23,06,36,147,23,1*62
$GPGSV,4,2,13,46,33,188,27,12,28,285,24,14,24,099,17,11,11,175,17,1*66
$GPGSV,4,3,13,03,05,060,14,15,05,234,16,13,03,202,14,02,03,029,12,1*6A
$GPGSV,4,4,13,32,03,342,19,1*59
$GLGSV,2,1,07,75,75,354,34,85,57,167,31,84,53,051,20,74,40,113,,1*7C
$GLGSV,2,2,07,76,19,308,25,66,17,306,28,67,09,357,23,1*4B
$GAGSV,3,1,10,02,74,073,25,30,46,287,19,36,45,113,21,11,30,049,17,7*7A
$GAGSV,3,2,10,07,27,278,17,25,23,095,19,34,18,166,18,08,15,225,19,7*7F
$GAGSV,3,3,10,10,11,029,14,29,10,331,19,7*7E
$GBGSV,3,1,12,24,66,292,30,35,64,084,28,26,57,138,28,44,51,189,25,1*7C
$GBGSV,3,2,12,12,27,200,19,25,13,305,21,29,12,044,18,41,05,312,17,1*7F
$GBGSV,3,3,12,45,04,128,18,34,03,212,16,39,01,328,14,32,01,001,,1*76
$GNRMC,233131.000,A,4910.423584,N,12304.402398,W,0.31,132.56,070125,,,D,V*1C
$GNVTG,132.56,T,,M,0.31,N,0.58,K,D*2A
$PAIRLOG,Full*51
$GNGGA,233132.000,4910.423614,N,12304.402440,W,2,32,0.45,4.629,M,-16.816,M,,*45
$GNGLL,4910.423614,N,12304.402440,W,233132.000,A,D*5A
$GNGSA,A,3,19,24,17,06,12,14,11,03,15,,,,0.76,0.45,0.62,1*0A
$GNGSA,A,3,75,85,76,66,67,,,,,,,,0.76,0.45,0.62,2*09
$GNGSA,A,3,02,30,36,11,07,25,34,08,10,29,,,0.76,0.45,0.62,3*06
$GNGSA,A,3,24,35,26,44,12,25,29,41,,,,,0.76,0.45,0.62,4*0E
$GPGSV,4,1,13,19,81,093,30,24,56,274,29,17,49,059,21,06,36,147,21,1*62
$GPGSV,4,2,13,46,33,188,27,12,28,285,25,14,24,099,17,11,11,175,18,1*68
$GPGSV,4,3,13,03,05,060,15,15,05,234,16,13,03,202,13,02,03,029,14,1*6A
$GPGSV,4,4,13,32,03,342,19,1*59
$GLGSV,2,1,07,75,75,354,34,85,57,167,32,84,53,051,20,74,40,113,,1*7F
$GLGSV,2,2,07,76,19,308,25,66,17,306,28,67,09,357,24,1*4C
$GAGSV,3,1,10,02,74,073,24,30,46,287,19,36,45,113,21,11,30,049,17,7*7B
$GAGSV,3,2,10,07,27,278,17,25,23,095,19,34,18,166,18,08,15,225,19,7*7F
$GAGSV,3,3,10,10,11,029,14,29,10,331,19,7*7E
$GBGSV,3,1,12,24,66,292,30,35,64,084,28,26,57,138,27,44,51,189,25,1*73
$GBGSV,3,2,12,12,27,200,19,25,13,305,21,29,12,044,18,41,05,312,17,1*7F
$GBGSV,3,3,12,45,04,128,18,34,03,212,16,39,01,328,14,32,01,001,,1*76
$GNRMC,233132.000,A,4910.423614,N,12304.402440,W,0.29,132.56,070125,,,D,V*1E
$GNVTG,132.56,T,,M,0.29,N,0.53,K,D*28
$PAIRLOG,Full*51
$GNGGA,233133.000,4910.423590,N,12304.402524,W,2,32,0.45,4.645,M,-16.816,M,,*42
$GNGLL,4910.423590,N,12304.402524,W,233133.000,A,D*57
$GNGSA,A,3,19,24,17,06,12,14,11,03,15,,,,0.76,0.45,0.62,1*0A
$GNGSA,A,3,75,85,76,66,67,,,,,,,,0.76,0.45,0.62,2*09
$GNGSA,A,3,02,30,36,11,07,25,34,08,10,29,,,0.76,0.45,0.62,3*06
$GNGSA,A,3,24,35,26,44,12,25,29,41,,,,,0.76,0.45,0.62,4*0E
$GPGSV,4,1,13,19,81,093,31,24,56,274,30,17,49,059,27,06,36,147,24,1*68
$GPGSV,4,2,13,46,33,188,27,12,28,285,27,14,24,099,18,11,11,175,18,1*65
$GPGSV,4,3,13,03,05,060,16,15,05,234,16,13,03,202,14,02,03,029,14,1*6E
$GPGSV,4,4,13,32,03,342,19,1*59
$GLGSV,2,1,07,75,75,354,34,85,57,167,32,84,53,051,20,74,40,113,,1*7F
$GLGSV,2,2,07,76,19,308,25,66,17,306,28,67,09,357,24,1*4C
$GAGSV,3,1,10,02,74,073,25,30,46,287,19,36,45,113,22,11,30,049,17,7*79
$GAGSV,3,2,10,07,27,278,17,25,23,095,19,34,18,166,18,08,15,225,18,7*7E
$GAGSV,3,3,10,10,11,029,14,29,10,331,19,7*7E
$GBGSV,3,1,12,24,66,292,29,35,64,084,27,26,57,138,27,44,51,189,24,1*75
$GBGSV,3,2,12,12,27,200,18,25,13,305,21,29,12,044,18,41,05,312,17,1*7E
$GBGSV,3,3,12,45,04,128,18,34,03,212,16,39,01,328,14,32,01,001,,1*76
$GNRMC,233133.000,A,4910.423590,N,12304.402524,W,0.24,132.56,070125,,,D,V*1E
$GNVTG,132.56,T,,M,0.24,N,0.44,K,D*23
$PAIRLOG,Full*51
$GNGGA,233134.000,4910.423554,N,12304.402572,W,2,32,0.45,4.709,M,-16.816,M,,*47
$GNGLL,4910.423554,N,12304.402572,W,233134.000,A,D*5B
$GNGSA,A,3,19,24,17,06,12,14,11,03,15,,,,0.76,0.45,0.62,1*0A
$GNGSA,A,3,75,85,76,66,67,,,,,,,,0.76,0.45,0.62,2*09
$GNGSA,A,3,02,30,36,11,07,25,34,08,10,29,,,0.76,0.45,0.62,3*06
$GNGSA,A,3,24,35,26,44,12,25,29,41,,,,,0.76,0.45,0.62,4*0E
$GPGSV,4,1,13,19,81,093,30,24,56,274,29,17,49,059,24,06,36,147,22,1*64
$GPGSV,4,2,13,46,33,188,27,12,28,285,26,14,24,099,19,11,11,175,17,1*6A
$GPGSV,4,3,13,03,05,060,16,15,05,234,16,13,03,202,13,02,03,029,14,1*69
$GPGSV,4,4,13,32,03,342,19,1*59
$GLGSV,2,1,07,75,75,354,34,85,57,167,32,84,53,051,20,74,40,113,,1*7F
$GLGSV,2,2,07,76,19,308,25,66,17,306,28,67,09,357,25,1*4D
$GAGSV,3,1,10,02,74,073,25,30,46,287,19,36,45,113,22,11,30,049,17,7*79
$GAGSV,3,2,10,07,27,278,17,25,23,095,19,34,18,166,18,08,15,225,18,7*7E
$GAGSV,3,3,10,10,11,029,14,29,10,331,19,7*7E
$GBGSV,3,1,12,24,66,292,24,35,64,084,21,26,57,138,20,44,51,189,22,1*7F
$GBGSV,3,2,12,12,27,200,17,25,13,305,20,29,12,044,18,41,05,312,16,1*71
$GBGSV,3,3,12,45,04,128,18,34,03,212,14,39,01,328,14,32,01,001,,1*74
$GNRMC,233134.000,A,4910.423554,N,12304.402572,W,0.18,132.56,070125,,,D,V*1D
$GNVTG,132.56,T,,M,0.18,N,0.34,K,D*2B
$PAIRLOG,Full*51
$GNGGA,233135.000,4910.423530,N,12304.402728,W,2,32,0.45,4.969,M,-16.816,M,,*41
$GNGLL,4910.423530,N,12304.402728,W,233135.000,A,D*55
$GNGSA,A,3,19,24,17,06,12,14,11,03,15,,,,0.76,0.45,0.62,1*0A
$GNGSA,A,3,75,85,76,66,67,,,,,,,,0.76,0.45,0.62,2*09
$GNGSA,A,3,02,30,36,11,07,25,34,08,10,29,,,0.76,0.45,0.62,3*06
$GNGSA,A,3,24,35,26,44,12,25,29,41,,,,,0.76,0.45,0.62,4*0E
$GPGSV,4,1,13,19,81,093,31,24,56,274,29,17,49,059,25,06,36,147,23,1*65
$GPGSV,4,2,13,46,33,188,28,12,28,285,26,14,24,099,19,11,11,175,18,1*6A
$GPGSV,4,3,13,03,05,060,15,15,05,234,16,13,03,202,15,02,03,029,14,1*6C
$GPGSV,4,4,13,32,03,342,19,1*59
$GLGSV,2,1,07,75,75,354,34,85,57,167,32,84,53,051,20,74,40,113,,1*7F
$GLGSV,2,2,07,76,19,308,25,66,17,306,28,67,09,357,26,1*4E
$GAGSV,3,1,10,02,74,073,25,30,46,287,19,36,45,113,22,11,30,049,17,7*79
$GAGSV,3,2,10,07,27,278,17,25,23,095,19,34,18,166,18,08,15,225,18,7*7E
$GAGSV,3,3,10,10,11,029,15,29,10,331,19,7*7F
$GBGSV,3,1,12,24,66,292,29,35,64,084,28,26,57,138,22,44,51,189,23,1*78
$GBGSV,3,2,12,12,27,200,17,25,13,305,20,29,12,044,18,41,05,312,16,1*71
$GBGSV,3,3,12,45,04,128,18,34,03,212,14,39,01,328,14,32,01,001,,1*74
$GNRMC,233135.000,A,4910.423530,N,12304.402728,W,0.13,132.56,070125,,,D,V*18
$GNVTG,132.56,T,,M,0.13,N,0.24,K,D*21
$PAIRLOG,Full*51
$GNGGA,233136.000,4910.423536,N,12304.402794,W,2,32,0.45,5.286,M,-16.816,M,,*48
$GNGLL,4910.423536,N,12304.402794,W,233136.000,A,D*57
$GNGSA,A,3,19,24,17,06,12,14,11,03,15,,,,0.76,0.45,0.62,1*0A
$GNGSA,A,3,75,85,76,66,67,,,,,,,,0.76,0.45,0.62,2*09
$GNGSA,A,3,02,30,36,11,07,25,34,08,10,29,,,0.76,0.45,0.62,3*06
$GNGSA,A,3,24,35,26,44,12,25,29,41,,,,,0.76,0.45,0.62,4*0E
$GPGSV,4,1,13,19,81,093,31,24,56,274,30,17,49,059,26,06,36,147,24,1*69
$GPGSV,4,2,13,46,33,188,28,12,28,285,26,14,24,099,19,11,11,175,18,1*6A
$GPGSV,4,3,13,03,05,060,15,15,05,234,16,13,03,202,,02,03,029,12,1*6E
$GPGSV,4,4,13,32,03,342,20,1*53
$GLGSV,2,1,07,75,75,354,34,85,57,167,32,84,53,051,20,74,40,113,,1*7F
$GLGSV,2,2,07,76,19,308,25,66,17,306,28,67,09,357,26,1*4E
$GAGSV,3,1,10,02,74,073,25,30,46,287,19,36,45,113,22,11,30,049,17,7*79
$GAGSV,3,2,10,07,27,278,17,25,23,095,20,34,18,166,18,08,15,225,18,7*74
$GAGSV,3,3,10,10,11,029,15,29,10,331,19,7*7F
$GBGSV,3,1,12,24,66,292,27,35,64,084,27,26,57,138,23,44,51,189,23,1*78
$GBGSV,3,2,12,12,27,200,17,25,13,305,21,29,12,044,18,41,05,312,16,1*70
$GBGSV,3,3,12,45,04,128,18,34,03,212,15,39,01,328,14,32,01,001,,1*75
$GNRMC,233136.000,A,4910.423536,N,12304.402794,W,0.09,132.56,070125,,,D,V*11
$GNVTG,132.56,T,,M,0.09,N,0.17,K,D*2A
$PAIRLOG,Full*51
$GNGGA,233137.000,4910.423626,N,12304.402746,W,2,32,0.45,5.591,M,-16.816,M,,*45
$GNGLL,4910.423626,N,12304.402746,W,233137.000,A,D*5B
$GNGSA,A,3,19,24,17,06,12,14,11,03,15,,,,0.76,0.45,0.62,1*0A
$GNGSA,A,3,75,85,76,66,67,,,,,,,,0.76,0.45,0.62,2*09
$GNGSA,A,3,02,30,36,11,07,25,34,08,10,29,,,0.76,0.45,0.62,3*06
$GNGSA,A,3,24,35,26,44,12,25,29,41,,,,,0.76,0.45,0.62,4*0E
$GPGSV,4,1,13,19,81,093,32,24,56,274,30,17,49,059,26,06,36,147,24,1*6A
$GPGSV,4,2,13,46,33,188,28,12,28,285,26,14,24,099,19,11,11,175,18,1*6A
$GPGSV,4,3,13,03,05,060,15,15,05,234,16,13,03,202,,02,03,029,12,1*6E
$GPGSV,4,4,13,32,03,342,19,1*59
$GLGSV,2,1,07,75,75,354,34,85,57,167,32,84,53,051,20,74,40,113,,1*7F
$GLGSV,2,2,07,76,19,308,24,66,17,306,28,67,09,357,26,1*4F
$GAGSV,3,1,10,02,74,073,25,30,46,287,19,36,45,113,22,11,30,049,17,7*79
$GAGSV,3,2,10,07,27,278,17,25,23,095,20,34,18,166,18,08,15,225,18,7*74
$GAGSV,3,3,10,10,11,029,15,29,10,331,19,7*7F
$GBGSV,3,1,12,24,66,292,29,35,64,084,26,26,57,138,24,44,51,189,23,1*70
$GBGSV,3,2,12,12,27,200,18,25,13,305,21,29,12,044,18,41,05,312,16,1*7F
$GBGSV,3,3,12,45,04,128,18,34,03,212,15,39,01,328,14,32,01,001,,1*75
$GNRMC,233137.000,A,4910.423626,N,12304.402746,W,0.07,132.56,070125,,,D,V*13
$GNVTG,132.56,T,,M,0.07,N,0.13,K,D*20
$PAIRLOG,Full*51
$GNGGA,233138.000,4910.423698,N,12304.402710,W,2,32,0.45,5.800,M,-16.816,M,,*49
$GNGLL,4910.423698,N,12304.402710,W,233138.000,A,D*52
$GNGSA,A,3,19,24,17,06,12,14,11,03,15,,,,0.76,0.45,0.62,1*0A
$GNGSA,A,3,75,85,76,66,67,,,,,,,,0.76,0.45,0.62,2*09
$GNGSA,A,3,02,30,36,11,07,25,34,08,10,29,,,0.76,0.45,0.62,3*06
$GNGSA,A,3,24,35,26,44,12,25,29,41,,,,,0.76,0.45,0.62,4*0E
$GPGSV,4,1,13,19,81,093,32,24,56,274,31,17,49,059,25,06,36,147,24,1*68
$GPGSV,4,2,13,46,33,188,28,12,28,285,26,14,24,099,21,11,11,175,18,1*61
$GPGSV,4,3,13,03,05,060,14,15,05,234,16,13,03,202,14,02,03,029,12,1*6A
$GPGSV,4,4,13,32,03,342,20,1*53
$GLGSV,2,1,07,75,75,354,34,85,57,167,32,84,53,051,20,74,40,113,,1*7F
$GLGSV,2,2,07,76,19,308,24,66,17,306,28,67,09,357,26,1*4F
$GAGSV,3,1,10,02,74,073,25,30,46,287,20,36,45,113,23,11,30,049,17,7*72
$GAGSV,3,2,10,07,27,278,18,25,23,095,20,34,18,166,19,08,15,225,18,7*7A
$GAGSV,3,3,10,10,11,029,16,29,10,331,19,7*7C
$GBGSV,3,1,12,24,66,292,25,35,64,084,25,26,57,138,24,44,51,189,23,1*7F
$GBGSV,3,2,12,12,27,200,18,25,13,305,21,29,12,044,18,41,05,312,16,1*7F
$GBGSV,3,3,12,45,04,128,18,34,03,212,15,39,01,328,14,32,01,001,,1*75
$GNRMC,233138.000,A,4910.423698,N,12304.402710,W,0.08,132.56,070125,,,D,V*15
$GNVTG,132.56,T,,M,0.08,N,0.14,K,D*28
$PAIRLOG,Full*51
$GNGGA,233139.000,4910.423692,N,12304.402884,W,2,32,0.45,5.858,M,-16.816,M,,*4D
$GNGLL,4910.423692,N,12304.402884,W,233139.000,A,D*5B
$GNGSA,A,3,19,24,17,06,12,14,11,03,15,,,,0.76,0.45,0.62,1*0A
$GNGSA,A,3,75,85,76,66,67,,,,,,,,0.76,0.45,0.62,2*09
$GNGSA,A,3,02,30,36,11,07,25,34,08,10,29,,,0.76,0.45,0.62,3*06
$GNGSA,A,3,24,35,26,44,12,25,29,41,,,,,0.76,0.45,0.62,4*0E
$GPGSV,4,1,13,19,81,093,31,24,56,274,31,17,49,059,25,06,36,147,24,1*6B
$GPGSV,4,2,13,46,33,188,28,12,28,285,26,14,24,099,20,11,11,175,18,1*60
$GPGSV,4,3,13,03,05,060,17,15,05,234,16,13,03,202,13,02,03,029,13,1*6F
$GPGSV,4,4,13,32,03,342,20,1*53
$GLGSV,2,1,07,75,75,354,34,85,57,167,32,84,53,051,20,74,40,113,,1*7F
$GLGSV,2,2,07,76,19,308,24,66,17,306,28,67,09,357,26,1*4F
$GAGSV,3,1,10,02,74,073,25,30,46,287,20,36,45,113,23,11,30,049,17,7*72
$GAGSV,3,2,10,07,27,278,18,25,23,095,20,34,18,166,19,08,15,225,18,7*7A
$GAGSV,3,3,10,10,11,029,16,29,10,331,19,7*7C
$GBGSV,3,1,12,24,66,292,29,35,64,084,27,26,57,138,24,44,51,189,23,1*71
$GBGSV,3,2,12,12,27,200,18,25,13,305,21,29,12,044,18,41,05,312,16,1*7F
$GBGSV,3,3,12,45,04,128,18,34,03,212,15,39,01,328,14,32,01,001,,1*75
$GNRMC,233139.000,A,4910.423692,N,12304.402884,W,0.08,132.56,070125,,,D,V*1C
$GNVTG,132.56,T,,M,0.08,N,0.15,K,D*29
$PAIRLOG,Full*51
$GNGGA,233140.000,4910.423716,N,12304.402962,W,2,32,0.45,6.043,M,-16.816,M,,*46
$GNGLL,4910.423716,N,12304.402962,W,233140.000,A,D*51
$GNGSA,A,3,19,24,17,06,12,14,11,03,15,,,,0.76,0.45,0.62,1*0A
$GNGSA,A,3,75,85,76,66,67,,,,,,,,0.76,0.45,0.62,2*09
$GNGSA,A,3,02,30,36,11,07,25,34,08,10,29,,,0.76,0.45,0.62,3*06
$GNGSA,A,3,24,35,26,44,12,25,29,41,,,,,0.76,0.45,0.62,4*0E
$GPGSV,4,1,13,19,81,093,31,24,56,274,30,17,49,059,24,06,36,147,24,1*6B
$GPGSV,4,2,13,46,33,188,28,12,28,285,26,14,24,099,19,11,11,175,18,1*6A
$GPGSV,4,3,13,03,05,060,14,15,05,234,17,13,03,202,15,02,03,029,14,1*6C
$GPGSV,4,4,13,32,03,342,20,1*53
$GLGSV,2,1,07,75,75,354,34,85,57,167,32,84,53,051,20,74,40,113,,1*7F
$GLGSV,2,2,07,76,19,308,24,66,17,306,28,67,09,357,27,1*4E
$GAGSV,3,1,10,02,74,073,25,30,46,287,20,36,45,113,22,11,30,049,17,7*73
$GAGSV,3,2,10,07,27,278,17,25,23,095,20,34,18,166,19,08,15,225,18,7*75
$GAGSV,3,3,10,10,11,029,16,29,10,331,19,7*7C
$GBGSV,3,1,12,24,66,292,29,35,64,084,29,26,57,138,26,44,51,189,23,1*7D
$GBGSV,3,2,12,12,27,200,18,25,13,305,21,29,12,044,19,41,05,312,16,1*7E
$GBGSV,3,3,12,45,04,128,18,34,03,212,15,39,01,328,14,32,01,001,,1*75
$GNRMC,233140.000,A,4910.423716,N,12304.402962,W,0.10,132.56,070125,,,D,V*1F
$GNVTG,132.56,T,,M,0.10,N,0.18,K,D*2D
$PAIRLOG,Full*51
$GNGGA,233141.000,4910.423848,N,12304.402962,W,2,32,0.45,6.293,M,-16.816,M,,*4C
$GNGLL,4910.423848,N,12304.402962,W,233141.000,A,D*54
$GNGSA,A,3,19,24,17,06,12,14,11,03,15,,,,0.76,0.45,0.62,1*0A
$GNGSA,A,3,75,85,76,66,67,,,,,,,,0.76,0.45,0.62,2*09
$GNGSA,A,3,02,30,36,11,07,25,34,08,10,29,,,0.76,0.45,0.62,3*06
$GNGSA,A,3,24,35,26,44,12,25,29,41,,,,,0.76,0.45,0.62,4*0E
$GPGSV,4,1,13,19,81,093,32,24,56,274,30,17,49,059,25,06,36,147,24,1*69
$GPGSV,4,2,13,46,33,188,28,12,28,285,26,14,24,099,19,11,11,175,18,1*6A
$GPGSV,4,3,13,03,05,060,16,15,05,234,17,13,03,202,15,02,03,029,10,1*6A
$GPGSV,4,4,13,32,03,342,20,1*53
$GLGSV,2,1,07,75,75,354,34,85,57,167,32,84,53,051,20,74,40,113,,1*7F
$GLGSV,2,2,07,76,19,308,24,66,17,306,28,67,09,357,27,1*4E
$GAGSV,3,1,10,02,74,073,25,30,46,287,20,36,45,113,22,11,30,049,18,7*7C
$GAGSV,3,2,10,07,27,278,17,25,23,095,20,34,18,166,19,08,15,225,18,7*75
$GAGSV,3,3,10,10,11,029,16,29,10,331,19,7*7C
$GBGSV,3,1,12,24,66,292,29,35,64,084,28,26,57,138,27,44,51,189,24,1*7A
$GBGSV,3,2,12,12,27,200,18,25,13,305,21,29,12,044,19,41,05,312,16,1*7E
$GBGSV,3,3,12,45,04,128,18,34,03,212,15,39,01,328,14,32,01,001,,1*75
$GNRMC,233141.000,A,4910.423848,N,12304.402962,W,0.11,132.56,070125,,,D,V*1B
$GNVTG,132.56,T,,M,0.11,N,0.21,K,D*26
$PAIRLOG,Full*51
$GNGGA,233142.000,4910.423914,N,12304.403112,W,2,32,0.45,6.389,M,-16.816,M,,*43
$GNGLL,4910.423914,N,12304.403112,W,233142.000,A,D*51
$GNGSA,A,3,19,24,17,06,12,14,11,03,15,,,,0.76,0.45,0.62,1*0A
$GNGSA,A,3,75,85,76,66,67,,,,,,,,0.76,0.45,0.62,2*09
$GNGSA,A,3,02,30,36,11,07,25,34,08,10,29,,,0.76,0.45,0.62,3*06
$GNGSA,A,3,24,35,26,44,12,25,29,41,,,,,0.76,0.45,0.62,4*0E
$GPGSV,4,1,13,19,81,093,31,24,56,274,30,17,49,059,22,06,36,147,24,1*6D
$GPGSV,4,2,13,46,33,188,28,12,28,285,25,14,24,099,19,11,11,175,19,1*68
$GPGSV,4,3,13,03,05,060,16,15,05,234,16,13,03,202,14,02,03,029,13,1*69
$GPGSV,4,4,13,32,03,342,20,1*53
$GLGSV,2,1,07,75,75,354,34,85,57,167,32,84,53,051,20,74,40,113,,1*7F
$GLGSV,2,2,07,76,19,308,23,66,17,306,29,67,09,357,27,1*48
$GAGSV,3,1,10,02,74,073,25,30,46,287,20,36,45,113,22,11,30,049,18,7*7C
$GAGSV,3,2,10,07,27,278,17,25,22,096,20,34,18,166,19,08,15,225,18,7*77
$GAGSV,3,3,10,10,11,029,16,29,10,331,19,7*7C
$GBGSV,3,1,12,24,66,292,29,35,64,084,29,26,57,138,28,44,51,189,24,1*74
$GBGSV,3,2,12,12,27,200,19,25,13,305,22,29,12,044,19,41,05,312,16,1*7C
$GBGSV,3,3,12,45,04,128,18,34,03,212,16,39,01,328,15,32,01,001,,1*77
$GNRMC,233142.000,A,4910.423914,N,12304.403112,W,0.13,132.56,070125,,,D,V*1C
$GNVTG,132.56,T,,M,0.13,N,0.24,K,D*21
$PAIRLOG,Full*51
$GNGGA,233143.000,4910.423974,N,12304.403160,W,2,32,0.45,6.367,M,-16.816,M,,*41
