,24,11,30,049,16,1*7E
$GAGSV,2,2,08,07,27,279,21,25,22,096,16,34,18,166,17,10,11,029,15,1*78
$GBGSV,3,1,11,24,66,293,30,35,64,085,30,26,57,138,28,44,51,189,28,1*7B
$GBGSV,3,2,11,12,27,200,21,29,12,044,21,25,12,305,22,41,05,313,18,1*71
$GBGSV,3,3,11,45,04,128,20,34,03,212,18,39,01,328,17,1*42
$GBGSV,2,1,06,24,66,293,26,35,64,085,26,26,57,138,27,44,51,189,26,5*79
$GBGSV,2,2,06,25,12,305,18,41,05,313,15,5*7A
$GNGLL,4910.428186,N,12304.402464,W,233113.000,A,D*58
$GNRMC,233114.000,A,4910.428174,N,12304.402488,W,0.09,0.00,070125,,,D,V*15
$GNGGA,233114.000,4910.428174,N,12304.402488,W,2,42,0.52,20.336,M,-16.817,M,,*72
$GNVTG,0.00,T,,M,0.09,N,0.17,K,D*29
$GNGSA,A,3,19,24,17,06,12,14,11,15,,,,,0.87,0.52,0.69,1*0A
$GNGSA,A,3,75,85,,,,,,,,,,,0.87,0.52,0.69,2*0A
$GNGSA,A,3,02,30,36,11,07,25,34,08,29,10,,,0.87,0.52,0.69,3*05
$GNGSA,A,3,24,35,26,44,12,29,,,,,,,0.87,0.52,0.69,4*0F
$GPGSV,4,1,13,19,81,096,39,24,55,275,36,17,49,059,36,06,36,148,31,1*6A
$GPGSV,4,2,13,44,33,171,30,12,28,284,32,14,24,099,31,11,11,175,25,1*67
$GPGSV,4,3,13,03,05,060,21,15,05,234,18,13,04,203,18,32,03,343,26,1*63
$GPGSV,4,4,13,02,03,029,15,1*58
$GPGSV,1,1,04,24,55,275,32,06,36,148,24,14,24,099,19,11,11,175,19,8*66
$GLGSV,1,1,02,75,76,356,28,85,58,166,26,1*76
$GAGSV,3,1,10,02,75,072,34,30,46,287,33,36,45,112,32,11,30,049,26,7*73
$GAGSV,3,2,10,07,27,279,27,25,22,096,27,34,18,166,24,08,16,226,23,7*74
$GAGSV,3,3,10,29,11,330,25,10,11,029,23,7*75
$GAGSV,2,1,08,02,75,072,27,30,46,287,27,36,45,112,24,11,30,049,16,1*7E
$GAGSV,2,2,08,07,27,279,22,25,22,096,17,34,18,166,17,10,11,029,15,1*7A
$GBGSV,3,1,11,24,66,293,31,35,64,085,31,26,57,138,28,44,51,189,28,1*7B
$GBGSV,3,2,11,12,27,200,21,29,12,044,21,25,12,305,22,41,05,313,18,1*71
$GBGSV,3,3,11,45,04,128,20,34,03,212,18,39,01,328,17,1*42
$GBGSV,2,1,06,24,66,293,26,35,64,085,26,26,57,138,27,44,51,189,27,5*78
$GBGSV,2,2,06,25,12,305,18,41,05,313,15,5*7A
$GNGLL,4910.428174,N,12304.402488,W,233114.000,A,D*50
$GNRMC,233115.000,A,4910.428222,N,12304.402446,W,0.08,0.00,070125,,,D,V*17
$GNGGA,233115.000,4910.428222,N,12304.402446,W,2,42,0.52,20.047,M,-16.816,M,,*75
$GNVTG,0.00,T,,M,0.08,N,0.15,K,D*2A
$GNGSA,A,3,19,24,17,06,12,14,11,15,,,,,0.87,0.52,0.69,1*0A
$GNGSA,A,3,75,85,,,,,,,,,,,0.87,0.52,0.69,2*0A
$GNGSA,A,3,02,30,36,11,07,25,34,08,29,10,,,0.87,0.52,0.69,3*05
$GNGSA,A,3,24,35,26,44,12,29,,,,,,,0.87,0.52,0.69,4*0F
$GPGSV,4,1,13,19,81,096,39,24,55,275,36,17,49,059,36,06,36,148,31,1*6A
$GPGSV,4,2,13,44,33,171,30,12,28,284,32,14,24,099,31,11,11,175,25,1*67
$GPGSV,4,3,13,03,05,060,21,15,05,234,18,13,04,203,18,32,03,343,26,1*63
$GPGSV,4,4,13,02,03,029,15,1*58
$GPGSV,1,1,04,24,55,275,32,06,36,148,24,14,24,099,19,11,11,175,19,8*66
$GLGSV,1,1,02,75,76,356,29,85,58,166,27,1*76
$GAGSV,3,1,10,02,75,072,34,30,46,287,33,36,45,112,32,11,30,049,26,7*73
$GAGSV,3,2,10,07,27,279,27,25,22,096,27,34,18,166,24,08,16,226,23,7*74
$GAGSV,3,3,10,29,11,330,25,10,11,029,23,7*75
$GAGSV,2,1,08,02,75,072,27,30,46,287,27,36,45,112,25,11,30,049,16,1*7F
$GAGSV,2,2,08,07,27,279,21,25,22,096,17,34,18,166,17,10,11,029,16,1*7A
$GBGSV,3,1,11,24,66,293,31,35,64,085,31,26,57,138,28,44,51,189,29,1*7A
$GBGSV,3,2,11,12,27,200,22,29,12,044,22,25,12,305,22,41,05,313,19,1*70
$GBGSV,3,3,11,45,04,128,21,34,03,212,18,39,01,328,17,1*43
$GBGSV,2,1,06,24,66,293,26,35,64,085,27,26,57,138,27,44,51,189,27,5*79
$GBGSV,2,2,06,25,12,305,18,41,05,313,15,5*7A
$GNGLL,4910.428222,N,12304.402446,W,233115.000,A,D*53
$GNRMC,233116.000,A,4910.428288,N,12304.402416,W,0.07,0.00,070125,,,D,V*1E
$GNGGA,233116.000,4910.428288,N,12304.402416,W,2,42,0.52,19.679,M,-16.816,M,,*72
$GNVTG,0.00,T,,M,0.07,N,0.13,K,D*23
$GNGSA,A,3,19,24,17,06,12,14,11,15,,,,,0.87,0.52,0.69,1*0A
$GNGSA,A,3,75,85,,,,,,,,,,,0.87,0.52,0.69,2*0A
$GNGSA,A,3,02,30,36,11,07,25,34,08,29,10,,,0.87,0.52,0.69,3*05
$GNGSA,A,3,24,35,26,44,12,29,,,,,,,0.87,0.52,0.69,4*0F
$GPGSV,4,1,13,19,81,096,39,24,55,275,36,17,49,059,36,06,36,148,31,1*6A
$GPGSV,4,2,13,44,33,171,31,12,28,284,32,14,24,099,31,11,11,175,25,1*66
$GPGSV,4,3,13,03,05,060,21,15,05,234,18,13,04,203,18,32,03,343,26,1*63
$GPGSV,4,4,13,02,03,029,15,1*58
$GPGSV,1,1,04,24,55,275,32,06,36,148,24,14,24,099,20,11,11,175,19,8*6C
$GLGSV,1,1,02,75,76,356,29,85,58,166,27,1*76
$GAGSV,3,1,10,02,75,072,34,30,46,287,33,36,45,112,32,11,30,049,26,7*73
$GAGSV,3,2,10,07,27,279,27,25,22,096,27,34,18,166,24,08,16,226,23,7*74
$GAGSV,3,3,10,29,11,330,25,10,11,029,23,7*75
$GAGSV,2,1,08,02,75,072,27,30,46,287,27,36,45,112,25,11,30,049,16,1*7F
$GAGSV,2,2,08,07,27,279,21,25,22,096,17,34,18,166,17,10,11,029,16,1*7A
$GBGSV,3,1,11,24,66,293,32,35,64,085,32,26,57,138,29,44,51,189,29,1*7B
$GBGSV,3,2,11,12,28,200,23,29,12,044,23,25,12,305,23,41,05,313,20,1*74
$GBGSV,3,3,11,45,04,128,22,34,03,212,18,39,01,328,17,1*40
$GBGSV,2,1,06,24,66,293,26,35,64,085,27,26,57,138,27,44,51,189,27,5*79
$GBGSV,2,2,06,25,12,305,18,41,05,313,15,5*7A
$GNGLL,4910.428288,N,12304.402416,W,233116.000,A,D*55
$GNRMC,233117.000,A,4910.428360,N,12304.402320,W,0.07,0.00,070125,,,D,V*1A
$GNGGA,233117.000,4910.428360,N,12304.402320,W,2,42,0.52,19.557,M,-16.816,M,,*79
$GNVTG,0.00,T,,M,0.07,N,0.13,K,D*23
$GNGSA,A,3,19,24,17,06,12,14,11,15,,,,,0.87,0.52,0.69,1*0A
$GNGSA,A,3,75,85,,,,,,,,,,,0.87,0.52,0.69,2*0A
$GNGSA,A,3,02,30,36,11,07,25,34,08,29,10,,,0.87,0.52,0.69,3*05
$GNGSA,A,3,24,35,26,44,12,29,,,,,,,0.87,0.52,0.69,4*0F
$GPGSV,4,1,13,19,81,096,39,24,55,275,36,17,49,059,36,06,36,148,31,1*6A
$GPGSV,4,2,13,44,33,171,31,12,28,284,32,14,24,099,31,11,11,175,26,1*65
$GPGSV,4,3,13,03,05,060,21,15,05,234,19,13,04,203,18,32,03,343,27,1*63
$GPGSV,4,4,13,02,03,029,15,1*58
$GPGSV,1,1,04,24,55,275,32,06,36,148,24,14,24,099,20,11,11,175,19,8*6C
$GLGSV,1,1,02,75,76,356,29,85,58,166,27,1*76
$GAGSV,3,1,10,02,75,072,34,30,46,287,33,36,45,112,32,11,30,049,26,7*73
$GAGSV,3,2,10,07,27,279,27,25,22,096,27,34,18,166,24,08,16,226,23,7*74
$GAGSV,3,3,10,29,11,330,25,10,11,029,23,7*75
$GAGSV,2,1,08,02,75,072,27,30,46,287,27,36,45,112,25,11,30,049,16,1*7F
$GAGSV,2,2,08,07,27,279,21,25,22,096,17,34,18,166,17,10,11,029,16,1*7A
$GBGSV,3,1,11,24,66,293,32,35,64,085,32,26,57,138,30,44,51,189,29,1*73
$GBGSV,3,2,11,12,28,200,23,29,12,044,22,25,12,305,23,41,05,313,20,1*75
$GBGSV,3,3,11,45,04,128,22,34,03,212,18,39,01,328,17,1*40
$GBGSV,2,1,06,24,66,293,26,35,64,085,27,26,57,138,27,44,51,189,27,5*79
$GBGSV,2,2,06,25,12,305,18,41,05,313,15,5*7A
$GNGLL,4910.428360,N,12304.402320,W,233117.000,A,D*51
$GNRMC,233118.000,A,4910.428324,N,12304.402248,W,0.07,0.00,070125,,,D,V*1A
$GNGGA,233118.000,4910.428324,N,12304.402248,W,2,42,0.52,19.380,M,-16.816,M,,*75
$GNVTG,0.00,T,,M,0.07,N,0.12,K,D*22
$GNGSA,A,3,19,24,17,06,12,14,11,15,,,,,0.87,0.52,0.69,1*0A
$GNGSA,A,3,75,85,,,,,,,,,,,0.87,0.52,0.69,2*0A
$GNGSA,A,3,02,30,36,11,07,25,34,08,29,10,,,0.87,0.52,0.69,3*05
$GNGSA,A,3,24,35,26,44,12,29,,,,,,,0.87,0.52,0.69,4*0F
$GPGSV,4,1,13,19,81,096,39,24,55,275,36,17,49,059,37,06,36,148,32,1*68
$GPGSV,4,2,13,44,33,171,31,12,28,284,33,14,24,099,31,11,11,175,26,1*64
$GPGSV,4,3,13,03,05,060,21,15,05,234,20,13,04,203,18,32,03,343,28,1*66
$GPGSV,4,4,13,02,03,029,16,1*5B
$GPGSV,1,1,04,24,55,275,32,06,36,148,24,14,24,099,20,11,11,175,19,8*6C
$GLGSV,1,1,02,75,76,356,29,85,58,166,26,1*77
$GAGSV,3,1,10,02,75,072,34,30,46,287,33,36,45,112,32,11,30,049,27,7*72
$GAGSV,3,2,10,07,27,279,27,25,22,096,27,34,18,166,25,08,16,226,24,7*72
$GAGSV,3,3,10,29,11,330,26,10,11,029,23,7*76
$GAGSV,2,1,08,02,75,072,27,30,46,287,27,36,45,112,25,11,30,049,16,1*7F
$GAGSV,2,2,08,07,27,279,21,25,22,096,17,34,18,166,17,10,11,029,16,1*7A
$GBGSV,3,1,11,24,66,293,32,35,64,085,32,26,57,138,30,44,51,189,29,1*73
$GBGSV,3,2,11,12,28,200,23,29,12,044,22,25,12,305,23,41,05,313,20,1*75
$GBGSV,3,3,11,45,04,128,22,34,03,212,18,39,01,328,17,1*40
$GBGSV,2,1,06,24,66,293,27,35,64,085,27,26,57,138,27,44,51,189,27,5*78
$GBGSV,2,2,06,25,12,305,18,41,05,313,16,5*79
$GNGLL,4910.428324,N,12304.402248,W,233118.000,A,D*51
$GNRMC,233119.000,A,4910.428378,N,12304.402182,W,0.07,0.00,070125,,,D,V*17
$GNGGA,233119.000,4910.428378,N,12304.402182,W,2,42,0.52,18.952,M,-16.816,M,,*7C
$GNVTG,0.00,T,,M,0.07,N,0.13,K,D*23
$GNGSA,A,3,19,24,17,06,12,14,11,15,,,,,0.87,0.52,0.69,1*0A
$GNGSA,A,3,75,85,,,,,,,,,,,0.87,0.52,0.69,2*0A
$GNGSA,A,3,02,30,36,11,07,25,34,08,10,29,,,0.87,0.52,0.69,3*05
$GNGSA,A,3,24,35,26,44,12,29,,,,,,,0.87,0.52,0.69,4*0F
$GPGSV,4,1,13,19,81,096,39,24,55,275,36,17,49,059,37,06,36,148,32,1*68
$GPGSV,4,2,13,44,33,171,31,12,28,284,33,14,24,099,31,11,11,175,26,1*64
$GPGSV,4,3,13,03,05,060,21,15,05,234,21,13,04,203,18,32,03,343,28,1*67
$GPGSV,4,4,13,02,03,029,16,1*5B
$GPGSV,1,1,04,24,55,275,32,06,36,148,24,14,24,099,20,11,11,175,19,8*6C
$GLGSV,1,1,03,75,76,356,29,85,58,166,26,84,53,050,,1*49
$GAGSV,3,1,10,02,75,072,34,30,46,287,33,36,45,112,32,11,30,049,26,7*73
$GAGSV,3,2,10,07,27,279,27,25,22,096,27,34,18,166,25,08,16,226,24,7*72
$GAGSV,3,3,10,10,11,029,24,29,11,330,26,7*71
$GAGSV,2,1,08,02,75,072,27,30,46,287,27,36,45,112,25,11,30,049,16,1*7F
$GAGSV,2,2,08,07,27,279,22,25,22,096,17,34,18,166,18,10,11,029,16,1*76
$GBGSV,3,1,11,24,66,293,32,35,64,085,32,26,57,138,30,44,51,189,29,1*73
$GBGSV,3,2,11,12,28,200,23,25,12,305,23,29,12,044,21,41,05,313,20,1*76
$GBGSV,3,3,11,45,04,128,22,34,03,212,18,39,01,328,17,1*40
$GBGSV,2,1,06,24,66,293,27,35,64,085,27,26,57,138,27,44,51,189,27,5*78
$GBGSV,2,2,06,25,12,305,18,41,05,313,16,5*79
$GNGLL,4910.428378,N,12304.402182,W,233119.000,A,D*5C
$GNRMC,233120.000,A,4910.428366,N,12304.402128,W,0.08,0.00,070125,,,D,V*1D
$GNGGA,233120.000,4910.428366,N,12304.402128,W,2,42,0.52,18.649,M,-16.816,M,,*7C
$GNVTG,0.00,T,,M,0.08,N,0.15,K,D*2A
$GNGSA,A,3,19,24,17,06,12,14,11,15,,,,,0.87,0.52,0.69,1*0A
$GNGSA,A,3,75,85,,,,,,,,,,,0.87,0.52,0.69,2*0A
$GNGSA,A,3,02,30,36,11,07,25,34,08,29,10,,,0.87,0.52,0.69,3*05
$GNGSA,A,3,24,35,26,44,12,29,,,,,,,0.87,0.52,0.69,4*0F
$GPGSV,4,1,13,19,81,096,39,24,55,275,36,17,49,059,37,06,36,148,31,1*6B
$GPGSV,4,2,13,44,33,171,31,12,28,284,33,14,24,099,31,11,11,175,26,1*64
$GPGSV,4,3,13,03,05,060,21,15,05,234,22,13,04,203,18,32,03,343,28,1*64
$GPGSV,4,4,13,02,03,029,16,1*5B
$GPGSV,1,1,04,24,55,275,32,06,36,148,24,14,24,099,20,11,11,175,19,8*6C
$GLGSV,1,1,04,75,76,356,29,85,58,166,26,84,53,050,,86,07,194,,1*7B
$GAGSV,3,1,10,02,75,072,34,30,46,287,33,36,45,112,32,11,30,049,27,7*72
$GAGSV,3,2,10,07,27,279,27,25,22,096,26,34,18,166,25,08,16,226,24,7*73
$GAGSV,3,3,10,29,11,330,26,10,11,029,24,7*71
$GAGSV,2,1,08,02,75,072,27,30,46,287,27,36,45,112,25,11,30,049,16,1*7F
$GAGSV,2,2,08,07,27,279,22,25,22,096,17,34,18,166,18,10,11,029,16,1*76
$GBGSV,3,1,12,24,66,293,32,35,64,085,32,26,57,138,30,44,51,189,29,1*70
$GBGSV,3,2,12,12,28,200,23,29,12,044,21,25,12,305,23,41,05,313,20,1*75
$GBGSV,3,3,12,45,04,128,22,34,03,212,18,32,01,002,,39,01,328,17,1*71
$GBGSV,2,1,06,24,66,293,27,35,64,085,27,26,57,138,27,44,51,189,27,5*78
$GBGSV,2,2,06,25,12,305,18,41,05,313,16,5*79
$GNGLL,4910.428366,N,12304.402128,W,233120.000,A,D*59
$GNRMC,233121.000,A,4910.428366,N,12304.402116,W,0.08,0.00,070125,,,D,V*11
$GNGGA,233121.000,4910.428366,N,12304.402116,W,2,42,0.52,18.344,M,-16.816,M,,*78
$GNVTG,0.00,T,,M,0.08,N,0.15,K,D*2A
$GNGSA,A,3,19,24,17,06,12,14,11,15,,,,,0.87,0.52,0.69,1*0A
$GNGSA,A,3,75,85,,,,,,,,,,,0.87,0.52,0.69,2*0A
$GNGSA,A,3,02,30,36,11,07,25,34,08,29,10,,,0.87,0.52,0.69,3*05
$GNGSA,A,3,24,35,26,44,12,29,,,,,,,0.87,0.52,0.69,4*0F
$GPGSV,4,1,13,19,81,096,39,24,55,275,36,17,49,059,37,06,36,148,31,1*6B
$GPGSV,4,2,13,44,33,171,30,12,28,284,33,14,24,099,30,11,11,175,26,1*64
$GPGSV,4,3,13,03,05,060,21,15,05,234,22,13,04,203,17,32,03,343,28,1*6B
$GPGSV,4,4,13,02,03,029,16,1*5B
$GPGSV,1,1,04,24,55,275,32,06,36,148,24,14,24,099,19,11,11,175,19,8*66
$GLGSV,1,1,04,75,76,356,29,85,58,166,26,84,53,050,,86,07,194,,1*7B
$GAGSV,3,1,10,02,75,072,34,30,46,287,33,36,45,112,32,11,30,049,27,7*72
$GAGSV,3,2,10,07,27,279,27,25,22,096,25,34,18,166,25,08,16,226,23,7*77
$GAGSV,3,3,10,29,11,330,26,10,11,029,24,7*71
$GAGSV,2,1,08,02,75,072,27,30,46,287,27,36,45,112,25,11,30,049,16,1*7F
$GAGSV,2,2,08,07,27,279,22,25,22,096,17,34,18,166,18,10,11,029,16,1*76
$GBGSV,3,1,11,24,66,293,32,35,64,085,32,26,57,138,30,44,51,189,29,1*73
$GBGSV,3,2,11,12,28,200,23,29,12,044,21,25,12,305,23,41,05,313,20,1*76
$GBGSV,3,3,11,45,04,128,22,34,03,212,18,39,01,328,17,1*40
$GBGSV,2,1,06,24,66,293,27,35,64,085,27,26,57,138,27,44,51,189,27,5*78
$GBGSV,2,2,06,25,12,305,18,41,05,313,16,5*79
$GNGLL,4910.428366,N,12304.402116,W,233121.000,A,D*55
$GNRMC,233122.000,A,4910.428354,N,12304.402068,W,0.09,0.00,070125,,,D,V*1A
$GNGGA,233122.000,4910.428354,N,12304.402068,W,2,42,0.52,18.228,M,-16.816,M,,*79
$GNVTG,0.00,T,,M,0.09,N,0.16,K,D*28
$GNGSA,A,3,19,24,17,06,12,14,11,15,,,,,0.87,0.52,0.69,1*0A
$GNGSA,A,3,75,85,,,,,,,,,,,0.87,0.52,0.69,2*0A
$GNGSA,A,3,02,30,36,11,07,25,34,08,10,29,,,0.87,0.52,0.69,3*05
$GNGSA,A,3,24,35,26,44,12,29,,,,,,,0.87,0.52,0.69,4*0F
$GPGSV,4,1,13,19,81,096,39,24,55,275,36,17,49,059,37,06,36,148,31,1*6B
$GPGSV,4,2,13,44,33,171,30,12,28,284,33,14,24,099,30,11,11,175,26,1*64
$GPGSV,4,3,13,03,05,060,21,15,05,234,22,13,04,203,17,32,03,343,28,1*6B
$GPGSV,4,4,13,02,03,029,16,1*5B
$GPGSV,1,1,04,24,55,275,32,06,36,148,24,14,24,099,19,11,11,175,19,8*66
$GLGSV,1,1,03,75,76,356,29,85,58,166,26,84,53,050,,1*49
$GAGSV,3,1,10,02,75,072,34,30,46,287,33,36,45,112,32,11,30,049,26,7*73
$GAGSV,3,2,10,07,27,279,27,25,22,096,25,34,18,166,25,08,16,226,23,7*77
$GAGSV,3,3,10,10,11,029,24,29,11,330,25,7*72
$GAGSV,2,1,08,02,75,072,28,30,46,287,27,36,45,112,25,11,30,049,16,1*70
$GAGSV,2,2,08,07,27,279,22,25,22,096,17,34,18,166,18,10,11,029,16,1*76
$GBGSV,3,1,11,24,66,293,33,35,64,085,33,26,57,138,31,44,51,189,30,1*7A
$GBGSV,3,2,11,12,28,200,24,25,12,305,23,29,12,044,22,41,05,313,21,1*73
$GBGSV,3,3,11,45,04,128,23,34,03,212,18,39,01,328,17,1*41
$GBGSV,2,1,06,24,66,293,27,35,64,085,27,26,57,138,28,44,51,189,27,5*77
$GBGSV,2,2,06,25,12,305,18,41,05,313,16,5*79
$GNGLL,4910.428354,N,12304.402068,W,233122.000,A,D*5F
$GNRMC,233123.000,A,4910.428354,N,12304.401996,W,0.09,0.00,070125,,,D,V*10
$GNGGA,233123.000,4910.428354,N,12304.401996,W,2,42,0.52,17.999,M,-16.816,M,,*7D
$GNVTG,0.00,T,,M,0.09,N,0.17,K,D*29
$GNGSA,A,3,19,24,17,06,12,14,11,15,,,,,0.87,0.52,0.69,1*0A
$GNGSA,A,3,75,85,,,,,,,,,,,0.87,0.52,0.69,2*0A
$GNGSA,A,3,02,30,36,11,07,25,34,08,29,10,,,0.87,0.52,0.69,3*05
$GNGSA,A,3,24,35,26,44,12,29,,,,,,,0.87,0.52,0.69,4*0F
$GPGSV,4,1,13,19,81,096,38,24,55,275,36,17,49,059,37,06,36,148,31,1*6A
$GPGSV,4,2,13,44,33,171,30,12,28,284,32,14,24,099,30,11,11,175,26,1*65
$GPGSV,4,3,13,03,05,060,21,15,05,234,22,13,04,203,17,32,03,343,28,1*6B
$GPGSV,4,4,13,02,03,029,16,1*5B
$GPGSV,1,1,04,24,55,275,31,06,36,148,24,14,24,099,19,11,11,175,19,8*65
$GLGSV,1,1,02,75,76,356,29,85,58,166,27,1*76
$GAGSV,3,1,10,02,75,072,34,30,46,287,33,36,45,112,32,11,30,049,26,7*73
$GAGSV,3,2,10,07,27,279,27,25,22,096,25,34,18,166,25,08,16,226,23,7*77
$GAGSV,3,3,10,29,11,330,25,10,11,029,24,7*72
$GAGSV,2,1,08,02,75,072,27,30,46,287,27,36,45,112,25,11,30,049,15,1*7C
$GAGSV,2,2,08,07,27,279,21,25,22,096,17,34,18,166,18,10,11,029,16,1*75
$GBGSV,3,1,11,24,66,293,34,35,64,085,33,26,57,138,31,44,51,189,30,1*7D
$GBGSV,3,2,11,12,28,200,24,29,12,044,22,25,12,305,23,41,05,313,21,1*73
$GBGSV,3,3,11,45,04,128,24,34,03,212,18,39,01,328,17,1*46
$GBGSV,2,1,06,24,66,293,27,35,64,085,27,26,57,138,27,44,51,189,27,5*78
$GBGSV,2,2,06,25,12,305,18,41,05,313,16,5*79
$GNGLL,4910.428354,N,12304.401996,W,233123.000,A,D*55
$GNRMC,233124.000,A,4910.428354,N,12304.401942,W,0.09,0.00,070125,,,D,V*1E
$GNGGA,233124.000,4910.428354,N,12304.401942,W,2,42,0.52,17.835,M,-16.817,M,,*75
$GNVTG,0.00,T,,M,0.09,N,0.17,K,D*29
$GNGSA,A,3,19,24,17,06,12,14,11,15,,,,,0.87,0.52,0.69,1*0A
$GNGSA,A,3,75,85,,,,,,,,,,,0.87,0.52,0.69,2*0A
$GNGSA,A,3,02,30,36,11,07,25,34,08,29,10,,,0.87,0.52,0.69,3*05
$GNGSA,A,3,24,35,26,44,12,29,,,,,,,0.87,0.52,0.69,4*0F
$GPGSV,4,1,13,19,81,096,38,24,55,275,36,17,49,059,36,06,36,148,30,1*6A
$GPGSV,4,2,13,44,33,171,30,12,28,284,32,14,24,099,30,11,11,175,25,1*66
$GPGSV,4,3,13,03,05,060,21,15,05,234,22,13,04,203,16,32,03,343,28,1*6A
$GPGSV,4,4,13,02,03,029,16,1*5B
$GPGSV,1,1,04,24,55,275,31,06,36,148,24,14,24,099,19,11,11,175,19,8*65
$GLGSV,1,1,02,75,76,356,29,85,58,166,27,1*76
$GAGSV,3,1,10,02,75,072,34,30,46,287,32,36,45,112,32,11,30,049,26,7*72
$GAGSV,3,2,10,07,27,279,27,25,22,096,24,34,18,166,25,08,16,226,22,7*77
$GAGSV,3,3,10,29,11,330,24,10,11,029,23,7*74
$GAGSV,2,1,08,02,75,072,27,30,46,287,27,36,45,112,25,11,30,049,15,1*7C
$GAGSV,2,2,08,07,27,279,21,25,22,096,17,34,18,166,18,10,11,029,16,1*75
$GBGSV,3,1,11,24,66,293,33,35,64,085,33,26,57,138,31,44,51,189,30,1*7A
$GBGSV,3,2,11,12,28,200,24,29,12,044,23,25,12,305,23,41,05,313,21,1*72
$GBGSV,3,3,11,45,04,128,24,34,03,212,18,39,01,328,18,1*49
$GBGSV,2,1,06,24,66,293,27,35,64,085,27,26,57,138,27,44,51,189,27,5*78
$GBGSV,2,2,06,25,12,305,18,41,05,313,16,5*79
$GNGLL,4910.428354,N,12304.401942,W,233124.000,A,D*5B
$GNRMC,233125.000,A,4910.428324,N,12304.401906,W,0.10,0.00,070125,,,D,V*10
$GNGGA,233125.000,4910.428324,N,12304.401906,W,2,42,0.52,17.608,M,-16.816,M,,*72
$GNVTG,0.00,T,,M,0.10,N,0.18,K,D*2E
$GNGSA,A,3,19,24,17,06,12,14,11,15,,,,,0.87,0.52,0.69,1*0A
$GNGSA,A,3,75,85,,,,,,,,,,,0.87,0.52,0.69,2*0A
$GNGSA,A,3,02,30,36,11,07,25,34,08,29,10,,,0.87,0.52,0.69,3*05
$GNGSA,A,3,24,35,26,44,12,29,,,,,,,0.87,0.52,0.69,4*0F
$GPGSV,4,1,13,19,81,096,38,24,55,275,36,17,49,059,36,06,36,148,30,1*6A
$GPGSV,4,2,13,44,33,171,30,12,28,284,32,14,24,099,29,11,11,175,25,1*6E
$GPGSV,4,3,13,03,05,060,21,15,05,234,22,13,04,203,16,32,03,343,28,1*6A
$GPGSV,4,4,13,02,03,029,16,1*5B
$GPGSV,1,1,04,24,55,275,31,06,36,148,24,14,24,099,19,11,11,175,19,8*65
$GLGSV,1,1,02,75,76,356,30,85,58,166,27,1*7E
$GAGSV,3,1,10,02,75,072,33,30,46,287,32,36,45,112,32,11,30,049,25,7*76
$GAGSV,3,2,10,07,27,279,27,25,22,096,24,34,18,166,25,08,16,226,22,7*77
$GAGSV,3,3,10,29,11,330,24,10,11,029,23,7*74
$GAGSV,2,1,08,02,75,072,27,30,46,287,27,36,45,112,25,11,30,049,15,1*7C
$GAGSV,2,2,08,07,27,279,21,25,22,096,17,34,18,166,18,10,11,029,16,1*75
$GBGSV,3,1,11,24,66,293,32,35,64,085,32,26,57,138,31,44,51,189,29,1*72
$GBGSV,3,2,11,12,28,200,23,29,12,044,23,25,12,305,22,41,05,313,20,1*75
$GBGSV,3,3,11,45,04,128,23,34,03,212,18,39,01,328,18,1*4E
$GBGSV,2,1,06,24,66,293,27,35,64,085,27,26,57,138,27,44,51,189,27,5*78
$GBGSV,2,2,06,25,12,305,18,41,05,313,16,5*79
$GNGLL,4910.428324,N,12304.401906,W,233125.000,A,D*5D
$GNRMC,233126.000,A,4910.428318,N,12304.401864,W,0.09,0.00,070125,,,D,V*11
$GNGGA,233126.000,4910.428318,N,12304.401864,W,2,42,0.52,17.428,M,-16.816,M,,*7B
$GNVTG,0.00,T,,M,0.09,N,0.17,K,D*29
$GNGSA,A,3,19,24,17,06,12,14,11,15,,,,,0.87,0.52,0.69,1*0A
$GNGSA,A,3,75,85,,,,,,,,,,,0.87,0.52,0.69,2*0A
$GNGSA,A,3,02,30,36,11,07,25,34,08,29,10,,,0.87,0.52,0.69,3*05
$GNGSA,A,3,24,35,26,44,12,29,,,,,,,0.87,0.52,0.69,4*0F
$GPGSV,4,1,13,19,81,096,38,24,55,275,36,17,49,059,36,06,36,148,30,1*6A
$GPGSV,4,2,13,44,33,171,30,12,28,284,32,14,24,099,29,11,11,175,25,1*6E
$GPGSV,4,3,13,03,05,060,21,15,05,234,22,13,04,203,16,32,03,343,28,1*6A
$GPGSV,4,4,13,02,03,029,15,1*58
$GPGSV,1,1,04,24,55,275,31,06,36,148,24,14,24,099,19,11,11,175,19,8*65
$GLGSV,1,1,02,75,76,356,30,85,58,166,27,1*7E
$GAGSV,3,1,10,02,75,072,33,30,46,287,32,36,45,112,31,11,30,049,25,7*75
$GAGSV,3,2,10,07,27,279,27,25,22,096,24,34,18,166,25,08,16,226,22,7*77
$GAGSV,3,3,10,29,11,330,24,10,11,029,23,7*74
$GAGSV,2,1,08,02,75,072,26,30,46,287,27,36,45,112,25,11,30,049,15,1*7D
$GAGSV,2,2,08,07,27,279,21,25,22,096,17,34,18,166,18,10,11,029,15,1*76
$GBGSV,3,1,11,24,66,293,32,35,64,085,32,26,57,138,31,44,51,189,29,1*72
$GBGSV,3,2,11,12,28,200,23,29,12,044,22,25,12,305,22,41,05,313,19,1*7E
$GBGSV,3,3,11,45,04,128,23,34,03,212,18,39,01,328,18,1*4E
$GBGSV,2,1,06,24,66,293,27,35,64,085,27,26,57,138,27,44,51,189,27,5*78
$GBGSV,2,2,06,25,12,305,18,41,05,313,16,5*79
$GNGLL,4910.428318,N,12304.401864,W,233126.000,A,D*54
$GNRMC,233127.000,A,4910.428306,N,12304.401828,W,0.09,0.00,070125,,,D,V*17
$GNGGA,233127.000,4910.428306,N,12304.401828,W,2,42,0.52,17.306,M,-16.816,M,,*76
$GNVTG,0.00,T,,M,0.09,N,0.17,K,D*29
$GNGSA,A,3,19,24,17,06,12,14,11,15,,,,,0.87,0.52,0.69,1*0A
$GNGSA,A,3,75,85,,,,,,,,,,,0.87,0.52,0.69,2*0A
$GNGSA,A,3,02,30,36,11,07,25,34,08,29,10,,,0.87,0.52,0.69,3*05
$GNGSA,A,3,24,35,26,44,12,29,,,,,,,0.87,0.52,0.69,4*0F
$GPGSV,4,1,13,19,81,096,38,24,55,275,36,17,49,059,36,06,36,148,30,1*6A
$GPGSV,4,2,13,44,33,171,30,12,28,284,32,14,24,099,29,11,11,175,25,1*6E
$GPGSV,4,3,13,03,05,060,21,15,05,234,22,13,04,203,16,32,03,343,28,1*6A
$GPGSV,4,4,13,02,03,029,14,1*59
$GPGSV,1,1,04,24,55,275,31,06,36,148,24,14,24,099,18,11,11,175,19,8*64
$GLGSV,1,1,02,75,76,356,30,85,58,166,27,1*7E
$GAGSV,3,1,10,02,75,072,33,30,46,287,31,36,45,112,31,11,30,049,25,7*76
$GAGSV,3,2,10,07,27,279,27,25,22,096,24,34,18,166,25,08,16,226,22,7*77
$GAGSV,3,3,10,29,11,330,24,10,11,029,23,7*74
$GAGSV,2,1,08,02,75,072,26,30,46,287,27,36,45,112,25,11,30,049,15,1*7D
$GAGSV,2,2,08,07,27,279,21,25,22,096,17,34,18,166,18,10,11,029,15,1*76
$GBGSV,3,1,11,24,66,293,32,35,64,085,32,26,57,138,30,44,51,189,28,1*72
$GBGSV,3,2,11,12,28,200,22,29,12,044,21,25,12,305,22,41,05,313,19,1*7C
$GBGSV,3,3,11,45,04,128,22,34,03,212,18,39,01,328,17,1*40
$GBGSV,2,1,06,24,66,293,27,35,64,085,27,26,57,138,27,44,51,189,27,5*78
$GBGSV,2,2,06,25,12,305,18,41,05,313,16,5*79
$GNGLL,4910.428306,N,12304.401828,W,233127.000,A,D*52
$GNRMC,233128.000,A,4910.428294,N,12304.401810,W,0.08,0.00,070125,,,D,V*18
$GNGGA,233128.000,4910.428294,N,12304.401810,W,2,42,0.52,17.143,M,-16.817,M,,*7A
$GNVTG,0.00,T,,M,0.08,N,0.14,K,D*2B
$GNGSA,A,3,19,24,17,06,12,14,11,15,,,,,0.87,0.52,0.69,1*0A
$GNGSA,A,3,75,85,,,,,,,,,,,0.87,0.52,0.69,2*0A
$GNGSA,A,3,02,30,36,11,07,25,34,08,29,10,,,0.87,0.52,0.69,3*05
$GNGSA,A,3,24,35,26,44,12,29,,,,,,,0.87,0.52,0.69,4*0F
$GPGSV,4,1,13,19,81,096,38,24,55,275,35,17,49,059,36,06,36,148,30,1*69
$GPGSV,4,2,13,44,33,171,30,12,28,284,32,14,24,099,28,11,11,175,25,1*6F
$GPGSV,4,3,13,03,05,060,21,15,05,234,21,13,04,203,16,32,03,343,27,1*66
$GPGSV,4,4,13,02,03,029,14,1*59
$GPGSV,1,1,04,24,55,275,31,06,36,148,24,14,24,099,18,11,11,175,19,8*64
$GLGSV,1,1,02,75,76,356,30,85,58,166,27,1*7E
$GAGSV,3,1,10,02,75,072,33,30,46,287,31,36,45,112,31,11,30,049,25,7*76
$GAGSV,3,2,10,07,27,279,27,25,22,096,24,34,18,166,25,08,16,226,22,7*77
$GAGSV,3,3,10,29,11,330,24,10,11,029,23,7*74
$GAGSV,2,1,08,02,75,072,27,30,46,287,27,36,45,112,25,11,30,049,16,1*7F
$GAGSV,2,2,08,07,27,279,21,25,22,096,17,34,18,166,18,10,11,029,15,1*76
$GBGSV,3,1,11,24,67,292,32,35,64,085,32,26,57,138,30,44,51,189,28,1*72
$GBGSV,3,2,11,12,28,200,22,29,12,044,21,25,12,305,21,41,05,313,19,1*7F
$GBGSV,3,3,11,45,04,128,22,34,03,212,18,39,01,328,17,1*40
$GBGSV,2,1,06,24,67,292,27,35,64,085,27,26,57,138,27,44,51,189,27,5*78
$GBGSV,2,2,06,25,12,305,18,41,05,313,16,5*79
$GNGLL,4910.428294,N,12304.401810,W,233128.000,A,D*5C
$GNRMC,233129.000,A,4910.428306,N,12304.401792,W,0.15,0.00,070125,,,D,V*1A
$GNGGA,233129.000,4910.428306,N,12304.401792,W,2,42,0.52,17.087,M,-16.816,M,,*7C
$GNVTG,0.00,T,,M,0.15,N,0.27,K,D*27
$GNGSA,A,3,19,24,17,06,12,14,11,15,,,,,0.87,0.52,0.69,1*0A
$GNGSA,A,3,75,85,,,,,,,,,,,0.87,0.52,0.69,2*0A
$GNGSA,A,3,02,30,36,11,07,25,34,08,29,10,,,0.87,0.52,0.69,3*05
$GNGSA,A,3,24,35,26,44,12,29,,,,,,,0.87,0.52,0.69,4*0F
$GPGSV,4,1,13,19,81,096,38,24,55,275,35,17,49,059,36,06,36,148,30,1*69
$GPGSV,4,2,13,44,33,171,29,12,28,284,32,14,24,099,28,11,11,175,25,1*67
$GPGSV,4,3,13,03,05,060,21,15,05,234,21,13,04,203,16,32,03,343,26,1*67
$GPGSV,4,4,13,02,03,029,13,1*5E
$GPGSV,1,1,04,24,55,275,31,06,36,148,24,14,24,099,18,11,11,175,19,8*64
$GLGSV,1,1,02,75,76,356,30,85,58,166,27,1*7E
$GAGSV,3,1,10,02,75,072,33,30,46,287,31,36,45,112,31,11,30,049,25,7*76
$GAGSV,3,2,10,07,27,279,26,25,22,096,24,34,18,166,25,08,16,226,22,7*76
$GAGSV,3,3,10,29,11,330,24,10,11,029,23,7*74
$GAGSV,2,1,08,02,75,072,27,30,46,287,27,36,45,112,25,11,30,049,16,1*7F
$GAGSV,2,2,08,07,27,279,21,25,22,096,17,34,18,166,18,10,11,029,15,1*76
$GBGSV,3,1,11,24,67,292,31,35,64,085,31,26,57,138,30,44,51,189,28,1*72
$GBGSV,3,2,11,12,28,200,21,25,13,305,22,29,12,044,21,41,05,313,19,1*7E
$GBGSV,3,3,11,45,04,128,21,34,03,212,18,39,01,328,16,1*42
$GBGSV,2,1,06,24,67,292,27,35,64,085,27,26,57,138,27,44,51,189,27,5*78
$GBGSV,2,2,06,25,13,305,18,41,05,313,16,5*78
$GNGLL,4910.428306,N,12304.401792,W,233129.000,A,D*52
$GNRMC,233130.000,A,4910.428306,N,12304.401762,W,0.12,0.00,070125,,,D,V*1A
$GNGGA,233130.000,4910.428306,N,12304.401762,W,2,42,0.52,16.932,M,-16.816,M,,*7D
$GNVTG,0.00,T,,M,0.12,N,0.22,K,D*25
$GNGSA,A,3,19,24,17,06,12,14,11,15,,,,,0.87,0.52,0.69,1*0A
$GNGSA,A,3,75,85,,,,,,,,,,,0.87,0.52,0.69,2*0A
$GNGSA,A,3,02,30,36,11,07,25,34,08,10,29,,,0.87,0.52,0.69,3*05
$GNGSA,A,3,24,35,26,44,12,29,,,,,,,0.87,0.52,0.69,4*0F
$GPGSV,4,1,13,19,81,096,38,24,55,275,35,17,49,059,36,06,36,148,30,1*69
$GPGSV,4,2,13,44,33,171,30,12,28,284,32,14,24,099,28,11,11,175,25,1*6F
$GPGSV,4,3,13,03,05,060,21,15,05,234,21,13,04,203,16,32,03,343,26,1*67
$GPGSV,4,4,13,02,03,029,12,1*5F
$GPGSV,1,1,04,24,55,275,31,06,36,148,24,14,24,099,18,11,11,175,19,8*64
$GLGSV,1,1,03,75,76,356,30,85,58,166,27,84,53,050,,1*40
$GAGSV,3,1,10,02,75,072,33,30,46,287,31,36,45,112,31,11,30,049,25,7*76
$GAGSV,3,2,10,07,27,279,26,25,22,096,24,34,18,166,25,08,16,226,22,7*76
$GAGSV,3,3,10,10,11,029,23,29,11,330,24,7*74
$GAGSV,2,1,08,02,75,072,28,30,46,287,27,36,45,112,25,11,30,049,16,1*70
$GAGSV,2,2,08,07,27,279,21,25,22,096,17,34,18,166,18,10,11,029,15,1*76
$GBGSV,3,1,11,24,67,292,31,35,64,085,31,26,56,138,30,44,51,189,28,1*73
$GBGSV,3,2,11,12,28,200,21,25,13,305,22,29,12,044,21,41,05,313,19,1*7E
$GBGSV,3,3,11,45,04,128,21,34,03,212,17,39,01,328,16,1*4D
$GBGSV,2,1,06,24,67,292,28,35,64,085,27,26,56,138,28,44,51,189,27,5*79
$GBGSV,2,2,06,25,13,305,18,41,05,313,16,5*78
$GNGLL,4910.428306,N,12304.401762,W,233130.000,A,D*55
$GNRMC,233131.000,A,4910.428318,N,12304.401738,W,0.09,0.00,070125,,,D,V*11
$GNGGA,233131.000,4910.428318,N,12304.401738,W,2,42,0.52,16.822,M,-16.816,M,,*7C
$GNVTG,0.00,T,,M,0.09,N,0.17,K,D*29
$GNGSA,A,3,19,24,17,06,12,14,11,15,,,,,0.87,0.52,0.69,1*0A
$GNGSA,A,3,75,85,,,,,,,,,,,0.87,0.52,0.69,2*0A
$GNGSA,A,3,02,30,36,11,07,25,34,08,29,10,,,0.87,0.52,0.69,3*05
$GNGSA,A,3,24,35,26,44,12,29,,,,,,,0.87,0.52,0.69,4*0F
$GPGSV,4,1,13,19,81,096,38,24,55,275,35,17,49,059,36,06,36,148,30,1*69
$GPGSV,4,2,13,44,33,171,30,12,28,284,32,14,24,099,28,11,11,175,25,1*6F
$GPGSV,4,3,13,03,05,060,21,15,05,234,21,13,04,203,16,32,03,343,26,1*67
$GPGSV,4,4,13,02,03,029,13,1*5E
$GPGSV,1,1,04,24,55,275,31,06,36,148,24,14,24,099,18,11,11,175,19,8*64
$GLGSV,1,1,04,75,76,356,30,85,58,166,28,84,53,050,,86,07,194,,1*7D
$GAGSV,3,1,10,02,75,072,33,30,46,287,31,36,45,112,31,11,30,049,25,7*76
$GAGSV,3,2,10,07,27,279,25,25,22,096,24,34,18,166,25,08,16,226,21,7*76
$GAGSV,3,3,10,29,11,330,24,10,11,029,23,7*74
$GAGSV,2,1,08,02,75,072,28,30,46,287,27,36,45,112,25,11,30,049,16,1*70
$GAGSV,2,2,08,07,27,279,21,25,22,096,17,34,18,166,18,10,11,029,14,1*77
$GBGSV,3,1,12,24,67,292,31,35,64,085,31,26,56,138,30,44,51,189,28,1*70
$GBGSV,3,2,12,12,28,200,21,25,13,305,22,29,12,044,20,41,05,313,19,1*7C
$GBGSV,3,3,12,45,04,128,21,34,03,212,17,32,01,002,,39,01,328,16,1*7C
$GBGSV,2,1,06,24,67,292,28,35,64,085,27,26,56,138,28,44,51,189,27,5*79
$GBGSV,2,2,06,25,13,305,18,41,05,313,16,5*78
$GNGLL,4910.428318,N,12304.401738,W,233131.000,A,D*54
$GNRMC,233132.000,A,4910.428330,N,12304.401744,W,0.07,0.00,070125,,,D,V*1D
$GNGGA,233132.000,4910.428330,N,12304.401744,W,2,42,0.52,16.725,M,-16.816,M,,*76
$GNVTG,0.00,T,,M,0.07,N,0.13,K,D*23
$GNGSA,A,3,19,24,17,06,12,14,11,15,,,,,0.87,0.52,0.69,1*0A
$GNGSA,A,3,75,85,,,,,,,,,,,0.87,0.52,0.69,2*0A
$GNGSA,A,3,02,30,36,11,07,25,34,08,29,10,,,0.87,0.52,0.69,3*05
$GNGSA,A,3,24,35,26,44,12,29,,,,,,,0.87,0.52,0.69,4*0F
$GPGSV,4,1,13,19,81,096,38,24,55,275,35,17,49,059,36,06,36,148,30,1*69
$GPGSV,4,2,13,44,33,171,29,12,28,284,32,14,24,099,27,11,11,175,25,1*68
$GPGSV,4,3,13,03,05,060,20,15,05,234,21,13,04,203,14,32,03,343,26,1*64
$GPGSV,4,4,13,02,03,029,15,1*58
$GPGSV,1,1,04,24,55,275,31,06,36,148,25,14,24,099,18,11,11,175,19,8*65
$GLGSV,1,1,04,75,76,356,29,85,58,166,28,84,53,050,,86,07,194,,1*75
$GAGSV,3,1,10,02,75,072,33,30,46,287,31,36,45,112,31,11,30,049,25,7*76
$GAGSV,3,2,10,07,27,279,25,25,22,096,24,34,18,166,25,08,16,226,21,7*76
$GAGSV,3,3,10,29,11,330,24,10,11,029,23,7*74
$GAGSV,2,1,08,02,75,072,28,30,46,287,27,36,45,112,25,11,30,049,16,1*70
$GAGSV,2,2,08,07,27,279,22,25,22,096,17,34,18,166,18,10,11,029,15,1*75
$GBGSV,3,1,12,24,67,292,31,35,64,085,31,26,56,138,30,44,51,189,28,1*70
$GBGSV,3,2,12,12,28,200,21,25,13,305,22,29,12,044,20,41,05,313,19,1*7C
$GBGSV,3,3,12,45,04,128,21,34,03,212,17,32,01,002,,39,01,328,16,1*7C
$GBGSV,2,1,06,24,67,292,28,35,64,085,27,26,56,138,28,44,51,189,27,5*79
$GBGSV,2,2,06,25,13,305,18,41,05,313,16,5*78
$GNGLL,4910.428330,N,12304.401744,W,233132.000,A,D*56
$GNRMC,233133.000,A,4910.428306,N,12304.401708,W,0.06,0.00,070125,,,D,V*10
$GNGGA,233133.000,4910.428306,N,12304.401708,W,2,42,0.52,16.697,M,-16.816,M,,*72
$GNVTG,0.00,T,,M,0.06,N,0.11,K,D*20
$GNGSA,A,3,19,24,17,06,12,14,11,15,,,,,0.87,0.52,0.69,1*0A
$GNGSA,A,3,75,85,,,,,,,,,,,0.87,0.52,0.69,2*0A
$GNGSA,A,3,02,30,36,11,07,25,34,08,10,29,,,0.87,0.52,0.69,3*05
$GNGSA,A,3,24,35,26,44,12,29,,,,,,,0.87,0.52,0.69,4*0F
$GPGSV,4,1,13,19,81,096,38,24,55,275,35,17,49,059,36,06,36,148,30,1*69
$GPGSV,4,2,13,44,33,171,28,12,28,284,31,14,24,099,26,11,11,175,25,1*6B
$GPGSV,4,3,13,03,05,060,19,15,05,234,21,13,04,203,14,32,03,343,26,1*6E
$GPGSV,4,4,13,02,03,029,12,1*5F
$GPGSV,1,1,04,24,55,275,31,06,36,148,25,14,24,099,18,11,11,175,19,8*65
$GLGSV,1,1,03,75,76,356,29,85,58,166,28,86,07,194,,1*4D
$GAGSV,3,1,10,02,75,072,32,30,46,287,30,36,45,112,31,11,30,049,25,7*76
$GAGSV,3,2,10,07,27,279,25,25,22,096,24,34,18,166,24,08,16,226,21,7*77
$GAGSV,3,3,10,10,11,029,23,29,11,330,24,7*74
$GAGSV,2,1,08,02,75,072,28,30,46,287,27,36,45,112,25,11,30,049,16,1*70
$GAGSV,2,2,08,07,27,279,22,25,22,096,17,34,18,166,18,10,11,029,15,1*75
$GBGSV,3,1,12,24,67,292,30,35,64,085,30,26,56,138,29,44,51,189,27,1*77
$GBGSV,3,2,12,12,28,200,21,25,13,305,21,29,11,044,20,41,05,313,18,1*7D
$GBGSV,3,3,12,45,04,128,21,34,03,212,16,39,01,328,15,32,01,002,,1*7E
$GBGSV,2,1,06,24,67,292,28,35,64,085,27,26,56,138,28,44,51,189,27,5*79
$GBGSV,2,2,06,25,13,305,18,41,05,313,16,5*78
$GNGLL,4910.428306,N,12304.401708,W,233133.000,A,D*5A
$GNRMC,233134.000,A,4910.428300,N,12304.401714,W,0.05,0.00,070125,,,D,V*1F
$GNGGA,233134.000,4910.428300,N,12304.401714,W,2,42,0.52,16.604,M,-16.817,M,,*75
$GNVTG,0.00,T,,M,0.05,N,0.09,K,D*2A
$GNGSA,A,3,19,24,17,06,12,14,11,15,,,,,0.87,0.52,0.69,1*0A
$GNGSA,A,3,75,85,,,,,,,,,,,0.87,0.52,0.69,2*0A
$GNGSA,A,3,02,30,36,11,07,25,34,08,29,10,,,0.87,0.52,0.69,3*05
$GNGSA,A,3,24,35,26,44,12,29,,,,,,,0.87,0.52,0.69,4*0F
$GPGSV,4,1,13,19,81,096,37,24,55,275,34,17,49,059,35,06,36,148,30,1*64
$GPGSV,4,2,13,44,33,171,28,12,28,284,30,14,24,099,26,11,11,175,24,1*6B
$GPGSV,4,3,13,03,05,060,18,15,05,234,21,13,04,203,14,32,03,343,25,1*6C
$GPGSV,4,4,13,02,03,029,14,1*59
$GPGSV,1,1,04,24,55,275,31,06,36,148,25,14,24,099,18,11,11,175,19,8*65
$GLGSV,1,1,02,75,76,356,30,85,58,166,28,1*71
$GAGSV,3,1,10,02,75,072,31,30,46,287,30,36,45,112,30,11,30,049,24,7*75
$GAGSV,3,2,10,07,27,279,25,25,22,096,23,34,18,166,24,08,16,226,21,7*70
$GAGSV,3,3,10,29,11,330,24,10,11,029,23,7*74
$GAGSV,2,1,08,02,75,072,28,30,46,287,27,36,45,112,25,11,30,049,16,1*70
$GAGSV,2,2,08,07,27,279,22,25,22,096,17,34,18,166,18,10,11,029,15,1*75
$GBGSV,3,1,11,24,67,292,30,35,64,085,30,26,56,138,29,44,51,189,27,1*74
$GBGSV,3,2,11,12,28,200,20,25,13,305,21,29,11,044,20,41,05,313,18,1*7F
$GBGSV,3,3,11,45,04,128,21,34,03,212,16,39,01,328,15,1*4F
$GBGSV,2,1,06,24,67,292,28,35,64,085,27,26,56,138,28,44,51,189,27,5*79
$GBGSV,2,2,06,25,13,305,19,41,05,313,16,5*79
$GNGLL,4910.428300,N,12304.401714,W,233134.000,A,D*56
$GNRMC,233135.000,A,4910.428216,N,12304.401792,W,0.04,0.00,070125,,,D,V*17
$GNGGA,233135.000,4910.428216,N,12304.401792,W,2,42,0.52,16.586,M,-16.816,M,,*74
$GNVTG,0.00,T,,M,0.04,N,0.07,K,D*25
$GNGSA,A,3,19,24,17,06,12,14,11,15,,,,,0.87,0.52,0.69,1*0A
$GNGSA,A,3,75,85,,,,,,,,,,,0.87,0.52,0.69,2*0A
$GNGSA,A,3,02,30,36,11,07,25,34,08,29,10,,,0.87,0.52,0.69,3*05
$GNGSA,A,3,24,35,26,44,12,29,,,,,,,0.87,0.52,0.69,4*0F
$GPGSV,4,1,13,19,81,096,37,24,55,275,34,17,49,059,35,06,36,148,30,1*64
$GPGSV,4,2,13,44,33,171,28,12,28,284,30,14,24,099,26,11,11,175,24,1*6B
$GPGSV,4,3,13,03,05,060,18,15,05,234,21,13,04,203,14,32,03,343,25,1*6C
$GPGSV,4,4,13,02,03,029,16,1*5B
$GPGSV,1,1,04,24,55,275,32,06,36,148,25,14,24,099,18,11,11,175,19,8*66
$GLGSV,1,1,02,75,76,356,30,85,58,166,28,1*71
$GAGSV,3,1,10,02,75,072,31,30,46,287,30,36,45,112,30,11,30,049,24,7*75
$GAGSV,3,2,10,07,27,279,25,25,22,096,23,34,18,166,24,08,16,226,21,7*70
$GAGSV,3,3,10,29,11,330,24,10,11,029,22,7*75
$GAGSV,2,1,08,02,75,072,28,30,46,287,28,36,45,112,26,11,30,049,16,1*7C
$GAGSV,2,2,08,07,27,279,22,25,22,096,17,34,18,166,18,10,11,029,15,1*75
$GBGSV,3,1,11,24,67,292,30,35,64,085,30,26,56,138,29,44,51,189,27,1*74
$GBGSV,3,2,11,12,28,200,20,25,13,305,21,29,11,044,20,41,05,313,18,1*7F
$GBGSV,3,3,11,45,04,128,21,34,03,212,16,39,01,328,15,1*4F
$GBGSV,2,1,06,24,67,292,28,35,64,085,27,26,56,138,28,44,51,189,28,5*76
$GBGSV,2,2,06,25,13,305,19,41,05,313,16,5*79
$GNGLL,4910.428216,N,12304.401792,W,233135.000,A,D*5F
$GNRMC,233136.000,A,4910.428186,N,12304.401792,W,0.04,0.00,070125,,,D,V*1E
$GNGGA,233136.000,4910.428186,N,12304.401792,W,2,42,0.52,16.352,M,-16.816,M,,*72
$GNVTG,0.00,T,,M,0.04,N,0.08,K,D*2A
$GNGSA,A,3,19,24,17,06,12,14,11,15,,,,,0.87,0.52,0.69,1*0A
$GNGSA,A,3,75,85,,,,,,,,,,,0.87,0.52,0.69,2*0A
$GNGSA,A,3,02,30,36,11,07,25,34,08,29,10,,,0.87,0.52,0.69,3*05
$GNGSA,A,3,24,35,26,44,12,29,,,,,,,0.87,0.52,0.69,4*0F
$GPGSV,4,1,13,19,81,096,37,24,55,275,34,17,49,059,35,06,36,148,30,1*64
$GPGSV,4,2,13,44,33,171,29,12,28,284,30,14,24,099,26,11,11,175,24,1*6A
$GPGSV,4,3,13,03,05,060,18,15,05,234,22,13,04,203,14,32,03,343,25,1*6F
$GPGSV,4,4,13,02,03,029,14,1*59
$GPGSV,1,1,04,24,55,275,32,06,36,148,25,14,24,099,18,11,11,175,19,8*66
$GLGSV,1,1,02,75,76,356,30,85,58,166,28,1*71
$GAGSV,3,1,10,02,75,072,31,30,46,287,30,36,45,112,30,11,30,049,24,7*75
$GAGSV,3,2,10,07,27,279,25,25,22,096,23,34,18,166,24,08,16,226,21,7*70
$GAGSV,3,3,10,29,11,330,24,10,11,029,22,7*75
$GAGSV,2,1,08,02,75,072,28,30,46,287,28,36,45,112,26,11,30,049,16,1*7C
$GAGSV,2,2,08,07,27,279,23,25,22,096,17,34,18,166,18,10,11,029,15,1*74
$GBGSV,3,1,11,24,67,292,31,35,64,085,31,26,56,138,29,44,51,189,27,1*74
$GBGSV,3,2,11,12,28,200,21,25,13,305,22,29,11,044,20,41,05,313,18,1*7D
$GBGSV,3,3,11,45,04,128,21,34,03,212,17,39,01,328,15,1*4E
$GBGSV,2,1,06,24,67,292,28,35,64,085,27,26,56,138,28,44,51,189,28,5*76
$GBGSV,2,2,06,25,13,305,19,41,05,313,16,5*79
$GNGLL,4910.428186,N,12304.401792,W,233136.000,A,D*56
$GNRMC,233137.000,A,4910.428186,N,12304.401870,W,0.05,0.00,070125,,,D,V*1D
$GNGGA,233137.000,4910.428186,N,12304.401870,W,2,42,0.52,16.294,M,-16.816,M,,*7B
$GNVTG,0.00,T,,M,0.05,N,0.09,K,D*2A
$GNGSA,A,3,19,24,17,06,12,14,11,15,,,,,0.87,0.52,0.69,1*0A
$GNGSA,A,3,75,85,,,,,,,,,,,0.87,0.52,0.69,2*0A
$GNGSA,A,3,02,30,36,11,07,25,34,08,29,10,,,0.87,0.52,0.69,3*05
$GNGSA,A,3,24,35,26,44,12,29,,,,,,,0.87,0.52,0.69,4*0F
$GPGSV,4,1,13,19,81,096,37,24,55,275,34,17,49,059,35,06,36,148,30,1*64
$GPGSV,4,2,13,44,33,171,29,12,28,284,30,14,24,099,26,11,11,175,24,1*6A
$GPGSV,4,3,13,03,05,060,18,15,05,234,22,13,04,203,15,32,03,343,25,1*6E
$GPGSV,4,4,13,02,03,029,14,1*59
$GPGSV,1,1,04,24,55,275,32,06,36,148,25,14,24,099,18,11,11,175,19,8*66
$GLGSV,1,1,02,75,76,356,30,85,58,166,28,1*71
$GAGSV,3,1,10,02,75,072,32,30,46,287,30,36,45,112,30,11,30,049,24,7*76
$GAGSV,3,2,10,07,27,279,25,25,22,096,24,34,18,166,24,08,16,226,21,7*77
$GAGSV,3,3,10,29,11,330,24,10,11,029,22,7*75
$GAGSV,2,1,08,02,75,072,28,30,46,287,28,36,45,112,26,11,30,049,16,1*7C
$GAGSV,2,2,08,07,27,279,23,25,22,096,17,34,18,166,18,10,11,029,15,1*74
$GBGSV,3,1,11,24,67,292,31,35,64,085,31,26,56,138,29,44,51,189,28,1*7B
$GBGSV,3,2,11,12,28,200,21,25,13,305,22,29,11,044,20,41,05,313,18,1*7D
$GBGSV,3,3,11,45,04,128,21,34,03,212,17,39,01,328,14,1*4F
$GBGSV,2,1,06,24,67,292,28,35,64,085,27,26,56,138,28,44,51,189,28,5*76
$GBGSV,2,2,06,25,13,305,19,41,05,313,16,5*79
$GNGLL,4910.428186,N,12304.401870,W,233137.000,A,D*54
$GNRMC,233138.000,A,4910.428192,N,12304.401852,W,0.05,0.00,070125,,,D,V*17
$GNGGA,233138.000,4910.428192,N,12304.401852,W,2,42,0.52,16.128,M,-16.816,M,,*75
$GNVTG,0.00,T,,M,0.05,N,0.10,K,D*22
$GNGSA,A,3,19,24,17,06,12,14,11,15,,,,,0.87,0.52,0.69,1*0A
$GNGSA,A,3,75,85,,,,,,,,,,,0.87,0.52,0.69,2*0A
$GNGSA,A,3,02,30,36,11,07,25,34,08,29,10,,,0.87,0.52,0.69,3*05
$GNGSA,A,3,24,35,26,44,12,29,,,,,,,0.87,0.52,0.69,4*0F
$GPGSV,4,1,13,19,81,096,37,24,55,275,34,17,49,059,35,06,36,148,30,1*64
$GPGSV,4,2,13,44,33,171,29,12,28,284,30,14,24,099,26,11,11,175,24,1*6A
$GPGSV,4,3,13,03,05,060,18,15,05,234,22,13,04,203,15,32,03,343,25,1*6E
$GPGSV,4,4,13,02,03,029,16,1*5B
$GPGSV,1,1,04,24,55,275,32,06,36,148,25,14,24,099,19,11,11,175,19,8*67
$GLGSV,1,1,02,75,76,356,30,85,58,166,28,1*71
$GAGSV,3,1,10,02,75,072,32,30,46,287,30,36,45,112,30,11,30,049,24,7*76
$GAGSV,3,2,10,07,27,279,25,25,22,096,24,34,18,166,24,08,16,226,21,7*77
$GAGSV,3,3,10,29,11,330,24,10,11,029,22,7*75
$GAGSV,2,1,08,02,75,072,28,30,46,287,28,36,45,112,26,11,30,049,16,1*7C
$GAGSV,2,2,08,07,27,279,23,25,22,096,17,34,18,166,18,10,11,029,15,1*74
$GBGSV,3,1,11,24,67,292,31,35,64,085,31,26,56,138,29,44,51,189,28,1*7B
$GBGSV,3,2,11,12,28,200,21,25,13,305,22,29,11,044,20,41,05,313,18,1*7D
$GBGSV,3,3,11,45,04,128,21,34,04,212,17,39,01,328,15,1*49
$GBGSV,2,1,06,24,67,292,28,35,64,085,28,26,56,138,28,44,51,189,28,5*79
$GBGSV,2,2,06,25,13,305,19,41,05,313,16,5*79
$GNGLL,4910.428192,N,12304.401852,W,233138.000,A,D*5E
$GNRMC,233139.000,A,4910.428126,N,12304.401966,W,0.06,0.00,070125,,,D,V*1C
$GNGGA,233139.000,4910.428126,N,12304.401966,W,2,42,0.52,15.716,M,-16.816,M,,*75
$GNVTG,0.00,T,,M,0.06,N,0.12,K,D*23
$GNGSA,A,3,19,24,17,06,12,14,11,15,,,,,0.87,0.52,0.69,1*0A
$GNGSA,A,3,75,85,,,,,,,,,,,0.87,0.52,0.69,2*0A
$GNGSA,A,3,02,30,36,11,07,25,34,08,29,10,,,0.87,0.52,0.69,3*05
$GNGSA,A,3,24,35,26,44,12,29,,,,,,,0.87,0.52,0.69,4*0F
$GPGSV,4,1,13,19,81,096,37,24,55,275,34,17,49,059,35,06,36,148,30,1*64
$GPGSV,4,2,13,44,33,171,29,12,28,284,30,14,24,099,27,11,11,175,25,1*6A
$GPGSV,4,3,13,03,05,060,18,15,05,234,23,13,04,203,14,32,03,343,25,1*6E
$GPGSV,4,4,13,02,03,029,14,1*59
$GPGSV,1,1,04,24,55,275,32,06,36,148,25,14,24,099,19,11,11,175,19,8*67
$GLGSV,1,1,02,75,76,356,29,85,58,166,28,1*79
$GAGSV,3,1,10,02,75,072,32,30,46,287,30,36,45,112,30,11,30,049,24,7*76
$GAGSV,3,2,10,07,27,279,25,25,22,096,24,34,18,166,24,08,16,226,21,7*77
$GAGSV,3,3,10,29,11,330,24,10,11,029,22,7*75
$GAGSV,2,1,08,02,75,072,28,30,46,287,28,36,45,112,26,11,30,049,16,1*7C
$GAGSV,2,2,08,07,27,279,23,25,22,096,17,34,18,166,18,10,11,029,15,1*74
$GBGSV,3,1,11,24,67,292,31,35,63,083,31,26,56,138,29,44,51,189,28,1*7A
$GBGSV,3,2,11,12,28,200,21,25,13,305,22,29,11,044,20,41,05,313,18,1*7D
$GBGSV,3,3,11,45,04,128,21,34,04,212,17,39,01,328,15,1*49
$GBGSV,2,1,06,24,67,292,28,35,63,083,28,26,56,138,28,44,51,189,28,5*78
$GBGSV,2,2,06,25,13,305,19,41,05,313,16,5*79
$GNGLL,4910.428126,N,12304.401966,W,233139.000,A,D*56
$GNRMC,233140.000,A,4910.428084,N,12304.401996,W,0.07,0.00,070125,,,D,V*15
$GNGGA,233140.000,4910.428084,N,12304.401996,W,2,42,0.52,15.618,M,-16.817,M,,*73
$GNVTG,0.00,T,,M,0.07,N,0.13,K,D*23
$GNGSA,A,3,19,24,17,06,12,14,11,15,,,,,0.87,0.52,0.69,1*0A
$GNGSA,A,3,75,85,,,,,,,,,,,0.87,0.52,0.69,2*0A
$GNGSA,A,3,02,30,36,11,07,25,34,08,10,29,,,0.87,0.52,0.69,3*05
$GNGSA,A,3,24,35,26,44,12,29,,,,,,,0.87,0.52,0.69,4*0F
$GPGSV,4,1,13,19,81,096,38,24,55,275,35,17,49,059,35,06,36,148,30,1*6A
$GPGSV,4,2,13,44,33,171,29,12,28,284,31,14,24,099,28,11,11,175,25,1*64
$GPGSV,4,3,13,03,05,060,18,15,05,234,23,13,04,203,13,32,03,343,26,1*6A
$GPGSV,4,4,13,02,03,029,14,1*59
$GPGSV,1,1,04,24,55,275,32,06,36,148,25,14,24,099,19,11,11,175,19,8*67
$GLGSV,1,1,03,75,76,356,29,85,58,166,28,84,53,050,,1*47
$GAGSV,3,1,10,02,75,072,32,30,46,287,31,36,45,112,31,11,30,049,24,7*76
$GAGSV,3,2,10,07,27,279,26,25,22,096,24,34,18,166,24,08,16,226,22,7*77
$GAGSV,3,3,10,10,11,029,23,29,11,330,24,7*74
$GAGSV,2,1,08,02,75,072,29,30,46,287,28,36,45,112,26,11,30,049,16,1*7D
$GAGSV,2,2,08,07,27,279,23,25,22,096,18,34,18,166,18,10,11,029,15,1*7B
$GBGSV,3,1,11,24,67,292,31,35,63,083,31,26,56,138,29,44,51,189,28,1*7A
$GBGSV,3,2,11,12,28,200,21,25,13,305,21,29,11,044,20,41,05,313,18,1*7E
$GBGSV,3,3,11,34,04,212,17,45,04,128,20,39,01,328,15,1*48
$GBGSV,2,1,06,24,67,292,28,35,63,083,28,26,56,138,28,44,51,189,28,5*78
$GBGSV,2,2,06,25,13,305,19,41,05,313,16,5*79
$GNGLL,4910.428084,N,12304.401996,W,233140.000,A,D*5E
$GNRMC,233141.000,A,4910.428114,N,12304.402074,W,0.07,0.00,070125,,,D,V*1A
$GNGGA,233141.000,4910.428114,N,12304.402074,W,2,42,0.52,15.301,M,-16.817,M,,*71
$GNVTG,0.00,T,,M,0.07,N,0.14,K,D*24
$GNGSA,A,3,19,24,17,06,12,14,11,15,,,,,0.87,0.52,0.69,1*0A
$GNGSA,A,3,75,85,,,,,,,,,,,0.87,0.52,0.69,2*0A
$GNGSA,A,3,02,30,36,11,07,25,34,08,10,29,,,0.87,0.52,0.69,3*05
$GNGSA,A,3,24,35,26,44,12,29,,,,,,,0.87,0.52,0.69,4*0F
$GPGSV,4,1,13,19,81,096,38,24,55,275,35,17,49,059,35,06,36,148,31,1*6B
$GPGSV,4,2,13,44,33,171,30,12,28,284,31,14,24,099,29,11,11,175,26,1*6E
$GPGSV,4,3,13,03,05,060,18,15,05,234,23,13,04,203,14,32,03,343,27,1*6C
$GPGSV,4,4,13,02,03,029,14,1*59
$GPGSV,1,1,04,24,55,275,32,06,36,148,26,14,24,099,19,11,11,175,19,8*64
$GLGSV,1,1,03,75,76,356,29,85,58,166,27,84,53,050,,1*48
$GAGSV,3,1,10,02,75,072,32,30,46,287,31,36,45,112,31,11,30,049,24,7*76
$GAGSV,3,2,10,07,27,279,26,25,22,096,24,34,18,166,24,08,16,226,23,7*76
$GAGSV,3,3,10,10,11,029,23,29,11,330,25,7*75
$GAGSV,2,1,08,02,75,072,29,30,46,287,28,36,45,112,26,11,30,049,16,1*7D
$GAGSV,2,2,08,07,27,279,23,25,22,096,18,34,18,166,18,10,11,029,15,1*7B
$GBGSV,3,1,11,24,67,292,31,35,63,083,31,26,56,138,29,44,51,189,28,1*7A
$GBGSV,3,2,11,12,28,200,21,25,13,305,21,29,11,044,20,41,05,313,18,1*7E
$GBGSV,3,3,11,34,04,212,17,45,04,128,20,39,01,328,15,1*48
$GBGSV,2,1,06,24,67,292,28,35,63,083,28,26,56,138,28,44,51,189,28,5*78
$GBGSV,2,2,06,25,13,305,20,41,05,313,16,5*73
$GNGLL,4910.428114,N,12304.402074,W,233141.000,A,D*51
$GNRMC,233142.000,A,4910.428120,N,12304.402098,W,0.07,0.00,070125,,,D,V*1C
$GNGGA,233142.000,4910.428120,N,12304.402098,W,2,42,0.52,15.265,M,-16.816,M,,*75
$GNVTG,0.00,T,,M,0.07,N,0.14,K,D*24
$GNGSA,A,3,19,24,17,06,12,14,11,15,,,,,0.87,0.52,0.69,1*0A
$GNGSA,A,3,75,85,,,,,,,,,,,0.87,0.52,0.69,2*0A
$GNGSA,A,3,02,30,36,11,07,25,34,08,10,29,,,0.87,0.52,0.69,3*05
$GNGSA,A,3,24,35,26,44,12,29,,,,,,,0.87,0.52,0.69,4*0F
$GPGSV,4,1,13,19,81,096,38,24,55,275,35,17,49,059,36,06,36,148,31,1*68
$GPGSV,4,2,13,44,33,171,31,12,28,284,31,14,24,099,29,11,11,175,26,1*6F
$GPGSV,4,3,13,03,05,060,18,15,05,234,23,13,04,203,16,32,03,343,27,1*6E
$GPGSV,4,4,13,02,03,029,12,1*5F
$GPGSV,1,1,04,24,55,275,32,06,36,148,26,14,24,099,19,11,11,175,19,8*64
$GLGSV,1,1,03,75,76,356,28,85,58,166,27,86,07,194,,1*43
$GAGSV,3,1,10,02,75,072,32,30,46,287,31,36,45,112,32,11,30,049,24,7*75
$GAGSV,3,2,10,07,27,279,26,25,22,096,24,34,18,166,24,08,16,226,23,7*76
$GAGSV,3,3,10,10,11,029,23,29,11,330,25,7*75
$GAGSV,2,1,08,02,75,072,29,30,46,287,28,36,45,112,26,11,30,049,16,1*7D
$GAGSV,2,2,08,07,27,279,23,25,22,096,18,34,18,166,18,10,11,029,15,1*7B
$GBGSV,3,1,12,24,67,292,31,35,63,083,31,26,56,138,30,44,51,189,28,1*71
$GBGSV,3,2,12,12,28,200,21,25,13,305,22,29,11,044,20,41,05,313,18,1*7E
$GBGSV,3,3,12,45,04,128,20,34,04,212,17,39,01,328,16,32,01,001,,1*79
$GBGSV,2,1,06,24,67,292,28,35,63,083,28,26,56,138,28,44,51,189,28,5*78
$GBGSV,2,2,06,25,13,305,20,41,05,313,16,5*73
$GNGLL,4910.428120,N,12304.402098,W,233142.000,A,D*57
$GNRMC,233143.000,A,4910.428150,N,12304.402146,W,0.07,0.00,070125,,,D,V*18
