$GNGGA,194929.000,4910.428048,N,12304.400652,W,2,29,0.47,4.642,M,-16.816,M,,*4B
$GNGLL,4910.428048,N,12304.400652,W,194929.000,A,D*51
$GNGSA,A,3,03,31,04,28,26,02,06,09,16,21,25,,0.79,0.47,0.63,1*0C
$GNGSA,A,3,72,73,,,,,,,,,,,0.79,0.47,0.63,2*0B
$GNGSA,A,3,05,03,15,24,34,13,31,25,09,,,,0.79,0.47,0.63,3*06
$GNGSA,A,3,19,20,37,22,44,35,23,,,,,,0.79,0.47,0.63,4*05
$GPGSV,4,1,13,03,80,260,33,31,65,081,34,04,50,274,29,28,34,053,29,1*68
$GPGSV,4,2,13,46,33,188,28,26,30,116,25,02,17,210,26,06,17,323,24,1*68
$GPGSV,4,3,13,09,16,270,18,16,10,144,23,21,08,198,18,25,06,026,19,1*6A
$GPGSV,4,4,13,19,01,300,,1*5C
$GLGSV,2,1,07,72,71,013,25,74,51,122,,73,42,052,24,71,34,088,,1*7E
$GLGSV,2,2,07,88,29,293,,65,26,297,,75,15,171,,1*46
$GAGSV,3,1,10,05,62,068,29,03,60,275,28,15,44,267,24,24,28,096,24,7*7F
$GAGSV,3,2,10,34,26,206,21,13,19,324,20,31,18,042,22,25,11,146,21,7*70
$GAGSV,3,3,10,09,11,080,12,08,10,265,14,7*7D
$GBGSV,3,1,12,19,69,305,34,20,56,103,34,37,44,071,33,46,44,155,,1*74
$GBGSV,3,2,12,22,16,293,26,44,13,308,23,35,12,263,22,31,08,333,,1*7C
$GBGSV,3,3,12,36,06,192,20,23,06,034,17,32,03,110,11,04,01,261,,1*7A
$GNRMC,194929.000,A,4910.428048,N,12304.400652,W,0.03,348.30,151024,,,D,V*10
$GNVTG,348.30,T,,M,0.03,N,0.06,K,D*2F
$GNGGA,194930.000,4910.427904,N,12304.400730,W,2,29,0.47,4.548,M,-16.817,M,,*40
$GNGLL,4910.427904,N,12304.400730,W,194930.000,A,D*52
$GNGSA,A,3,03,31,04,28,26,06,02,09,16,21,25,,0.79,0.47,0.63,1*0C
$GNGSA,A,3,72,73,,,,,,,,,,,0.79,0.47,0.63,2*0B
$GNGSA,A,3,05,03,15,24,34,13,31,09,25,,,,0.79,0.47,0.63,3*06
$GNGSA,A,3,19,20,37,22,44,35,23,,,,,,0.79,0.47,0.63,4*05
$GPGSV,4,1,13,03,80,260,33,31,65,081,34,04,50,274,29,28,34,053,29,1*68
$GPGSV,4,2,13,46,33,188,28,26,30,116,27,06,17,323,24,02,17,210,27,1*6B
$GPGSV,4,3,13,09,16,270,19,16,10,144,24,21,08,198,19,25,06,026,19,1*6D
$GPGSV,4,4,13,19,01,300,,1*5C
$GLGSV,1,1,03,72,71,013,25,74,51,122,,73,42,052,24,1*48
$GAGSV,3,1,10,05,62,068,29,03,60,275,29,15,44,267,24,24,28,096,25,7*7F
$GAGSV,3,2,10,34,26,206,22,13,19,324,20,31,18,042,22,09,11,080,12,7*76
$GAGSV,3,3,10,25,11,146,22,08,10,265,14,7*7B
$GBGSV,3,1,12,19,69,305,34,20,56,103,34,37,44,071,33,46,44,155,,1*74
$GBGSV,3,2,12,22,16,293,26,44,13,308,23,35,12,263,22,31,08,333,,1*7C
$GBGSV,3,3,12,36,06,192,20,23,06,034,17,32,03,110,12,04,01,261,,1*79
$GNRMC,194930.000,A,4910.427904,N,12304.400730,W,0.03,348.30,151024,,,D,V*13
$GNVTG,348.30,T,,M,0.03,N,0.06,K,D*2F
$GNGGA,194931.000,4910.427850,N,12304.400784,W,2,29,0.47,4.436,M,-16.816,M,,*47
$GNGLL,4910.427850,N,12304.400784,W,194931.000,A,D*5C
$GNGSA,A,3,03,31,04,28,26,02,06,09,16,21,25,,0.79,0.47,0.63,1*0C
$GNGSA,A,3,72,73,,,,,,,,,,,0.79,0.47,0.63,2*0B
$GNGSA,A,3,05,03,15,24,34,13,31,25,09,,,,0.79,0.47,0.63,3*06
$GNGSA,A,3,19,20,37,22,44,35,23,,,,,,0.79,0.47,0.63,4*05
$GPGSV,4,1,13,03,80,260,33,31,65,081,34,04,50,274,29,28,34,053,29,1*68
$GPGSV,4,2,13,46,33,188,28,26,30,116,26,02,17,210,26,06,17,323,24,1*6B
$GPGSV,4,3,13,09,16,270,19,16,10,144,23,21,08,198,19,25,06,026,19,1*6A
$GPGSV,4,4,13,19,01,300,,1*5C
$GLGSV,2,1,07,72,71,013,26,74,51,122,,73,42,052,24,71,34,088,,1*7D
$GLGSV,2,2,07,88,29,293,,65,26,297,,75,15,171,,1*46
$GAGSV,3,1,10,05,62,068,29,03,60,275,29,15,44,267,24,24,28,096,25,7*7F
$GAGSV,3,2,10,34,26,206,22,13,19,324,20,31,18,042,22,25,11,146,22,7*70
$GAGSV,3,3,10,09,11,080,12,08,10,265,14,7*7D
$GBGSV,3,1,12,19,69,305,34,20,56,103,34,37,44,071,33,46,44,155,,1*74
$GBGSV,3,2,12,22,16,293,26,44,13,308,22,35,12,263,22,31,08,333,,1*7D
$GBGSV,3,3,12,36,06,192,20,23,06,034,17,32,03,110,14,04,01,261,,1*7F
$GNRMC,194931.000,A,4910.427850,N,12304.400784,W,0.02,348.30,151024,,,D,V*1C
$GNVTG,348.30,T,,M,0.02,N,0.04,K,D*2C
$GNGGA,194932.000,4910.427802,N,12304.400934,W,2,29,0.47,4.362,M,-16.816,M,,*40
$GNGLL,4910.427802,N,12304.400934,W,194932.000,A,D*5D
$GNGSA,A,3,03,31,04,28,26,06,02,09,16,21,25,,0.79,0.47,0.63,1*0C
$GNGSA,A,3,72,73,,,,,,,,,,,0.79,0.47,0.63,2*0B
$GNGSA,A,3,05,03,15,24,34,13,31,09,25,,,,0.79,0.47,0.63,3*06
$GNGSA,A,3,19,20,37,22,44,35,23,,,,,,0.79,0.47,0.63,4*05
$GPGSV,4,1,14,03,80,260,33,31,65,081,34,04,50,274,29,28,34,053,29,1*6F
$GPGSV,4,2,14,46,33,188,28,26,30,116,26,06,17,323,24,02,17,210,26,1*6C
$GPGSV,4,3,14,09,17,270,20,16,10,144,23,21,08,198,19,25,06,026,19,1*66
$GPGSV,4,4,14,32,02,084,,19,01,300,,1*64
$GLGSV,1,1,03,72,71,013,26,74,51,122,,73,42,052,24,1*4B
$GAGSV,3,1,10,05,62,068,29,03,60,275,29,15,44,267,25,24,28,096,25,7*7E
$GAGSV,3,2,10,34,26,206,22,13,19,324,20,31,18,042,22,09,11,080,12,7*76
$GAGSV,3,3,10,25,11,146,22,08,10,265,14,7*7B
$GBGSV,3,1,11,19,69,305,34,20,56,103,34,37,44,071,33,46,44,155,,1*77
$GBGSV,3,2,11,22,16,293,26,44,13,308,22,35,12,263,22,31,08,333,,1*7E
$GBGSV,3,3,11,23,06,034,17,36,06,192,20,32,03,110,,1*49
$GNRMC,194932.000,A,4910.427802,N,12304.400934,W,0.02,348.30,151024,,,D,V*1D
$GNVTG,348.30,T,,M,0.02,N,0.04,K,D*2C
$GNGGA,194933.000,4910.427604,N,12304.401048,W,2,29,0.47,4.225,M,-16.817,M,,*49
$GNGLL,4910.427604,N,12304.401048,W,194933.000,A,D*57
$GNGSA,A,3,03,31,04,28,26,06,02,09,16,21,25,,0.79,0.47,0.63,1*0C
$GNGSA,A,3,72,73,,,,,,,,,,,0.79,0.47,0.63,2*0B
$GNGSA,A,3,05,03,15,24,34,13,31,09,25,,,,0.79,0.47,0.63,3*06
$GNGSA,A,3,19,20,37,22,44,35,23,,,,,,0.79,0.47,0.63,4*05
$GPGSV,4,1,14,03,80,260,33,31,65,081,34,04,50,274,29,28,34,053,29,1*6F
$GPGSV,4,2,14,46,33,188,28,26,30,116,26,06,17,323,25,02,17,210,27,1*6C
$GPGSV,4,3,14,09,17,270,20,16,10,144,24,21,08,198,20,25,06,026,19,1*6B
$GPGSV,4,4,14,32,02,084,,19,01,300,,1*64
$GLGSV,2,1,07,72,71,013,26,74,51,122,,73,42,052,24,71,34,088,,1*7D
$GLGSV,2,2,07,88,29,293,,65,26,297,,75,15,171,,1*46
$GAGSV,3,1,10,05,62,068,29,03,60,275,29,15,44,267,25,24,28,096,25,7*7E
$GAGSV,3,2,10,34,26,206,22,13,19,324,20,31,18,042,22,09,11,080,12,7*76
$GAGSV,3,3,10,25,11,146,22,08,10,265,14,7*7B
$GBGSV,3,1,11,19,69,305,34,20,56,103,34,37,44,071,33,46,44,155,,1*77
$GBGSV,3,2,11,22,16,293,26,44,13,308,22,35,12,263,22,31,08,333,,1*7E
$GBGSV,3,3,11,23,06,034,17,36,06,192,20,32,03,110,,1*49
$GNRMC,194933.000,A,4910.427604,N,12304.401048,W,0.03,348.30,151024,,,D,V*16
$GNVTG,348.30,T,,M,0.03,N,0.05,K,D*2C
$GNGGA,194934.000,4910.427520,N,12304.401144,W,2,29,0.47,4.169,M,-16.816,M,,*4C
$GNGLL,4910.427520,N,12304.401144,W,194934.000,A,D*58
$GNGSA,A,3,03,31,04,28,26,06,02,09,16,21,25,,0.79,0.47,0.63,1*0C
$GNGSA,A,3,72,73,,,,,,,,,,,0.79,0.47,0.63,2*0B
$GNGSA,A,3,05,03,15,24,34,13,31,09,25,,,,0.79,0.47,0.63,3*06
$GNGSA,A,3,19,20,37,22,44,35,23,,,,,,0.79,0.47,0.63,4*05
$GPGSV,4,1,14,03,80,260,33,31,65,081,34,04,50,274,29,28,34,053,29,1*6F
$GPGSV,4,2,14,46,33,188,28,26,30,116,26,06,17,323,25,02,17,210,27,1*6C
$GPGSV,4,3,14,09,17,270,20,16,10,144,22,21,08,198,20,25,06,026,19,1*6D
$GPGSV,4,4,14,32,02,084,,19,01,300,,1*64
$GLGSV,2,1,07,72,71,013,26,74,51,122,,73,42,052,24,71,34,088,,1*7D
$GLGSV,2,2,07,88,29,293,,65,26,297,,75,15,171,,1*46
$GAGSV,3,1,10,05,62,068,29,03,60,275,29,15,44,267,25,24,28,096,25,7*7E
$GAGSV,3,2,10,34,26,206,22,13,19,324,20,31,18,042,22,09,11,080,12,7*76
$GAGSV,3,3,10,25,11,146,22,08,10,265,14,7*7B
$GBGSV,3,1,11,19,69,305,34,20,56,103,34,37,44,071,33,46,44,155,,1*77
$GBGSV,3,2,11,22,16,293,26,44,13,308,22,35,12,263,22,31,08,333,,1*7E
$GBGSV,3,3,11,23,06,034,17,36,06,192,21,32,03,110,,1*48
$GNRMC,194934.000,A,4910.427520,N,12304.401144,W,0.03,348.30,151024,,,D,V*19
$GNVTG,348.30,T,,M,0.03,N,0.05,K,D*2C
$GNGGA,194935.000,4910.427400,N,12304.401216,W,2,29,0.47,4.173,M,-16.816,M,,*41
$GNGLL,4910.427400,N,12304.401216,W,194935.000,A,D*5E
$GNGSA,A,3,03,31,04,28,26,06,02,09,16,21,25,,0.79,0.47,0.63,1*0C
$GNGSA,A,3,72,73,,,,,,,,,,,0.79,0.47,0.63,2*0B
$GNGSA,A,3,05,03,15,24,34,13,31,09,25,,,,0.79,0.47,0.63,3*06
$GNGSA,A,3,19,20,37,22,44,35,23,,,,,,0.79,0.47,0.63,4*05
$GPGSV,4,1,14,03,80,260,33,31,65,081,34,04,50,274,29,28,34,053,29,1*6F
$GPGSV,4,2,14,46,33,188,28,26,30,116,26,06,17,323,25,02,17,210,27,1*6C
$GPGSV,4,3,14,09,17,270,20,16,10,144,23,21,08,198,20,25,06,026,19,1*6C
$GPGSV,4,4,14,32,02,084,,19,01,300,,1*64
$GLGSV,2,1,07,72,71,013,26,74,51,122,,73,42,052,24,71,34,088,,1*7D
$GLGSV,2,2,07,88,29,293,,65,26,297,,75,15,171,,1*46
$GAGSV,3,1,10,05,62,068,29,03,60,275,29,15,44,267,25,24,28,096,25,7*7E
$GAGSV,3,2,10,34,26,206,22,13,19,324,20,31,18,042,22,09,11,080,12,7*76
$GAGSV,3,3,10,25,11,146,22,08,10,265,15,7*7A
$GBGSV,3,1,11,19,69,305,34,20,56,103,34,37,44,071,33,46,44,155,,1*77
$GBGSV,3,2,11,22,16,293,27,44,13,308,22,35,12,263,22,31,08,333,,1*7F
$GBGSV,3,3,11,23,06,034,17,36,06,192,21,32,03,110,14,1*4D
$GNRMC,194935.000,A,4910.427400,N,12304.401216,W,0.03,348.30,151024,,,D,V*1F
$GNVTG,348.30,T,,M,0.03,N,0.05,K,D*2C
$GNGGA,194936.000,4910.427286,N,12304.401240,W,2,29,0.47,4.143,M,-16.816,M,,*4A
$GNGLL,4910.427286,N,12304.401240,W,194936.000,A,D*56
$GNGSA,A,3,03,31,04,28,26,06,02,09,16,21,25,,0.79,0.47,0.63,1*0C
$GNGSA,A,3,72,73,,,,,,,,,,,0.79,0.47,0.63,2*0B
$GNGSA,A,3,05,03,15,24,34,13,31,09,25,,,,0.79,0.47,0.63,3*06
$GNGSA,A,3,19,20,37,22,44,35,23,,,,,,0.79,0.47,0.63,4*05
$GPGSV,4,1,14,03,80,260,33,31,65,081,34,04,50,274,29,28,34,053,29,1*6F
$GPGSV,4,2,14,46,33,188,28,26,30,116,26,06,17,323,25,02,17,210,28,1*63
$GPGSV,4,3,14,09,17,270,20,16,10,144,23,21,08,198,20,25,06,026,19,1*6C
$GPGSV,4,4,14,32,02,084,,19,01,300,,1*64
$GLGSV,2,1,07,72,71,013,25,74,51,122,,73,42,052,24,71,34,088,,1*7E
$GLGSV,2,2,07,88,29,293,,65,26,297,,75,15,171,,1*46
$GAGSV,3,1,10,05,62,068,29,03,60,275,29,15,44,267,25,24,28,096,26,7*7D
$GAGSV,3,2,10,34,26,206,22,13,19,324,20,31,18,042,22,09,11,080,12,7*76
$GAGSV,3,3,10,25,11,146,22,08,10,265,16,7*79
$GBGSV,3,1,11,19,69,305,34,20,56,103,34,37,44,071,33,46,44,155,,1*77
$GBGSV,3,2,11,22,16,293,27,44,13,308,22,35,12,263,22,31,08,333,,1*7F
$GBGSV,3,3,11,23,06,034,17,36,06,192,21,32,03,110,14,1*4D
$GNRMC,194936.000,A,4910.427286,N,12304.401240,W,0.03,348.30,151024,,,D,V*17
$GNVTG,348.30,T,,M,0.03,N,0.05,K,D*2C
$GNGGA,194937.000,4910.427226,N,12304.401300,W,2,29,0.47,4.114,M,-16.816,M,,*46
$GNGLL,4910.427226,N,12304.401300,W,194937.000,A,D*58
$GNGSA,A,3,03,31,04,28,26,06,02,09,16,21,25,,0.79,0.47,0.63,1*0C
$GNGSA,A,3,72,73,,,,,,,,,,,0.79,0.47,0.63,2*0B
$GNGSA,A,3,05,03,15,24,34,13,31,09,25,,,,0.79,0.47,0.63,3*06
$GNGSA,A,3,19,20,37,22,44,35,23,,,,,,0.79,0.47,0.63,4*05
$GPGSV,4,1,14,03,80,260,34,31,65,081,34,04,50,274,29,28,34,053,29,1*68
$GPGSV,4,2,14,46,33,188,28,26,30,116,26,06,17,323,26,02,17,210,28,1*60
$GPGSV,4,3,14,09,17,270,20,16,10,144,23,21,08,198,20,25,06,026,20,1*66
$GPGSV,4,4,14,32,02,084,,19,01,300,,1*64
$GLGSV,2,1,07,72,71,013,25,74,51,122,,73,42,052,24,71,34,088,,1*7E
$GLGSV,2,2,07,88,29,293,,65,26,297,,75,15,171,,1*46
$GAGSV,3,1,10,05,62,068,29,03,60,275,29,15,44,267,26,24,28,096,26,7*7E
$GAGSV,3,2,10,34,26,206,22,13,19,324,20,31,18,042,22,09,11,080,13,7*77
$GAGSV,3,3,10,25,11,146,22,08,10,265,17,7*78
$GBGSV,3,1,11,19,69,305,34,20,56,103,34,37,44,071,33,46,44,155,,1*77
$GBGSV,3,2,11,22,16,293,27,44,13,308,22,35,12,263,22,31,08,333,,1*7F
$GBGSV,3,3,11,23,06,034,17,36,06,192,21,32,03,110,13,1*4A
$GNRMC,194937.000,A,4910.427226,N,12304.401300,W,0.03,348.30,151024,,,D,V*19
$GNVTG,348.30,T,,M,0.03,N,0.05,K,D*2C
$GNGGA,194938.000,4910.427160,N,12304.401360,W,2,29,0.47,4.180,M,-16.816,M,,*43
$GNGLL,4910.427160,N,12304.401360,W,194938.000,A,D*50
$GNGSA,A,3,03,31,04,28,26,06,02,09,16,21,25,,0.79,0.47,0.63,1*0C
$GNGSA,A,3,72,73,,,,,,,,,,,0.79,0.47,0.63,2*0B
$GNGSA,A,3,05,03,15,24,34,13,31,09,25,,,,0.79,0.47,0.63,3*06
$GNGSA,A,3,19,20,37,22,44,35,23,,,,,,0.79,0.47,0.63,4*05
$GPGSV,4,1,14,03,80,260,34,31,65,081,34,04,50,274,30,28,34,053,29,1*60
$GPGSV,4,2,14,46,33,188,28,26,30,116,27,06,17,323,27,02,17,210,28,1*60
$GPGSV,4,3,14,09,17,270,20,16,10,144,26,21,08,198,20,25,06,026,20,1*63
$GPGSV,4,4,14,32,02,084,,19,01,300,,1*64
$GLGSV,2,1,07,72,71,013,25,74,51,122,,73,42,052,24,71,34,088,,1*7E
$GLGSV,2,2,07,88,29,293,,65,26,297,,75,15,171,,1*46
$GAGSV,3,1,10,05,62,068,30,03,60,275,30,15,44,267,26,24,28,096,26,7*7E
$GAGSV,3,2,10,34,26,206,22,13,19,324,20,31,18,042,23,09,11,080,14,7*71
$GAGSV,3,3,10,25,11,146,23,08,10,265,17,7*79
$GBGSV,3,1,11,19,69,305,35,20,56,103,34,37,44,071,33,46,44,155,,1*76
$GBGSV,3,2,11,22,16,293,27,44,13,308,22,35,12,263,22,31,08,333,,1*7F
$GBGSV,3,3,11,23,06,034,17,36,06,192,21,32,03,110,14,1*4D
$GNRMC,194938.000,A,4910.427160,N,12304.401360,W,0.02,348.30,151024,,,D,V*10
$GNVTG,348.30,T,,M,0.02,N,0.04,K,D*2C
$GNGGA,194939.000,4910.427130,N,12304.401426,W,2,29,0.47,4.389,M,-16.816,M,,*49
