$GNGGA,194929.000,4910.425693,N,12304.403018,W,1,26,0.69,10.991,M,-16.816,M,,*79
$GNRMC,194929.000,A,4910.425693,N,12304.403018,W,0.007,126.46,151024,,,A,V*2C
$GNGLL,4910.425693,N,12304.403018,W,194929.000,A,A*52
$GNVTG,126.46,T,,M,0.007,N,0.014,K,A*26
$GNGSA,A,3,02,03,04,06,09,21,25,26,28,31,,,1.03,0.69,0.77,1*0E
$GNGSA,A,3,71,72,,,,,,,,,,,1.03,0.69,0.77,2*0C
$GNGSA,A,3,03,05,15,24,31,34,,,,,,,1.03,0.69,0.77,3*0F
$GNGSA,A,3,19,20,22,23,35,36,37,44,,,,,1.03,0.69,0.77,4*05
$GNGSA,A,3,,,,,,,,,,,,,1.03,0.69,0.77,5*08
$GPGSV,3,1,12,02,17,209,25,03,80,260,35,04,49,273,31,06,17,323,22,1*6B
$GPGSV,3,2,12,09,17,270,20,16,,,24,21,07,197,20,25,05,025,18,1*5A
$GPGSV,3,3,12,26,30,114,28,28,32,052,30,31,64,079,34,44,33,172,29,1*67
$GPGSV,2,1,05,03,80,260,24,04,49,273,20,06,17,323,18,26,30,114,18,8*6E
$GPGSV,2,2,05,28,32,052,19,8*5C
$GLGSV,1,1,02,71,33,089,23,72,70,015,23,1*7B
$GAGSV,2,1,07,03,60,275,28,05,61,068,29,13,,,21,15,43,266,23,7*4E
$GAGSV,2,2,07,24,28,095,25,31,17,041,21,34,25,205,24,7*40
$GAGSV,2,1,05,03,60,275,20,05,61,068,22,15,43,266,19,24,28,095,17,1*77
$GAGSV,2,2,05,34,25,205,16,1*40
$GBGSV,3,1,09,19,69,305,39,20,55,103,40,22,16,293,32,23,06,033,24,1*7D
$GBGSV,3,2,09,32,02,110,15,35,11,262,29,36,06,191,25,37,44,070,36,1*79
$GBGSV,3,3,09,44,12,307,29,1*43
$GBGSV,1,1,03,19,69,305,20,20,55,103,24,37,44,070,21,5*44
$GQGSV,1,1,00,1*65
$GQGSV,1,1,00,8*6C
$GNGGA,194930.000,4910.425693,N,12304.403021,W,1,26,0.69,10.990,M,-16.816,M,,*7A
$GNRMC,194930.000,A,4910.425693,N,12304.403021,W,0.004,126.46,151024,,,A,V*2D
$GNGLL,4910.425693,N,12304.403021,W,194930.000,A,A*50
$GNVTG,126.46,T,,M,0.004,N,0.008,K,A*28
$GNGSA,A,3,02,03,04,06,09,21,25,26,28,31,,,1.03,0.69,0.77,1*0E
$GNGSA,A,3,71,72,,,,,,,,,,,1.03,0.69,0.77,2*0C
$GNGSA,A,3,03,05,15,24,31,34,,,,,,,1.03,0.69,0.77,3*0F
$GNGSA,A,3,19,20,22,23,35,36,37,44,,,,,1.03,0.69,0.77,4*05
$GNGSA,A,3,,,,,,,,,,,,,1.03,0.69,0.77,5*08
$GPGSV,3,1,12,02,17,209,25,03,80,259,35,04,49,273,32,06,17,323,22,1*62
$GPGSV,3,2,12,09,17,270,20,16,,,24,21,07,197,20,25,05,025,18,1*5A
$GPGSV,3,3,12,26,30,114,28,28,32,052,31,31,64,079,34,44,33,172,29,1*66
$GPGSV,2,1,05,03,80,259,25,04,49,273,21,06,17,323,19,26,30,114,19,8*64
$GPGSV,2,2,05,28,32,052,19,8*5C
$GLGSV,1,1,02,71,33,089,23,72,70,015,25,1*7D
$GAGSV,2,1,07,03,60,275,29,05,61,068,29,13,,,21,15,43,266,25,7*49
$GAGSV,2,2,07,24,28,095,26,31,17,041,22,34,25,205,22,7*46
$GAGSV,2,1,05,03,60,275,21,05,61,068,21,15,43,266,19,24,28,095,16,1*74
$GAGSV,2,2,05,34,25,205,15,1*43
$GBGSV,3,1,09,19,69,305,39,20,55,103,40,22,16,293,32,23,06,033,24,1*7D
$GBGSV,3,2,09,32,02,110,17,35,11,262,29,36,06,191,27,37,44,070,37,1*78
$GBGSV,3,3,09,44,12,307,28,1*42
$GBGSV,1,1,03,19,69,305,20,20,55,103,24,37,44,070,22,5*47
$GQGSV,1,1,00,1*65
$GQGSV,1,1,00,8*6C
$GNGGA,194931.000,4910.425694,N,12304.403021,W,1,26,0.81,10.991,M,-16.816,M,,*7B
$GNRMC,194931.000,A,4910.425694,N,12304.403021,W,0.005,126.46,151024,,,A,V*2A
$GNGLL,4910.425694,N,12304.403021,W,194931.000,A,A*56
$GNVTG,126.46,T,,M,0.005,N,0.010,K,A*20
$GNGSA,A,3,02,03,04,06,09,21,25,26,28,31,,,1.19,0.81,0.87,1*0C
$GNGSA,A,3,71,72,,,,,,,,,,,1.19,0.81,0.87,2*0E
$GNGSA,A,3,03,05,15,24,31,34,,,,,,,1.19,0.81,0.87,3*0D
$GNGSA,A,3,19,20,22,23,35,36,37,44,,,,,1.19,0.81,0.87,4*07
$GNGSA,A,3,,,,,,,,,,,,,1.19,0.81,0.87,5*0A
$GPGSV,3,1,12,02,17,209,27,03,80,259,35,04,49,273,30,06,17,323,23,1*63
$GPGSV,3,2,12,09,17,270,20,16,,,24,21,07,197,20,25,05,025,19,1*5B
$GPGSV,3,3,12,26,30,114,27,28,32,052,30,31,64,079,34,44,33,172,29,1*68
$GPGSV,2,1,05,03,80,259,26,04,49,273,21,06,17,323,19,26,30,114,20,8*6D
$GPGSV,2,2,05,28,32,052,20,8*56
$GLGSV,1,1,02,71,33,089,24,72,70,015,24,1*7B
$GAGSV,2,1,07,03,60,275,27,05,61,068,29,13,,,21,15,43,266,25,7*47
$GAGSV,2,2,07,24,28,095,26,31,17,041,22,34,25,205,23,7*47
$GAGSV,2,1,05,03,60,275,24,05,61,068,23,15,43,266,20,24,28,095,17,1*78
$GAGSV,2,2,05,34,25,205,17,1*41
$GBGSV,3,1,09,19,69,305,40,20,55,103,40,22,16,293,33,23,06,033,25,1*73
$GBGSV,3,2,09,32,02,110,16,35,11,262,30,36,06,191,26,37,44,070,37,1*70
$GBGSV,3,3,09,44,12,307,29,1*43
$GBGSV,1,1,03,19,69,305,21,20,55,103,25,37,44,070,22,5*47
$GQGSV,1,1,00,1*65
$GQGSV,1,1,00,8*6C
$GNGGA,194932.000,4910.425693,N,12304.403021,W,1,26,0.81,10.994,M,-16.817,M,,*7B
$GNRMC,194932.000,A,4910.425693,N,12304.403021,W,0.005,126.46,151024,,,A,V*2E
$GNGLL,4910.425693,N,12304.403021,W,194932.000,A,A*52
$GNVTG,126.46,T,,M,0.005,N,0.010,K,A*20
$GNGSA,A,3,02,03,04,06,09,21,25,26,28,31,,,1.19,0.81,0.87,1*0C
$GNGSA,A,3,71,72,,,,,,,,,,,1.19,0.81,0.87,2*0E
$GNGSA,A,3,03,05,15,24,31,34,,,,,,,1.19,0.81,0.87,3*0D
$GNGSA,A,3,19,20,22,23,35,36,37,44,,,,,1.19,0.81,0.87,4*07
$GNGSA,A,3,,,,,,,,,,,,,1.19,0.81,0.87,5*0A
$GPGSV,3,1,12,02,17,209,25,03,80,259,35,04,49,273,30,06,17,323,21,1*63
$GPGSV,3,2,12,09,17,270,19,16,,,22,21,07,197,21,25,05,025,19,1*56
$GPGSV,3,3,12,26,30,114,28,28,32,052,30,31,64,079,34,44,33,172,29,1*67
$GPGSV,2,1,05,03,80,259,27,04,49,273,21,06,17,323,18,26,30,114,20,8*6D
$GPGSV,2,2,05,28,32,052,20,8*56
$GLGSV,1,1,02,71,33,089,22,72,70,015,23,1*7A
$GAGSV,2,1,07,03,60,275,27,05,61,068,28,13,,,20,15,43,266,24,7*46
$GAGSV,2,2,07,24,28,095,24,31,17,041,21,34,25,205,21,7*44
$GAGSV,2,1,05,03,60,275,23,05,61,068,23,15,43,266,21,24,28,095,18,1*71
$GAGSV,2,2,05,34,25,205,17,1*41
$GBGSV,3,1,09,19,69,305,39,20,55,103,40,22,16,293,32,23,06,033,25,1*7C
$GBGSV,3,2,09,32,02,110,14,35,11,262,29,36,06,191,25,37,44,070,37,1*79
$GBGSV,3,3,09,44,12,307,29,1*43
$GBGSV,1,1,03,19,69,305,22,20,55,103,25,37,44,070,23,5*45
$GQGSV,1,1,00,1*65
$GQGSV,1,1,00,8*6C
$GNGGA,194933.000,4910.425692,N,12304.403020,W,1,26,0.81,10.997,M,-16.817,M,,*79
$GNRMC,194933.000,A,4910.425692,N,12304.403020,W,0.007,126.46,151024,,,A,V*2D
$GNGLL,4910.425692,N,12304.403020,W,194933.000,A,A*53
$GNVTG,126.46,T,,M,0.007,N,0.013,K,A*21
$GNGSA,A,3,02,03,04,06,09,21,25,26,28,31,,,1.19,0.81,0.87,1*0C
$GNGSA,A,3,71,72,,,,,,,,,,,1.19,0.81,0.87,2*0E
$GNGSA,A,3,03,05,15,24,31,34,,,,,,,1.19,0.81,0.87,3*0D
$GNGSA,A,3,19,20,22,23,35,36,37,44,,,,,1.19,0.81,0.87,4*07
$GNGSA,A,3,,,,,,,,,,,,,1.19,0.81,0.87,5*0A
$GPGSV,3,1,12,02,17,209,26,03,80,259,35,04,49,273,31,06,17,323,23,1*63
$GPGSV,3,2,12,09,17,270,20,16,,,24,21,07,197,22,25,05,025,18,1*58
$GPGSV,3,3,12,26,30,114,28,28,32,052,31,31,64,079,34,44,33,172,29,1*66
$GPGSV,2,1,05,03,80,259,27,04,49,273,22,06,17,323,20,26,30,114,20,8*65
$GPGSV,2,2,05,28,32,052,20,8*56
$GLGSV,1,1,02,71,33,089,22,72,70,015,24,1*7D
$GAGSV,2,1,07,03,60,275,29,05,61,068,29,13,,,20,15,43,266,27,7*4A
$GAGSV,2,2,07,24,28,095,24,31,17,041,21,34,25,205,23,7*46
$GAGSV,2,1,05,03,60,275,23,05,61,068,24,15,43,266,21,24,28,095,18,1*76
$GAGSV,2,2,05,34,25,205,17,1*41
$GBGSV,3,1,09,19,69,305,39,20,55,103,40,22,16,293,33,23,06,033,25,1*7D
$GBGSV,3,2,09,32,02,110,16,35,11,262,30,36,06,191,27,37,44,070,37,1*71
$GBGSV,3,3,09,44,12,307,29,1*43
$GBGSV,1,1,03,19,69,305,23,20,55,103,25,37,44,070,24,5*43
$GQGSV,1,1,00,1*65
$GQGSV,1,1,00,8*6C
$GNGGA,194934.000,4910.425692,N,12304.403019,W,1,26,0.81,10.996,M,-16.816,M,,*74
$GNRMC,194934.000,A,4910.425692,N,12304.403019,W,0.001,126.46,151024,,,A,V*26
$GNGLL,4910.425692,N,12304.403019,W,194934.000,A,A*5E
$GNVTG,126.46,T,,M,0.001,N,0.003,K,A*26
$GNGSA,A,3,02,03,04,06,09,21,25,26,28,31,,,1.19,0.81,0.87,1*0C
$GNGSA,A,3,71,72,,,,,,,,,,,1.19,0.81,0.87,2*0E
$GNGSA,A,3,03,05,15,24,31,34,,,,,,,1.19,0.81,0.87,3*0D
$GNGSA,A,3,19,20,22,23,35,36,37,44,,,,,1.19,0.81,0.87,4*07
$GNGSA,A,3,,,,,,,,,,,,,1.19,0.81,0.87,5*0A
$GPGSV,3,1,12,02,17,209,28,03,80,259,35,04,49,273,32,06,17,323,23,1*6E
$GPGSV,3,2,12,09,17,270,19,16,,,24,21,07,197,22,25,05,025,18,1*52
$GPGSV,3,3,12,26,30,114,27,28,32,052,30,31,64,079,34,44,33,172,29,1*68
$GPGSV,2,1,05,03,80,259,27,04,49,273,21,06,17,323,20,26,30,114,19,8*6C
$GPGSV,2,2,05,28,32,052,20,8*56
$GLGSV,1,1,02,71,33,089,22,72,70,015,25,1*7C
$GAGSV,2,1,07,03,60,275,29,05,61,068,29,13,,,21,15,43,266,25,7*49
$GAGSV,2,2,07,24,28,095,25,31,17,041,21,34,25,205,22,7*46
$GAGSV,2,1,05,03,60,275,22,05,61,068,24,15,43,266,20,24,28,095,18,1*76
$GAGSV,2,2,05,34,25,205,16,1*40
$GBGSV,3,1,09,19,69,305,40,20,55,103,40,22,16,293,33,23,06,033,25,1*73
$GBGSV,3,2,09,32,02,110,13,35,11,262,29,36,06,191,26,37,44,070,36,1*7C
$GBGSV,3,3,09,44,12,307,29,1*43
$GBGSV,1,1,03,19,69,305,23,20,55,103,25,37,44,070,23,5*44
$GQGSV,1,1,00,1*65
$GQGSV,1,1,00,8*6C
$GNGGA,194935.000,4910.425692,N,12304.403020,W,1,26,0.77,10.995,M,-16.816,M,,*75
$GNRMC,194935.000,A,4910.425692,N,12304.403020,W,0.007,126.46,151024,,,A,V*2B
$GNGLL,4910.425692,N,12304.403020,W,194935.000,A,A*55
$GNVTG,126.46,T,,M,0.007,N,0.013,K,A*21
$GNGSA,A,3,02,03,04,06,09,21,25,26,28,31,,,1.12,0.77,0.81,1*08
$GNGSA,A,3,71,72,,,,,,,,,,,1.12,0.77,0.81,2*0A
$GNGSA,A,3,03,05,15,24,31,34,,,,,,,1.12,0.77,0.81,3*09
$GNGSA,A,3,19,20,22,23,35,36,37,44,,,,,1.12,0.77,0.81,4*03
$GNGSA,A,3,,,,,,,,,,,,,1.12,0.77,0.81,5*0E
$GPGSV,3,1,12,02,17,209,26,03,80,259,35,04,49,273,30,06,17,323,22,1*63
$GPGSV,3,2,12,09,17,270,20,16,,,24,21,07,197,20,25,05,025,18,1*5A
$GPGSV,3,3,12,26,30,114,28,28,32,052,30,31,64,079,34,44,33,172,29,1*67
$GPGSV,2,1,05,03,80,259,27,04,49,273,22,06,17,323,20,26,30,114,19,8*6F
$GPGSV,2,2,05,28,32,052,20,8*56
$GLGSV,1,1,02,71,33,089,23,72,70,015,24,1*7C
$GAGSV,2,1,07,03,60,275,28,05,61,068,29,13,,,20,15,43,266,24,7*48
$GAGSV,2,2,07,24,28,095,25,31,17,041,21,34,25,205,21,7*45
$GAGSV,2,1,05,03,60,275,22,05,61,068,23,15,43,266,20,24,28,095,17,1*7E
$GAGSV,2,2,05,34,25,205,16,1*40
$GBGSV,3,1,09,19,69,305,39,20,55,103,40,22,16,293,33,23,06,033,26,1*7E
$GBGSV,3,2,09,32,02,110,16,35,11,262,29,36,06,191,27,37,44,070,37,1*79
$GBGSV,3,3,09,44,12,307,29,1*43
$GBGSV,1,1,03,19,69,305,20,20,55,103,26,37,44,070,23,5*44
$GQGSV,1,1,00,1*65
$GQGSV,1,1,00,8*6C
$GNGGA,194936.000,4910.425692,N,12304.403022,W,1,26,0.77,10.994,M,-16.816,M,,*75
$GNRMC,194936.000,A,4910.425692,N,12304.403022,W,0.001,126.46,151024,,,A,V*2C
$GNGLL,4910.425692,N,12304.403022,W,194936.000,A,A*54
$GNVTG,126.46,T,,M,0.001,N,0.003,K,A*26
$GNGSA,A,3,02,03,04,06,09,21,25,26,28,31,,,1.12,0.77,0.81,1*08
$GNGSA,A,3,71,72,,,,,,,,,,,1.12,0.77,0.81,2*0A
$GNGSA,A,3,03,05,15,24,31,34,,,,,,,1.12,0.77,0.81,3*09
$GNGSA,A,3,19,20,22,23,35,36,37,44,,,,,1.12,0.77,0.81,4*03
$GNGSA,A,3,,,,,,,,,,,,,1.12,0.77,0.81,5*0E
$GPGSV,3,1,12,02,17,209,27,03,80,259,36,04,49,273,30,06,17,323,23,1*60
$GPGSV,3,2,12,09,17,270,20,16,,,24,21,07,197,21,25,05,025,19,1*5A
$GPGSV,3,3,12,26,30,114,28,28,32,052,31,31,64,079,34,44,33,172,29,1*66
$GPGSV,2,1,05,03,80,259,26,04,49,273,21,06,17,323,19,26,30,114,20,8*6D
$GPGSV,2,2,05,28,32,052,20,8*56
$GLGSV,1,1,02,71,33,089,22,72,70,015,25,1*7C
$GAGSV,2,1,07,03,60,275,30,05,61,068,30,13,,,21,15,43,266,25,7*49
$GAGSV,2,2,07,24,28,095,26,31,17,041,22,34,25,205,22,7*46
$GAGSV,2,1,05,03,60,275,22,05,61,068,22,15,43,266,20,24,28,095,17,1*7F
$GAGSV,2,2,05,34,25,205,16,1*40
$GBGSV,3,1,09,19,69,305,40,20,55,103,40,22,16,293,33,23,06,033,25,1*73
$GBGSV,3,2,09,32,02,110,16,35,11,262,30,36,06,191,28,37,44,070,37,1*7E
$GBGSV,3,3,09,44,12,307,29,1*43
$GBGSV,1,1,03,19,69,305,21,20,55,103,26,37,44,070,23,5*45
$GQGSV,1,1,00,1*65
$GQGSV,1,1,00,8*6C
$GNGGA,194937.000,4910.425693,N,12304.403020,W,1,26,0.70,10.994,M,-16.817,M,,*71
$GNRMC,194937.000,A,4910.425693,N,12304.403020,W,0.004,126.46,151024,,,A,V*2B
$GNGLL,4910.425693,N,12304.403020,W,194937.000,A,A*56
$GNVTG,126.46,T,,M,0.004,N,0.008,K,A*28
$GNGSA,A,3,02,03,04,06,09,21,25,26,28,31,,,1.05,0.70,0.78,1*0F
$GNGSA,A,3,71,72,,,,,,,,,,,1.05,0.70,0.78,2*0D
$GNGSA,A,3,03,05,15,24,31,34,,,,,,,1.05,0.70,0.78,3*0E
$GNGSA,A,3,19,20,22,23,35,36,37,44,,,,,1.05,0.70,0.78,4*04
$GNGSA,A,3,,,,,,,,,,,,,1.05,0.70,0.78,5*09
$GPGSV,3,1,12,02,17,209,27,03,80,259,36,04,49,273,31,06,17,323,24,1*66
$GPGSV,3,2,12,09,17,270,20,16,,,24,21,07,197,22,25,05,025,20,1*53
$GPGSV,3,3,12,26,30,114,27,28,32,052,31,31,64,079,34,44,33,172,29,1*69
$GPGSV,2,1,05,03,80,259,27,04,49,273,21,06,17,323,19,26,30,114,20,8*6C
$GPGSV,2,2,05,28,32,052,21,8*57
$GLGSV,1,1,02,71,33,089,20,72,70,015,22,1*79
$GAGSV,2,1,07,03,60,275,29,05,61,068,29,13,,,20,15,43,266,25,7*48
$GAGSV,2,2,07,24,28,095,25,31,17,041,22,34,25,205,22,7*45
$GAGSV,2,1,05,03,60,275,22,05,61,068,24,15,43,266,22,24,28,095,17,1*7B
$GAGSV,2,2,05,34,25,205,17,1*41
$GBGSV,3,1,09,19,69,305,40,20,55,103,40,22,16,293,33,23,06,033,25,1*73
$GBGSV,3,2,09,32,02,110,17,35,11,262,30,36,06,191,27,37,44,070,37,1*70
$GBGSV,3,3,09,44,12,307,29,1*43
$GBGSV,1,1,03,19,69,305,22,20,55,103,25,37,44,070,23,5*45
$GQGSV,1,1,00,1*65
$GQGSV,1,1,00,8*6C
$GNGGA,194938.000,4910.425695,N,12304.403016,W,1,26,0.77,10.994,M,-16.817,M,,*7A
$GNRMC,194938.000,A,4910.425695,N,12304.403016,W,0.012,126.46,151024,,,A,V*20
$GNGLL,4910.425695,N,12304.403016,W,194938.000,A,A*5A
$GNVTG,126.46,T,,M,0.012,N,0.023,K,A*26
$GNGSA,A,3,02,03,04,06,09,21,25,26,28,31,,,1.12,0.77,0.81,1*08
$GNGSA,A,3,71,72,,,,,,,,,,,1.12,0.77,0.81,2*0A
$GNGSA,A,3,03,05,15,24,31,34,,,,,,,1.12,0.77,0.81,3*09
$GNGSA,A,3,19,20,22,23,35,36,37,44,,,,,1.12,0.77,0.81,4*03
$GNGSA,A,3,,,,,,,,,,,,,1.12,0.77,0.81,5*0E
$GPGSV,3,1,12,02,17,209,27,03,80,259,34,04,49,274,31,06,17,323,22,1*65
$GPGSV,3,2,12,09,17,270,19,16,,,23,21,07,197,21,25,05,025,18,1*56
$GPGSV,3,3,12,26,30,114,27,28,32,052,30,31,64,079,34,44,33,172,29,1*68
$GPGSV,2,1,05,03,80,259,26,04,49,274,21,06,17,323,19,26,30,114,20,8*6A
$GPGSV,2,2,05,28,32,052,20,8*56
$GLGSV,1,1,02,71,33,089,20,72,70,015,24,1*7F
$GAGSV,2,1,07,03,60,275,30,05,61,068,29,13,,,21,15,43,266,26,7*42
$GAGSV,2,2,07,24,28,095,24,31,17,041,21,34,25,205,23,7*46
$GAGSV,2,1,05,03,60,275,22,05,61,068,23,15,43,266,20,24,28,095,17,1*7E
$GAGSV,2,2,05,34,25,205,16,1*40
$GBGSV,3,1,09,19,69,305,40,20,55,103,40,22,16,293,33,23,06,033,24,1*72
$GBGSV,3,2,09,32,02,110,16,35,11,262,29,36,06,191,27,37,44,070,37,1*79
$GBGSV,3,3,09,44,12,307,28,1*42
$GBGSV,1,1,03,19,69,305,21,20,55,103,24,37,44,070,23,5*47
$GQGSV,1,1,00,1*65
$GQGSV,1,1,00,8*6C
$GNGGA,194939.000,4910.425697,N,12304.403012,W,1,26,0.63,10.997,M,-16.817,M,,*7B
$GNRMC,194939.000,A,4910.425697,N,12304.403012,W,0.003,126.46,151024,,,A,V*27
$GNGLL,4910.425697,N,12304.403012,W,194939.000,A,A*5D
$GNVTG,126.46,T,,M,0.003,N,0.006,K,A*21
$GNGSA,A,3,02,03,04,06,09,21,25,26,28,31,,,0.98,0.63,0.75,1*05
$GNGSA,A,3,71,72,,,,,,,,,,,0.98,0.63,0.75,2*07
$GNGSA,A,3,03,05,15,24,31,34,,,,,,,0.98,0.63,0.75,3*04
$GNGSA,A,3,19,20,22,23,35,36,37,44,,,,,0.98,0.63,0.75,4*0E
$GNGSA,A,3,,,,,,,,,,,,,0.98,0.63,0.75,5*03
$GPGSV,3,1,12,02,17,209,26,03,80,259,35,04,49,274,30,06,17,323,22,1*64
$GPGSV,3,2,12,09,17,270,20,16,,,23,21,07,197,20,25,05,025,18,1*5D
$GPGSV,3,3,12,26,30,114,28,28,32,052,31,31,64,079,33,44,33,172,29,1*61
$GPGSV,2,1,05,03,80,259,26,04,49,274,20,06,17,323,18,26,30,114,18,8*61
$GPGSV,2,2,05,28,32,052,19,8*5C
$GLGSV,1,1,02,71,33,089,20,72,70,015,23,1*78
$GAGSV,2,1,07,03,60,275,29,05,61,068,29,13,,,19,15,43,266,24,7*43
$GAGSV,2,2,07,24,28,095,25,31,17,041,21,34,25,205,21,7*45
$GAGSV,2,1,05,03,60,275,20,05,61,068,21,15,43,266,19,24,28,095,17,1*74
$GAGSV,2,2,05,34,25,205,15,1*43
$GBGSV,3,1,09,19,69,305,40,20,55,103,40,22,16,293,33,23,06,033,24,1*72
$GBGSV,3,2,09,32,02,110,17,35,11,262,30,36,06,191,28,37,44,070,37,1*7F
$GBGSV,3,3,09,44,12,307,29,1*43
$GBGSV,1,1,03,19,69,305,20,20,55,103,24,37,44,070,22,5*47
$GQGSV,1,1,00,1*65
$GQGSV,1,1,00,8*6C
$GNGGA,194940.000,4910.425698,N,12304.403014,W,1,26,0.70,11.000,M,-16.817,M,,*78
$GNRMC,194940.000,A,4910.425698,N,12304.403014,W,0.021,126.46,151024,,,A,V*20
$GNGLL,4910.425698,N,12304.403014,W,194940.000,A,A*5A
$GNVTG,126.46,T,,M,0.021,N,0.039,K,A*2D
$GNGSA,A,3,02,03,04,06,09,21,25,26,28,31,,,1.05,0.70,0.78,1*0F
$GNGSA,A,3,71,72,,,,,,,,,,,1.05,0.70,0.78,2*0D
$GNGSA,A,3,03,05,15,24,31,34,,,,,,,1.05,0.70,0.78,3*0E
$GNGSA,A,3,19,20,22,23,35,36,37,44,,,,,1.05,0.70,0.78,4*04
$GNGSA,A,3,,,,,,,,,,,,,1.05,0.70,0.78,5*09
$GPGSV,3,1,12,02,17,209,27,03,80,259,35,04,49,274,31,06,17,323,23,1*65
$GPGSV,3,2,12,09,17,270,19,16,,,24,21,07,197,21,25,05,025,18,1*51
$GPGSV,3,3,12,26,30,114,28,28,32,052,31,31,64,079,33,44,33,172,29,1*61
$GPGSV,2,1,05,03,80,259,27,04,49,274,20,06,17,323,20,26,30,114,19,8*6A
$GPGSV,2,2,05,28,32,052,21,8*57
$GLGSV,1,1,02,71,33,089,19,72,70,015,23,1*72
$GAGSV,2,1,07,03,60,275,28,05,61,068,29,13,,,20,15,43,266,27,7*4B
$GAGSV,2,2,07,24,28,095,24,31,17,041,21,34,25,205,23,7*46
$GAGSV,2,1,05,03,60,275,23,05,61,068,24,15,43,266,20,24,28,095,17,1*78
$GAGSV,2,2,05,34,25,205,17,1*41
$GBGSV,3,1,09,19,69,305,40,20,55,103,40,22,16,293,34,23,06,033,25,1*74
$GBGSV,3,2,09,32,02,110,17,35,11,262,30,36,06,191,26,37,44,070,36,1*70
$GBGSV,3,3,09,44,12,307,28,1*42
$GBGSV,1,1,03,19,69,305,22,20,55,103,25,37,44,070,24,5*42
$GQGSV,1,1,00,1*65
$GQGSV,1,1,00,8*6C
$GNGGA,194941.000,4910.425699,N,12304.403016,W,1,26,0.72,10.998,M,-16.816,M,,*70
$GNRMC,194941.000,A,4910.425699,N,12304.403016,W,0.013,126.46,151024,,,A,V*23
$GNGLL,4910.425699,N,12304.403016,W,194941.000,A,A*58
$GNVTG,126.46,T,,M,0.013,N,0.024,K,A*20
$GNGSA,A,3,02,03,04,06,09,21,25,26,28,31,,,1.07,0.72,0.80,1*08
$GNGSA,A,3,71,72,,,,,,,,,,,1.07,0.72,0.80,2*0A
$GNGSA,A,3,03,05,15,24,31,34,,,,,,,1.07,0.72,0.80,3*09
$GNGSA,A,3,19,20,22,23,35,36,37,44,,,,,1.07,0.72,0.80,4*03
$GNGSA,A,3,,,,,,,,,,,,,1.07,0.72,0.80,5*0E
$GPGSV,3,1,12,02,17,209,28,03,80,259,36,04,49,274,30,06,17,323,22,1*69
$GPGSV,3,2,12,09,17,270,19,16,,,24,21,07,197,21,25,05,025,19,1*50
$GPGSV,3,3,12,26,30,114,28,28,32,052,31,31,64,079,35,44,33,172,29,1*67
$GPGSV,1,1,04,03,80,259,27,06,17,323,20,26,30,114,20,28,32,052,20,8*66
$GLGSV,1,1,02,71,33,089,18,72,70,015,24,1*74
$GAGSV,2,1,07,03,60,275,29,05,61,068,30,13,,,22,15,43,266,25,7*42
$GAGSV,2,2,07,24,28,095,25,31,17,041,23,34,25,205,22,7*44
$GAGSV,2,1,05,03,60,275,22,05,61,068,23,15,43,266,20,24,28,095,17,1*7E
$GAGSV,2,2,05,34,25,205,17,1*41
$GBGSV,3,1,09,19,69,305,40,20,55,103,40,22,16,293,33,23,06,033,24,1*72
$GBGSV,3,2,09,32,02,110,18,35,11,262,30,36,06,191,27,37,44,070,37,1*7F
$GBGSV,3,3,09,44,12,307,28,1*42
$GBGSV,1,1,03,19,69,305,21,20,55,103,25,37,44,070,23,5*46
$GQGSV,1,1,00,1*65
$GQGSV,1,1,00,8*6C
$GNGGA,194942.000,4910.425700,N,12304.403015,W,1,26,0.80,10.999,M,-16.817,M,,*7C
$GNRMC,194942.000,A,4910.425700,N,12304.403015,W,0.001,126.46,151024,,,A,V*21
$GNGLL,4910.425700,N,12304.403015,W,194942.000,A,A*59
$GNVTG,126.46,T,,M,0.001,N,0.001,K,A*24
$GNGSA,A,3,02,03,04,06,09,21,25,26,28,31,,,1.16,0.80,0.84,1*01
$GNGSA,A,3,71,72,,,,,,,,,,,1.16,0.80,0.84,2*03
$GNGSA,A,3,03,05,15,24,31,34,,,,,,,1.16,0.80,0.84,3*00
$GNGSA,A,3,19,20,22,23,35,36,37,44,,,,,1.16,0.80,0.84,4*0A
$GNGSA,A,3,,,,,,,,,,,,,1.16,0.80,0.84,5*07
$GPGSV,3,1,12,02,17,209,26,03,80,259,35,04,49,274,30,06,17,323,23,1*65
$GPGSV,3,2,12,09,17,270,19,16,,,25,21,07,197,23,25,05,025,18,1*52
$GPGSV,3,3,12,26,30,114,27,28,32,052,31,31,64,079,34,44,33,172,29,1*69
$GPGSV,2,1,05,03,80,259,26,04,49,274,21,06,17,323,20,26,30,114,20,8*60
$GPGSV,2,2,05,28,32,052,21,8*57
$GLGSV,1,1,02,71,33,089,19,72,70,015,22,1*73
$GAGSV,2,1,07,03,60,275,29,05,61,068,28,13,,,20,15,43,266,26,7*4A
$GAGSV,2,2,07,24,28,095,25,31,17,041,21,34,25,205,21,7*45
$GAGSV,2,1,05,03,60,275,22,05,61,068,22,15,43,266,20,24,28,095,17,1*7F
$GAGSV,2,2,05,34,25,205,17,1*41
$GBGSV,3,1,09,19,69,305,40,20,55,103,40,22,16,293,33,23,06,033,25,1*73
$GBGSV,3,2,09,32,02,110,17,35,11,262,30,36,06,191,27,37,44,070,36,1*71
$GBGSV,3,3,09,44,12,307,29,1*43
$GBGSV,1,1,03,19,69,305,22,20,55,103,25,37,44,070,23,5*45
$GQGSV,1,1,00,1*65
$GQGSV,1,1,00,8*6C
$GNGGA,194943.000,4910.425700,N,12304.403012,W,1,26,0.80,10.999,M,-16.816,M,,*7B
$GNRMC,194943.000,A,4910.425700,N,12304.403012,W,0.001,126.46,151024,,,A,V*27
$GNGLL,4910.425700,N,12304.403012,W,194943.000,A,A*5F
$GNVTG,126.46,T,,M,0.001,N,0.002,K,A*27
$GNGSA,A,3,02,03,04,06,09,21,25,26,28,31,,,1.16,0.80,0.84,1*01
$GNGSA,A,3,71,72,,,,,,,,,,,1.16,0.80,0.84,2*03
$GNGSA,A,3,03,05,15,24,31,34,,,,,,,1.16,0.80,0.84,3*00
$GNGSA,A,3,19,20,22,23,35,36,37,44,,,,,1.16,0.80,0.84,4*0A
$GNGSA,A,3,,,,,,,,,,,,,1.16,0.80,0.84,5*07
$GPGSV,3,1,12,02,17,209,27,03,80,259,34,04,49,274,31,06,17,323,23,1*64
$GPGSV,3,2,12,09,17,270,20,16,,,24,21,07,197,22,25,05,025,17,1*57
$GPGSV,3,3,12,26,30,114,28,28,32,052,31,31,64,079,33,44,33,172,29,1*61
$GPGSV,2,1,05,03,80,259,26,04,49,274,21,06,17,323,19,26,30,114,19,8*60
$GPGSV,2,2,05,28,32,052,19,8*5C
$GLGSV,1,1,02,71,33,089,20,72,70,015,23,1*78
$GAGSV,2,1,07,03,60,275,29,05,61,068,28,13,,,21,15,43,266,26,7*4B
$GAGSV,2,2,07,24,28,095,25,31,17,041,20,34,25,205,22,7*47
$GAGSV,2,1,05,03,60,275,22,05,61,068,22,15,43,266,20,24,28,095,17,1*7F
$GAGSV,2,2,05,34,25,205,16,1*40
$GBGSV,3,1,09,19,69,305,40,20,55,103,40,22,16,293,33,23,06,033,25,1*73
$GBGSV,3,2,09,32,02,110,17,35,11,262,30,36,06,191,27,37,44,070,37,1*70
$GBGSV,3,3,09,44,12,307,29,1*43
$GBGSV,1,1,03,19,69,305,21,20,55,103,25,37,44,070,22,5*47
$GQGSV,1,1,00,1*65
$GQGSV,1,1,00,8*6C
$GNGGA,194944.000,4910.425700,N,12304.403006,W,1,26,0.82,11.000,M,-16.816,M,,*73
$GNRMC,194944.000,A,4910.425700,N,12304.403006,W,0.018,126.46,151024,,,A,V*2D
$GNGLL,4910.425700,N,12304.403006,W,194944.000,A,A*5D
$GNVTG,126.46,T,,M,0.018,N,0.033,K,A*2D
$GNGSA,A,3,02,03,04,06,09,21,25,26,28,31,,,1.21,0.82,0.89,1*0A
$GNGSA,A,3,71,72,,,,,,,,,,,1.21,0.82,0.89,2*08
$GNGSA,A,3,03,05,15,24,31,34,,,,,,,1.21,0.82,0.89,3*0B
$GNGSA,A,3,19,20,22,23,35,36,37,44,,,,,1.21,0.82,0.89,4*01
$GNGSA,A,3,,,,,,,,,,,,,1.21,0.82,0.89,5*0C
$GPGSV,3,1,12,02,17,209,27,03,80,259,35,04,49,274,30,06,17,323,22,1*65
$GPGSV,3,2,12,09,17,270,21,16,,,24,21,07,197,23,25,05,025,18,1*58
$GPGSV,3,3,12,26,31,114,29,28,32,052,32,31,64,079,34,44,33,172,29,1*65
$GPGSV,2,1,05,03,80,259,28,04,49,274,23,06,17,323,20,26,31,114,20,8*6D
$GPGSV,2,2,05,28,32,052,21,8*57
$GLGSV,1,1,02,71,33,089,20,72,70,015,22,1*79
$GAGSV,2,1,07,03,60,275,30,05,61,068,30,13,,,20,15,43,266,25,7*48
$GAGSV,2,2,07,24,28,095,26,31,17,041,22,34,25,205,21,7*45
$GAGSV,2,1,05,03,60,275,23,05,61,068,24,15,43,266,23,24,28,095,18,1*74
$GAGSV,2,2,05,34,25,205,17,1*41
$GBGSV,3,1,09,19,69,305,40,20,55,103,40,22,16,293,33,23,06,033,25,1*73
$GBGSV,3,2,09,32,02,110,17,35,11,262,30,36,06,191,28,37,44,070,37,1*7F
$GBGSV,3,3,09,44,12,307,29,1*43
$GBGSV,1,1,03,19,69,305,23,20,55,103,27,37,44,070,24,5*41
$GQGSV,1,1,00,1*65
$GQGSV,1,1,00,8*6C
$GNGGA,194945.000,4910.425699,N,12304.402997,W,1,27,0.80,11.001,M,-16.816,M,,*71
$GNRMC,194945.000,A,4910.425699,N,12304.402997,W,0.009,126.46,151024,,,A,V*2D
$GNGLL,4910.425699,N,12304.402997,W,194945.000,A,A*5D
$GNVTG,126.46,T,,M,0.009,N,0.016,K,A*2A
$GNGSA,A,3,02,03,04,06,09,21,25,26,28,31,,,1.16,0.80,0.84,1*01
$GNGSA,A,3,71,72,,,,,,,,,,,1.16,0.80,0.84,2*03
$GNGSA,A,3,03,05,09,15,24,31,34,,,,,,1.16,0.80,0.84,3*09
$GNGSA,A,3,19,20,22,23,35,36,37,44,,,,,1.16,0.80,0.84,4*0A
$GNGSA,A,3,,,,,,,,,,,,,1.16,0.80,0.84,5*07
$GPGSV,3,1,12,02,17,209,28,03,80,259,35,04,49,274,31,06,17,323,22,1*6B
$GPGSV,3,2,12,09,17,270,20,16,,,24,21,07,197,23,25,05,025,17,1*56
$GPGSV,3,3,12,26,31,114,28,28,32,052,32,31,64,079,35,44,33,172,29,1*65
$GPGSV,2,1,05,03,80,259,27,04,49,274,20,06,17,323,19,26,31,114,19,8*61
$GPGSV,2,2,05,28,32,052,20,8*56
$GLGSV,1,1,02,71,33,089,20,72,70,015,23,1*78
$GAGSV,2,1,08,03,60,275,30,05,61,068,30,09,09,080,19,13,,,20,7*41
$GAGSV,2,2,08,15,43,266,25,24,28,095,26,31,17,041,22,34,25,205,21,7*7C
$GAGSV,2,1,05,03,60,275,22,05,61,068,23,15,43,266,20,24,28,095,18,1*71
$GAGSV,2,2,05,34,25,205,15,1*43
$GBGSV,3,1,09,19,69,305,40,20,55,103,40,22,16,293,33,23,06,033,25,1*73
$GBGSV,3,2,09,32,02,110,19,35,11,262,30,36,06,191,27,37,44,070,37,1*7E
$GBGSV,3,3,09,44,12,307,29,1*43
$GBGSV,1,1,03,19,69,305,21,20,55,103,25,37,44,070,21,5*44
$GQGSV,1,1,00,1*65
$GQGSV,1,1,00,8*6C
$GNGGA,194946.000,4910.425699,N,12304.402993,W,1,27,0.68,11.005,M,-16.816,M,,*74
$GNRMC,194946.000,A,4910.425699,N,12304.402993,W,0.003,126.46,151024,,,A,V*20
$GNGLL,4910.425699,N,12304.402993,W,194946.000,A,A*5A
$GNVTG,126.46,T,,M,0.003,N,0.006,K,A*21
$GNGSA,A,3,02,03,04,06,09,21,25,26,28,31,,,1.04,0.68,0.78,1*07
$GNGSA,A,3,71,72,,,,,,,,,,,1.04,0.68,0.78,2*05
$GNGSA,A,3,03,05,09,15,24,31,34,,,,,,1.04,0.68,0.78,3*0F
$GNGSA,A,3,19,20,22,23,35,36,37,44,,,,,1.04,0.68,0.78,4*0C
$GNGSA,A,3,,,,,,,,,,,,,1.04,0.68,0.78,5*01
$GPGSV,3,1,12,02,17,209,28,03,80,259,35,04,49,274,30,06,17,323,21,1*69
$GPGSV,3,2,12,09,17,270,20,16,,,24,21,07,197,21,25,05,025,17,1*54
$GPGSV,3,3,12,26,31,114,29,28,32,052,32,31,64,078,34,44,33,172,29,1*64
$GPGSV,2,1,05,03,80,259,26,04,49,274,20,06,17,323,18,26,31,114,19,8*61
$GPGSV,2,2,05,28,32,052,19,8*5C
$GLGSV,1,1,02,71,33,089,18,72,70,015,22,1*72
$GAGSV,2,1,08,03,60,275,30,05,61,068,29,09,09,080,19,13,,,21,7*48
$GAGSV,2,2,08,15,43,266,27,24,28,095,25,31,17,041,22,34,25,205,22,7*7E
$GAGSV,2,1,05,03,60,275,22,05,61,068,23,15,43,266,20,24,28,095,18,1*71
$GAGSV,2,2,05,34,25,205,16,1*40
$GBGSV,3,1,09,19,69,305,41,20,55,103,40,22,16,293,33,23,06,033,25,1*72
$GBGSV,3,2,09,32,02,110,19,35,11,262,30,36,06,191,28,37,44,070,36,1*70
$GBGSV,3,3,09,44,12,307,29,1*43
$GBGSV,1,1,03,19,69,305,21,20,55,103,25,37,44,070,23,5*46
$GQGSV,1,1,00,1*65
$GQGSV,1,1,00,8*6C
$GNGGA,194947.000,4910.425699,N,12304.402988,W,1,27,0.72,11.007,M,-16.816,M,,*76
$GNRMC,194947.000,A,4910.425699,N,12304.402988,W,0.008,126.46,151024,,,A,V*20
$GNGLL,4910.425699,N,12304.402988,W,194947.000,A,A*51
$GNVTG,126.46,T,,M,0.008,N,0.014,K,A*29
$GNGSA,A,3,02,03,04,06,09,21,25,26,28,31,,,1.09,0.72,0.81,1*07
$GNGSA,A,3,71,72,,,,,,,,,,,1.09,0.72,0.81,2*05
$GNGSA,A,3,03,05,09,15,24,31,34,,,,,,1.09,0.72,0.81,3*0F
$GNGSA,A,3,19,20,22,23,35,36,37,44,,,,,1.09,0.72,0.81,4*0C
$GNGSA,A,3,,,,,,,,,,,,,1.09,0.72,0.81,5*01
$GPGSV,3,1,12,02,17,209,27,03,80,259,35,04,49,274,30,06,17,323,22,1*65
$GPGSV,3,2,12,09,17,270,20,16,,,25,21,07,197,22,25,05,025,17,1*56
$GPGSV,3,3,12,26,31,114,28,28,32,052,30,31,64,078,33,44,33,172,29,1*60
$GPGSV,2,1,05,03,80,259,26,04,49,274,20,06,17,323,20,26,31,114,18,8*6B
$GPGSV,2,2,05,28,32,052,20,8*56
$GLGSV,1,1,02,71,33,089,19,72,70,015,22,1*73
$GAGSV,2,1,08,03,60,275,29,05,61,068,27,09,09,080,17,13,,,21,7*40
$GAGSV,2,2,08,15,43,266,27,24,28,095,23,31,17,041,22,34,25,205,21,7*7B
$GAGSV,2,1,05,03,60,275,22,05,61,068,23,15,43,266,21,24,28,095,18,1*70
$GAGSV,2,2,05,34,25,205,17,1*41
$GBGSV,3,1,09,19,69,305,41,20,55,103,40,22,16,293,33,23,06,033,24,1*73
$GBGSV,3,2,09,32,02,110,18,35,11,262,30,36,06,191,28,37,44,070,37,1*70
$GBGSV,3,3,09,44,12,307,28,1*42
$GBGSV,1,1,03,19,69,305,21,20,55,103,25,37,44,070,23,5*46
$GQGSV,1,1,00,1*65
$GQGSV,1,1,00,8*6C
$GNGGA,194948.000,4910.425699,N,12304.402982,W,1,26,0.88,11.007,M,-16.816,M,,*77
$GNRMC,194948.000,A,4910.425699,N,12304.402982,W,0.008,126.46,151024,,,A,V*25
$GNGLL,4910.425699,N,12304.402982,W,194948.000,A,A*54
$GNVTG,126.46,T,,M,0.008,N,0.015,K,A*28
$GNGSA,A,3,02,03,04,06,09,21,25,26,28,31,,,1.26,0.88,0.89,1*07
$GNGSA,A,3,71,72,,,,,,,,,,,1.26,0.88,0.89,2*05
$GNGSA,A,3,03,05,15,24,31,34,,,,,,,1.26,0.88,0.89,3*06
$GNGSA,A,3,19,20,22,23,35,36,37,44,,,,,1.26,0.88,0.89,4*0C
$GNGSA,A,3,,,,,,,,,,,,,1.26,0.88,0.89,5*01
$GPGSV,3,1,12,02,17,209,26,03,80,259,34,04,49,274,29,06,17,323,22,1*6D
$GPGSV,3,2,12,09,17,270,20,16,,,24,21,07,197,23,25,05,025,17,1*56
$GPGSV,3,3,12,26,31,114,27,28,32,052,30,31,63,078,33,44,33,172,29,1*68
$GPGSV,2,1,05,03,80,259,25,04,49,274,19,06,17,323,19,26,31,114,19,8*69
$GPGSV,2,2,05,28,32,052,20,8*56
$GLGSV,1,1,02,71,33,089,17,72,70,015,22,1*7D
$GAGSV,2,1,07,03,60,275,28,05,61,069,28,13,,,21,15,43,266,25,7*48
$GAGSV,2,2,07,24,28,095,25,31,17,041,22,34,25,205,21,7*46
$GAGSV,2,1,05,03,60,275,23,05,61,069,23,15,43,266,20,24,28,095,17,1*7E
$GAGSV,2,2,05,34,25,205,17,1*41
$GBGSV,3,1,09,19,69,305,41,20,55,103,40,22,16,293,34,23,06,033,26,1*76
$GBGSV,3,2,09,32,02,110,19,35,11,262,30,36,06,191,29,37,44,070,37,1*70
$GBGSV,3,3,09,44,12,307,29,1*43
$GBGSV,1,1,03,19,69,305,22,20,55,103,24,37,44,070,22,5*45
$GQGSV,1,1,00,1*65
$GQGSV,1,1,00,8*6C
$GNGGA,194949.000,4910.425700,N,12304.402976,W,1,26,0.77,11.007,M,-16.816,M,,*7C
