$GNGGA,194235.000,4910.426212,N,12304.401396,W,2,28,0.56,6.855,M,-16.816,M,,*49
$GNGLL,4910.426212,N,12304.401396,W,194235.000,A,D*58
$GNGSA,A,3,09,07,04,30,16,20,27,08,05,,,,0.93,0.56,0.74,1*0F
$GNGSA,A,3,69,79,68,80,,,,,,,,,0.93,0.56,0.74,2*0F
$GNGSA,A,3,09,31,05,06,24,04,15,,,,,,0.93,0.56,0.74,3*07
$GNGSA,A,3,37,20,23,32,19,38,08,34,,,,,0.93,0.56,0.74,4*04
$GPGSV,3,1,12,09,71,142,35,07,71,275,34,04,41,127,29,44,33,171,29,1*6F
$GPGSV,3,2,12,30,33,262,30,16,29,050,29,20,28,302,29,27,23,088,29,1*6F
$GPGSV,3,3,12,08,18,123,29,05,09,329,24,11,03,280,,26,01,043,,1*64
$GLGSV,2,1,07,69,80,296,29,79,72,228,31,78,50,042,,68,43,151,28,1*76
$GLGSV,2,2,07,80,17,224,25,70,15,324,,86,09,349,,1*4D
$GAGSV,2,1,08,09,73,128,32,31,65,104,31,05,49,300,28,06,47,125,29,7*70
$GAGSV,2,2,08,24,37,189,25,04,22,124,23,15,09,325,22,34,06,277,,7*76
$GBGSV,4,1,14,37,78,214,39,20,66,266,38,23,44,061,33,32,38,168,34,1*7F
$GBGSV,4,2,14,19,25,314,33,46,23,233,,38,16,332,27,08,11,341,23,1*79
$GBGSV,4,3,14,34,05,035,26,43,04,078,,11,04,058,19,12,03,009,22,1*70
$GBGSV,4,4,14,13,03,346,20,04,01,262,,1*72
$GNRMC,194235.000,A,4910.426212,N,12304.401396,W,0.01,0.00,051224,,,D,V*14
$GNVTG,0.00,T,,M,0.01,N,0.02,K,D*25
$GNGGA,194236.000,4910.426218,N,12304.401408,W,2,28,0.56,6.725,M,-16.816,M,,*48
$GNGLL,4910.426218,N,12304.401408,W,194236.000,A,D*51
$GNGSA,A,3,09,07,04,30,16,20,27,08,05,,,,0.93,0.56,0.74,1*0F
$GNGSA,A,3,69,79,68,80,,,,,,,,,0.93,0.56,0.74,2*0F
$GNGSA,A,3,09,31,05,06,24,04,15,,,,,,0.93,0.56,0.74,3*07
$GNGSA,A,3,37,20,23,32,19,38,08,34,,,,,0.93,0.56,0.74,4*04
$GPGSV,3,1,12,09,71,142,35,07,71,275,34,04,41,127,29,30,34,262,30,1*62
$GPGSV,3,2,12,44,33,171,29,16,29,050,29,20,28,302,29,27,23,088,29,1*65
$GPGSV,3,3,12,08,18,123,28,05,09,329,24,11,03,280,,26,01,043,,1*65
$GLGSV,2,1,07,69,80,296,29,79,72,228,31,78,50,042,,68,43,151,28,1*76
$GLGSV,2,2,07,80,17,224,25,70,15,324,,86,09,349,,1*4D
$GAGSV,2,1,08,09,73,128,32,31,65,104,31,05,49,300,28,06,47,125,29,7*70
$GAGSV,2,2,08,24,37,189,25,04,22,124,23,15,09,325,22,34,06,277,,7*76
$GBGSV,4,1,14,37,78,214,39,20,66,266,38,23,44,061,33,32,38,168,34,1*7F
$GBGSV,4,2,14,19,25,314,33,46,23,233,,38,16,332,27,08,11,341,23,1*79
$GBGSV,4,3,14,34,05,035,26,43,04,078,,11,04,058,20,12,03,009,22,1*7A
$GBGSV,4,4,14,13,03,346,20,04,01,262,,1*72
$GNRMC,194236.000,A,4910.426218,N,12304.401408,W,0.01,0.00,051224,,,D,V*1D
$GNVTG,0.00,T,,M,0.01,N,0.02,K,D*25
$PAIR010,0,1,2343,416574*39
$GNGGA,194237.000,4910.426224,N,12304.401462,W,2,28,0.56,6.631,M,-16.816,M,,*4E
$GNGLL,4910.426224,N,12304.401462,W,194237.000,A,D*53
$GNGSA,A,3,09,07,04,30,16,20,27,08,05,,,,0.93,0.56,0.74,1*0F
$GNGSA,A,3,69,79,68,80,,,,,,,,,0.93,0.56,0.74,2*0F
$GNGSA,A,3,09,31,05,06,24,04,15,,,,,,0.93,0.56,0.74,3*07
$GNGSA,A,3,37,20,23,32,19,38,08,34,,,,,0.93,0.56,0.74,4*04
$GPGSV,3,1,12,09,71,142,35,07,71,275,34,04,41,127,29,30,34,262,30,1*62
$GPGSV,3,2,12,44,33,171,29,16,29,050,29,20,28,302,29,27,23,088,29,1*65
$GPGSV,3,3,12,08,18,123,28,05,09,329,23,11,03,280,,26,01,043,,1*62
$GLGSV,2,1,07,69,80,296,29,79,72,228,31,78,50,042,,68,43,151,28,1*76
$GLGSV,2,2,07,80,17,224,25,70,15,324,,86,09,349,,1*4D
$GAGSV,2,1,08,09,73,128,32,31,65,104,31,05,49,300,28,06,47,125,29,7*70
$GAGSV,2,2,08,24,37,189,25,04,22,124,23,15,09,325,22,34,06,277,,7*76
$GBGSV,4,1,14,37,78,214,39,20,66,266,38,23,44,061,33,32,38,168,34,1*7F
$GBGSV,4,2,14,19,25,314,33,46,23,233,,38,16,332,27,08,11,341,23,1*79
$GBGSV,4,3,14,34,05,035,26,43,04,078,,11,04,058,20,12,03,009,22,1*7A
$GBGSV,4,4,14,13,03,346,20,04,01,262,,1*72
$GNRMC,194237.000,A,4910.426224,N,12304.401462,W,0.01,0.00,051224,,,D,V*1F
$GNVTG,0.00,T,,M,0.01,N,0.02,K,D*25
$GNGGA,194238.000,4910.426206,N,12304.401498,W,2,28,0.56,6.539,M,-16.816,M,,*4F
$GNGLL,4910.426206,N,12304.401498,W,194238.000,A,D*59
$GNGSA,A,3,07,09,04,30,16,20,27,08,05,,,,0.93,0.56,0.74,1*0F
$GNGSA,A,3,69,79,68,80,,,,,,,,,0.93,0.56,0.74,2*0F
$GNGSA,A,3,09,31,05,06,24,04,15,,,,,,0.93,0.56,0.74,3*07
$GNGSA,A,3,37,20,23,32,19,38,08,34,,,,,0.93,0.56,0.74,4*04
$GPGSV,3,1,12,07,71,275,34,09,71,142,35,04,41,127,29,30,34,262,30,1*62
$GPGSV,3,2,12,44,33,171,29,16,29,050,29,20,28,302,29,27,23,088,29,1*65
$GPGSV,3,3,12,08,18,122,28,05,09,329,23,11,03,280,,26,01,043,,1*63
$GLGSV,2,1,05,69,80,294,29,79,72,228,31,68,43,151,28,80,17,224,25,1*77
$GLGSV,2,2,05,70,15,324,,1*4B
$GAGSV,2,1,08,09,73,128,32,31,65,104,31,05,50,300,28,06,47,125,29,7*78
$GAGSV,2,2,08,24,37,189,26,04,22,124,23,15,09,324,22,34,06,277,,7*74
$GBGSV,4,1,14,37,79,214,39,20,66,265,38,23,44,061,33,32,37,168,34,1*72
$GBGSV,4,2,14,19,26,314,33,46,23,233,,38,16,332,27,08,11,341,23,1*7A
$GBGSV,4,3,14,34,05,035,26,11,05,058,20,43,04,078,,13,03,346,21,1*71
$GBGSV,4,4,14,12,03,009,22,04,01,262,,1*79
$GNRMC,194238.000,A,4910.426206,N,12304.401498,W,0.01,0.00,051224,,,D,V*15
$GNVTG,0.00,T,,M,0.01,N,0.01,K,D*26
$GNGGA,194239.000,4910.426146,N,12304.401516,W,2,28,0.56,6.452,M,-16.817,M,,*43
$GNGLL,4910.426146,N,12304.401516,W,194239.000,A,D*58
$GNGSA,A,3,09,07,04,30,16,20,27,08,05,,,,0.93,0.56,0.74,1*0F
$GNGSA,A,3,69,79,68,80,,,,,,,,,0.93,0.56,0.74,2*0F
$GNGSA,A,3,09,31,05,06,24,04,15,,,,,,0.93,0.56,0.74,3*07
$GNGSA,A,3,37,20,23,32,19,38,08,34,,,,,0.93,0.56,0.74,4*04
$GPGSV,3,1,12,09,71,142,35,07,71,275,34,04,41,127,29,30,34,262,30,1*62
$GPGSV,3,2,12,44,33,171,29,16,29,050,29,20,28,302,29,27,23,088,29,1*65
$GPGSV,3,3,12,08,18,122,28,05,09,329,24,11,03,280,,26,01,043,,1*64
$GLGSV,2,1,07,69,80,294,29,79,72,228,31,78,50,042,,68,43,151,28,1*74
$GLGSV,2,2,07,80,17,224,25,70,15,324,,87,09,034,,1*45
$GAGSV,2,1,08,09,73,128,32,31,65,104,31,05,50,300,28,06,47,125,29,7*78
$GAGSV,2,2,08,24,37,189,26,04,22,124,23,15,09,324,22,34,06,277,,7*74
$GBGSV,4,1,14,37,79,214,39,20,66,265,38,23,44,061,33,32,37,168,34,1*72
$GBGSV,4,2,14,19,26,314,33,46,23,233,,38,16,332,27,08,11,341,23,1*7A
$GBGSV,4,3,14,34,05,035,26,11,05,058,20,43,04,078,,12,03,009,22,1*7B
$GBGSV,4,4,14,13,03,346,21,04,01,262,,1*73
$GNRMC,194239.000,A,4910.426146,N,12304.401516,W,0.01,0.00,051224,,,D,V*14
$GNVTG,0.00,T,,M,0.01,N,0.02,K,D*25
$GNGGA,194240.000,4910.426146,N,12304.401600,W,2,28,0.56,6.492,M,-16.816,M,,*44
$GNGLL,4910.426146,N,12304.401600,W,194240.000,A,D*52
$GNGSA,A,3,09,07,04,30,16,20,27,08,05,,,,0.93,0.56,0.74,1*0F
$GNGSA,A,3,69,79,68,80,,,,,,,,,0.93,0.56,0.74,2*0F
$GNGSA,A,3,09,31,05,06,24,04,15,,,,,,0.93,0.56,0.74,3*07
$GNGSA,A,3,37,20,23,32,19,38,08,34,,,,,0.93,0.56,0.74,4*04
$GPGSV,3,1,12,09,71,142,35,07,71,275,34,04,41,127,29,30,34,262,30,1*62
$GPGSV,3,2,12,44,33,171,29,16,29,050,29,20,28,302,29,27,23,088,29,1*65
$GPGSV,3,3,12,08,18,122,28,05,09,329,24,11,03,280,,26,01,043,,1*64
$GLGSV,2,1,07,69,80,294,29,79,72,228,31,78,50,042,,68,43,151,28,1*74
$GLGSV,2,2,07,80,17,224,25,70,15,324,,87,09,034,,1*45
$GAGSV,2,1,08,09,73,128,32,31,65,104,31,05,50,300,28,06,47,125,29,7*78
$GAGSV,2,2,08,24,37,189,26,04,22,124,23,15,09,324,22,34,06,277,,7*74
$GBGSV,4,1,14,37,79,214,39,20,66,265,38,23,44,061,33,32,37,168,34,1*72
$GBGSV,4,2,14,19,26,314,33,46,23,233,,38,16,332,27,08,11,341,23,1*7A
$GBGSV,4,3,14,34,05,035,26,11,05,058,20,43,04,078,,12,03,009,22,1*7B
$GBGSV,4,4,14,13,03,346,21,04,01,262,,1*73
$GNRMC,194240.000,A,4910.426146,N,12304.401600,W,0.02,0.00,051224,,,D,V*1D
$GNVTG,0.00,T,,M,0.02,N,0.03,K,D*27
$GNGGA,194241.000,4910.426176,N,12304.401654,W,2,28,0.56,6.569,M,-16.816,M,,*42
$GNGLL,4910.426176,N,12304.401654,W,194241.000,A,D*51
$GNGSA,A,3,09,07,04,30,16,20,27,08,05,,,,0.93,0.56,0.74,1*0F
$GNGSA,A,3,69,79,68,80,,,,,,,,,0.93,0.56,0.74,2*0F
$GNGSA,A,3,09,31,05,06,24,04,15,,,,,,0.93,0.56,0.74,3*07
$GNGSA,A,3,37,20,23,32,19,38,08,34,,,,,0.93,0.56,0.74,4*04
$GPGSV,3,1,12,09,71,142,35,07,71,275,34,04,41,127,29,30,34,262,30,1*62
$GPGSV,3,2,12,44,33,171,29,16,29,050,29,20,28,302,29,27,23,088,29,1*65
$GPGSV,3,3,12,08,18,122,28,05,09,329,24,11,03,280,,26,01,043,,1*64
$GLGSV,2,1,07,69,80,294,28,79,72,228,31,78,50,042,,68,43,151,28,1*75
$GLGSV,2,2,07,80,17,224,24,70,15,324,,87,09,034,,1*44
$GAGSV,2,1,08,09,73,128,32,31,65,104,31,05,50,300,28,06,47,125,29,7*78
$GAGSV,2,2,08,24,37,189,26,04,22,124,23,15,09,324,22,34,06,277,,7*74
$GBGSV,4,1,14,37,79,214,39,20,66,265,39,23,44,061,33,32,37,168,34,1*73
$GBGSV,4,2,14,19,26,314,33,46,23,233,,38,16,332,27,08,11,341,23,1*7A
$GBGSV,4,3,14,34,05,035,26,11,05,058,20,43,04,078,,12,03,009,21,1*78
$GBGSV,4,4,14,13,03,346,21,04,01,262,,1*73
$GNRMC,194241.000,A,4910.426176,N,12304.401654,W,0.02,0.00,051224,,,D,V*1E
$GNVTG,0.00,T,,M,0.02,N,0.03,K,D*27
$GNGGA,194242.000,4910.426170,N,12304.401690,W,2,28,0.56,6.557,M,-16.816,M,,*42
$GNGLL,4910.426170,N,12304.401690,W,194242.000,A,D*5C
$GNGSA,A,3,09,07,04,30,16,20,27,08,05,,,,0.93,0.56,0.74,1*0F
$GNGSA,A,3,69,79,68,80,,,,,,,,,0.93,0.56,0.74,2*0F
$GNGSA,A,3,09,31,05,06,24,04,15,,,,,,0.93,0.56,0.74,3*07
$GNGSA,A,3,37,20,23,32,19,38,08,34,,,,,0.93,0.56,0.74,4*04
$GPGSV,3,1,12,09,71,142,35,07,71,275,34,04,41,127,29,30,34,262,29,1*6A
$GPGSV,3,2,12,44,33,171,29,16,29,050,29,20,28,302,29,27,23,088,29,1*65
$GPGSV,3,3,12,08,18,122,28,05,09,329,24,11,03,280,,26,01,043,,1*64
$GLGSV,2,1,07,69,80,294,29,79,72,228,31,78,50,042,,68,43,151,28,1*74
$GLGSV,2,2,07,80,17,224,24,70,15,324,,87,09,034,,1*44
$GAGSV,2,1,08,09,73,128,31,31,65,104,31,05,50,300,28,06,47,125,28,7*7A
$GAGSV,2,2,08,24,37,189,26,04,22,124,23,15,09,324,21,34,06,277,,7*77
$GBGSV,4,1,14,37,79,214,39,20,66,265,39,23,44,061,33,32,37,168,34,1*73
$GBGSV,4,2,14,19,26,314,33,46,23,233,,38,16,332,27,08,11,341,23,1*7A
$GBGSV,4,3,14,34,05,035,26,11,05,058,20,43,04,078,,12,03,009,21,1*78
$GBGSV,4,4,14,13,03,346,22,04,01,262,,1*70
$GNRMC,194242.000,A,4910.426170,N,12304.401690,W,0.02,0.00,051224,,,D,V*13
$GNVTG,0.00,T,,M,0.02,N,0.04,K,D*20
$GNGGA,194243.000,4910.426158,N,12304.401678,W,2,28,0.56,6.540,M,-16.816,M,,*49
$GNGLL,4910.426158,N,12304.401678,W,194243.000,A,D*51
$GNGSA,A,3,09,07,04,30,16,20,27,08,05,,,,0.93,0.56,0.74,1*0F
$GNGSA,A,3,69,79,68,80,,,,,,,,,0.93,0.56,0.74,2*0F
$GNGSA,A,3,09,31,05,06,24,04,15,,,,,,0.93,0.56,0.74,3*07
$GNGSA,A,3,37,20,23,32,19,38,08,34,,,,,0.93,0.56,0.74,4*04
$GPGSV,3,1,12,09,71,142,35,07,71,275,34,04,41,127,29,30,34,262,29,1*6A
$GPGSV,3,2,12,44,33,171,29,16,29,050,29,20,28,302,29,27,23,088,29,1*65
$GPGSV,3,3,12,08,18,122,28,05,09,329,24,11,03,280,,26,01,043,,1*64
$GLGSV,2,1,07,69,80,294,29,79,72,228,31,78,50,042,,68,43,151,28,1*74
$GLGSV,2,2,07,80,17,224,24,70,15,324,,87,09,034,,1*44
$GAGSV,2,1,08,09,73,128,31,31,65,104,31,05,50,300,28,06,47,125,28,7*7A
$GAGSV,2,2,08,24,37,189,26,04,22,124,22,15,09,324,20,34,06,277,,7*77
$GBGSV,4,1,14,37,79,214,39,20,66,265,39,23,44,061,33,32,37,168,34,1*73
$GBGSV,4,2,14,19,26,314,33,46,23,233,,38,16,332,27,08,11,341,23,1*7A
$GBGSV,4,3,14,34,05,035,26,11,05,058,20,43,04,078,,12,03,009,22,1*7B
$GBGSV,4,4,14,13,03,346,22,04,01,262,,1*70
$GNRMC,194243.000,A,4910.426158,N,12304.401678,W,0.02,0.00,051224,,,D,V*1E
$GNVTG,0.00,T,,M,0.02,N,0.03,K,D*27
$GNGGA,194244.000,4910.426194,N,12304.401678,W,2,28,0.56,6.500,M,-16.816,M,,*4A
$GNGLL,4910.426194,N,12304.401678,W,194244.000,A,D*56
$GNGSA,A,3,09,07,04,30,16,20,27,08,05,,,,0.93,0.56,0.74,1*0F
$GNGSA,A,3,69,79,68,80,,,,,,,,,0.93,0.56,0.74,2*0F
$GNGSA,A,3,09,31,05,06,24,04,15,,,,,,0.93,0.56,0.74,3*07
$GNGSA,A,3,37,20,23,32,19,38,08,34,,,,,0.93,0.56,0.74,4*04
$GPGSV,3,1,12,09,71,142,35,07,71,275,34,04,41,127,29,30,34,262,29,1*6A
$GPGSV,3,2,12,44,33,171,29,16,29,050,29,20,28,302,29,27,23,088,29,1*65
$GPGSV,3,3,12,08,18,122,28,05,09,329,24,11,03,280,,26,01,043,,1*64
$GLGSV,2,1,07,69,80,294,29,79,72,228,31,78,50,042,,68,43,151,28,1*74
$GLGSV,2,2,07,80,17,224,24,70,15,324,,87,09,034,,1*44
$GAGSV,2,1,08,09,73,128,31,31,65,104,31,05,50,300,28,06,47,125,28,7*7A
$GAGSV,2,2,08,24,37,189,26,04,22,124,22,15,09,324,20,34,06,277,,7*77
$GBGSV,4,1,14,37,79,214,39,20,66,265,39,23,44,061,33,32,37,168,34,1*73
$GBGSV,4,2,14,19,26,314,33,46,23,233,,38,16,332,27,08,11,341,23,1*7A
$GBGSV,4,3,14,34,05,035,26,11,05,058,20,43,04,078,,12,03,009,22,1*7B
$GBGSV,4,4,14,13,03,346,22,04,01,262,,1*70
$GNRMC,194244.000,A,4910.426194,N,12304.401678,W,0.02,0.00,051224,,,D,V*19
$GNVTG,0.00,T,,M,0.02,N,0.03,K,D*27
$GNGGA,194245.000,4910.426194,N,12304.401672,W,2,28,0.56,6.435,M,-16.817,M,,*47
$GNGLL,4910.426194,N,12304.401672,W,194245.000,A,D*5D
$GNGSA,A,3,07,09,04,30,16,20,27,08,05,,,,0.93,0.56,0.74,1*0F
$GNGSA,A,3,69,79,68,80,,,,,,,,,0.93,0.56,0.74,2*0F
$GNGSA,A,3,09,31,05,06,24,04,15,,,,,,0.93,0.56,0.74,3*07
$GNGSA,A,3,37,20,23,32,19,38,08,34,,,,,0.93,0.56,0.74,4*04
$GPGSV,3,1,12,07,71,275,33,09,71,142,34,04,41,127,29,30,34,262,29,1*6C
$GPGSV,3,2,12,44,33,171,28,16,29,050,28,20,28,302,29,27,23,088,29,1*65
$GPGSV,3,3,12,08,18,122,27,05,09,329,24,11,03,280,,26,01,043,,1*6B
$GLGSV,2,1,06,69,80,294,29,79,72,228,31,68,43,151,28,80,17,224,24,1*75
$GLGSV,2,2,06,70,15,324,,87,09,034,,1*79
$GAGSV,2,1,08,09,73,128,31,31,65,104,30,05,50,300,28,06,47,125,27,7*74
$GAGSV,2,2,08,24,37,189,25,04,22,124,21,15,09,324,20,34,06,277,,7*77
$GBGSV,4,1,14,37,79,214,39,20,66,265,39,23,44,061,33,32,37,168,34,1*73
$GBGSV,4,2,14,19,26,314,33,46,23,233,,38,16,332,27,08,11,341,23,1*7A
$GBGSV,4,3,14,34,05,035,26,11,05,058,20,43,04,078,,12,03,009,22,1*7B
$GBGSV,4,4,14,13,03,346,23,04,01,262,,1*71
$GNRMC,194245.000,A,4910.426194,N,12304.401672,W,0.02,0.00,051224,,,D,V*12
$GNVTG,0.00,T,,M,0.02,N,0.03,K,D*27
$GNGGA,194246.000,4910.426176,N,12304.401702,W,2,28,0.56,6.417,M,-16.816,M,,*4F
$GNGLL,4910.426176,N,12304.401702,W,194246.000,A,D*54
$GNGSA,A,3,09,07,04,30,16,20,27,08,05,,,,0.93,0.56,0.74,1*0F
$GNGSA,A,3,69,79,68,80,,,,,,,,,0.93,0.56,0.74,2*0F
$GNGSA,A,3,09,31,05,06,24,04,15,,,,,,0.93,0.56,0.74,3*07
$GNGSA,A,3,37,20,23,32,19,38,08,34,,,,,0.93,0.56,0.74,4*04
$GPGSV,3,1,12,09,71,142,33,07,71,275,32,04,41,127,29,30,34,262,28,1*6B
$GPGSV,3,2,12,44,33,171,28,16,29,050,28,20,28,302,28,27,23,088,28,1*65
$GPGSV,3,3,12,08,18,122,26,05,09,329,24,11,03,280,,26,01,043,,1*6A
$GLGSV,2,1,07,69,80,294,29,79,72,228,31,78,50,042,,68,43,151,28,1*74
$GLGSV,2,2,07,80,17,224,24,70,15,324,,87,09,034,,1*44
$GAGSV,2,1,08,09,73,128,31,31,65,104,29,05,50,300,27,06,47,125,27,7*73
$GAGSV,2,2,08,24,37,189,25,04,22,124,21,15,09,324,20,34,06,277,,7*77
$GBGSV,4,1,14,37,79,214,39,20,66,265,39,23,44,061,33,32,37,168,34,1*73
$GBGSV,4,2,14,19,26,314,33,46,23,233,,38,16,332,27,08,11,341,23,1*7A
$GBGSV,4,3,14,34,05,035,27,11,05,058,20,43,04,078,,12,03,009,22,1*7A
$GBGSV,4,4,14,13,03,346,23,04,01,262,,1*71
$GNRMC,194246.000,A,4910.426176,N,12304.401702,W,0.01,0.00,051224,,,D,V*18
$GNVTG,0.00,T,,M,0.01,N,0.03,K,D*24
$GNGGA,194247.000,4910.426164,N,12304.401714,W,2,28,0.56,6.303,M,-16.816,M,,*48
$GNGLL,4910.426164,N,12304.401714,W,194247.000,A,D*51
$GNGSA,A,3,09,07,04,30,16,20,27,08,05,,,,0.93,0.56,0.74,1*0F
$GNGSA,A,3,69,79,68,80,,,,,,,,,0.93,0.56,0.74,2*0F
$GNGSA,A,3,09,31,05,06,24,04,15,,,,,,0.93,0.56,0.74,3*07
$GNGSA,A,3,37,20,23,32,19,38,08,34,,,,,0.93,0.56,0.74,4*04
$GPGSV,3,1,12,09,71,142,33,07,71,275,32,04,41,127,29,30,34,262,28,1*6B
$GPGSV,3,2,12,44,33,171,28,16,29,050,28,20,28,302,28,27,23,088,28,1*65
$GPGSV,3,3,12,08,18,122,26,05,09,329,24,11,03,280,,26,01,043,,1*6A
$GLGSV,2,1,07,69,80,294,29,79,72,228,31,78,50,042,,68,43,151,28,1*74
$GLGSV,2,2,07,80,17,224,24,70,15,324,,87,09,034,,1*44
$GAGSV,2,1,08,09,73,128,31,31,65,104,29,05,50,300,27,06,47,125,26,7*72
$GAGSV,2,2,08,24,37,189,25,04,22,124,21,15,09,324,19,34,06,277,,7*7D
$GBGSV,4,1,14,37,79,214,39,20,66,265,39,23,44,061,34,32,37,168,34,1*74
$GBGSV,4,2,14,19,26,314,33,46,23,233,,38,16,332,28,08,11,341,23,1*75
$GBGSV,4,3,14,34,05,035,27,11,05,058,20,43,04,078,,12,03,009,22,1*7A
$GBGSV,4,4,14,13,03,346,23,04,01,262,,1*71
$GNRMC,194247.000,A,4910.426164,N,12304.401714,W,0.01,0.00,051224,,,D,V*1D
$GNVTG,0.00,T,,M,0.01,N,0.02,K,D*25
$GNGGA,194248.000,4910.426116,N,12304.401726,W,2,28,0.56,6.281,M,-16.816,M,,*48
$GNGLL,4910.426116,N,12304.401726,W,194248.000,A,D*5A
$GNGSA,A,3,09,07,04,30,16,20,27,08,05,,,,0.93,0.56,0.74,1*0F
$GNGSA,A,3,69,79,68,80,,,,,,,,,0.93,0.56,0.74,2*0F
$GNGSA,A,3,09,31,05,06,24,04,15,,,,,,0.93,0.56,0.74,3*07
$GNGSA,A,3,37,20,23,32,19,38,08,34,,,,,0.93,0.56,0.74,4*04
$GPGSV,3,1,12,09,71,142,33,07,71,275,32,04,41,127,29,30,34,262,28,1*6B
$GPGSV,3,2,12,44,33,171,28,16,29,050,28,20,28,302,28,27,23,088,28,1*65
$GPGSV,3,3,12,08,18,122,27,05,09,329,24,11,03,280,,26,01,043,,1*6B
$GLGSV,2,1,07,69,80,294,29,79,72,228,31,78,50,042,,68,43,151,28,1*74
$GLGSV,2,2,07,80,17,224,24,70,15,324,,87,09,034,,1*44
$GAGSV,2,1,08,09,73,128,31,31,65,104,29,05,50,300,26,06,47,125,26,7*73
$GAGSV,2,2,08,24,37,189,25,04,22,124,21,15,09,324,19,34,06,277,,7*7D
$GBGSV,4,1,14,37,79,214,39,20,66,265,39,23,44,061,34,32,37,168,34,1*74
$GBGSV,4,2,14,19,26,314,33,46,23,233,,38,16,332,28,08,11,341,23,1*75
$GBGSV,4,3,14,34,05,035,27,11,05,058,20,43,04,078,,12,03,009,22,1*7A
$GBGSV,4,4,14,13,03,346,23,04,01,262,,1*71
$GNRMC,194248.000,A,4910.426116,N,12304.401726,W,0.01,0.00,051224,,,D,V*16
$GNVTG,0.00,T,,M,0.01,N,0.02,K,D*25
$GNGGA,194249.000,4910.426068,N,12304.401750,W,2,28,0.56,6.150,M,-16.816,M,,*4F
$GNGLL,4910.426068,N,12304.401750,W,194249.000,A,D*52
$GNGSA,A,3,09,07,04,30,16,20,27,08,05,,,,0.93,0.56,0.74,1*0F
$GNGSA,A,3,69,79,68,80,,,,,,,,,0.93,0.56,0.74,2*0F
$GNGSA,A,3,09,31,05,06,24,04,15,,,,,,0.93,0.56,0.74,3*07
$GNGSA,A,3,37,20,23,32,19,38,08,34,,,,,0.93,0.56,0.74,4*04
$GPGSV,3,1,12,09,71,142,33,07,71,275,33,04,41,127,30,30,34,262,28,1*62
$GPGSV,3,2,12,44,33,171,28,16,29,050,28,20,28,302,28,27,23,088,29,1*64
$GPGSV,3,3,12,08,18,122,27,05,09,329,24,11,03,280,,26,01,043,,1*6B
$GLGSV,2,1,07,69,80,294,28,79,72,228,31,78,50,042,,68,43,151,28,1*75
$GLGSV,2,2,07,80,17,224,24,70,15,324,,87,09,034,,1*44
$GAGSV,2,1,08,09,73,128,31,31,65,104,29,05,50,300,26,06,47,125,26,7*73
$GAGSV,2,2,08,24,37,189,25,04,22,124,21,15,09,324,19,34,06,277,,7*7D
$GBGSV,4,1,14,37,79,214,39,20,66,265,39,23,44,061,34,32,37,168,34,1*74
$GBGSV,4,2,14,19,26,314,34,46,23,233,,38,16,332,28,08,11,341,23,1*72
$GBGSV,4,3,14,34,05,035,27,11,05,058,20,43,04,078,,12,03,009,21,1*79
$GBGSV,4,4,14,13,03,346,23,04,01,262,,1*71
$GNRMC,194249.000,A,4910.426068,N,12304.401750,W,0.01,0.00,051224,,,D,V*1E
$GNVTG,0.00,T,,M,0.01,N,0.03,K,D*24
$GNGGA,194250.000,4910.426068,N,12304.401744,W,2,28,0.56,5.948,M,-16.816,M,,*40
$GNGLL,4910.426068,N,12304.401744,W,194250.000,A,D*5F
$GNGSA,A,3,09,07,04,30,16,20,27,08,05,,,,0.93,0.56,0.74,1*0F
$GNGSA,A,3,69,79,68,80,,,,,,,,,0.93,0.56,0.74,2*0F
$GNGSA,A,3,09,31,05,06,24,04,15,,,,,,0.93,0.56,0.74,3*07
$GNGSA,A,3,37,20,23,32,19,38,08,34,,,,,0.93,0.56,0.74,4*04
$GPGSV,3,1,12,09,71,142,33,07,71,275,33,04,41,127,30,30,34,262,28,1*62
$GPGSV,3,2,12,44,33,171,28,16,29,050,28,20,28,302,28,27,23,088,29,1*64
$GPGSV,3,3,12,08,18,122,27,05,09,329,24,11,03,280,,26,01,043,,1*6B
$GLGSV,2,1,07,69,80,294,28,79,72,228,31,78,50,042,,68,43,151,28,1*75
$GLGSV,2,2,07,80,17,224,24,70,15,324,,87,09,034,,1*44
$GAGSV,2,1,08,09,73,128,31,31,65,104,29,05,50,300,26,06,47,125,26,7*73
$GAGSV,2,2,08,24,37,189,25,04,22,124,21,15,09,324,19,34,06,277,,7*7D
$GBGSV,4,1,14,37,79,214,39,20,66,265,39,23,44,061,34,32,37,168,34,1*74
$GBGSV,4,2,14,19,26,314,34,46,23,233,,38,16,332,28,08,11,341,23,1*72
$GBGSV,4,3,14,34,05,035,27,11,05,058,20,43,04,078,,12,03,009,21,1*79
$GBGSV,4,4,14,13,03,346,23,04,01,262,,1*71
$GNRMC,194250.000,A,4910.426068,N,12304.401744,W,0.01,0.00,051224,,,D,V*13
$GNVTG,0.00,T,,M,0.01,N,0.03,K,D*24
$GNGGA,194251.000,4910.426080,N,12304.401750,W,2,28,0.56,5.774,M,-16.816,M,,*43
$GNGLL,4910.426080,N,12304.401750,W,194251.000,A,D*5D
$GNGSA,A,3,09,07,04,30,16,20,27,08,05,,,,0.93,0.56,0.74,1*0F
$GNGSA,A,3,69,79,68,80,,,,,,,,,0.93,0.56,0.74,2*0F
$GNGSA,A,3,09,31,05,06,24,04,15,,,,,,0.93,0.56,0.74,3*07
$GNGSA,A,3,37,20,23,32,19,38,08,34,,,,,0.93,0.56,0.74,4*04
$GPGSV,3,1,12,09,71,142,33,07,71,275,33,04,41,127,30,30,34,262,28,1*62
$GPGSV,3,2,12,44,33,171,28,16,29,050,28,20,28,302,28,27,23,088,29,1*64
$GPGSV,3,3,12,08,18,122,27,05,09,329,24,11,03,280,,26,01,043,,1*6B
$GLGSV,2,1,07,69,80,294,28,79,72,228,32,78,50,042,,68,43,151,28,1*76
$GLGSV,2,2,07,80,17,224,24,70,15,324,,87,09,034,,1*44
$GAGSV,2,1,08,09,73,128,31,31,65,104,29,05,50,300,27,06,47,125,26,7*72
$GAGSV,2,2,08,24,37,189,25,04,22,124,21,15,09,324,19,34,06,277,,7*7D
$GBGSV,4,1,14,37,79,214,39,20,66,265,39,23,44,061,34,32,37,168,34,1*74
$GBGSV,4,2,14,19,26,314,34,46,23,233,,38,16,332,28,08,11,341,23,1*72
$GBGSV,4,3,14,34,05,035,27,11,05,058,20,43,04,078,,12,03,009,21,1*79
$GBGSV,4,4,14,13,03,346,23,04,01,262,,1*71
$GNRMC,194251.000,A,4910.426080,N,12304.401750,W,0.01,0.00,051224,,,D,V*11
$GNVTG,0.00,T,,M,0.01,N,0.03,K,D*24
$GNGGA,194252.000,4910.426062,N,12304.401768,W,2,28,0.56,5.614,M,-16.817,M,,*41
$GNGLL,4910.426062,N,12304.401768,W,194252.000,A,D*59
$GNGSA,A,3,09,07,04,30,16,20,27,08,05,,,,0.93,0.56,0.74,1*0F
$GNGSA,A,3,69,79,68,80,,,,,,,,,0.93,0.56,0.74,2*0F
$GNGSA,A,3,09,31,05,06,24,04,15,,,,,,0.93,0.56,0.74,3*07
$GNGSA,A,3,37,20,23,32,19,38,08,34,,,,,0.93,0.56,0.74,4*04
$GPGSV,3,1,12,09,71,142,33,07,71,275,33,04,41,127,31,30,34,262,28,1*63
$GPGSV,3,2,12,44,33,171,28,16,29,050,28,20,28,302,28,27,23,088,29,1*64
$GPGSV,3,3,12,08,18,122,27,05,09,329,24,11,03,280,,26,01,043,,1*6B
$GLGSV,2,1,07,69,80,294,28,79,72,228,32,78,50,042,,68,43,151,28,1*76
$GLGSV,2,2,07,80,17,224,24,70,15,324,,87,09,034,,1*44
$GAGSV,2,1,08,09,73,128,31,31,65,104,29,05,50,300,27,06,47,125,26,7*72
$GAGSV,2,2,08,24,37,189,25,04,22,124,21,15,09,324,19,34,06,277,,7*7D
$GBGSV,4,1,14,37,79,214,39,20,66,265,39,23,44,061,34,32,37,168,34,1*74
$GBGSV,4,2,14,19,26,314,34,46,23,233,,38,16,332,28,08,11,341,23,1*72
$GBGSV,4,3,14,34,05,035,27,11,05,058,20,43,04,078,,12,03,009,22,1*7A
$GBGSV,4,4,14,13,03,346,23,04,01,262,,1*71
$GNRMC,194252.000,A,4910.426062,N,12304.401768,W,0.02,0.00,051224,,,D,V*16
$GNVTG,0.00,T,,M,0.02,N,0.04,K,D*20
$GNGGA,194253.000,4910.426110,N,12304.401714,W,2,28,0.56,5.463,M,-16.817,M,,*4D
$GNGLL,4910.426110,N,12304.401714,W,194253.000,A,D*57
$GNGSA,A,3,09,07,04,30,16,20,27,08,05,,,,0.93,0.56,0.74,1*0F
$GNGSA,A,3,69,79,68,80,,,,,,,,,0.93,0.56,0.74,2*0F
$GNGSA,A,3,09,31,05,06,24,04,15,,,,,,0.93,0.56,0.74,3*07
$GNGSA,A,3,37,20,23,32,19,38,08,34,,,,,0.93,0.56,0.74,4*04
$GPGSV,3,1,12,09,71,142,34,07,71,275,33,04,41,127,31,30,34,262,28,1*64
$GPGSV,3,2,12,44,33,171,28,16,29,050,28,20,28,302,28,27,23,088,29,1*64
$GPGSV,3,3,12,08,18,122,27,05,09,329,24,11,03,280,,26,01,043,,1*6B
$GLGSV,2,1,07,69,80,294,28,79,72,228,31,78,50,042,,68,43,151,27,1*7A
$GLGSV,2,2,07,80,17,224,23,70,15,324,,87,09,034,,1*43
$GAGSV,2,1,08,09,73,128,31,31,65,104,29,05,50,300,27,06,47,125,27,7*73
$GAGSV,2,2,08,24,37,189,25,04,22,124,21,15,09,324,19,34,06,277,,7*7D
$GBGSV,4,1,14,37,79,214,39,20,66,265,39,23,44,061,34,32,37,168,34,1*74
$GBGSV,4,2,14,19,26,314,33,46,23,233,,38,16,332,28,08,11,341,23,1*75
$GBGSV,4,3,14,34,05,035,27,11,05,058,20,43,04,078,,12,03,009,22,1*7A
$GBGSV,4,4,14,13,03,346,22,04,01,262,,1*70
$GNRMC,194253.000,A,4910.426110,N,12304.401714,W,0.02,0.00,051224,,,D,V*18
$GNVTG,0.00,T,,M,0.02,N,0.04,K,D*20
$GNGGA,194254.000,4910.426170,N,12304.401684,W,2,28,0.56,5.308,M,-16.816,M,,*4F
$GNGLL,4910.426170,N,12304.401684,W,194254.000,A,D*5E
$GNGSA,A,3,09,07,04,30,16,20,27,08,05,,,,0.94,0.56,0.75,1*09
$GNGSA,A,3,69,79,68,80,,,,,,,,,0.94,0.56,0.75,2*09
$GNGSA,A,3,09,31,05,06,24,04,15,,,,,,0.94,0.56,0.75,3*01
$GNGSA,A,3,37,20,23,32,19,38,08,34,,,,,0.94,0.56,0.75,4*02
$GPGSV,3,1,12,09,71,142,34,07,71,275,33,04,41,127,31,30,34,262,28,1*64
$GPGSV,3,2,12,44,33,171,28,16,29,049,28,20,28,302,28,27,23,088,29,1*6C
$GPGSV,3,3,12,08,18,122,27,05,09,329,24,11,03,280,,26,01,043,,1*6B
$GLGSV,2,1,07,69,80,294,28,79,72,228,31,78,50,042,,68,43,151,27,1*7A
$GLGSV,2,2,07,80,17,224,23,70,15,324,,87,09,034,,1*43
$GAGSV,2,1,08,09,73,128,31,31,65,104,29,05,50,300,27,06,47,125,27,7*73
$GAGSV,2,2,08,24,37,189,25,04,22,124,21,15,09,324,19,34,06,277,,7*7D
$GBGSV,4,1,14,37,79,214,39,20,66,265,39,23,44,061,34,32,37,168,34,1*74
$GBGSV,4,2,14,19,26,314,33,46,23,233,,38,16,332,28,08,11,341,23,1*75
$GBGSV,4,3,14,34,05,035,27,11,05,058,19,43,04,078,,12,03,009,22,1*70
$GBGSV,4,4,14,13,03,346,22,04,01,262,,1*70
$GNRMC,194254.000,A,4910.426170,N,12304.401684,W,0.02,0.00,051224,,,D,V*11
$GNVTG,0.00,T,,M,0.02,N,0.04,K,D*20
$GNGGA,194255.000,4910.426170,N,12304.401684,W,2,28,0.56,5.328,M,-16.816,M,,*4C
$GNGLL,4910.426170,N,12304.401684,W,194255.000,A,D*5F
$GNGSA,A,3,09,07,04,30,16,20,27,08,05,,,,0.94,0.56,0.75,1*09
$GNGSA,A,3,69,79,68,80,,,,,,,,,0.94,0.56,0.75,2*09
$GNGSA,A,3,09,31,05,06,24,04,15,,,,,,0.94,0.56,0.75,3*01
$GNGSA,A,3,37,20,23,32,19,38,08,34,,,,,0.94,0.56,0.75,4*02
$GPGSV,3,1,12,09,71,142,33,07,71,275,33,04,41,127,31,30,34,262,27,1*6C
$GPGSV,3,2,12,44,33,171,28,16,29,049,28,20,28,302,28,27,23,088,29,1*6C
$GPGSV,3,3,12,08,18,122,27,05,09,329,24,11,03,280,,26,01,043,,1*6B
$GLGSV,2,1,07,69,80,294,28,79,72,228,31,78,50,042,,68,43,151,27,1*7A
$GLGSV,2,2,07,80,17,224,23,70,15,324,,87,09,034,,1*43
$GAGSV,2,1,08,09,73,128,30,31,65,104,29,05,50,300,27,06,47,125,26,7*73
$GAGSV,2,2,08,24,37,189,25,04,22,124,21,15,09,324,19,34,06,277,,7*7D
$GBGSV,4,1,14,37,79,214,39,20,66,265,39,23,44,061,34,32,37,168,34,1*74
$GBGSV,4,2,14,19,26,314,33,46,23,233,,38,16,332,28,08,11,341,23,1*75
$GBGSV,4,3,14,34,05,035,27,11,05,058,19,43,04,078,,12,03,009,22,1*70
$GBGSV,4,4,14,13,03,346,22,04,01,262,,1*70
$GNRMC,194255.000,A,4910.426170,N,12304.401684,W,0.02,0.00,051224,,,D,V*10
$GNVTG,0.00,T,,M,0.02,N,0.04,K,D*20
$GNGGA,194256.000,4910.426128,N,12304.401702,W,2,28,0.56,5.310,M,-16.816,M,,*46
$GNGLL,4910.426128,N,12304.401702,W,194256.000,A,D*5E
$GNGSA,A,3,09,07,04,30,16,20,27,08,05,,,,0.94,0.56,0.75,1*09
$GNGSA,A,3,69,79,68,80,,,,,,,,,0.94,0.56,0.75,2*09
$GNGSA,A,3,09,31,05,06,24,04,15,,,,,,0.94,0.56,0.75,3*01
$GNGSA,A,3,37,20,23,32,19,38,08,34,,,,,0.94,0.56,0.75,4*02
$GPGSV,3,1,12,09,71,142,33,07,71,275,33,04,41,127,30,30,34,262,27,1*6D
$GPGSV,3,2,12,44,33,171,28,16,29,049,27,20,28,302,28,27,23,088,29,1*63
$GPGSV,3,3,12,08,18,122,27,05,09,329,24,11,03,280,,26,01,043,,1*6B
$GLGSV,2,1,07,69,80,294,28,79,72,228,31,78,50,042,,68,43,151,27,1*7A
$GLGSV,2,2,07,80,17,224,23,70,15,324,,87,09,034,,1*43
$GAGSV,2,1,08,09,73,128,30,31,65,104,29,05,50,300,26,06,47,125,26,7*72
$GAGSV,2,2,08,24,37,189,24,04,22,124,20,15,09,324,19,34,06,277,,7*7D
$GBGSV,4,1,14,37,79,214,39,20,66,265,39,23,44,061,34,32,37,168,34,1*74
$GBGSV,4,2,14,19,26,314,33,46,23,233,,38,16,332,28,08,11,341,23,1*75
$GBGSV,4,3,14,34,05,035,27,11,05,058,19,43,04,078,,12,03,009,22,1*70
$GBGSV,4,4,14,13,03,346,22,04,01,262,,1*70
$GNRMC,194256.000,A,4910.426128,N,12304.401702,W,0.02,0.00,051224,,,D,V*11
$GNVTG,0.00,T,,M,0.02,N,0.04,K,D*20
$GNGGA,194257.000,4910.426098,N,12304.401708,W,2,28,0.56,5.264,M,-16.816,M,,*45
$GNGLL,4910.426098,N,12304.401708,W,194257.000,A,D*5F
$GNGSA,A,3,09,07,04,30,16,20,27,08,05,,,,0.94,0.56,0.75,1*09
$GNGSA,A,3,69,79,68,80,,,,,,,,,0.94,0.56,0.75,2*09
$GNGSA,A,3,09,31,05,06,24,04,15,,,,,,0.94,0.56,0.75,3*01
$GNGSA,A,3,37,20,23,32,19,38,08,34,,,,,0.94,0.56,0.75,4*02
$GPGSV,3,1,12,09,71,142,33,07,71,275,33,04,41,127,30,30,34,262,27,1*6D
$GPGSV,3,2,12,44,33,171,28,16,29,049,28,20,28,302,28,27,23,088,29,1*6C
$GPGSV,3,3,12,08,18,122,27,05,09,329,24,11,03,280,,26,01,043,,1*6B
$GLGSV,2,1,07,69,80,294,28,79,72,228,31,78,50,042,,68,43,151,27,1*7A
$GLGSV,2,2,07,80,17,224,23,70,15,324,,87,09,034,20,1*41
$GAGSV,2,1,08,09,73,128,30,31,65,104,29,05,50,300,26,06,47,125,26,7*72
$GAGSV,2,2,08,24,37,189,24,04,22,124,20,15,09,324,19,34,06,277,,7*7D
$GBGSV,4,1,14,37,79,214,39,20,66,265,39,23,44,061,34,32,37,168,34,1*74
$GBGSV,4,2,14,19,26,314,33,46,23,233,,38,16,332,27,08,11,341,23,1*7A
$GBGSV,4,3,14,34,05,035,26,11,05,058,18,43,04,078,,12,03,009,21,1*73
$GBGSV,4,4,14,13,03,346,22,04,01,262,,1*70
$GNRMC,194257.000,A,4910.426098,N,12304.401708,W,0.02,0.00,051224,,,D,V*10
$GNVTG,0.00,T,,M,0.02,N,0.04,K,D*20
$GNGGA,194258.000,4910.426086,N,12304.401684,W,2,28,0.56,5.147,M,-16.816,M,,*42
$GNGLL,4910.426086,N,12304.401684,W,194258.000,A,D*5A
$GNGSA,A,3,09,07,04,30,16,20,27,08,05,,,,0.94,0.56,0.75,1*09
$GNGSA,A,3,69,79,68,80,,,,,,,,,0.94,0.56,0.75,2*09
$GNGSA,A,3,09,31,05,06,24,04,15,,,,,,0.94,0.56,0.75,3*01
$GNGSA,A,3,37,20,23,32,19,38,08,34,,,,,0.94,0.56,0.75,4*02
$GPGSV,3,1,12,09,71,142,33,07,71,275,33,04,41,127,30,30,34,262,27,1*6D
$GPGSV,3,2,12,44,33,171,28,16,29,049,28,20,28,302,28,27,23,088,29,1*6C
$GPGSV,3,3,12,08,18,122,27,05,09,329,24,11,03,280,,26,01,043,,1*6B
$GLGSV,2,1,07,69,80,294,28,79,72,228,31,78,50,042,,68,43,151,27,1*7A
$GLGSV,2,2,07,80,17,224,23,70,15,324,,87,09,034,20,1*41
$GAGSV,2,1,08,09,73,128,30,31,65,104,29,05,50,300,26,06,47,125,26,7*72
$GAGSV,2,2,08,24,37,189,24,04,22,124,21,15,09,324,19,34,06,277,,7*7C
$GBGSV,4,1,14,37,79,214,39,20,66,265,39,23,44,061,34,32,37,168,34,1*74
$GBGSV,4,2,14,19,26,314,33,46,23,233,,38,16,332,27,08,11,341,23,1*7A
$GBGSV,4,3,14,34,05,035,26,11,05,058,18,43,04,078,,12,03,009,21,1*73
$GBGSV,4,4,14,13,03,346,22,04,01,262,,1*70
$GNRMC,194258.000,A,4910.426086,N,12304.401684,W,0.02,0.00,051224,,,D,V*15
$GNVTG,0.00,T,,M,0.02,N,0.03,K,D*27
$GNGGA,194259.000,4910.426098,N,12304.401696,W,2,28,0.56,5.104,M,-16.816,M,,*48
$GNGLL,4910.426098,N,12304.401696,W,194259.000,A,D*57
$GNGSA,A,3,09,07,04,30,16,20,27,08,05,,,,0.94,0.56,0.75,1*09
$GNGSA,A,3,69,79,68,80,,,,,,,,,0.94,0.56,0.75,2*09
$GNGSA,A,3,09,31,05,06,24,04,15,,,,,,0.94,0.56,0.75,3*01
$GNGSA,A,3,37,20,23,32,19,38,08,34,,,,,0.94,0.56,0.75,4*02
$GPGSV,3,1,12,09,71,142,33,07,71,275,33,04,41,127,30,30,34,262,27,1*6D
$GPGSV,3,2,12,44,33,171,28,16,29,049,28,20,28,302,28,27,23,088,29,1*6C
$GPGSV,3,3,12,08,18,122,27,05,09,329,24,11,03,280,,26,01,043,,1*6B
$GLGSV,2,1,07,69,80,294,28,79,72,228,31,78,50,042,,68,43,151,27,1*7A
$GLGSV,2,2,07,80,17,224,23,70,15,324,,87,09,034,19,1*4B
$GAGSV,2,1,08,09,73,128,30,31,65,104,29,05,50,300,26,06,47,125,26,7*72
$GAGSV,2,2,08,24,37,189,24,04,22,124,21,15,09,324,19,34,06,277,,7*7C
$GBGSV,4,1,14,37,79,214,39,20,66,265,39,23,44,061,34,32,37,168,34,1*74
$GBGSV,4,2,14,19,26,314,33,46,23,233,,38,16,332,27,08,11,341,23,1*7A
$GBGSV,4,3,14,34,05,035,26,11,05,058,18,43,04,078,,12,03,009,22,1*70
$GBGSV,4,4,14,13,03,346,21,04,01,262,,1*73
$GNRMC,194259.000,A,4910.426098,N,12304.401696,W,0.01,0.00,051224,,,D,V*1B
$GNVTG,0.00,T,,M,0.01,N,0.03,K,D*24
$GNGGA,194300.000,4910.426140,N,12304.401684,W,2,28,0.56,4.974,M,-16.816,M,,*4C
$GNGLL,4910.426140,N,12304.401684,W,194300.000,A,D*5D
$GNGSA,A,3,09,07,04,30,16,20,27,08,05,,,,0.94,0.56,0.75,1*09
$GNGSA,A,3,69,79,68,80,,,,,,,,,0.94,0.56,0.75,2*09
$GNGSA,A,3,09,31,05,06,24,04,15,,,,,,0.94,0.56,0.75,3*01
$GNGSA,A,3,37,20,23,32,19,38,08,34,,,,,0.94,0.56,0.75,4*02
$GPGSV,3,1,12,09,71,142,33,07,71,275,33,04,41,127,30,30,34,262,27,1*6D
$GPGSV,3,2,12,44,33,171,28,16,29,049,28,20,28,302,28,27,23,088,29,1*6C
$GPGSV,3,3,12,08,18,122,27,05,09,329,25,11,03,280,,26,01,043,,1*6A
$GLGSV,2,1,07,69,80,294,28,79,72,228,31,78,50,042,,68,43,151,26,1*7B
$GLGSV,2,2,07,80,17,224,23,70,15,324,,87,09,034,19,1*4B
$GAGSV,2,1,08,09,73,128,30,31,65,104,30,05,50,300,26,06,47,125,27,7*7B
$GAGSV,2,2,08,24,37,189,24,04,22,124,21,15,09,324,19,34,06,277,,7*7C
$GBGSV,4,1,14,37,79,214,39,20,66,265,39,23,44,061,34,32,37,168,34,1*74
$GBGSV,4,2,14,19,26,314,33,46,23,233,,38,16,332,27,08,11,341,23,1*7A
$GBGSV,4,3,14,34,05,035,26,11,05,058,18,43,04,078,,12,03,009,22,1*70
$GBGSV,4,4,14,13,03,346,21,04,01,262,,1*73
$GNRMC,194300.000,A,4910.426140,N,12304.401684,W,0.02,0.00,051224,,,D,V*12
$GNVTG,0.00,T,,M,0.02,N,0.03,K,D*27
$GNGGA,194301.000,4910.426218,N,12304.401642,W,2,28,0.56,4.824,M,-16.816,M,,*4D
$GNGLL,4910.426218,N,12304.401642,W,194301.000,A,D*58
$GNGSA,A,3,09,07,04,30,16,20,27,08,05,,,,0.94,0.56,0.75,1*09
$GNGSA,A,3,69,79,68,80,,,,,,,,,0.94,0.56,0.75,2*09
$GNGSA,A,3,09,31,05,06,24,04,15,,,,,,0.94,0.56,0.75,3*01
$GNGSA,A,3,37,20,23,32,19,38,08,34,,,,,0.94,0.56,0.75,4*02
$GPGSV,3,1,12,09,71,142,33,07,71,275,33,04,41,127,30,30,34,262,27,1*6D
$GPGSV,3,2,12,44,33,171,28,16,29,049,28,20,28,302,28,27,23,088,29,1*6C
$GPGSV,3,3,12,08,18,122,27,05,09,329,24,11,03,280,,26,01,043,,1*6B
$GLGSV,2,1,07,69,80,294,28,79,72,228,31,78,50,042,,68,43,151,26,1*7B
$GLGSV,2,2,07,80,17,224,23,70,15,324,,87,09,034,18,1*4A
$GAGSV,2,1,08,09,73,128,30,31,65,104,30,05,50,300,26,06,47,125,27,7*7B
$GAGSV,2,2,08,24,37,189,24,04,22,124,21,15,09,324,19,34,06,277,,7*7C
$GBGSV,4,1,14,37,79,214,39,20,66,265,39,23,44,061,34,32,37,168,34,1*74
$GBGSV,4,2,14,19,26,314,33,46,23,233,,38,16,332,27,08,11,341,23,1*7A
$GBGSV,4,3,14,34,05,035,26,11,05,058,18,43,04,078,,12,03,009,22,1*70
$GBGSV,4,4,14,13,03,346,21,04,01,262,,1*73
$GNRMC,194301.000,A,4910.426218,N,12304.401642,W,0.02,0.00,051224,,,D,V*17
$GNVTG,0.00,T,,M,0.02,N,0.03,K,D*27
$GNGGA,194302.000,4910.426260,N,12304.401654,W,2,28,0.56,4.718,M,-16.816,M,,*46
$GNGLL,4910.426260,N,12304.401654,W,194302.000,A,D*53
$GNGSA,A,3,09,07,04,30,16,20,27,08,05,,,,0.94,0.56,0.75,1*09
$GNGSA,A,3,69,79,68,80,,,,,,,,,0.94,0.56,0.75,2*09
$GNGSA,A,3,09,31,05,06,24,04,15,,,,,,0.94,0.56,0.75,3*01
$GNGSA,A,3,37,20,23,32,19,38,08,34,,,,,0.94,0.56,0.75,4*02
$GPGSV,3,1,12,09,71,142,33,07,71,275,33,04,41,127,30,30,34,262,27,1*6D
$GPGSV,3,2,12,44,33,171,28,16,29,049,28,20,28,302,28,27,23,088,29,1*6C
$GPGSV,3,3,12,08,18,122,27,05,09,329,25,11,03,280,,26,01,043,,1*6A
$GLGSV,2,1,07,69,80,294,28,79,72,228,31,78,50,042,,68,43,151,26,1*7B
$GLGSV,2,2,07,80,17,224,23,70,15,324,,87,09,034,19,1*4B
$GAGSV,2,1,08,09,73,128,30,31,65,104,30,05,50,300,26,06,47,125,26,7*7A
$GAGSV,2,2,08,24,37,189,24,04,22,124,21,15,09,324,19,34,06,277,,7*7C
$GBGSV,4,1,14,37,79,214,39,20,66,265,39,23,44,061,34,32,37,168,34,1*74
$GBGSV,4,2,14,19,26,314,33,46,23,233,,38,16,332,27,08,11,341,23,1*7A
$GBGSV,4,3,14,34,05,035,27,11,05,058,18,43,04,078,,12,03,009,22,1*71
$GBGSV,4,4,14,13,03,346,21,04,01,262,,1*73
$GNRMC,194302.000,A,4910.426260,N,12304.401654,W,0.02,0.00,051224,,,D,V*1C
$GNVTG,0.00,T,,M,0.02,N,0.03,K,D*27
$GNGGA,194303.000,4910.426296,N,12304.401612,W,2,28,0.56,4.562,M,-16.816,M,,*43
$GNGLL,4910.426296,N,12304.401612,W,194303.000,A,D*59
$GNGSA,A,3,09,07,04,30,16,20,27,08,05,,,,0.94,0.56,0.75,1*09
$GNGSA,A,3,69,79,68,80,,,,,,,,,0.94,0.56,0.75,2*09
$GNGSA,A,3,09,31,05,06,24,04,15,,,,,,0.94,0.56,0.75,3*01
$GNGSA,A,3,37,20,23,32,19,38,08,34,,,,,0.94,0.56,0.75,4*02
$GPGSV,3,1,12,09,71,142,33,07,71,275,33,04,41,127,30,30,34,262,27,1*6D
$GPGSV,3,2,12,44,33,171,28,16,29,049,28,20,28,302,28,27,23,088,29,1*6C
$GPGSV,3,3,12,08,18,122,27,05,09,329,25,11,03,280,,26,01,043,,1*6A
$GLGSV,2,1,07,69,80,294,28,79,72,228,31,78,50,042,,68,43,151,26,1*7B
$GLGSV,2,2,07,80,17,224,23,70,15,324,,87,09,034,19,1*4B
$GAGSV,2,1,08,09,73,128,30,31,65,104,30,05,50,300,26,06,47,125,26,7*7A
$GAGSV,2,2,08,24,37,189,25,04,22,124,21,15,09,324,19,34,06,277,,7*7D
$GBGSV,4,1,14,37,79,214,39,20,66,265,39,23,44,061,34,32,37,168,34,1*74
$GBGSV,4,2,14,19,26,314,33,46,23,233,,38,16,332,27,08,11,341,23,1*7A
$GBGSV,4,3,14,34,05,035,27,11,05,058,18,43,04,078,,12,03,009,22,1*71
$GBGSV,4,4,14,13,03,346,21,04,01,262,,1*73
$GNRMC,194303.000,A,4910.426296,N,12304.401612,W,0.01,0.00,051224,,,D,V*15
$GNVTG,0.00,T,,M,0.01,N,0.03,K,D*24
$GNGGA,194304.000,4910.426290,N,12304.401558,W,2,28,0.56,4.433,M,-16.817,M,,*4B
$GNGLL,4910.426290,N,12304.401558,W,194304.000,A,D*55
$GNGSA,A,3,07,09,04,30,16,20,27,08,05,,,,0.94,0.56,0.75,1*09
$GNGSA,A,3,69,79,68,80,,,,,,,,,0.94,0.56,0.75,2*09
$GNGSA,A,3,09,31,05,06,24,04,15,,,,,,0.94,0.56,0.75,3*01
$GNGSA,A,3,37,20,23,32,19,38,08,34,,,,,0.94,0.56,0.75,4*02
$GPGSV,3,1,12,07,71,275,33,09,71,142,34,04,41,127,30,30,34,262,28,1*65
$GPGSV,3,2,12,44,33,171,28,16,29,049,28,20,28,302,28,27,23,088,29,1*6C
$GPGSV,3,3,12,08,18,122,27,05,09,329,25,11,03,280,,26,01,043,,1*6A
$GLGSV,2,1,06,69,80,294,28,79,72,228,31,68,43,151,26,80,17,224,23,1*7D
$GLGSV,2,2,06,70,15,324,,87,09,034,19,1*71
$GAGSV,2,1,08,09,73,128,30,31,65,104,30,05,50,300,27,06,47,125,26,7*7B
$GAGSV,2,2,08,24,37,189,25,04,22,124,21,15,09,324,19,34,06,277,,7*7D
$GBGSV,4,1,14,37,79,214,39,20,66,265,39,23,44,061,34,32,37,168,33,1*73
$GBGSV,4,2,14,19,26,314,33,46,23,233,,38,16,332,27,08,11,341,23,1*7A
$GBGSV,4,3,14,34,05,035,27,11,05,058,18,43,04,078,,12,03,009,22,1*71
$GBGSV,4,4,14,13,03,346,21,04,01,262,,1*73
$GNRMC,194304.000,A,4910.426290,N,12304.401558,W,0.02,0.00,051224,,,D,V*1A
$GNVTG,0.00,T,,M,0.02,N,0.03,K,D*27
$GNGGA,194305.000,4910.426242,N,12304.401540,W,2,28,0.56,4.336,M,-16.816,M,,*4F
