$GNGGA,194235.000,4910.425402,N,12304.395390,W,2,28,0.55,-1.182,M,-16.816,M,,*6B
$GNGLL,4910.425402,N,12304.395390,W,194235.000,A,D*50
$GNGSA,A,3,09,07,04,30,16,20,27,08,05,,,,0.93,0.55,0.75,1*0D
$GNGSA,A,3,69,79,78,68,80,87,86,,,,,,0.93,0.55,0.75,2*03
$GNGSA,A,3,09,31,05,06,24,,,,,,,,0.93,0.55,0.75,3*05
$GNGSA,A,3,37,20,23,32,19,38,34,,,,,,0.93,0.55,0.75,4*0E
$GPGSV,3,1,10,09,72,142,31,07,70,274,30,04,42,127,27,30,33,261,25,1*6E
$GPGSV,3,2,10,44,33,171,,16,30,050,26,20,28,303,26,27,23,089,24,1*69
$GPGSV,3,3,10,08,17,123,20,05,09,330,18,1*6C
$GLGSV,2,1,08,69,80,297,39,79,72,228,38,78,50,042,26,68,43,151,35,1*78
$GLGSV,2,2,08,80,17,224,31,70,15,324,,87,09,034,20,86,09,349,24,1*72
$GAGSV,2,1,06,09,73,127,24,31,65,105,22,05,49,300,20,06,48,125,21,7*7A
$GAGSV,2,2,06,24,37,189,20,15,09,325,16,7*7B
$GBGSV,3,1,09,37,77,214,35,20,66,266,35,23,44,061,32,32,37,168,31,1*71
$GBGSV,3,2,09,19,25,314,29,38,16,332,21,08,11,341,18,34,05,035,22,1*72
$GBGSV,3,3,09,12,03,009,19,1*4E
$GNRMC,194235.000,A,4910.425402,N,12304.395390,W,0.12,49.44,051224,,,D,V*23
$GNVTG,49.44,T,,M,0.12,N,0.23,K,D*19
$PAIRLOG,Full*51
$GNGGA,194236.000,4910.425414,N,12304.395390,W,2,28,0.55,-1.199,M,-16.816,M,,*65
$GNGLL,4910.425414,N,12304.395390,W,194236.000,A,D*54
$GNGSA,A,3,09,07,04,30,16,20,27,08,05,,,,0.93,0.55,0.75,1*0D
$GNGSA,A,3,69,79,78,68,80,86,87,,,,,,0.93,0.55,0.75,2*03
$GNGSA,A,3,09,31,05,06,24,,,,,,,,0.93,0.55,0.75,3*05
$GNGSA,A,3,37,20,23,32,19,38,34,,,,,,0.93,0.55,0.75,4*0E
$GPGSV,3,1,12,09,72,142,30,07,70,274,31,04,42,127,27,44,33,171,,1*6A
$GPGSV,3,2,12,30,33,261,26,16,30,050,28,20,28,303,26,27,23,089,27,1*63
$GPGSV,3,3,12,08,17,123,20,05,09,330,18,11,03,281,,26,02,043,,1*67
$GLGSV,2,1,08,69,80,297,39,79,72,228,38,78,50,042,26,68,43,151,35,1*78
$GLGSV,2,2,08,80,17,224,31,70,15,324,,86,09,349,24,87,09,034,20,1*72
$GAGSV,2,1,08,09,73,127,24,31,65,105,22,05,49,300,20,06,48,125,21,7*74
$GAGSV,2,2,08,24,37,189,20,04,22,123,,15,09,325,17,34,06,277,,7*73
$GBGSV,4,1,15,37,77,214,35,20,66,266,35,58,61,247,,23,44,061,32,1*78
$GBGSV,4,2,15,32,37,168,31,19,25,314,29,46,22,233,,38,16,332,21,1*73
$GBGSV,4,3,15,08,11,341,18,31,09,336,,11,05,058,,34,05,035,22,1*73
$GBGSV,4,4,15,43,03,079,,13,03,346,,12,03,009,19,1*49
$GNRMC,194236.000,A,4910.425414,N,12304.395390,W,0.14,49.44,051224,,,D,V*21
$GNVTG,49.44,T,,M,0.14,N,0.26,K,D*1A
$PAIRLOG,Full*51
$GNGGA,194237.000,4910.425408,N,12304.395372,W,2,29,0.53,-1.139,M,-16.816,M,,*68
$GNGLL,4910.425408,N,12304.395372,W,194237.000,A,D*54
$GNGSA,A,3,09,07,04,30,16,20,27,08,05,,,,0.90,0.53,0.73,1*0E
$GNGSA,A,3,69,79,78,68,80,86,87,,,,,,0.90,0.53,0.73,2*00
$GNGSA,A,3,09,31,05,06,24,04,,,,,,,0.90,0.53,0.73,3*02
$GNGSA,A,3,37,20,23,32,19,38,34,,,,,,0.90,0.53,0.73,4*0D
$GPGSV,3,1,12,09,72,142,31,07,70,274,31,04,42,127,27,30,33,261,26,1*6E
$GPGSV,3,2,12,44,33,171,,16,30,050,28,20,28,303,25,27,23,089,26,1*64
$GPGSV,3,3,12,08,17,123,20,05,09,330,19,11,03,281,,26,02,043,,1*66
$GLGSV,2,1,08,69,80,297,39,79,72,228,38,78,50,042,26,68,43,151,35,1*78
$GLGSV,2,2,08,80,17,224,31,70,15,324,,86,09,349,24,87,09,034,20,1*72
$GAGSV,2,1,08,09,73,127,24,31,65,105,22,05,49,300,20,06,48,125,21,7*74
$GAGSV,2,2,08,24,37,189,20,04,22,123,18,15,09,325,17,34,06,277,,7*7A
$GBGSV,4,1,15,37,79,214,35,20,66,266,35,58,61,247,,23,44,061,32,1*76
$GBGSV,4,2,15,32,37,168,31,19,25,314,29,46,22,233,,38,16,332,22,1*70
$GBGSV,4,3,15,08,11,341,18,11,05,058,,34,05,035,22,43,03,079,,1*74
$GBGSV,4,4,15,12,03,009,19,13,03,346,,04,01,262,,1*40
$GNRMC,194237.000,A,4910.425408,N,12304.395372,W,0.14,49.44,051224,,,D,V*21
$GNVTG,49.44,T,,M,0.14,N,0.26,K,D*1A
$PAIRLOG,Full*51
$GNGGA,194238.000,4910.425408,N,12304.395276,W,2,28,0.54,-1.131,M,-16.816,M,,*6C
$GNGLL,4910.425408,N,12304.395276,W,194238.000,A,D*5E
$GNGSA,A,3,09,07,04,30,16,20,27,08,05,,,,0.92,0.54,0.74,1*0C
$GNGSA,A,3,69,79,78,68,80,86,87,,,,,,0.92,0.54,0.74,2*02
$GNGSA,A,3,09,31,06,24,04,,,,,,,,0.92,0.54,0.74,3*05
$GNGSA,A,3,37,20,23,32,19,38,34,,,,,,0.92,0.54,0.74,4*0F
$GPGSV,3,1,12,09,72,142,30,07,70,274,31,04,42,127,27,30,33,261,26,1*6F
$GPGSV,3,2,12,44,33,171,,16,30,050,28,20,28,303,26,27,23,089,27,1*66
$GPGSV,3,3,12,08,17,123,20,05,09,330,19,11,03,281,,26,02,043,,1*66
$GLGSV,2,1,08,69,80,297,39,79,72,228,38,78,50,042,26,68,43,151,35,1*78
$GLGSV,2,2,08,80,17,224,31,70,15,324,,86,09,349,24,87,09,034,20,1*72
$GAGSV,2,1,08,09,73,127,24,31,65,105,22,05,49,300,,06,48,125,21,7*76
$GAGSV,2,2,08,24,37,189,20,04,22,123,19,15,09,325,17,34,06,277,,7*7B
$GBGSV,4,1,15,37,79,214,35,20,66,266,35,58,61,247,,23,44,061,32,1*76
$GBGSV,4,2,15,32,37,168,31,19,25,314,29,46,22,233,,38,16,332,22,1*70
$GBGSV,4,3,15,08,11,341,17,11,05,058,,34,05,035,22,43,03,079,,1*7B
$GBGSV,4,4,15,12,03,009,18,13,03,346,,04,01,262,,1*41
$GNRMC,194238.000,A,4910.425408,N,12304.395276,W,0.15,49.44,051224,,,D,V*2A
$GNVTG,49.44,T,,M,0.15,N,0.28,K,D*15
$PAIRLOG,Full*51
$GNGGA,194239.000,4910.425432,N,12304.395264,W,2,29,0.53,-1.112,M,-16.816,M,,*60
$GNGLL,4910.425432,N,12304.395264,W,194239.000,A,D*55
$GNGSA,A,3,09,07,04,30,16,20,27,08,05,,,,0.90,0.53,0.73,1*0E
$GNGSA,A,3,69,79,78,68,80,86,87,,,,,,0.90,0.53,0.73,2*00
$GNGSA,A,3,09,31,05,06,24,04,,,,,,,0.90,0.53,0.73,3*02
$GNGSA,A,3,37,20,23,32,19,38,34,,,,,,0.90,0.53,0.73,4*0D
$GPGSV,3,1,12,09,72,142,29,07,70,274,30,04,42,127,25,44,33,171,,1*61
$GPGSV,3,2,12,30,33,261,24,16,30,050,25,20,28,303,25,27,23,089,24,1*6C
$GPGSV,3,3,12,08,17,123,20,05,09,330,19,11,03,281,,26,02,043,,1*66
$GLGSV,2,1,07,69,80,297,39,79,72,228,38,78,50,042,26,68,43,151,34,1*76
$GLGSV,2,2,07,80,17,224,31,86,09,349,24,87,09,034,20,1*4B
$GAGSV,2,1,08,09,73,127,23,31,65,105,22,05,49,300,20,06,48,125,21,7*73
$GAGSV,2,2,08,24,37,189,19,04,22,123,18,15,09,325,17,34,06,277,,7*70
$GBGSV,4,1,15,37,79,214,35,20,66,266,35,58,61,247,,23,44,061,32,1*76
$GBGSV,4,2,15,32,37,168,31,19,25,314,29,46,22,233,,38,16,332,22,1*70
$GBGSV,4,3,15,08,11,341,17,31,09,336,,11,05,058,17,34,05,035,22,1*7A
$GBGSV,4,4,15,43,03,079,,13,03,346,15,12,03,009,18,1*4C
$GNRMC,194239.000,A,4910.425432,N,12304.395264,W,0.16,49.44,051224,,,D,V*22
$GNVTG,49.44,T,,M,0.16,N,0.30,K,D*1F
$PAIRLOG,Full*51
$GNGGA,194240.000,4910.425420,N,12304.395210,W,2,28,0.55,-1.011,M,-16.816,M,,*6B
$GNGLL,4910.425420,N,12304.395210,W,194240.000,A,D*5B
$GNGSA,A,3,09,07,04,30,16,20,27,08,05,,,,0.93,0.55,0.75,1*0D
$GNGSA,A,3,69,79,78,68,80,86,87,,,,,,0.93,0.55,0.75,2*03
$GNGSA,A,3,09,31,05,06,24,,,,,,,,0.93,0.55,0.75,3*05
$GNGSA,A,3,37,20,23,32,19,38,34,,,,,,0.93,0.55,0.75,4*0E
$GPGSV,3,1,10,09,72,142,29,07,70,274,30,04,42,127,25,30,33,261,23,1*63
$GPGSV,3,2,10,44,33,171,,16,30,050,25,20,28,303,24,27,23,089,24,1*68
$GPGSV,3,3,10,08,17,123,20,05,09,330,19,1*6D
$GLGSV,2,1,07,69,80,297,39,79,72,228,38,78,50,042,26,68,43,151,34,1*76
$GLGSV,2,2,07,80,17,224,31,86,09,349,24,87,09,034,20,1*4B
$GAGSV,2,1,06,09,73,127,22,31,65,105,22,05,49,300,22,06,48,125,21,7*7E
$GAGSV,2,2,06,24,37,189,19,15,09,325,17,7*70
$GBGSV,3,1,09,37,79,214,35,20,66,266,36,23,44,061,32,32,37,168,31,1*7C
$GBGSV,3,2,09,19,25,314,29,38,16,332,22,08,11,341,17,34,05,035,23,1*7F
$GBGSV,3,3,09,12,03,009,18,1*4F
$GNRMC,194240.000,A,4910.425420,N,12304.395210,W,0.17,49.44,051224,,,D,V*2D
$GNVTG,49.44,T,,M,0.17,N,0.31,K,D*1F
$PAIRLOG,Full*51
$GNGGA,194241.000,4910.425432,N,12304.395144,W,2,28,0.55,-0.897,M,-16.816,M,,*6C
$GNGLL,4910.425432,N,12304.395144,W,194241.000,A,D*5B
$GNGSA,A,3,09,07,04,30,16,20,27,08,05,,,,0.93,0.55,0.75,1*0D
$GNGSA,A,3,69,79,78,68,80,87,86,,,,,,0.93,0.55,0.75,2*03
$GNGSA,A,3,09,31,05,06,24,,,,,,,,0.93,0.55,0.75,3*05
$GNGSA,A,3,37,20,23,32,19,38,34,,,,,,0.93,0.55,0.75,4*0E
$GPGSV,3,1,10,09,72,142,29,07,70,274,30,04,42,127,26,30,33,261,24,1*67
$GPGSV,3,2,10,44,33,171,,16,30,050,25,20,28,303,24,27,23,089,26,1*6A
$GPGSV,3,3,10,08,17,123,20,05,09,330,18,1*6C
$GLGSV,2,1,08,69,80,297,39,79,72,228,38,78,50,042,26,68,43,151,34,1*79
$GLGSV,2,2,08,80,17,224,31,70,15,324,,87,09,034,19,86,09,349,24,1*78
$GAGSV,2,1,06,09,73,127,23,31,65,105,23,05,49,300,22,06,48,125,21,7*7E
$GAGSV,2,2,06,24,37,189,19,15,09,325,17,7*70
$GBGSV,3,1,09,37,79,214,36,20,66,266,36,23,44,061,32,32,37,168,31,1*7F
$GBGSV,3,2,09,19,25,314,30,38,16,332,22,08,11,341,18,34,05,035,23,1*78
$GBGSV,3,3,09,12,03,009,18,1*4F
$GNRMC,194241.000,A,4910.425432,N,12304.395144,W,0.17,49.44,051224,,,D,V*2D
$GNVTG,49.44,T,,M,0.17,N,0.32,K,D*1C
$PAIRLOG,Full*51
$GNGGA,194242.000,4910.425414,N,12304.395186,W,2,28,0.55,-0.854,M,-16.816,M,,*6A
$GNGLL,4910.425414,N,12304.395186,W,194242.000,A,D*52
$GNGSA,A,3,09,07,04,30,16,20,27,08,05,,,,0.93,0.55,0.75,1*0D
$GNGSA,A,3,69,79,78,68,80,87,86,,,,,,0.93,0.55,0.75,2*03
$GNGSA,A,3,09,31,05,06,24,,,,,,,,0.93,0.55,0.75,3*05
$GNGSA,A,3,37,20,23,32,19,38,34,,,,,,0.93,0.55,0.75,4*0E
$GPGSV,3,1,10,09,72,142,29,07,70,274,29,04,42,127,25,30,33,261,23,1*6B
$GPGSV,3,2,10,44,33,171,,16,30,050,24,20,28,303,25,27,23,089,25,1*69
$GPGSV,3,3,10,08,17,123,20,05,09,330,18,1*6C
$GLGSV,2,1,08,69,80,297,39,79,72,228,38,78,50,042,27,68,43,151,34,1*78
$GLGSV,2,2,08,80,17,224,31,70,15,324,,87,09,034,19,86,09,349,24,1*78
$GAGSV,2,1,06,09,73,127,23,31,65,105,23,05,49,300,20,06,48,125,21,7*7C
$GAGSV,2,2,06,24,37,189,19,15,09,325,16,7*71
$GBGSV,3,1,09,37,79,214,36,20,66,266,36,23,44,061,32,32,37,168,31,1*7F
$GBGSV,3,2,09,19,25,314,30,38,16,332,22,08,11,341,18,34,05,035,23,1*78
$GBGSV,3,3,09,12,03,009,18,1*4F
$GNRMC,194242.000,A,4910.425414,N,12304.395186,W,0.17,49.44,051224,,,D,V*24
$GNVTG,49.44,T,,M,0.17,N,0.31,K,D*1F
$PAIRLOG,Full*51
$GNGGA,194243.000,4910.425408,N,12304.395210,W,2,28,0.55,-0.817,M,-16.816,M,,*6D
$GNGLL,4910.425408,N,12304.395210,W,194243.000,A,D*52
$GNGSA,A,3,09,07,04,30,16,20,27,08,05,,,,0.93,0.55,0.75,1*0D
$GNGSA,A,3,69,79,78,68,80,86,87,,,,,,0.93,0.55,0.75,2*03
$GNGSA,A,3,09,31,05,06,24,,,,,,,,0.93,0.55,0.75,3*05
$GNGSA,A,3,37,20,23,32,19,38,34,,,,,,0.93,0.55,0.75,4*0E
$GPGSV,3,1,12,09,72,142,29,07,70,274,29,04,42,127,25,44,33,171,,1*69
$GPGSV,3,2,12,30,33,261,23,16,30,050,26,20,28,303,24,27,23,089,25,1*68
$GPGSV,3,3,12,08,17,123,21,05,09,330,18,11,03,281,,26,02,043,,1*66
$GLGSV,2,1,08,69,80,297,39,79,72,228,38,78,50,042,27,68,43,151,34,1*78
$GLGSV,2,2,08,80,17,224,32,70,15,324,,86,09,349,24,87,09,034,19,1*7B
$GAGSV,2,1,08,09,73,127,23,31,65,105,23,05,49,300,20,06,48,125,21,7*72
$GAGSV,2,2,08,24,37,189,19,04,22,123,,15,09,325,15,34,06,277,,7*7B
$GBGSV,4,1,15,37,79,214,36,20,66,266,36,58,61,247,,23,44,061,32,1*76
$GBGSV,4,2,15,32,37,168,31,19,25,314,30,46,22,233,,38,16,332,22,1*78
$GBGSV,4,3,15,08,11,341,18,31,09,336,,11,05,058,,34,05,035,23,1*72
$GBGSV,4,4,15,43,04,078,,12,03,009,18,13,03,346,,1*4E
$GNRMC,194243.000,A,4910.425408,N,12304.395210,W,0.15,49.44,051224,,,D,V*26
$GNVTG,49.44,T,,M,0.15,N,0.28,K,D*15
$PAIRLOG,Full*51
$GNGGA,194244.000,4910.425360,N,12304.395156,W,2,28,0.55,-0.679,M,-16.817,M,,*65
$GNGLL,4910.425360,N,12304.395156,W,194244.000,A,D*5D
$GNGSA,A,3,09,07,04,30,16,20,27,08,05,,,,0.93,0.55,0.75,1*0D
$GNGSA,A,3,69,79,78,68,80,86,87,,,,,,0.93,0.55,0.75,2*03
$GNGSA,A,3,09,31,05,06,24,,,,,,,,0.93,0.55,0.75,3*05
$GNGSA,A,3,37,20,23,32,19,38,34,,,,,,0.93,0.55,0.75,4*0E
$GPGSV,3,1,12,09,72,142,29,07,70,274,29,04,42,127,25,44,33,171,,1*69
$GPGSV,3,2,12,30,33,261,22,16,30,050,25,20,28,303,23,27,23,089,25,1*6D
$GPGSV,3,3,12,08,17,123,20,05,09,330,18,11,03,281,,26,02,043,,1*67
$GLGSV,2,1,08,69,80,297,39,79,72,228,38,78,50,042,27,68,43,151,34,1*78
$GLGSV,2,2,08,80,17,224,32,70,15,324,,86,09,349,24,87,09,034,19,1*7B
$GAGSV,2,1,08,09,73,127,23,31,65,105,23,05,49,300,21,06,48,125,21,7*73
$GAGSV,2,2,08,24,37,189,19,04,22,123,,15,09,325,15,34,06,277,,7*7B
$GBGSV,4,1,15,37,79,214,36,20,66,266,36,58,61,247,,23,44,061,32,1*76
$GBGSV,4,2,15,32,37,168,31,19,25,314,30,46,22,233,,38,16,332,22,1*78
$GBGSV,4,3,15,08,11,341,18,31,09,336,,11,05,058,,34,05,035,23,1*72
$GBGSV,4,4,15,43,04,078,,12,03,009,19,13,03,346,,1*4F
$GNRMC,194244.000,A,4910.425360,N,12304.395156,W,0.14,49.44,051224,,,D,V*28
$GNVTG,49.44,T,,M,0.14,N,0.25,K,D*19
$PAIRLOG,Full*51
$GNGGA,194245.000,4910.425408,N,12304.395174,W,2,29,0.53,-0.648,M,-16.817,M,,*68
$GNGLL,4910.425408,N,12304.395174,W,194245.000,A,D*55
$GNGSA,A,3,09,07,04,30,16,20,27,08,05,,,,0.90,0.53,0.73,1*0E
$GNGSA,A,3,69,79,78,68,80,86,87,,,,,,0.90,0.53,0.73,2*00
$GNGSA,A,3,09,31,05,06,24,04,,,,,,,0.90,0.53,0.73,3*02
$GNGSA,A,3,37,20,23,32,19,38,34,,,,,,0.90,0.53,0.73,4*0D
$GPGSV,3,1,12,09,72,142,28,07,70,274,28,04,42,127,23,30,33,261,20,1*6C
$GPGSV,3,2,12,44,33,171,,16,30,050,23,20,28,303,22,27,23,089,25,1*6B
$GPGSV,3,3,12,08,17,123,18,05,09,330,18,11,03,281,,26,02,043,,1*6C
$GLGSV,2,1,07,69,80,297,39,79,72,228,38,78,50,042,27,68,43,151,33,1*70
$GLGSV,2,2,07,80,17,224,32,86,09,349,24,87,09,034,19,1*42
$GAGSV,2,1,08,09,73,127,22,31,65,105,23,05,49,300,21,06,48,125,21,7*72
$GAGSV,2,2,08,24,37,189,19,04,22,123,18,15,09,325,15,34,06,277,,7*72
$GBGSV,4,1,15,37,79,214,36,20,66,266,36,58,61,247,,23,44,061,32,1*76
$GBGSV,4,2,15,32,37,168,31,19,25,314,30,46,22,233,,38,16,332,22,1*78
$GBGSV,4,3,15,08,11,341,18,31,09,336,,11,05,058,,34,05,035,24,1*75
$GBGSV,4,4,15,13,03,346,17,12,03,009,19,04,01,262,,1*46
$GNRMC,194245.000,A,4910.425408,N,12304.395174,W,0.12,49.44,051224,,,D,V*26
$GNVTG,49.44,T,,M,0.12,N,0.22,K,D*18
$PAIRLOG,Full*51
$GNGGA,194246.000,4910.425426,N,12304.395114,W,2,29,0.53,-0.564,M,-16.817,M,,*6C
$GNGLL,4910.425426,N,12304.395114,W,194246.000,A,D*5C
$GNGSA,A,3,09,07,04,30,16,20,27,08,05,,,,0.90,0.53,0.73,1*0E
$GNGSA,A,3,69,79,78,68,80,86,87,,,,,,0.90,0.53,0.73,2*00
$GNGSA,A,3,09,31,05,06,24,04,,,,,,,0.90,0.53,0.73,3*02
$GNGSA,A,3,37,20,23,32,19,38,34,,,,,,0.90,0.53,0.73,4*0D
$GPGSV,3,1,12,09,72,142,26,07,70,274,25,04,42,127,20,30,33,261,20,1*6C
$GPGSV,3,2,12,44,33,171,,16,30,050,23,20,28,303,22,27,23,089,24,1*6A
$GPGSV,3,3,12,08,17,123,18,05,09,330,18,11,03,281,,26,02,043,,1*6C
$GLGSV,2,1,07,69,80,297,39,79,72,228,38,78,50,042,26,68,43,151,33,1*71
$GLGSV,2,2,07,80,17,224,32,86,09,349,24,87,09,034,19,1*42
$GAGSV,2,1,08,09,73,127,21,31,65,105,22,05,49,300,20,06,48,125,20,7*70
$GAGSV,2,2,08,24,37,189,19,04,22,123,17,15,09,325,15,34,06,277,,7*7D
$GBGSV,4,1,15,37,79,214,36,20,66,266,36,58,61,247,,23,44,061,32,1*76
$GBGSV,4,2,15,32,37,168,31,19,25,314,30,46,23,233,,38,16,332,22,1*79
$GBGSV,4,3,15,08,11,341,18,31,09,336,,11,05,058,,34,05,035,24,1*75
$GBGSV,4,4,15,13,03,346,17,12,03,009,19,04,01,262,,1*46
$GNRMC,194246.000,A,4910.425426,N,12304.395114,W,0.11,49.44,051224,,,D,V*2C
$GNVTG,49.44,T,,M,0.11,N,0.21,K,D*18
$PAIRLOG,Full*51
$GNGGA,194247.000,4910.425498,N,12304.395162,W,2,28,0.55,-0.615,M,-16.817,M,,*6B
$GNGLL,4910.425498,N,12304.395162,W,194247.000,A,D*59
$GNGSA,A,3,09,07,04,30,16,20,27,08,05,,,,0.93,0.55,0.75,1*0D
$GNGSA,A,3,69,79,78,68,80,86,87,,,,,,0.93,0.55,0.75,2*03
$GNGSA,A,3,09,31,05,06,24,,,,,,,,0.93,0.55,0.75,3*05
$GNGSA,A,3,37,20,23,32,19,38,34,,,,,,0.93,0.55,0.75,4*0E
$GPGSV,3,1,12,09,72,142,27,07,70,274,27,04,42,127,22,44,33,171,,1*6E
$GPGSV,3,2,12,30,33,261,20,16,30,050,24,20,28,303,20,27,23,089,24,1*6C
$GPGSV,3,3,12,08,17,123,18,05,09,330,18,11,03,281,,26,02,043,,1*6C
$GLGSV,2,1,07,69,80,297,39,79,72,228,38,78,50,042,26,68,43,151,33,1*71
$GLGSV,2,2,07,80,17,224,32,86,09,349,24,87,09,034,18,1*43
$GAGSV,2,1,08,09,73,127,20,31,65,105,22,05,49,300,19,06,48,125,19,7*71
$GAGSV,2,2,08,24,37,189,18,04,22,123,,15,09,325,15,34,06,277,,7*7A
$GBGSV,4,1,15,37,79,214,36,20,66,266,36,58,61,247,,23,44,061,32,1*76
$GBGSV,4,2,15,32,37,168,31,19,25,314,30,46,23,233,,38,16,332,22,1*79
$GBGSV,4,3,15,08,11,341,18,31,09,336,,11,05,058,,34,05,035,24,1*75
$GBGSV,4,4,15,43,04,078,,12,03,009,19,13,03,346,,1*4F
$GNRMC,194247.000,A,4910.425498,N,12304.395162,W,0.12,49.44,051224,,,D,V*2A
$GNVTG,49.44,T,,M,0.12,N,0.22,K,D*18
$PAIRLOG,Full*51
$GNGGA,194248.000,4910.425540,N,12304.395156,W,2,27,0.56,-0.612,M,-16.817,M,,*6C
$GNGLL,4910.425540,N,12304.395156,W,194248.000,A,D*55
$GNGSA,A,3,09,07,04,30,16,20,27,08,05,,,,0.94,0.56,0.76,1*0A
$GNGSA,A,3,69,79,78,68,80,86,87,,,,,,0.94,0.56,0.76,2*04
$GNGSA,A,3,09,31,06,24,,,,,,,,,0.94,0.56,0.76,3*07
$GNGSA,A,3,37,20,23,32,19,38,34,,,,,,0.94,0.56,0.76,4*09
$GPGSV,3,1,12,09,72,142,28,07,70,274,27,04,42,127,23,44,33,171,,1*60
$GPGSV,3,2,12,30,33,261,20,16,30,050,23,20,28,303,22,27,23,089,25,1*68
$GPGSV,3,3,12,08,17,123,18,05,09,330,18,11,03,281,,26,02,043,,1*6C
$GLGSV,2,1,08,69,80,297,39,79,72,228,38,78,50,042,26,68,43,151,33,1*7E
$GLGSV,2,2,08,80,17,224,32,70,15,324,,86,09,349,24,87,09,034,18,1*7A
$GAGSV,2,1,08,09,73,127,20,31,65,105,22,05,49,300,,06,48,125,19,7*79
$GAGSV,2,2,08,24,37,189,18,04,22,123,,15,09,325,15,34,06,277,,7*7A
$GBGSV,4,1,15,37,79,214,37,20,66,266,37,58,61,247,,23,44,061,32,1*76
$GBGSV,4,2,15,32,37,168,31,19,25,314,30,46,23,233,,38,16,332,22,1*79
$GBGSV,4,3,15,08,11,341,18,31,09,336,,11,05,058,,34,05,035,24,1*75
$GBGSV,4,4,15,43,04,078,,12,03,009,19,13,03,346,,1*4F
$GNRMC,194248.000,A,4910.425540,N,12304.395156,W,0.13,49.44,051224,,,D,V*27
$GNVTG,49.44,T,,M,0.13,N,0.23,K,D*18
$PAIRLOG,Full*51
$GNGGA,194249.000,4910.425552,N,12304.395114,W,2,28,0.55,-0.407,M,-16.817,M,,*62
$GNGLL,4910.425552,N,12304.395114,W,194249.000,A,D*51
$GNGSA,A,3,09,07,04,30,16,20,27,08,05,,,,0.93,0.55,0.75,1*0D
$GNGSA,A,3,69,79,78,68,80,86,87,,,,,,0.93,0.55,0.75,2*03
$GNGSA,A,3,09,31,05,06,24,,,,,,,,0.93,0.55,0.75,3*05
$GNGSA,A,3,37,20,23,32,19,38,34,,,,,,0.93,0.55,0.75,4*0E
$GPGSV,3,1,09,09,72,142,30,07,70,274,28,04,42,127,23,30,33,261,21,1*6E
$GPGSV,3,2,09,16,30,050,24,20,28,303,22,27,23,089,26,08,17,123,18,1*65
$GPGSV,3,3,09,05,09,330,18,1*58
$GLGSV,2,1,08,69,80,297,39,79,72,228,38,78,50,042,26,68,43,151,33,1*7E
$GLGSV,2,2,08,80,17,224,32,70,15,324,,86,09,349,24,87,09,034,18,1*7A
$GAGSV,2,1,06,09,73,127,20,31,65,105,22,05,49,300,18,06,48,125,19,7*7E
$GAGSV,2,2,06,24,37,189,18,15,09,325,14,7*72
$GBGSV,3,1,09,37,79,214,37,20,66,266,37,23,44,061,33,32,37,168,31,1*7E
$GBGSV,3,2,09,19,25,314,31,38,16,332,23,08,11,341,18,34,05,035,25,1*7E
$GBGSV,3,3,09,12,03,009,19,1*4E
$GNRMC,194249.000,A,4910.425552,N,12304.395114,W,0.13,49.44,051224,,,D,V*23
$GNVTG,49.44,T,,M,0.13,N,0.24,K,D*1F
$PAIRLOG,Full*51
$GNGGA,194250.000,4910.425570,N,12304.395030,W,2,28,0.55,-0.279,M,-16.816,M,,*63
$GNGLL,4910.425570,N,12304.395030,W,194250.000,A,D*5E
$GNGSA,A,3,09,07,04,30,16,20,27,08,05,,,,0.93,0.55,0.75,1*0D
$GNGSA,A,3,69,79,78,68,80,86,87,,,,,,0.93,0.55,0.75,2*03
$GNGSA,A,3,09,31,05,06,24,,,,,,,,0.93,0.55,0.75,3*05
$GNGSA,A,3,37,20,23,32,19,38,34,,,,,,0.93,0.55,0.75,4*0E
$GPGSV,3,1,12,09,72,142,29,07,70,274,29,04,42,127,24,48,33,182,,1*68
$GPGSV,3,2,12,30,33,261,23,16,30,050,25,20,28,303,20,27,23,089,25,1*6F
$GPGSV,3,3,12,08,17,123,19,05,09,330,18,11,03,281,,26,02,043,,1*6D
$GLGSV,2,1,08,69,80,297,39,79,72,228,38,78,50,042,27,68,43,151,32,1*7E
$GLGSV,2,2,08,80,17,224,32,70,15,324,,86,09,349,24,87,09,034,17,1*75
$GAGSV,2,1,08,09,73,127,20,31,65,105,22,05,49,300,18,06,48,125,19,7*70
$GAGSV,2,2,08,24,37,189,18,04,22,123,,15,09,325,14,34,06,277,,7*7B
$GBGSV,4,1,15,37,79,214,37,20,66,266,37,58,61,247,,23,44,061,33,1*77
$GBGSV,4,2,15,32,37,168,31,19,25,314,31,46,23,233,,38,16,332,23,1*79
$GBGSV,4,3,15,08,11,341,18,31,09,336,,11,05,058,,34,05,035,24,1*75
$GBGSV,4,4,15,43,04,078,,12,03,009,19,13,03,346,,1*4F
$GNRMC,194250.000,A,4910.425570,N,12304.395030,W,0.14,49.44,051224,,,D,V*2B
$GNVTG,49.44,T,,M,0.14,N,0.26,K,D*1A
$PAIRLOG,Full*51
$GNGGA,194251.000,4910.425600,N,12304.394922,W,2,28,0.55,-0.059,M,-16.816,M,,*6D
$GNGLL,4910.425600,N,12304.394922,W,194251.000,A,D*50
$GNGSA,A,3,09,07,04,30,16,20,27,08,05,,,,0.93,0.55,0.75,1*0D
$GNGSA,A,3,69,79,78,68,80,86,87,,,,,,0.93,0.55,0.75,2*03
$GNGSA,A,3,09,31,05,06,24,,,,,,,,0.93,0.55,0.75,3*05
$GNGSA,A,3,37,20,23,32,19,38,34,,,,,,0.93,0.55,0.75,4*0E
$GPGSV,3,1,12,09,72,142,28,07,70,274,26,04,42,127,23,48,33,182,,1*61
$GPGSV,3,2,12,30,33,261,24,16,30,050,24,20,28,303,20,27,23,089,25,1*69
$GPGSV,3,3,12,08,17,123,19,05,09,330,18,11,03,281,,26,02,043,,1*6D
$GLGSV,2,1,08,69,80,297,39,79,72,228,38,78,50,042,27,68,43,151,32,1*7E
$GLGSV,2,2,08,80,17,224,32,70,15,324,,86,09,349,25,87,09,034,17,1*74
$GAGSV,2,1,08,09,73,127,20,31,65,105,22,05,49,300,18,06,48,125,19,7*70
$GAGSV,2,2,08,24,37,189,18,04,22,123,,15,09,325,14,34,06,277,,7*7B
$GBGSV,4,1,15,37,79,214,37,20,66,266,37,58,61,247,,23,44,061,33,1*77
$GBGSV,4,2,15,32,37,168,31,19,25,314,31,46,23,233,,38,16,332,23,1*79
$GBGSV,4,3,15,08,11,341,18,31,09,336,,11,05,058,,34,05,035,24,1*75
$GBGSV,4,4,15,43,04,078,,12,03,009,19,13,03,346,,1*4F
$GNRMC,194251.000,A,4910.425600,N,12304.394922,W,0.15,49.44,051224,,,D,V*24
$GNVTG,49.44,T,,M,0.15,N,0.27,K,D*1A
$PAIRLOG,Full*51
$GNGGA,194252.000,4910.425630,N,12304.394868,W,2,28,0.55,0.070,M,-16.816,M,,*44
$GNGLL,4910.425630,N,12304.394868,W,194252.000,A,D*5F
$GNGSA,A,3,09,07,04,30,16,20,27,08,05,,,,0.93,0.55,0.75,1*0D
$GNGSA,A,3,69,79,78,68,80,87,86,,,,,,0.93,0.55,0.75,2*03
$GNGSA,A,3,09,31,05,06,24,,,,,,,,0.93,0.55,0.75,3*05
$GNGSA,A,3,37,20,23,32,19,38,34,,,,,,0.93,0.55,0.75,4*0E
$GPGSV,3,1,10,09,72,142,29,07,70,274,27,04,42,127,23,30,33,261,22,1*62
$GPGSV,3,2,10,48,33,182,,16,30,050,24,20,28,303,20,27,23,089,26,1*6F
$GPGSV,3,3,10,08,17,123,19,05,09,330,18,1*66
$GLGSV,2,1,08,69,80,297,39,79,72,228,38,78,50,042,27,68,43,151,32,1*7E
$GLGSV,2,2,08,80,17,224,31,70,15,324,,87,09,034,16,86,09,349,25,1*76
$GAGSV,2,1,06,09,73,127,21,31,65,105,23,05,49,300,18,06,48,125,19,7*7E
$GAGSV,2,2,06,24,37,189,17,15,09,325,15,7*7C
$GBGSV,3,1,09,37,79,214,37,20,66,266,37,23,44,061,33,32,37,168,31,1*7E
$GBGSV,3,2,09,19,25,314,31,38,16,332,23,08,11,341,19,34,05,035,24,1*7E
$GBGSV,3,3,09,12,03,009,19,1*4E
$GNRMC,194252.000,A,4910.425630,N,12304.394868,W,0.16,49.44,051224,,,D,V*28
$GNVTG,49.44,T,,M,0.16,N,0.29,K,D*17
$PAIRLOG,Full*51
$GNGGA,194253.000,4910.425660,N,12304.394880,W,2,27,0.56,0.059,M,-16.816,M,,*41
$GNGLL,4910.425660,N,12304.394880,W,194253.000,A,D*5D
$GNGSA,A,3,09,07,04,30,16,20,27,08,05,,,,0.94,0.56,0.76,1*0A
$GNGSA,A,3,69,79,78,68,80,87,86,,,,,,0.94,0.56,0.76,2*04
$GNGSA,A,3,09,31,06,24,,,,,,,,,0.94,0.56,0.76,3*07
$GNGSA,A,3,37,20,23,32,19,38,34,,,,,,0.94,0.56,0.76,4*09
$GPGSV,3,1,10,09,72,142,29,07,70,274,27,04,42,127,23,30,33,261,19,1*6A
$GPGSV,3,2,10,48,33,182,,16,30,050,22,20,28,303,20,27,23,089,25,1*6A
$GPGSV,3,3,10,08,17,123,19,05,09,330,18,1*66
$GLGSV,2,1,08,69,80,297,39,79,72,228,38,78,50,042,27,68,43,151,32,1*7E
$GLGSV,2,2,08,80,17,224,31,70,15,324,,87,09,034,16,86,09,349,26,1*75
$GAGSV,2,1,06,09,73,127,21,31,65,105,23,05,49,300,,06,48,125,19,7*77
$GAGSV,2,2,06,24,37,189,17,15,09,325,15,7*7C
$GBGSV,3,1,09,37,79,214,37,20,66,266,37,23,44,061,33,32,37,168,31,1*7E
$GBGSV,3,2,09,19,25,314,31,38,16,332,23,08,11,341,19,34,05,035,24,1*7E
$GBGSV,3,3,09,12,03,009,19,1*4E
$GNRMC,194253.000,A,4910.425660,N,12304.394880,W,0.16,49.44,051224,,,D,V*2A
$GNVTG,49.44,T,,M,0.16,N,0.30,K,D*1F
$PAIRLOG,Full*51
$GNGGA,194254.000,4910.425654,N,12304.394886,W,2,27,0.56,0.121,M,-16.817,M,,*48
$GNGLL,4910.425654,N,12304.394886,W,194254.000,A,D*5B
$GNGSA,A,3,09,07,04,30,16,20,27,08,05,,,,0.94,0.56,0.76,1*0A
$GNGSA,A,3,69,79,78,68,80,86,87,,,,,,0.94,0.56,0.76,2*04
$GNGSA,A,3,09,31,06,24,,,,,,,,,0.94,0.56,0.76,3*07
$GNGSA,A,3,37,20,23,32,19,38,34,,,,,,0.94,0.56,0.76,4*09
$GPGSV,3,1,12,09,72,142,29,07,70,274,29,04,42,127,23,48,33,182,,1*6F
$GPGSV,3,2,12,30,33,261,21,16,30,050,24,20,28,303,20,27,23,089,25,1*6C
$GPGSV,3,3,12,08,17,123,19,05,09,330,18,11,03,281,,26,02,043,,1*6D
$GLGSV,2,1,08,69,80,297,39,79,72,228,38,78,50,042,27,68,43,151,32,1*7E
$GLGSV,2,2,08,80,17,224,31,70,15,324,,86,09,349,26,87,09,034,16,1*75
$GAGSV,2,1,08,09,73,127,21,31,65,105,23,05,49,300,,06,48,125,19,7*79
$GAGSV,2,2,08,24,37,189,17,04,22,123,,15,09,325,14,34,06,277,,7*74
$GBGSV,4,1,15,37,79,214,37,20,66,266,37,58,61,247,,23,44,061,33,1*77
$GBGSV,4,2,15,32,37,168,31,19,25,314,31,46,23,233,,38,16,332,23,1*79
$GBGSV,4,3,15,08,11,341,19,31,09,336,,11,05,058,,34,05,035,24,1*74
$GBGSV,4,4,15,43,04,078,,12,03,009,19,13,03,346,,1*4F
$GNRMC,194254.000,A,4910.425654,N,12304.394886,W,0.16,49.44,051224,,,D,V*2C
$GNVTG,49.44,T,,M,0.16,N,0.29,K,D*17
$PAIRLOG,Full*51
$GNGGA,194255.000,4910.425702,N,12304.394904,W,2,28,0.55,0.186,M,-16.816,M,,*40
$GNGLL,4910.425702,N,12304.394904,W,194255.000,A,D*53
$GNGSA,A,3,09,07,04,30,16,20,27,08,05,,,,0.93,0.55,0.75,1*0D
$GNGSA,A,3,69,79,78,68,80,86,87,,,,,,0.93,0.55,0.75,2*03
$GNGSA,A,3,09,31,05,06,24,,,,,,,,0.93,0.55,0.75,3*05
$GNGSA,A,3,37,20,23,32,19,38,34,,,,,,0.93,0.55,0.75,4*0E
$GPGSV,3,1,12,09,72,142,29,07,70,274,28,04,42,127,22,48,33,182,,1*6F
$GPGSV,3,2,12,30,33,261,22,16,30,050,24,20,28,303,22,27,23,089,26,1*6E
$GPGSV,3,3,12,08,17,123,20,05,09,330,18,11,03,281,,26,02,043,,1*67
$GLGSV,2,1,07,69,80,297,39,79,72,228,38,78,50,042,27,68,43,151,32,1*71
$GLGSV,2,2,07,80,17,224,31,86,09,349,26,87,09,034,16,1*4C
$GAGSV,2,1,08,09,73,127,22,31,65,105,23,05,49,300,18,06,48,125,19,7*73
$GAGSV,2,2,08,24,37,189,17,04,22,123,,15,09,325,14,34,06,277,,7*74
$GBGSV,4,1,15,37,79,214,37,20,66,266,37,58,61,247,,23,44,061,33,1*77
$GBGSV,4,2,15,32,37,168,31,19,25,314,31,46,23,233,,38,16,332,23,1*79
$GBGSV,4,3,15,08,11,341,19,31,09,336,,11,05,058,,34,05,035,24,1*74
$GBGSV,4,4,15,43,04,078,,12,03,009,19,13,03,346,,1*4F
$GNRMC,194255.000,A,4910.425702,N,12304.394904,W,0.15,49.44,051224,,,D,V*27
$GNVTG,49.44,T,,M,0.15,N,0.27,K,D*1A
$PAIRLOG,Full*51
$GNGGA,194256.000,4910.425750,N,12304.394856,W,2,29,0.53,0.329,M,-16.816,M,,*42
$GNGLL,4910.425750,N,12304.394856,W,194256.000,A,D*51
$GNGSA,A,3,09,07,04,30,16,20,27,08,05,,,,0.90,0.53,0.73,1*0E
$GNGSA,A,3,69,79,78,68,80,86,87,,,,,,0.90,0.53,0.73,2*00
$GNGSA,A,3,09,31,05,06,24,04,,,,,,,0.90,0.53,0.73,3*02
$GNGSA,A,3,37,20,23,32,19,38,34,,,,,,0.90,0.53,0.73,4*0D
$GPGSV,3,1,12,09,72,142,29,07,70,274,27,04,42,127,23,30,33,261,23,1*61
$GPGSV,3,2,12,48,33,182,,16,30,050,24,20,28,303,21,27,23,089,26,1*6C
$GPGSV,3,3,12,08,17,123,20,05,09,330,18,11,03,281,,26,02,043,,1*67
$GLGSV,2,1,08,69,80,297,39,79,72,228,38,78,50,042,27,68,43,151,32,1*7E
$GLGSV,2,2,08,80,17,224,30,70,15,324,,86,09,349,26,87,09,034,16,1*74
$GAGSV,2,1,08,09,73,127,22,31,65,105,23,05,49,300,18,06,48,125,19,7*73
$GAGSV,2,2,08,24,37,189,17,04,22,123,19,15,09,325,14,34,06,277,,7*7C
$GBGSV,4,1,15,37,79,214,37,20,66,266,37,58,61,247,,23,44,061,33,1*77
$GBGSV,4,2,15,32,37,168,31,19,25,314,31,46,23,233,,38,16,332,23,1*79
$GBGSV,4,3,15,08,11,341,19,31,09,336,,11,05,058,,34,05,035,24,1*74
$GBGSV,4,4,15,43,04,078,,12,03,009,19,04,01,262,,1*4C
$GNRMC,194256.000,A,4910.425750,N,12304.394856,W,0.14,49.44,051224,,,D,V*24
$GNVTG,49.44,T,,M,0.14,N,0.26,K,D*1A
$PAIRLOG,Full*51
$GNGGA,194257.000,4910.425810,N,12304.394760,W,2,29,0.53,0.575,M,-16.816,M,,*4D
$GNGLL,4910.425810,N,12304.394760,W,194257.000,A,D*51
$GNGSA,A,3,09,07,04,30,16,20,27,08,05,,,,0.90,0.53,0.73,1*0E
$GNGSA,A,3,69,79,78,68,80,87,86,,,,,,0.90,0.53,0.73,2*00
$GNGSA,A,3,09,31,05,06,24,04,,,,,,,0.90,0.53,0.73,3*02
$GNGSA,A,3,37,20,23,32,19,38,34,,,,,,0.90,0.53,0.73,4*0D
$GPGSV,3,1,12,09,72,142,29,07,70,274,27,04,42,127,23,30,33,261,22,1*60
$GPGSV,3,2,12,48,33,182,,16,30,050,24,20,28,303,22,27,23,089,26,1*6F
$GPGSV,3,3,12,08,17,123,20,05,09,330,18,11,03,281,,26,02,043,,1*67
$GLGSV,2,1,08,69,80,297,39,79,72,228,38,78,50,042,26,68,43,151,32,1*7F
$GLGSV,2,2,08,80,17,224,30,70,15,324,,87,09,034,16,86,09,349,26,1*74
$GAGSV,2,1,07,09,73,127,22,31,65,105,22,05,49,300,18,06,48,125,19,7*7D
$GAGSV,2,2,07,24,37,189,16,04,22,123,18,15,09,325,14,7*40
$GBGSV,4,1,16,37,79,214,36,20,66,266,37,58,61,247,,23,44,061,33,1*75
$GBGSV,4,2,16,32,37,168,30,19,25,314,31,46,23,233,,38,16,332,23,1*7B
$GBGSV,4,3,16,08,11,341,19,31,09,336,,34,05,035,23,11,05,058,,1*70
$GBGSV,4,4,16,43,04,078,,13,03,346,,12,03,009,19,04,01,262,,1*7F
$GNRMC,194257.000,A,4910.425810,N,12304.394760,W,0.14,49.44,051224,,,D,V*24
$GNVTG,49.44,T,,M,0.14,N,0.26,K,D*1A
$PAIRLOG,Full*51
$GNGGA,194258.000,4910.425870,N,12304.394742,W,2,27,0.56,0.752,M,-16.816,M,,*48
$GNGLL,4910.425870,N,12304.394742,W,194258.000,A,D*58
$GNGSA,A,3,09,07,04,30,16,20,27,08,05,,,,0.94,0.56,0.76,1*0A
$GNGSA,A,3,69,79,78,68,80,86,87,,,,,,0.94,0.56,0.76,2*04
$GNGSA,A,3,09,31,06,24,,,,,,,,,0.94,0.56,0.76,3*07
$GNGSA,A,3,37,20,23,32,19,38,34,,,,,,0.94,0.56,0.76,4*09
$GPGSV,3,1,11,09,72,142,29,07,70,274,28,04,42,127,24,30,33,261,22,1*6B
$GPGSV,3,2,11,16,30,050,24,20,28,303,22,27,23,089,26,08,17,123,21,1*66
$GPGSV,3,3,11,05,09,330,19,11,03,281,,26,02,043,,1*59
$GLGSV,2,1,08,69,80,297,39,79,72,228,39,78,50,042,26,68,43,151,32,1*7E
$GLGSV,2,2,08,80,17,224,30,70,15,324,,86,09,349,26,87,09,034,16,1*74
$GAGSV,2,1,08,09,73,127,22,31,65,105,22,05,49,300,,06,48,125,19,7*7B
$GAGSV,2,2,08,24,37,189,16,04,22,123,,15,09,325,15,34,06,277,,7*74
$GBGSV,4,1,15,37,79,214,36,20,66,266,37,58,62,248,,23,44,061,33,1*7A
$GBGSV,4,2,15,32,37,168,30,19,25,314,31,46,23,233,,38,16,332,22,1*79
$GBGSV,4,3,15,08,11,341,19,31,09,336,,11,05,058,,34,05,035,22,1*72
$GBGSV,4,4,15,43,04,078,,12,03,009,19,13,03,346,,1*4F
$GNRMC,194258.000,A,4910.425870,N,12304.394742,W,0.14,49.44,051224,,,D,V*2D
$GNVTG,49.44,T,,M,0.14,N,0.27,K,D*1B
$PAIRLOG,Full*51
$GNGGA,194259.000,4910.425870,N,12304.394802,W,2,27,0.56,0.841,M,-16.816,M,,*4F
$GNGLL,4910.425870,N,12304.394802,W,194259.000,A,D*52
$GNGSA,A,3,09,07,04,30,16,20,27,08,05,,,,0.94,0.56,0.76,1*0A
$GNGSA,A,3,69,79,78,68,80,87,86,,,,,,0.94,0.56,0.76,2*04
$GNGSA,A,3,09,31,06,24,,,,,,,,,0.94,0.56,0.76,3*07
$GNGSA,A,3,37,20,23,32,19,38,34,,,,,,0.94,0.56,0.76,4*09
$GPGSV,3,1,10,09,72,142,30,07,70,274,29,04,42,127,24,30,33,261,25,1*64
$GPGSV,3,2,10,46,33,188,,16,30,050,25,20,28,303,22,27,23,089,27,1*69
$GPGSV,3,3,10,08,17,123,23,05,09,330,19,1*6E
$GLGSV,2,1,08,69,80,297,39,79,72,228,39,78,50,042,26,68,43,151,32,1*7E
$GLGSV,2,2,08,80,17,224,30,70,15,324,,87,09,034,16,86,09,349,26,1*74
$GAGSV,2,1,06,09,73,127,23,31,65,105,23,05,49,300,,06,48,125,19,7*75
$GAGSV,2,2,06,24,37,189,17,15,09,325,15,7*7C
$GBGSV,3,1,09,37,79,214,36,20,66,266,37,23,44,061,32,32,37,168,30,1*7F
$GBGSV,3,2,09,19,25,314,30,38,16,332,22,08,11,341,19,34,05,035,22,1*78
$GBGSV,3,3,09,12,03,009,18,1*4F
$GNRMC,194259.000,A,4910.425870,N,12304.394802,W,0.14,49.44,051224,,,D,V*27
$GNVTG,49.44,T,,M,0.14,N,0.27,K,D*1B
$PAIRLOG,Full*51
$GNGGA,194300.000,4910.425882,N,12304.394796,W,2,27,0.56,1.003,M,-16.816,M,,*42
$GNGLL,4910.425882,N,12304.394796,W,194300.000,A,D*50
$GNGSA,A,3,09,07,04,30,16,20,27,08,05,,,,0.94,0.56,0.76,1*0A
$GNGSA,A,3,69,79,78,68,80,87,86,,,,,,0.94,0.56,0.76,2*04
$GNGSA,A,3,09,31,06,24,,,,,,,,,0.94,0.56,0.76,3*07
$GNGSA,A,3,37,20,23,32,19,38,34,,,,,,0.94,0.56,0.76,4*09
$GPGSV,3,1,10,09,72,142,30,07,70,274,29,04,42,127,25,30,33,261,24,1*64
$GPGSV,3,2,10,46,33,188,,16,30,050,25,20,28,303,22,27,23,089,27,1*69
$GPGSV,3,3,10,08,17,123,22,05,09,330,19,1*6F
$GLGSV,2,1,08,69,80,297,39,79,72,228,39,78,50,042,26,68,43,151,32,1*7E
$GLGSV,2,2,08,80,17,224,30,70,15,324,,87,09,034,17,86,09,349,26,1*75
$GAGSV,2,1,06,09,73,127,24,31,65,105,23,05,49,300,,06,48,125,19,7*72
$GAGSV,2,2,06,24,37,189,17,15,09,325,15,7*7C
$GBGSV,3,1,09,37,79,214,36,20,66,266,37,23,44,061,32,32,37,168,30,1*7F
$GBGSV,3,2,09,19,25,314,30,38,16,332,22,08,11,341,19,34,05,035,22,1*78
$GBGSV,3,3,09,12,03,009,18,1*4F
$GNRMC,194300.000,A,4910.425882,N,12304.394796,W,0.14,49.44,051224,,,D,V*25
$GNVTG,49.44,T,,M,0.14,N,0.26,K,D*1A
$PAIRLOG,Full*51
$GNGGA,194301.000,4910.425942,N,12304.394766,W,2,28,0.55,1.163,M,-16.816,M,,*4A
$GNGLL,4910.425942,N,12304.394766,W,194301.000,A,D*53
$GNGSA,A,3,09,07,04,30,16,20,27,08,05,,,,0.93,0.55,0.75,1*0D
$GNGSA,A,3,69,79,78,68,80,86,87,,,,,,0.93,0.55,0.75,2*03
$GNGSA,A,3,09,31,05,06,24,,,,,,,,0.93,0.55,0.75,3*05
$GNGSA,A,3,37,20,23,32,19,38,34,,,,,,0.93,0.55,0.75,4*0E
$GPGSV,3,1,10,09,72,142,31,07,70,274,29,04,42,127,25,30,33,261,24,1*65
$GPGSV,3,2,10,46,33,188,,16,30,050,25,20,28,303,23,27,23,089,27,1*68
$GPGSV,3,3,10,08,17,123,22,05,09,330,19,1*6F
$GLGSV,2,1,07,69,80,297,39,79,72,228,39,78,50,042,26,68,43,151,32,1*71
$GLGSV,2,2,07,80,17,224,30,86,09,349,26,87,09,034,17,1*4C
$GAGSV,2,1,06,09,73,127,24,31,65,105,23,05,49,300,20,06,48,125,20,7*7A
$GAGSV,2,2,06,24,37,189,18,15,09,325,15,7*73
$GBGSV,3,1,09,37,79,214,36,20,66,266,36,23,44,061,32,32,37,168,30,1*7E
$GBGSV,3,2,09,19,25,314,30,38,16,332,22,08,11,341,18,34,05,035,22,1*79
$GBGSV,3,3,09,12,03,009,18,1*4F
$GNRMC,194301.000,A,4910.425942,N,12304.394766,W,0.14,49.44,051224,,,D,V*26
$GNVTG,49.44,T,,M,0.14,N,0.26,K,D*1A
$PAIRLOG,Full*51
$GNGGA,194302.000,4910.425984,N,12304.394604,W,2,28,0.55,1.364,M,-16.816,M,,*43
$GNGLL,4910.425984,N,12304.394604,W,194302.000,A,D*5F
$GNGSA,A,3,09,07,04,30,16,20,27,08,05,,,,0.93,0.55,0.75,1*0D
$GNGSA,A,3,69,79,78,68,80,86,87,,,,,,0.93,0.55,0.75,2*03
$GNGSA,A,3,09,31,05,06,24,,,,,,,,0.93,0.55,0.75,3*05
$GNGSA,A,3,37,20,23,32,19,38,34,,,,,,0.93,0.55,0.75,4*0E
$GPGSV,3,1,12,09,72,142,31,07,70,274,29,04,42,127,25,46,33,188,,1*64
$GPGSV,3,2,12,30,33,261,24,16,30,050,25,20,28,303,22,27,23,089,27,1*68
$GPGSV,3,3,12,08,17,123,24,05,09,330,20,11,03,281,,26,02,043,,1*68
$GLGSV,2,1,08,69,80,297,39,79,72,228,40,78,50,042,26,68,43,151,32,1*70
$GLGSV,2,2,08,80,17,224,30,70,15,324,,86,09,349,26,87,09,034,17,1*75
$GAGSV,2,1,08,09,73,127,24,31,65,105,23,05,49,300,21,06,48,125,20,7*75
$GAGSV,2,2,08,24,37,189,18,04,22,123,,15,09,325,16,34,06,277,,7*79
$GBGSV,4,1,15,37,79,214,36,20,66,266,36,58,62,248,,23,44,061,32,1*7A
$GBGSV,4,2,15,32,37,168,30,19,25,314,30,46,23,233,,38,16,332,21,1*7B
$GBGSV,4,3,15,08,11,341,18,31,09,336,,11,05,058,,34,05,035,22,1*73
$GBGSV,4,4,15,43,04,078,,12,03,009,18,13,03,346,,1*4E
$GNRMC,194302.000,A,4910.425984,N,12304.394604,W,0.14,49.44,051224,,,D,V*2A
$GNVTG,49.44,T,,M,0.14,N,0.26,K,D*1A
$PAIRLOG,Full*51
$GNGGA,194303.000,4910.426002,N,12304.394454,W,2,28,0.55,1.669,M,-16.817,M,,*48
$GNGLL,4910.426002,N,12304.394454,W,194303.000,A,D*5D
$GNGSA,A,3,09,07,04,30,16,20,27,08,05,,,,0.93,0.55,0.75,1*0D
$GNGSA,A,3,69,79,78,68,80,86,87,,,,,,0.93,0.55,0.75,2*03
$GNGSA,A,3,09,31,05,06,24,,,,,,,,0.93,0.55,0.75,3*05
$GNGSA,A,3,37,20,23,32,19,38,34,,,,,,0.93,0.55,0.75,4*0E
$GPGSV,3,1,12,09,72,142,32,07,70,274,29,04,42,127,26,46,33,188,,1*64
$GPGSV,3,2,12,30,33,261,26,16,30,050,25,20,28,303,24,27,23,089,27,1*6C
$GPGSV,3,3,12,08,17,123,24,05,09,330,21,11,03,281,,26,02,043,,1*69
$GLGSV,2,1,08,69,80,297,39,79,72,228,40,78,50,042,26,68,43,151,31,1*73
$GLGSV,2,2,08,80,17,224,30,70,15,324,,86,09,349,27,87,09,034,17,1*74
$GAGSV,2,1,08,09,73,127,25,31,65,105,24,05,49,300,19,06,48,125,20,7*78
$GAGSV,2,2,08,24,37,189,19,04,22,123,,15,09,325,16,34,06,277,,7*78
$GBGSV,4,1,15,37,79,214,36,20,66,266,36,58,62,248,,23,44,061,32,1*7A
$GBGSV,4,2,15,32,37,168,30,19,25,314,30,46,23,233,,38,16,332,21,1*7B
$GBGSV,4,3,15,08,11,341,18,31,09,336,,11,05,058,,34,05,035,22,1*73
$GBGSV,4,4,15,43,04,078,,12,03,009,18,13,03,346,,1*4E
$GNRMC,194303.000,A,4910.426002,N,12304.394454,W,0.14,49.44,051224,,,D,V*28
$GNVTG,49.44,T,,M,0.14,N,0.27,K,D*1B
$PAIRLOG,Full*51
$GNGGA,194304.000,4910.425984,N,12304.394322,W,2,29,0.53,2.005,M,-16.816,M,,*44
$GNGLL,4910.425984,N,12304.394322,W,194304.000,A,D*58
$GNGSA,A,3,09,07,04,30,16,20,27,08,05,,,,0.90,0.53,0.73,1*0E
$GNGSA,A,3,69,79,78,68,80,87,86,,,,,,0.90,0.53,0.73,2*00
$GNGSA,A,3,09,31,05,06,24,04,,,,,,,0.90,0.53,0.73,3*02
$GNGSA,A,3,37,20,23,32,19,38,34,,,,,,0.90,0.53,0.73,4*0D
$GPGSV,3,1,12,09,72,142,33,07,70,274,30,04,42,127,26,30,33,261,27,1*6D
$GPGSV,3,2,12,46,33,188,,16,30,050,26,20,28,303,24,27,23,089,27,1*6E
$GPGSV,3,3,12,08,17,123,24,05,09,330,21,11,03,281,,26,02,043,,1*69
$GLGSV,2,1,08,69,80,297,39,79,72,228,40,78,50,042,27,68,43,151,31,1*72
$GLGSV,2,2,08,80,17,224,30,70,15,324,,87,09,034,17,86,09,349,27,1*74
$GAGSV,2,1,08,09,73,127,25,31,65,105,24,05,49,300,21,06,48,125,21,7*72
$GAGSV,2,2,08,24,37,189,20,04,22,123,18,15,09,325,16,34,06,277,,7*7B
$GBGSV,4,1,15,37,79,214,36,20,66,266,36,58,62,248,,23,44,061,32,1*7A
$GBGSV,4,2,15,32,37,168,29,19,25,314,30,38,16,332,22,08,11,341,18,1*76
$GBGSV,4,3,15,31,09,336,,34,05,035,22,11,05,058,,43,04,078,,1*78
$GBGSV,4,4,15,13,03,346,,12,03,009,18,04,01,262,,1*41
$GNRMC,194304.000,A,4910.425984,N,12304.394322,W,0.15,49.44,051224,,,D,V*2C
$GNVTG,49.44,T,,M,0.15,N,0.28,K,D*15
$PAIRLOG,Full*51
$GNGGA,194305.000,4910.425972,N,12304.394094,W,2,29,0.53,2.218,M,-16.816,M,,*4C
