42,11,245,17,41,05,343,17,08,05,308,,13,05,319,17,1*7E
$GBGSV,4,4,13,50,02,223,,1*40
$GNRMC,002219.000,A,4910.426716,N,12304.401918,W,0.13,177.05,041224,,,D,V*1F
$GNVTG,177.05,T,,M,0.13,N,0.25,K,D*27
$PAIRLOG,Full*51
$GNGGA,002220.000,4910.426668,N,12304.401918,W,2,34,0.45,-0.351,M,-16.817,M,,*6C
$GNGLL,4910.426668,N,12304.401918,W,002220.000,A,D*57
$GNGSA,A,3,22,17,14,19,13,15,30,02,24,21,,,0.85,0.45,0.72,1*01
$GNGSA,A,3,79,88,78,80,69,,,,,,,,0.85,0.45,0.72,2*0D
$GNGSA,A,3,21,04,06,13,09,31,19,26,15,,,,0.85,0.45,0.72,3*0A
$GNGSA,A,3,26,35,29,45,24,14,33,44,42,13,,,0.85,0.45,0.72,4*02
$GPGSV,3,1,12,22,81,032,31,17,71,141,32,14,60,072,29,19,46,192,29,1*6C
$GPGSV,3,2,12,13,40,223,30,46,33,188,30,15,31,265,27,30,29,137,28,1*65
$GPGSV,3,3,12,02,25,054,31,24,24,307,24,21,15,037,22,10,03,348,23,1*6C
$GLGSV,2,1,07,79,71,009,37,88,43,056,37,78,33,089,21,80,29,297,34,1*7C
$GLGSV,2,2,07,70,28,305,,69,18,236,33,71,09,350,,1*4C
$GAGSV,3,1,10,21,51,071,29,04,44,254,26,06,38,289,26,13,28,084,21,7*74
$GAGSV,3,2,10,09,26,313,23,31,20,264,26,19,17,192,20,26,14,137,23,7*79
$GAGSV,3,3,10,15,14,031,20,27,01,079,,7*79
$GBGSV,4,1,13,26,85,323,23,35,47,150,25,29,40,062,24,45,35,107,20,1*73
$GBGSV,4,2,13,24,32,292,22,14,17,271,14,33,17,297,19,44,13,188,15,1*7B
$GBGSV,4,3,13,42,11,245,17,41,05,343,17,08,05,308,,13,05,319,17,1*7E
$GBGSV,4,4,13,50,02,223,,1*40
$GNRMC,002220.000,A,4910.426668,N,12304.401918,W,0.14,177.05,041224,,,D,V*1A
$GNVTG,177.05,T,,M,0.14,N,0.26,K,D*23
$PAIRLOG,Full*51
$GNGGA,002221.000,4910.426494,N,12304.401936,W,2,33,0.45,-0.273,M,-16.816,M,,*67
$GNGLL,4910.426494,N,12304.401936,W,002221.000,A,D*5B
$GNGSA,A,3,22,17,14,19,13,15,30,02,24,21,,,0.89,0.45,0.77,1*08
$GNGSA,A,3,79,88,78,80,69,,,,,,,,0.89,0.45,0.77,2*04
$GNGSA,A,3,21,04,06,13,09,31,19,26,15,,,,0.89,0.45,0.77,3*03
$GNGSA,A,3,35,29,45,24,14,33,44,42,13,,,,0.89,0.45,0.77,4*0F
$GPGSV,3,1,12,22,81,032,31,17,71,141,32,14,60,072,29,19,46,192,29,1*6C
$GPGSV,3,2,12,13,40,223,30,46,33,188,30,15,31,265,27,30,29,137,28,1*65
$GPGSV,3,3,12,02,25,054,31,24,24,307,25,21,15,037,22,10,03,348,23,1*6D
$GLGSV,2,1,07,79,71,009,37,88,43,056,37,78,33,089,21,80,29,297,34,1*7C
$GLGSV,2,2,07,70,28,305,,69,18,236,33,71,09,350,,1*4C
$GAGSV,3,1,10,21,51,071,29,04,44,254,26,06,38,289,26,13,28,084,21,7*74
$GAGSV,3,2,10,09,26,313,23,31,20,264,26,19,17,192,20,26,14,137,23,7*79
$GAGSV,3,3,10,15,14,031,20,27,01,079,,7*79
$GBGSV,4,1,13,26,85,323,,35,47,150,25,29,40,062,25,45,35,107,20,1*73
$GBGSV,4,2,13,24,32,292,24,14,17,271,17,33,17,297,19,44,13,188,13,1*78
$GBGSV,4,3,13,42,11,245,17,41,05,343,17,08,05,308,,13,05,319,17,1*7E
$GBGSV,4,4,13,50,02,223,,1*40
$GNRMC,002221.000,A,4910.426494,N,12304.401936,W,0.15,177.05,041224,,,D,V*17
$GNVTG,177.05,T,,M,0.15,N,0.28,K,D*2C
$PAIRLOG,Full*51
$GNGGA,002222.000,4910.426410,N,12304.401900,W,2,33,0.45,-0.332,M,-16.816,M,,*69
$GNGLL,4910.426410,N,12304.401900,W,002222.000,A,D*51
$GNGSA,A,3,22,17,14,19,13,15,30,02,24,21,,,0.89,0.45,0.77,1*08
$GNGSA,A,3,79,88,78,80,69,,,,,,,,0.89,0.45,0.77,2*04
$GNGSA,A,3,21,04,06,13,09,31,19,26,15,,,,0.89,0.45,0.77,3*03
$GNGSA,A,3,35,29,45,24,14,33,44,42,13,,,,0.89,0.45,0.77,4*0F
$GPGSV,3,1,12,22,81,032,31,17,71,141,32,14,60,072,29,19,46,192,29,1*6C
$GPGSV,3,2,12,13,40,223,30,46,33,188,29,15,31,265,27,30,29,137,28,1*6D
$GPGSV,3,3,12,02,25,054,31,24,24,307,24,21,15,037,21,10,03,348,23,1*6F
$GLGSV,2,1,07,79,71,009,37,88,43,056,37,78,33,089,21,80,29,297,34,1*7C
$GLGSV,2,2,07,70,28,305,,69,18,236,33,71,09,350,,1*4C
$GAGSV,3,1,10,21,51,071,28,04,44,254,26,06,38,289,26,13,28,084,21,7*75
$GAGSV,3,2,10,09,26,313,22,31,20,264,26,19,17,192,20,26,14,137,22,7*79
$GAGSV,3,3,10,15,14,031,20,27,01,079,,7*79
$GBGSV,4,1,13,26,85,323,,35,47,150,24,29,40,062,25,45,35,107,20,1*72
$GBGSV,4,2,13,24,32,292,23,14,17,271,17,33,17,297,19,44,13,188,12,1*7E
$GBGSV,4,3,13,42,11,245,17,41,05,343,17,08,05,308,,13,05,319,17,1*7E
$GBGSV,4,4,13,50,02,223,,1*40
$GNRMC,002222.000,A,4910.426410,N,12304.401900,W,0.16,177.05,041224,,,D,V*1E
$GNVTG,177.05,T,,M,0.16,N,0.29,K,D*2E
$PAIRLOG,Full*51
$GNGGA,002223.000,4910.426272,N,12304.401870,W,2,34,0.45,-0.240,M,-16.817,M,,*6E
$GNGLL,4910.426272,N,12304.401870,W,002223.000,A,D*54
$GNGSA,A,3,22,17,14,19,13,15,30,02,24,21,,,0.85,0.45,0.72,1*01
$GNGSA,A,3,79,88,78,80,69,,,,,,,,0.85,0.45,0.72,2*0D
$GNGSA,A,3,21,04,06,13,09,31,19,26,15,,,,0.85,0.45,0.72,3*0A
$GNGSA,A,3,26,35,29,45,24,14,33,44,42,13,,,0.85,0.45,0.72,4*02
$GPGSV,3,1,12,22,81,032,31,17,71,141,32,14,60,072,29,19,46,192,29,1*6C
$GPGSV,3,2,12,13,40,223,30,46,33,188,29,15,31,265,27,30,29,137,28,1*6D
$GPGSV,3,3,12,02,25,054,31,24,24,307,25,21,15,037,21,10,03,348,23,1*6E
$GLGSV,2,1,07,79,71,009,37,88,43,056,37,78,33,089,21,80,29,297,34,1*7C
$GLGSV,2,2,07,70,28,305,,69,18,236,33,71,09,350,,1*4C
$GAGSV,3,1,10,21,51,071,28,04,44,254,26,06,38,289,26,13,28,084,20,7*74
$GAGSV,3,2,10,09,26,313,21,31,20,264,26,19,17,192,20,26,14,137,22,7*7A
$GAGSV,3,3,10,15,14,031,20,27,01,079,,7*79
$GBGSV,4,1,13,26,85,323,27,35,47,150,27,29,40,062,27,45,35,107,21,1*77
$GBGSV,4,2,13,24,32,292,24,14,17,271,15,33,17,297,19,44,13,188,14,1*7D
$GBGSV,4,3,13,42,11,245,18,41,05,343,17,08,05,308,,13,05,319,17,1*71
$GBGSV,4,4,13,50,02,223,,1*40
$GNRMC,002223.000,A,4910.426272,N,12304.401870,W,0.17,177.05,041224,,,D,V*1A
$GNVTG,177.05,T,,M,0.17,N,0.31,K,D*26
$PAIRLOG,Full*51
$GNGGA,002224.000,4910.426224,N,12304.401798,W,2,34,0.45,-0.193,M,-16.817,M,,*6E
$GNGLL,4910.426224,N,12304.401798,W,002224.000,A,D*59
$GNGSA,A,3,22,17,14,19,13,15,30,02,24,21,,,0.85,0.45,0.72,1*01
$GNGSA,A,3,79,88,78,80,69,,,,,,,,0.85,0.45,0.72,2*0D
$GNGSA,A,3,21,04,06,13,09,31,19,26,15,,,,0.85,0.45,0.72,3*0A
$GNGSA,A,3,26,35,29,45,24,14,33,44,42,13,,,0.85,0.45,0.72,4*02
$GPGSV,3,1,12,22,81,032,30,17,71,141,31,14,60,072,28,19,46,192,28,1*6E
$GPGSV,3,2,12,13,40,223,29,46,33,188,29,15,31,265,25,30,29,137,28,1*67
$GPGSV,3,3,12,02,25,054,30,24,24,307,24,21,15,037,21,10,03,348,22,1*6F
$GLGSV,2,1,07,79,71,009,37,88,43,056,37,78,33,089,22,80,29,297,34,1*7F
$GLGSV,2,2,07,70,28,305,,69,18,236,33,71,09,350,,1*4C
$GAGSV,3,1,10,21,51,071,28,04,44,254,25,06,38,289,26,13,28,084,20,7*77
$GAGSV,3,2,10,09,26,313,21,31,20,264,25,19,17,192,19,26,14,137,22,7*73
$GAGSV,3,3,10,15,14,031,20,27,01,079,,7*79
$GBGSV,4,1,13,26,85,323,26,35,47,150,25,29,40,062,26,45,35,107,21,1*75
$GBGSV,4,2,13,24,32,292,23,14,17,271,12,33,17,297,19,44,13,188,15,1*7C
$GBGSV,4,3,13,42,11,245,18,41,05,343,17,08,05,308,,13,05,319,17,1*71
$GBGSV,4,4,13,50,02,223,,1*40
$GNRMC,002224.000,A,4910.426224,N,12304.401798,W,0.18,177.05,041224,,,D,V*18
$GNVTG,177.05,T,,M,0.18,N,0.33,K,D*2B
$PAIRLOG,Full*51
$GNGGA,002225.000,4910.426176,N,12304.401696,W,2,34,0.45,-0.099,M,-16.816,M,,*6E
$GNGLL,4910.426176,N,12304.401696,W,002225.000,A,D*53
$GNGSA,A,3,22,17,14,19,13,15,30,02,24,21,,,0.85,0.45,0.72,1*01
$GNGSA,A,3,79,88,78,80,69,,,,,,,,0.85,0.45,0.72,2*0D
$GNGSA,A,3,21,04,06,13,09,31,19,26,15,,,,0.85,0.45,0.72,3*0A
$GNGSA,A,3,26,35,29,45,24,14,33,44,42,13,,,0.85,0.45,0.72,4*02
$GPGSV,3,1,12,22,81,032,29,17,71,141,31,14,60,072,27,19,46,192,27,1*66
$GPGSV,3,2,12,13,40,223,29,46,33,188,29,15,31,265,25,30,28,138,28,1*69
$GPGSV,3,3,12,02,25,054,29,24,24,307,24,21,15,037,20,10,03,348,22,1*66
$GLGSV,2,1,07,79,71,009,37,88,43,056,37,78,33,089,20,80,29,297,34,1*7D
$GLGSV,2,2,07,70,28,305,,69,18,236,33,71,09,350,,1*4C
$GAGSV,3,1,10,21,51,071,28,04,44,254,25,06,38,289,26,13,28,084,20,7*77
$GAGSV,3,2,10,09,26,313,21,31,20,264,25,19,17,192,19,26,14,137,22,7*73
$GAGSV,3,3,10,15,14,031,20,27,01,079,,7*79
$GBGSV,4,1,13,26,85,323,26,35,47,150,25,29,40,062,26,45,35,107,20,1*74
$GBGSV,4,2,13,24,32,292,22,14,17,271,15,33,17,297,19,44,13,188,14,1*7B
$GBGSV,4,3,13,42,11,245,18,41,05,343,17,08,05,308,,13,05,319,17,1*71
$GBGSV,4,4,13,50,02,223,,1*40
$GNRMC,002225.000,A,4910.426176,N,12304.401696,W,0.19,141.90,041224,,,D,V*1A
$GNVTG,141.90,T,,M,0.19,N,0.36,K,D*26
$PAIRLOG,Full*51
$GNGGA,002226.000,4910.426134,N,12304.401618,W,2,34,0.45,0.019,M,-16.816,M,,*48
$GNGLL,4910.426134,N,12304.401618,W,002226.000,A,D*50
$GNGSA,A,3,22,17,14,19,13,15,30,02,24,21,,,0.85,0.45,0.72,1*01
$GNGSA,A,3,79,88,78,80,69,,,,,,,,0.85,0.45,0.72,2*0D
$GNGSA,A,3,21,04,06,13,09,31,19,26,15,,,,0.85,0.45,0.72,3*0A
$GNGSA,A,3,26,35,29,45,24,14,33,44,42,13,,,0.85,0.45,0.72,4*02
$GPGSV,3,1,12,22,81,032,29,17,71,141,31,14,60,072,27,19,46,192,27,1*66
$GPGSV,3,2,12,13,40,223,29,46,33,188,29,15,31,265,25,30,28,138,28,1*69
$GPGSV,3,3,12,02,25,054,29,24,24,307,24,21,15,037,20,10,03,348,21,1*65
$GLGSV,2,1,07,79,71,009,37,88,43,056,37,78,33,089,20,80,29,297,34,1*7D
$GLGSV,2,2,07,70,28,305,,69,18,236,33,71,09,350,,1*4C
$GAGSV,3,1,10,21,51,071,28,04,44,254,25,06,38,289,26,13,28,084,20,7*77
$GAGSV,3,2,10,09,26,313,21,31,20,264,25,19,17,192,19,26,14,137,22,7*73
$GAGSV,3,3,10,15,14,031,20,27,01,079,,7*79
$GBGSV,4,1,13,26,85,323,25,35,47,150,26,29,40,062,26,45,35,107,20,1*74
$GBGSV,4,2,13,24,32,292,23,14,17,271,12,33,17,297,20,44,13,188,17,1*74
$GBGSV,4,3,13,42,11,245,18,41,05,343,17,08,05,308,,13,05,319,17,1*71
$GBGSV,4,4,13,50,02,223,,1*40
$GNRMC,002226.000,A,4910.426134,N,12304.401618,W,0.21,139.46,041224,,,D,V*16
$GNVTG,139.46,T,,M,0.21,N,0.39,K,D*26
$PAIRLOG,Full*51
$GNGGA,002227.000,4910.426098,N,12304.401504,W,2,34,0.45,0.067,M,-16.816,M,,*49
$GNGLL,4910.426098,N,12304.401504,W,002227.000,A,D*58
$GNGSA,A,3,22,17,14,19,13,15,30,02,24,21,,,0.85,0.45,0.72,1*01
$GNGSA,A,3,79,88,78,80,69,,,,,,,,0.85,0.45,0.72,2*0D
$GNGSA,A,3,21,04,06,13,09,31,19,26,15,,,,0.85,0.45,0.72,3*0A
$GNGSA,A,3,26,35,29,45,24,14,33,44,42,13,,,0.85,0.45,0.72,4*02
$GPGSV,3,1,12,22,81,032,29,17,71,141,31,14,60,072,27,19,46,192,27,1*66
$GPGSV,3,2,12,13,40,223,29,46,33,188,28,15,31,265,25,30,28,138,28,1*68
$GPGSV,3,3,12,02,25,054,29,24,24,307,24,21,15,037,19,10,03,348,21,1*6F
$GLGSV,2,1,07,79,71,009,37,88,43,056,37,78,33,089,19,80,29,297,34,1*77
$GLGSV,2,2,07,70,28,305,,69,18,236,33,71,09,350,,1*4C
$GAGSV,3,1,10,21,51,071,28,04,44,254,25,06,38,289,25,13,28,084,20,7*74
$GAGSV,3,2,10,09,26,313,21,31,20,264,25,19,17,192,19,26,14,137,22,7*73
$GAGSV,3,3,10,15,14,031,20,27,01,079,,7*79
$GBGSV,4,1,13,26,85,323,25,35,47,150,26,29,40,062,25,45,35,107,20,1*77
$GBGSV,4,2,13,24,32,292,23,14,17,271,14,33,17,297,20,44,13,188,14,1*71
$GBGSV,4,3,13,42,11,245,18,41,05,343,17,08,05,308,,13,05,319,17,1*71
$GBGSV,4,4,13,50,02,223,,1*40
$GNRMC,002227.000,A,4910.426098,N,12304.401504,W,0.23,136.84,041224,,,D,V*1D
$GNVTG,136.84,T,,M,0.23,N,0.42,K,D*29
$PAIRLOG,Full*51
$GNGGA,002228.000,4910.426062,N,12304.401498,W,2,34,0.45,0.292,M,-16.817,M,,*4E
$GNGLL,4910.426062,N,12304.401498,W,002228.000,A,D*56
$GNGSA,A,3,22,17,14,19,13,15,30,02,24,21,,,0.85,0.45,0.72,1*01
$GNGSA,A,3,79,88,78,80,69,,,,,,,,0.85,0.45,0.72,2*0D
$GNGSA,A,3,21,04,06,13,09,31,19,26,15,,,,0.85,0.45,0.72,3*0A
$GNGSA,A,3,26,35,29,45,24,14,33,44,42,13,,,0.85,0.45,0.72,4*02
$GPGSV,3,1,12,22,81,032,29,17,71,141,31,14,60,072,26,19,46,192,27,1*67
$GPGSV,3,2,12,13,40,223,29,46,33,188,28,15,31,265,25,30,28,138,28,1*68
$GPGSV,3,3,12,02,25,054,29,24,24,307,24,21,15,037,19,10,03,348,20,1*6E
$GLGSV,2,1,07,79,71,009,37,88,43,056,37,78,33,089,18,80,29,297,34,1*76
$GLGSV,2,2,07,70,28,305,,69,18,236,33,71,09,350,,1*4C
$GAGSV,3,1,10,21,51,071,28,04,44,254,25,06,38,289,25,13,28,084,20,7*74
$GAGSV,3,2,10,09,26,313,21,31,20,264,25,19,17,192,19,26,14,137,21,7*70
$GAGSV,3,3,10,15,14,031,20,27,01,079,,7*79
$GBGSV,4,1,13,26,85,323,28,35,47,150,26,29,40,062,25,45,35,107,22,1*78
$GBGSV,4,2,13,24,32,292,23,14,17,271,14,33,17,297,20,44,13,188,13,1*76
$GBGSV,4,3,13,42,11,245,19,41,05,343,17,08,05,308,,13,05,319,17,1*70
$GBGSV,4,4,13,50,02,223,,1*40
$GNRMC,002228.000,A,4910.426062,N,12304.401498,W,0.24,135.66,041224,,,D,V*1B
$GNVTG,135.66,T,,M,0.24,N,0.45,K,D*26
$PAIRLOG,Full*51
$GNGGA,002229.000,4910.426080,N,12304.401450,W,2,34,0.45,0.546,M,-16.817,M,,*49
$GNGLL,4910.426080,N,12304.401450,W,002229.000,A,D*5F
$GNGSA,A,3,22,17,14,19,13,15,30,02,24,21,,,0.85,0.45,0.72,1*01
$GNGSA,A,3,79,88,78,80,69,,,,,,,,0.85,0.45,0.72,2*0D
$GNGSA,A,3,21,04,06,13,09,31,19,26,15,,,,0.85,0.45,0.72,3*0A
$GNGSA,A,3,26,35,29,45,24,14,33,44,42,13,,,0.85,0.45,0.72,4*02
$GPGSV,3,1,12,22,81,032,29,17,71,141,31,14,60,072,25,19,46,192,27,1*64
$GPGSV,3,2,12,13,40,223,29,46,33,188,28,15,31,265,25,30,28,138,28,1*68
$GPGSV,3,3,12,02,25,054,29,24,24,307,24,21,15,037,19,10,03,348,20,1*6E
$GLGSV,2,1,07,79,71,009,37,88,43,056,37,78,33,089,19,80,29,297,34,1*77
$GLGSV,2,2,07,70,28,305,,69,18,236,33,71,09,350,,1*4C
$GAGSV,3,1,10,21,51,071,28,04,44,254,25,06,38,289,25,13,28,084,20,7*74
$GAGSV,3,2,10,09,26,313,21,31,20,264,25,19,17,192,19,26,14,137,21,7*70
$GAGSV,3,3,10,15,14,031,20,27,01,079,,7*79
$GBGSV,4,1,13,26,85,323,28,35,47,150,26,29,40,062,25,45,35,107,21,1*7B
$GBGSV,4,2,13,24,32,292,23,14,17,271,13,33,17,297,20,44,13,188,14,1*76
$GBGSV,4,3,13,42,11,245,19,41,05,343,17,08,05,308,,13,05,319,17,1*70
$GBGSV,4,4,13,50,02,223,,1*40
$GNRMC,002229.000,A,4910.426080,N,12304.401450,W,0.25,134.56,041224,,,D,V*11
$GNVTG,134.56,T,,M,0.25,N,0.46,K,D*26
$PAIRLOG,Full*51
$GNGGA,002230.000,4910.426002,N,12304.401330,W,2,34,0.45,0.705,M,-16.816,M,,*4E
$GNGLL,4910.426002,N,12304.401330,W,002230.000,A,D*5C
$GNGSA,A,3,22,17,14,19,13,15,30,02,24,21,,,0.85,0.45,0.72,1*01
$GNGSA,A,3,79,88,78,80,69,,,,,,,,0.85,0.45,0.72,2*0D
$GNGSA,A,3,21,04,06,13,09,31,19,26,15,,,,0.85,0.45,0.72,3*0A
$GNGSA,A,3,26,35,29,45,24,14,33,44,42,13,,,0.85,0.45,0.72,4*02
$GPGSV,3,1,12,22,81,032,29,17,71,141,31,14,60,072,24,19,46,192,27,1*65
$GPGSV,3,2,12,13,40,223,29,46,33,188,28,15,31,265,25,30,28,138,28,1*68
$GPGSV,3,3,12,02,25,054,29,24,24,307,24,21,15,037,19,10,03,348,20,1*6E
$GLGSV,2,1,07,79,71,009,37,88,43,056,37,78,33,089,18,80,29,297,34,1*76
$GLGSV,2,2,07,70,28,305,,69,18,236,33,71,09,350,,1*4C
$GAGSV,3,1,10,21,51,071,28,04,44,254,25,06,38,289,25,13,28,084,19,7*7E
$GAGSV,3,2,10,09,26,313,21,31,20,264,25,19,17,192,19,26,14,137,21,7*70
$GAGSV,3,3,10,15,14,031,20,27,01,079,,7*79
$GBGSV,4,1,13,26,85,323,27,35,47,150,26,29,40,062,25,45,35,107,20,1*75
$GBGSV,4,2,13,24,32,292,23,14,17,271,14,33,17,297,20,44,13,188,15,1*70
$GBGSV,4,3,13,42,11,245,19,41,05,343,17,08,05,308,,13,05,319,17,1*70
$GBGSV,4,4,13,50,02,223,,1*40
$GNRMC,002230.000,A,4910.426002,N,12304.401330,W,0.26,134.34,041224,,,D,V*15
$GNVTG,134.34,T,,M,0.26,N,0.48,K,D*2F
$PAIRLOG,Full*51
$GNGGA,002231.000,4910.425972,N,12304.401240,W,2,34,0.45,0.931,M,-16.816,M,,*4D
$GNGLL,4910.425972,N,12304.401240,W,002231.000,A,D*56
$GNGSA,A,3,22,17,14,19,13,15,30,02,24,21,,,0.85,0.45,0.72,1*01
$GNGSA,A,3,79,88,78,80,69,,,,,,,,0.85,0.45,0.72,2*0D
$GNGSA,A,3,21,04,06,13,09,31,19,26,15,,,,0.85,0.45,0.72,3*0A
$GNGSA,A,3,26,35,29,45,24,14,33,44,42,13,,,0.85,0.45,0.72,4*02
$GPGSV,3,1,12,22,81,032,29,17,71,141,31,14,60,072,26,19,46,192,26,1*66
$GPGSV,3,2,12,13,40,223,29,46,33,188,28,15,31,265,25,30,28,138,28,1*68
$GPGSV,3,3,12,02,25,054,29,24,24,307,24,21,15,037,19,10,03,348,20,1*6E
$GLGSV,2,1,07,79,71,009,37,88,43,056,37,78,33,089,18,80,29,297,34,1*76
$GLGSV,2,2,07,70,28,305,,69,18,236,33,71,09,350,,1*4C
$GAGSV,3,1,10,21,51,071,28,04,44,254,24,06,38,289,25,13,28,084,19,7*7F
$GAGSV,3,2,10,09,26,313,21,31,20,264,25,19,17,192,19,26,14,137,21,7*70
$GAGSV,3,3,10,15,14,031,20,27,01,079,,7*79
$GBGSV,4,1,13,26,85,323,24,35,47,150,25,29,40,062,25,45,35,107,19,1*7F
$GBGSV,4,2,13,24,32,292,22,14,17,271,13,33,17,297,20,44,13,188,12,1*71
$GBGSV,4,3,13,42,11,245,19,41,05,343,17,08,05,308,,13,05,319,17,1*70
$GBGSV,4,4,13,50,02,223,,1*40
$GNRMC,002231.000,A,4910.425972,N,12304.401240,W,0.26,134.11,041224,,,D,V*18
$GNVTG,134.11,T,,M,0.26,N,0.49,K,D*29
$PAIRLOG,Full*51
$PAIR010,0,1,2343,260569*32
$GNGGA,002232.000,4910.425984,N,12304.401114,W,2,34,0.45,1.256,M,-16.816,M,,*4E
$GNGLL,4910.425984,N,12304.401114,W,002232.000,A,D*5E
$GNGSA,A,3,22,17,14,19,13,15,30,02,24,21,,,0.85,0.45,0.72,1*01
$GNGSA,A,3,79,88,78,80,69,,,,,,,,0.85,0.45,0.72,2*0D
$GNGSA,A,3,21,04,06,13,09,31,19,26,15,,,,0.85,0.45,0.72,3*0A
$GNGSA,A,3,26,35,29,45,24,14,33,44,42,13,,,0.85,0.45,0.72,4*02
$GPGSV,3,1,12,22,81,032,29,17,71,141,31,14,60,072,26,19,46,192,26,1*66
$GPGSV,3,2,12,13,40,223,29,46,33,188,28,15,31,265,25,30,28,138,28,1*68
$GPGSV,3,3,12,02,25,054,29,24,24,307,24,21,15,037,18,10,03,348,20,1*6F
$GLGSV,2,1,07,79,71,009,37,88,43,056,37,78,33,089,18,80,29,297,34,1*76
$GLGSV,2,2,07,70,28,305,,69,18,236,33,71,09,350,,1*4C
$GAGSV,3,1,10,21,51,071,28,04,44,254,24,06,38,289,25,13,28,084,19,7*7F
$GAGSV,3,2,10,09,26,313,21,31,20,264,25,19,17,192,19,26,14,137,21,7*70
$GAGSV,3,3,10,15,14,031,20,27,01,079,,7*79
$GBGSV,4,1,13,26,85,323,22,35,47,150,24,29,40,062,23,45,35,107,19,1*7E
$GBGSV,4,2,13,24,32,292,22,14,17,271,13,33,17,297,20,44,13,188,13,1*70
$GBGSV,4,3,13,42,11,245,19,41,05,343,17,08,05,308,,13,05,319,17,1*70
$GBGSV,4,4,13,50,02,223,,1*40
$GNRMC,002232.000,A,4910.425984,N,12304.401114,W,0.27,134.16,041224,,,D,V*16
$GNVTG,134.16,T,,M,0.27,N,0.50,K,D*27
$PAIRLOG,Full*51
$GNGGA,002233.000,4910.425936,N,12304.401036,W,2,34,0.45,1.817,M,-16.816,M,,*48
$GNGLL,4910.425936,N,12304.401036,W,002233.000,A,D*57
$GNGSA,A,3,22,17,14,19,13,15,30,02,24,21,,,0.85,0.45,0.72,1*01
$GNGSA,A,3,79,88,78,80,69,,,,,,,,0.85,0.45,0.72,2*0D
$GNGSA,A,3,21,04,06,13,09,31,19,26,15,,,,0.85,0.45,0.72,3*0A
$GNGSA,A,3,26,35,29,45,24,14,33,44,42,13,,,0.85,0.45,0.72,4*02
$GPGSV,3,1,12,22,81,032,29,17,71,141,32,14,60,072,26,19,46,192,26,1*65
$GPGSV,3,2,12,13,40,223,29,46,33,188,28,15,31,265,26,30,28,138,28,1*6B
$GPGSV,3,3,12,02,25,054,29,24,24,307,25,21,15,037,17,10,03,348,20,1*61
$GLGSV,2,1,06,79,71,009,36,88,43,056,37,78,33,089,18,80,29,297,34,1*76
$GLGSV,2,2,06,69,18,236,33,71,09,350,,1*76
$GAGSV,3,1,10,21,51,071,28,04,44,254,24,06,38,289,25,13,28,084,19,7*7F
$GAGSV,3,2,10,09,26,313,21,31,20,264,25,19,17,192,19,26,14,137,21,7*70
$GAGSV,3,3,10,15,14,031,20,27,01,079,,7*79
$GBGSV,4,1,13,26,85,323,22,35,47,150,23,29,40,062,22,45,35,107,19,1*78
$GBGSV,4,2,13,24,32,292,21,14,17,271,14,33,17,297,19,44,13,188,13,1*7E
$GBGSV,4,3,13,42,11,245,18,41,05,343,17,08,05,308,,13,05,319,17,1*71
$GBGSV,4,4,13,50,02,223,,1*40
$GNRMC,002233.000,A,4910.425936,N,12304.401036,W,0.27,134.04,041224,,,D,V*1C
$GNVTG,134.04,T,,M,0.27,N,0.50,K,D*24
$PAIRLOG,Full*51
$GNGGA,002234.000,4910.425924,N,12304.401006,W,2,34,0.45,2.071,M,-16.817,M,,*45
$GNGLL,4910.425924,N,12304.401006,W,002234.000,A,D*50
$GNGSA,A,3,22,17,14,19,13,15,30,02,24,21,,,0.85,0.45,0.72,1*01
$GNGSA,A,3,79,88,78,80,69,,,,,,,,0.85,0.45,0.72,2*0D
$GNGSA,A,3,21,04,06,13,09,31,19,26,15,,,,0.85,0.45,0.72,3*0A
$GNGSA,A,3,26,35,29,45,24,14,33,44,42,13,,,0.85,0.45,0.72,4*02
$GPGSV,3,1,12,22,81,032,29,17,71,141,32,14,60,072,28,19,46,192,26,1*6B
$GPGSV,3,2,12,13,40,223,29,46,33,188,28,15,31,265,25,30,28,138,28,1*68
$GPGSV,3,3,12,02,25,054,29,24,24,307,25,21,15,037,17,10,03,348,20,1*61
$GLGSV,2,1,07,79,71,009,36,88,43,056,37,78,33,089,18,80,29,297,34,1*77
$GLGSV,2,2,07,70,28,305,,69,18,236,33,71,09,350,,1*4C
$GAGSV,3,1,10,21,51,071,28,04,44,254,24,06,38,289,25,13,28,084,19,7*7F
$GAGSV,3,2,10,09,26,313,21,31,20,264,25,19,17,192,19,26,14,137,21,7*70
$GAGSV,3,3,10,15,14,031,20,27,01,079,,7*79
$GBGSV,4,1,13,26,85,323,22,35,47,150,22,29,40,062,22,45,35,107,20,1*73
$GBGSV,4,2,13,24,32,292,20,14,17,271,13,33,17,297,18,44,13,188,12,1*78
$GBGSV,4,3,13,42,11,245,18,41,05,343,17,08,05,308,,13,05,319,17,1*71
$GBGSV,4,4,13,50,02,223,,1*40
$GNRMC,002234.000,A,4910.425924,N,12304.401006,W,0.27,133.88,041224,,,D,V*18
$GNVTG,133.88,T,,M,0.27,N,0.50,K,D*27
$PAIRLOG,Full*51
$GNGGA,002235.000,4910.425858,N,12304.400970,W,2,34,0.45,2.109,M,-16.816,M,,*48
$GNGLL,4910.425858,N,12304.400970,W,002235.000,A,D*52
$GNGSA,A,3,22,17,14,19,13,15,30,02,24,21,,,0.85,0.45,0.72,1*01
$GNGSA,A,3,79,88,78,80,69,,,,,,,,0.85,0.45,0.72,2*0D
$GNGSA,A,3,21,04,06,13,09,31,19,26,15,,,,0.85,0.45,0.72,3*0A
$GNGSA,A,3,26,35,29,45,24,14,33,44,42,13,,,0.85,0.45,0.72,4*02
$GPGSV,3,1,12,22,81,032,28,17,71,141,31,14,60,072,24,19,46,192,25,1*66
$GPGSV,3,2,12,13,40,223,29,46,33,188,28,15,31,265,24,30,28,138,28,1*69
$GPGSV,3,3,12,02,25,054,28,24,24,307,25,21,15,037,17,10,03,348,19,1*6A
$GLGSV,2,1,07,79,71,009,35,88,43,056,37,78,33,089,18,80,29,297,34,1*74
$GLGSV,2,2,07,70,28,305,,69,18,236,33,71,09,350,,1*4C
$GAGSV,3,1,10,21,51,071,28,04,44,254,23,06,38,289,25,13,28,084,19,7*78
$GAGSV,3,2,10,09,26,313,21,31,20,264,24,19,17,192,19,26,14,137,21,7*71
$GAGSV,3,3,10,15,14,031,20,27,01,079,,7*79
$GBGSV,4,1,13,26,85,323,23,35,47,150,23,29,40,062,22,45,35,107,19,1*79
$GBGSV,4,2,13,24,32,292,19,14,17,271,15,33,17,297,18,44,13,188,12,1*74
$GBGSV,4,3,13,42,11,245,18,41,05,343,17,08,05,308,,13,05,319,16,1*70
$GBGSV,4,4,13,50,02,223,,1*40
$GNRMC,002235.000,A,4910.425858,N,12304.400970,W,0.27,134.87,041224,,,D,V*12
$GNVTG,134.87,T,,M,0.27,N,0.50,K,D*2F
$PAIRLOG,Full*51
$GNGGA,002236.000,4910.425834,N,12304.400952,W,2,33,0.45,2.300,M,-16.816,M,,*4D
$GNGLL,4910.425834,N,12304.400952,W,002236.000,A,D*5B
$GNGSA,A,3,22,17,14,19,13,15,30,02,24,21,,,0.89,0.45,0.77,1*08
$GNGSA,A,3,79,88,78,80,69,,,,,,,,0.89,0.45,0.77,2*04
$GNGSA,A,3,21,04,06,13,09,31,19,26,15,,,,0.89,0.45,0.77,3*03
$GNGSA,A,3,35,29,45,24,14,33,44,42,13,,,,0.89,0.45,0.77,4*0F
$GPGSV,3,1,12,22,81,032,28,17,71,141,31,14,60,072,25,19,46,192,25,1*67
$GPGSV,3,2,12,13,40,223,29,46,33,188,28,15,31,265,24,30,28,138,28,1*69
$GPGSV,3,3,12,02,25,054,28,24,24,307,25,21,15,037,17,10,03,348,19,1*6A
$GLGSV,2,1,07,79,71,009,35,88,43,056,37,78,33,089,18,80,29,297,34,1*74
$GLGSV,2,2,07,70,28,305,,69,18,236,32,71,09,350,,1*4D
$GAGSV,3,1,10,21,51,071,28,04,44,254,23,06,38,289,25,13,28,084,19,7*78
$GAGSV,3,2,10,09,26,313,21,31,20,264,24,19,17,192,19,26,14,137,21,7*71
$GAGSV,3,3,10,15,14,031,20,27,01,079,,7*79
$GBGSV,4,1,13,26,85,323,,35,47,150,24,29,40,062,22,45,35,107,19,1*7F
$GBGSV,4,2,13,24,32,292,20,14,17,271,16,33,17,297,18,44,13,188,13,1*7C
$GBGSV,4,3,13,42,11,245,18,41,05,343,17,08,05,308,,13,05,319,16,1*70
$GBGSV,4,4,13,50,02,223,,1*40
$GNRMC,002236.000,A,4910.425834,N,12304.400952,W,0.27,135.53,041224,,,D,V*13
$GNVTG,135.53,T,,M,0.27,N,0.49,K,D*2F
$PAIRLOG,Full*51
$GNGGA,002237.000,4910.425858,N,12304.400916,W,2,32,0.45,2.467,M,-16.816,M,,*41
$GNGLL,4910.425858,N,12304.400916,W,002237.000,A,D*50
$GNGSA,A,3,22,17,14,19,13,15,30,02,24,21,,,0.89,0.45,0.77,1*08
$GNGSA,A,3,79,88,78,80,69,,,,,,,,0.89,0.45,0.77,2*04
$GNGSA,A,3,21,04,06,13,09,31,19,26,15,,,,0.89,0.45,0.77,3*03
$GNGSA,A,3,35,29,45,14,33,44,42,13,,,,,0.89,0.45,0.77,4*09
$GPGSV,3,1,12,22,81,032,29,17,71,141,31,14,60,072,26,19,46,192,25,1*65
$GPGSV,3,2,12,13,40,223,29,46,33,188,28,15,31,265,24,30,28,138,28,1*69
$GPGSV,3,3,12,02,25,054,28,24,24,307,26,21,15,037,16,10,03,348,19,1*68
$GLGSV,2,1,07,79,71,009,35,88,43,056,37,78,33,089,17,80,29,297,34,1*7B
$GLGSV,2,2,07,70,28,305,,69,18,236,32,71,09,350,,1*4D
$GAGSV,3,1,10,21,51,071,28,04,44,254,23,06,38,289,25,13,28,084,19,7*78
$GAGSV,3,2,10,09,26,313,21,31,20,264,24,19,17,192,19,26,14,137,21,7*71
$GAGSV,3,3,10,15,14,031,20,27,01,079,,7*79
$GBGSV,4,1,13,26,85,323,,35,47,150,22,29,40,062,22,45,35,107,18,1*78
$GBGSV,4,2,13,24,32,292,,14,17,271,15,33,17,297,17,44,13,188,13,1*72
$GBGSV,4,3,13,42,11,245,18,41,05,343,17,08,05,308,,13,05,319,16,1*70
$GBGSV,4,4,13,50,02,223,,1*40
$GNRMC,002237.000,A,4910.425858,N,12304.400916,W,0.26,135.69,041224,,,D,V*10
$GNVTG,135.69,T,,M,0.26,N,0.49,K,D*27
$PAIRLOG,Full*51
$GNGGA,002238.000,4910.425936,N,12304.400814,W,2,33,0.45,2.822,M,-16.816,M,,*48
$GNGLL,4910.425936,N,12304.400814,W,002238.000,A,D*55
$GNGSA,A,3,22,17,14,19,13,15,30,02,24,21,,,0.89,0.45,0.77,1*08
$GNGSA,A,3,79,88,78,80,69,,,,,,,,0.89,0.45,0.77,2*04
$GNGSA,A,3,21,04,06,13,09,31,19,26,15,,,,0.89,0.45,0.77,3*03
$GNGSA,A,3,35,29,45,24,14,33,44,42,13,,,,0.89,0.45,0.77,4*0F
$GPGSV,3,1,12,22,81,032,29,17,71,141,31,14,60,072,27,19,46,192,26,1*67
$GPGSV,3,2,12,13,40,223,29,46,33,188,28,15,31,265,25,30,28,138,28,1*68
$GPGSV,3,3,12,02,25,054,28,24,24,307,26,21,15,037,14,10,03,348,19,1*6A
$GLGSV,2,1,07,79,71,009,35,88,43,056,37,78,33,089,17,80,29,297,34,1*7B
$GLGSV,2,2,07,70,28,305,,69,18,236,32,71,09,350,,1*4D
$GAGSV,3,1,10,21,51,071,28,04,43,253,23,06,38,289,25,13,28,084,20,7*72
$GAGSV,3,2,10,09,26,313,21,31,20,264,24,19,17,192,19,26,14,137,21,7*71
$GAGSV,3,3,10,15,14,031,20,27,01,079,,7*79
$GBGSV,4,1,13,26,85,323,,35,47,150,21,29,40,062,21,45,35,107,18,1*78
$GBGSV,4,2,13,24,32,292,19,14,17,271,14,33,17,297,16,44,13,188,12,1*7B
$GBGSV,4,3,13,42,11,245,17,41,05,343,17,08,05,308,,13,05,319,16,1*7F
$GBGSV,4,4,13,50,02,223,,1*40
$GNRMC,002238.000,A,4910.425936,N,12304.400814,W,0.25,134.44,041224,,,D,V*18
$GNVTG,134.44,T,,M,0.25,N,0.47,K,D*24
$PAIRLOG,Full*51
$GNGGA,002239.000,4910.425954,N,12304.400808,W,2,33,0.45,2.962,M,-16.816,M,,*45
$GNGLL,4910.425954,N,12304.400808,W,002239.000,A,D*5D
$GNGSA,A,3,22,17,14,19,13,15,30,02,24,21,,,0.89,0.45,0.77,1*08
$GNGSA,A,3,79,88,78,80,69,,,,,,,,0.89,0.45,0.77,2*04
$GNGSA,A,3,21,04,06,13,09,31,19,26,15,,,,0.89,0.45,0.77,3*03
$GNGSA,A,3,35,29,45,24,14,33,44,42,13,,,,0.89,0.45,0.77,4*0F
$GPGSV,3,1,12,22,81,032,29,17,71,141,31,14,60,072,27,19,46,192,26,1*67
$GPGSV,3,2,12,13,40,223,29,46,33,188,28,15,31,265,24,30,28,138,28,1*69
$GPGSV,3,3,12,02,25,054,27,24,24,307,25,21,15,037,12,10,03,348,19,1*60
$GLGSV,2,1,07,79,71,009,35,88,43,056,37,78,33,089,18,80,29,297,34,1*74
$GLGSV,2,2,07,70,28,305,,69,18,236,32,71,09,350,,1*4D
$GAGSV,3,1,10,21,51,071,28,04,43,253,23,06,38,289,25,13,28,084,20,7*72
$GAGSV,3,2,10,09,26,313,21,31,20,264,24,19,17,192,19,26,14,137,20,7*70
$GAGSV,3,3,10,15,14,031,20,27,01,079,,7*79
$GBGSV,4,1,13,26,85,323,,35,47,150,22,29,40,062,21,45,35,107,18,1*7B
$GBGSV,4,2,13,24,32,292,19,14,17,271,15,33,17,297,16,44,13,188,12,1*7A
$GBGSV,4,3,13,42,11,245,17,41,05,343,17,08,05,308,,13,05,319,15,1*7C
$GBGSV,4,4,13,50,02,223,,1*40
$GNRMC,002239.000,A,4910.425954,N,12304.400808,W,0.24,133.78,041224,,,D,V*19
$GNVTG,133.78,T,,M,0.24,N,0.45,K,D*2F
$PAIRLOG,Full*51
$GNGGA,002240.000,4910.425966,N,12304.400784,W,2,31,0.45,2.991,M,-16.817,M,,*4E
$GNGLL,4910.425966,N,12304.400784,W,002240.000,A,D*59
$GNGSA,A,3,22,17,14,19,13,15,30,02,24,21,,,0.90,0.45,0.78,1*0F
$GNGSA,A,3,79,88,78,80,69,,,,,,,,0.90,0.45,0.78,2*03
$GNGSA,A,3,21,04,06,13,09,31,19,26,15,,,,0.90,0.45,0.78,3*04
$GNGSA,A,3,35,29,24,33,44,42,13,,,,,,0.90,0.45,0.78,4*0C
$GPGSV,3,1,12,22,81,032,29,17,71,141,31,14,60,072,27,19,46,192,26,1*67
$GPGSV,3,2,12,13,40,223,29,46,33,188,28,15,31,265,25,30,28,138,28,1*68
$GPGSV,3,3,12,02,25,054,27,24,24,307,25,21,15,037,13,10,03,348,19,1*61
$GLGSV,2,1,07,79,71,009,35,88,43,056,37,78,33,089,17,80,29,297,34,1*7B
$GLGSV,2,2,07,70,28,305,,69,18,236,32,71,09,350,,1*4D
$GAGSV,3,1,10,21,51,071,28,04,43,253,23,06,38,288,25,13,28,084,20,7*73
$GAGSV,3,2,10,09,26,313,21,31,20,264,24,19,17,192,19,26,14,137,20,7*70
$GAGSV,3,3,10,15,14,031,20,27,01,079,,7*79
$GBGSV,4,1,13,26,85,323,,35,47,150,21,29,40,062,21,45,35,107,,1*71
$GBGSV,4,2,13,24,32,292,19,14,17,271,,33,17,297,16,44,13,188,13,1*7F
$GBGSV,4,3,13,42,11,245,17,41,05,343,16,08,05,308,,13,05,319,15,1*7D
$GBGSV,4,4,13,50,02,223,,1*40
$GNRMC,002240.000,A,4910.425966,N,12304.400784,W,0.23,133.35,041224,,,D,V*13
$GNVTG,133.35,T,,M,0.23,N,0.42,K,D*26
$PAIRLOG,Full*51
$GNGGA,002241.000,4910.425918,N,12304.400706,W,2,29,0.47,2.980,M,-16.816,M,,*46
$GNGLL,4910.425918,N,12304.400706,W,002241.000,A,D*5B
$GNGSA,A,3,22,17,14,19,13,15,30,02,24,21,,,0.92,0.47,0.79,1*0E
$GNGSA,A,3,79,88,78,80,69,,,,,,,,0.92,0.47,0.79,2*02
$GNGSA,A,3,21,04,06,13,09,31,19,26,15,,,,0.92,0.47,0.79,3*05
$GNGSA,A,3,29,33,44,42,13,,,,,,,,0.92,0.47,0.79,4*0D
$GPGSV,3,1,12,22,81,032,30,17,71,141,32,14,60,072,28,19,46,192,27,1*62
$GPGSV,3,2,12,13,40,223,29,46,33,188,28,15,31,265,27,30,28,138,28,1*6A
$GPGSV,3,3,12,02,25,054,28,24,24,307,27,21,15,037,15,10,03,348,19,1*6A
$GLGSV,2,1,07,79,71,009,35,88,43,056,37,78,33,089,15,80,29,297,34,1*79
$GLGSV,2,2,07,70,28,305,,69,18,236,32,71,09,350,,1*4D
$GAGSV,3,1,10,21,51,071,28,04,43,253,23,06,38,288,25,13,28,084,21,7*72
$GAGSV,3,2,10,09,26,313,21,31,20,264,24,19,17,192,19,26,14,137,21,7*71
$GAGSV,3,3,10,15,14,031,20,27,01,079,,7*79
$GBGSV,4,1,13,26,85,323,,35,47,150,,29,40,062,23,45,35,107,,1*70
$GBGSV,4,2,13,24,32,292,,14,17,271,,33,17,297,16,44,13,188,12,1*76
$GBGSV,4,3,13,42,11,245,17,41,05,343,15,08,05,308,,13,05,319,15,1*7E
$GBGSV,4,4,13,50,02,223,,1*40
$GNRMC,002241.000,A,4910.425918,N,12304.400706,W,0.22,133.47,041224,,,D,V*15
$GNVTG,133.47,T,,M,0.22,N,0.40,K,D*20
$PAIRLOG,Full*51
$GNGGA,002242.000,4910.425918,N,12304.400652,W,2,29,0.47,2.895,M,-16.816,M,,*40
$GNGLL,4910.425918,N,12304.400652,W,002242.000,A,D*58
$GNGSA,A,3,22,17,14,19,13,15,30,02,24,21,,,0.92,0.47,0.79,1*0E
$GNGSA,A,3,79,88,78,80,69,,,,,,,,0.92,0.47,0.79,2*02
$GNGSA,A,3,21,04,06,13,09,31,19,26,15,,,,0.92,0.47,0.79,3*05
$GNGSA,A,3,29,33,44,42,13,,,,,,,,0.92,0.47,0.79,4*0D
$GPGSV,3,1,12,22,81,032,30,17,71,141,32,14,60,072,28,19,46,192,27,1*62
$GPGSV,3,2,12,13,40,223,29,46,33,188,28,15,31,265,26,30,28,138,28,1*6B
$GPGSV,3,3,12,02,25,054,28,24,24,307,26,21,15,037,14,10,03,348,19,1*6A
$GLGSV,2,1,07,79,71,009,36,88,43,056,37,78,33,089,14,80,29,297,34,1*7B
$GLGSV,2,2,07,70,28,305,,69,18,236,32,71,09,350,,1*4D
$GAGSV,3,1,10,21,51,071,28,04,43,253,23,06,38,288,25,13,28,084,22,7*71
$GAGSV,3,2,10,09,26,313,21,31,20,264,24,19,17,192,19,26,14,137,21,7*71
$GAGSV,3,3,10,15,14,031,20,27,01,079,,7*79
$GBGSV,4,1,13,26,85,323,,35,47,150,,29,40,062,20,45,35,107,,1*73
$GBGSV,4,2,13,24,32,292,,14,17,271,,33,17,297,17,44,13,188,11,1*74
$GBGSV,4,3,13,42,11,245,16,41,05,343,14,08,05,308,,13,05,319,15,1*7E
$GBGSV,4,4,13,50,02,223,,1*40
$GNRMC,002242.000,A,4910.425918,N,12304.400652,W,0.21,133.01,041224,,,D,V*17
$GNVTG,133.01,T,,M,0.21,N,0.39,K,D*2F
$PAIRLOG,Full*51
$GNGGA,002243.000,4910.425996,N,12304.400640,W,2,29,0.47,2.744,M,-16.816,M,,*47
$GNGLL,4910.425996,N,12304.400640,W,002243.000,A,D*5C
$GNGSA,A,3,22,17,14,19,13,15,30,02,24,21,,,0.92,0.47,0.79,1*0E
$GNGSA,A,3,79,88,78,80,69,,,,,,,,0.92,0.47,0.79,2*02
$GNGSA,A,3,21,04,06,13,09,31,19,26,15,,,,0.92,0.47,0.79,3*05
$GNGSA,A,3,29,33,44,42,13,,,,,,,,0.92,0.47,0.79,4*0D
$GPGSV,3,1,12,22,81,032,30,17,71,141,32,14,60,072,28,19,46,192,27,1*62
$GPGSV,3,2,12,13,40,223,29,46,33,188,28,15,31,265,26,30,28,138,28,1*6B
$GPGSV,3,3,12,02,25,054,28,24,24,307,26,21,15,037,14,10,03,348,19,1*6A
$GLGSV,2,1,07,79,71,009,36,88,43,056,37,78,33,089,16,80,29,297,34,1*79
$GLGSV,2,2,07,70,28,305,,69,18,236,32,71,09,350,,1*4D
$GAGSV,3,1,10,21,51,071,28,04,43,253,23,06,38,288,25,13,28,084,23,7*70
$GAGSV,3,2,10,09,26,312,21,31,20,264,24,19,17,192,19,26,14,137,21,7*70
$GAGSV,3,3,10,15,14,031,20,27,01,079,,7*79
$GBGSV,4,1,13,26,85,323,,35,47,150,,29,40,062,20,45,35,107,,1*73
$GBGSV,4,2,13,24,32,292,,14,17,271,,33,17,297,15,44,13,188,13,1*74
$GBGSV,4,3,13,42,11,245,16,41,05,343,15,08,05,308,,13,05,319,16,1*7C
$GBGSV,4,4,13,50,02,223,,1*40
$GNRMC,002243.000,A,4910.425996,N,12304.400640,W,0.21,131.12,041224,,,D,V*13
$GNVTG,131.12,T,,M,0.21,N,0.39,K,D*2F
$PAIRLOG,Full*51
$GNGGA,002244.000,4910.426092,N,12304.400628,W,2,30,0.46,2.580,M,-16.816,M,,*43
$GNGLL,4910.426092,N,12304.400628,W,002244.000,A,D*5B
$GNGSA,A,3,22,17,14,19,13,15,30,02,24,21,,,0.91,0.46,0.78,1*0D
$GNGSA,A,3,79,88,78,80,69,,,,,,,,0.91,0.46,0.78,2*01
$GNGSA,A,3,21,04,06,13,09,31,19,26,15,,,,0.91,0.46,0.78,3*06
$GNGSA,A,3,35,29,33,44,42,13,,,,,,,0.91,0.46,0.78,4*08
$GPGSV,3,1,12,22,81,032,30,17,71,141,32,14,60,072,28,19,46,192,27,1*62
$GPGSV,3,2,12,13,40,223,29,46,33,188,28,15,31,265,25,30,28,138,28,1*68
$GPGSV,3,3,12,02,25,054,28,24,24,307,26,21,15,037,12,10,03,348,19,1*6C
$GLGSV,2,1,07,79,71,009,36,88,43,056,37,78,33,089,16,80,29,297,34,1*79
$GLGSV,2,2,07,70,28,305,,69,18,236,32,71,09,350,,1*4D
$GAGSV,3,1,10,21,51,071,28,04,43,253,23,06,38,288,25,13,28,084,23,7*70
$GAGSV,3,2,10,09,26,312,21,31,20,264,24,19,17,192,19,26,14,137,22,7*73
$GAGSV,3,3,10,15,14,031,20,27,01,079,,7*79
$GBGSV,4,1,13,26,85,323,,35,47,150,23,29,40,062,23,45,35,107,,1*71
$GBGSV,4,2,13,24,32,292,,14,17,271,,33,17,297,16,44,13,188,13,1*77
$GBGSV,4,3,13,42,11,245,16,41,05,343,15,08,05,308,,13,05,319,16,1*7C
$GBGSV,4,4,13,50,02,223,,1*40
$GNRMC,002244.000,A,4910.426092,N,12304.400628,W,0.20,128.57,041224,,,D,V*1C
$GNVTG,128.57,T,,M,0.20,N,0.37,K,D*29
$PAIRLOG,Full*51
$GNGGA,002245.000,4910.426122,N,12304.400592,W,2,29,0.48,2.586,M,-16.816,M,,*4A
$GNGLL,4910.426122,N,12304.400592,W,002245.000,A,D*52
$GNGSA,A,3,22,17,14,19,13,15,30,02,24,21,,,0.91,0.48,0.78,1*03
$GNGSA,A,3,79,88,78,80,69,,,,,,,,0.91,0.48,0.78,2*0F
$GNGSA,A,3,21,04,06,13,09,31,19,26,15,,,,0.91,0.48,0.78,3*08
$GNGSA,A,3,35,29,44,42,13,,,,,,,,0.91,0.48,0.78,4*06
$GPGSV,3,1,12,22,81,032,30,17,71,141,32,14,60,072,28,19,46,192,27,1*62
$GPGSV,3,2,12,13,40,223,29,46,33,188,28,15,31,265,27,30,28,138,28,1*6A
$GPGSV,3,3,12,02,25,054,28,24,24,307,27,21,15,037,13,10,03,348,19,1*6C
$GLGSV,2,1,07,79,71,009,36,88,43,056,37,78,33,089,16,80,29,297,34,1*79
$GLGSV,2,2,07,70,28,305,,69,18,236,32,71,09,350,,1*4D
$GAGSV,3,1,10,21,51,071,28,04,43,253,23,06,38,288,25,13,28,084,24,7*77
$GAGSV,3,2,10,09,26,312,21,31,20,264,24,19,17,192,19,26,14,137,22,7*73
$GAGSV,3,3,10,15,14,031,20,27,01,079,,7*79
$GBGSV,4,1,13,26,85,323,,35,47,150,22,29,40,062,21,45,35,107,,1*72
$GBGSV,4,2,13,24,32,292,,14,17,271,,33,17,297,,44,13,188,13,1*70
$GBGSV,4,3,13,42,11,245,18,41,05,343,15,08,05,308,,13,05,319,16,1*72
$GBGSV,4,4,13,50,02,223,,1*40
$GNRMC,002245.000,A,4910.426122,N,12304.400592,W,0.20,127.33,041224,,,D,V*18
$GNVTG,127.33,T,,M,0.20,N,0.37,K,D*24
$PAIRLOG,Full*51
$GNGGA,002246.000,4910.426140,N,12304.400574,W,2,29,0.48,2.684,M,-16.816,M,,*44
$GNGLL,4910.426140,N,12304.400574,W,002246.000,A,D*5D
$GNGSA,A,3,22,17,14,19,13,15,30,02,24,21,,,0.91,0.48,0.78,1*03
$GNGSA,A,3,79,88,78,80,69,,,,,,,,0.91,0.48,0.78,2*0F
$GNGSA,A,3,21,04,06,13,09,31,19,26,15,,,,0.91,0.48,0.78,3*08
$GNGSA,A,3,35,29,44,42,13,,,,,,,,0.91,0.48,0.78,4*06
$GPGSV,3,1,12,22,81,032,29,17,71,141,31,14,60,072,28,19,46,192,27,1*69
$GPGSV,3,2,12,13,40,223,29,46,33,188,28,15,31,265,24,30,28,138,27,1*66
$GPGSV,3,3,12,02,25,054,28,24,24,307,27,21,15,037,15,10,03,348,19,1*6A
$GLGSV,2,1,06,79,71,009,36,88,43,056,37,78,33,089,15,80,29,297,34,1*7B
$GLGSV,2,2,06,69,18,236,32,71,09,350,,1*77
$GAGSV,3,1,10,21,51,071,28,04,43,253,22,06,38,288,25,13,28,084,24,7*76
$GAGSV,3,2,10,09,26,312,20,31,20,264,23,19,17,192,19,26,14,137,22,7*75
$GAGSV,3,3,10,15,14,031,19,27,01,079,,7*73
$GBGSV,4,1,13,26,85,323,,35,47,150,20,29,40,062,21,45,35,107,,1*70
$GBGSV,4,2,13,24,32,292,,14,17,271,,33,17,297,,44,13,188,14,1*77
$GBGSV,4,3,13,42,11,245,16,41,05,343,15,08,05,308,,13,05,319,16,1*7C
$GBGSV,4,4,13,50,02,223,,1*40
$GNRMC,002246.000,A,4910.426140,N,12304.400574,W,0.19,127.15,041224,,,D,V*19
$GNVTG,127.15,T,,M,0.19,N,0.36,K,D*2B
$PAIRLOG,Full*51
$GNGGA,002247.000,4910.426146,N,12304.400544,W,2,29,0.48,2.719,M,-16.816,M,,*45
$GNGLL,4910.426146,N,12304.400544,W,002247.000,A,D*59
$GNGSA,A,3,22,17,14,19,13,15,30,02,24,21,,,0.91,0.48,0.78,1*03
$GNGSA,A,3,79,88,78,80,69,,,,,,,,0.91,0.48,0.78,2*0F
$GNGSA,A,3,21,04,06,13,09,31,19,26,15,,,,0.91,0.48,0.78,3*08
$GNGSA,A,3,35,29,44,42,13,,,,,,,,0.91,0.48,0.78,4*06
$GPGSV,3,1,12,22,81,032,29,17,71,141,31,14,60,072,28,19,46,192,27,1*69
$GPGSV,3,2,12,13,40,223,28,46,33,188,28,15,31,265,24,30,28,138,27,1*67
$GPGSV,3,3,12,02,25,054,27,24,24,307,26,21,15,037,16,10,03,348,19,1*67
$GLGSV,2,1,07,79,71,009,36,88,43,056,37,78,33,089,17,80,29,297,33,1*7F
$GLGSV,2,2,07,70,28,305,,69,18,236,31,71,09,350,,1*4E
$GAGSV,3,1,10,21,51,071,28,04,43,253,22,06,38,288,25,13,29,083,24,7*70
$GAGSV,3,2,10,09,26,312,20,31,20,264,22,19,17,192,19,26,14,137,21,7*77
$GAGSV,3,3,10,15,14,031,19,27,01,079,,7*73
$GBGSV,4,1,13,26,85,323,,35,47,150,20,29,40,062,22,45,35,107,,1*73
$GBGSV,4,2,13,24,32,292,,14,17,271,,33,17,297,,44,13,188,13,1*70
$GBGSV,4,3,13,42,11,245,15,41,05,343,14,08,05,308,,13,05,319,15,1*7D
$GBGSV,4,4,13,50,02,223,,1*40
$GNRMC,002247.000,A,4910.426146,N,12304.400544,W,0.19,128.02,041224,,,D,V*14
$GNVTG,128.02,T,,M,0.19,N,0.35,K,D*21
$PAIRLOG,Full*51
$GNGGA,002248.000,4910.426176,N,12304.400538,W,2,25,0.53,2.769,M,-16.816,M,,*43
$GNGLL,4910.426176,N,12304.400538,W,002248.000,A,D*5E
$GNGSA,A,3,22,17,14,19,13,15,30,02,24,21,,,1.04,0.53,0.90,1*02
$GNGSA,A,3,79,88,78,80,69,,,,,,,,1.04,0.53,0.90,2*0E
$GNGSA,A,3,21,04,06,13,09,31,19,26,15,,,,1.04,0.53,0.90,3*09
$GNGSA,A,3,29,,,,,,,,,,,,1.04,0.53,0.90,4*05
$GPGSV,3,1,12,22,81,032,29,17,71,141,30,14,60,072,27,19,46,192,26,1*66
$GPGSV,3,2,12,13,40,223,28,46,33,188,28,15,31,265,23,30,28,138,27,1*60
$GPGSV,3,3,12,02,25,054,26,24,24,307,26,21,15,037,17,10,03,348,18,1*66
$GLGSV,2,1,07,79,71,009,36,88,43,056,37,78,33,089,17,80,29,297,33,1*7F
$GLGSV,2,2,07,70,28,305,,69,18,236,31,71,09,350,,1*4E
$GAGSV,3,1,10,21,51,071,27,04,43,253,21,06,38,288,24,13,29,083,24,7*7D
$GAGSV,3,2,10,09,26,312,19,31,20,264,21,19,17,192,19,26,14,137,20,7*7F
$GAGSV,3,3,10,15,14,031,19,27,01,079,,7*73
$GBGSV,4,1,13,26,85,323,,35,47,150,,29,40,062,23,45,35,107,,1*70
$GBGSV,4,2,13,24,32,292,,14,17,271,,33,17,297,,44,13,188,,1*72
$GBGSV,4,3,13,42,11,245,,41,05,343,,08,05,308,,13,05,319,,1*78
$GBGSV,4,4,13,50,02,223,,1*40
$GNRMC,002248.000,A,4910.426176,N,12304.400538,W,0.19,128.30,041224,,,D,V*12
$GNVTG,128.30,T,,M,0.19,N,0.35,K,D*20
$PAIRLOG,Full*51
$GNGGA,002249.000,4910.426170,N,12304.400460,W,2,25,0.53,2.956,M,-16.816,M,,*4A
$GNGLL,4910.426170,N,12304.400460,W,002249.000,A,D*55
