$GNGGA,190413.000,4910.425258,N,12304.398450,W,2,32,0.47,11.472,M,-16.816,M,,*7C
$GNGLL,4910.425258,N,12304.398450,W,190413.000,A,D*59
$GNGSA,A,3,09,04,07,16,20,30,26,27,11,03,06,08,0.73,0.47,0.55,1*06
$GNGSA,A,3,68,69,79,67,,,,,,,,,0.73,0.47,0.55,2*0B
$GNGSA,A,3,09,06,31,05,04,24,34,15,,,,,0.73,0.47,0.55,3*0D
$GNGSA,A,3,37,23,20,32,38,19,25,41,,,,,0.73,0.47,0.55,4*04
$GPGSV,4,1,13,09,89,262,37,04,58,115,31,07,56,256,33,16,42,063,34,1*61
$GPGSV,4,2,13,46,33,188,30,20,20,317,24,30,19,252,26,26,16,045,28,1*61
$GPGSV,4,3,13,27,13,103,28,11,11,294,23,03,10,173,27,06,05,258,16,1*69
$GPGSV,4,4,13,08,05,133,22,1*5A
$GLGSV,2,1,07,78,71,052,,68,65,134,30,69,59,321,27,79,50,209,29,1*77
$GLGSV,2,2,07,67,15,138,19,86,08,007,,85,07,317,16,1*41
$GAGSV,3,1,09,09,87,068,33,06,61,111,30,31,57,133,29,05,37,297,25,7*73
$GAGSV,3,2,09,04,34,114,25,24,21,187,23,34,15,288,15,15,09,337,21,7*7D
$GAGSV,3,3,09,36,04,241,12,7*4F
$GBGSV,4,1,13,37,61,211,37,23,59,066,35,20,57,296,37,32,55,165,36,1*70
$GBGSV,4,2,13,38,12,334,21,19,11,316,29,46,09,226,,25,09,053,29,1*74
$GBGSV,4,3,13,08,05,341,18,41,05,145,25,12,02,023,,04,01,262,,1*75
$GBGSV,4,4,13,34,01,048,,1*4E
$GNRMC,190413.000,A,4910.425258,N,12304.398450,W,0.02,0.00,051224,,,D,V*16
$GNVTG,0.00,T,,M,0.02,N,0.03,K,D*27
$GNGGA,190414.000,4910.425306,N,12304.398432,W,2,32,0.47,11.286,M,-16.816,M,,*78
$GNGLL,4910.425306,N,12304.398432,W,190414.000,A,D*50
$GNGSA,A,3,09,04,07,16,20,30,26,27,11,03,06,08,0.73,0.47,0.55,1*06
$GNGSA,A,3,68,69,79,67,,,,,,,,,0.73,0.47,0.55,2*0B
$GNGSA,A,3,09,06,31,05,04,24,34,15,,,,,0.73,0.47,0.55,3*0D
$GNGSA,A,3,37,23,20,32,38,19,25,41,,,,,0.73,0.47,0.55,4*04
$GPGSV,4,1,13,09,89,262,36,04,58,115,31,07,56,256,33,16,42,063,34,1*60
$GPGSV,4,2,13,46,33,188,30,20,20,317,25,30,19,252,26,26,16,045,28,1*60
$GPGSV,4,3,13,27,13,103,28,11,11,294,22,03,10,173,27,06,05,258,16,1*68
$GPGSV,4,4,13,08,05,133,22,1*5A
$GLGSV,2,1,07,78,71,052,,68,65,134,30,69,59,321,27,79,50,209,29,1*77
$GLGSV,2,2,07,67,15,138,19,86,08,007,,85,07,317,16,1*41
$GAGSV,3,1,09,09,87,068,33,06,60,112,30,31,57,133,29,05,37,297,25,7*71
$GAGSV,3,2,09,04,34,114,25,24,21,187,23,34,15,288,16,15,09,337,21,7*7E
$GAGSV,3,3,09,36,04,241,12,7*4F
$GBGSV,3,1,12,37,61,211,37,23,59,066,35,20,57,296,37,32,55,165,36,1*76
$GBGSV,3,2,12,38,12,334,22,19,11,316,29,25,09,053,29,46,09,226,,1*71
$GBGSV,3,3,12,08,05,341,18,41,05,145,25,34,01,048,,04,01,262,,1*79
$GNRMC,190414.000,A,4910.425306,N,12304.398432,W,0.02,0.00,051224,,,D,V*1F
$GNVTG,0.00,T,,M,0.02,N,0.04,K,D*20
$GNGGA,190415.000,4910.425360,N,12304.398378,W,2,32,0.47,11.173,M,-16.816,M,,*79
$GNGLL,4910.425360,N,12304.398378,W,190415.000,A,D*58
$GNGSA,A,3,09,04,07,16,20,30,26,27,11,03,06,08,0.73,0.47,0.55,1*06
$GNGSA,A,3,68,69,79,67,,,,,,,,,0.73,0.47,0.55,2*0B
$GNGSA,A,3,09,06,31,05,04,24,34,15,,,,,0.73,0.47,0.55,3*0D
$GNGSA,A,3,37,23,20,32,38,19,25,41,,,,,0.73,0.47,0.55,4*04
$GPGSV,4,1,13,09,89,262,36,04,58,115,31,07,56,256,33,16,42,063,34,1*60
$GPGSV,4,2,13,46,33,188,30,20,20,317,26,30,19,252,26,26,16,045,28,1*63
$GPGSV,4,3,13,27,13,103,28,11,11,294,23,03,10,173,27,06,05,258,16,1*69
$GPGSV,4,4,13,08,05,133,23,1*5B
$GLGSV,2,1,07,78,71,052,,68,65,134,30,69,59,321,26,79,50,209,29,1*76
$GLGSV,2,2,07,67,15,138,19,86,08,007,,85,07,317,17,1*40
$GAGSV,3,1,09,09,87,068,33,06,60,112,30,31,57,133,29,05,37,297,25,7*71
$GAGSV,3,2,09,04,34,114,25,24,21,187,23,34,15,288,16,15,09,337,21,7*7E
$GAGSV,3,3,09,36,04,241,12,7*4F
$GBGSV,4,1,13,37,61,211,37,23,59,066,35,20,57,296,37,32,55,165,36,1*70
$GBGSV,4,2,13,38,12,334,22,19,11,316,29,46,09,226,,25,09,053,29,1*77
$GBGSV,4,3,13,08,05,341,18,41,05,145,25,12,02,023,,04,01,262,,1*75
$GBGSV,4,4,13,34,01,048,,1*4E
$GNRMC,190415.000,A,4910.425360,N,12304.398378,W,0.02,0.00,051224,,,D,V*17
$GNVTG,0.00,T,,M,0.02,N,0.04,K,D*20
$GNGGA,190416.000,4910.425402,N,12304.398402,W,2,32,0.47,11.062,M,-16.816,M,,*72
$GNGLL,4910.425402,N,12304.398402,W,190416.000,A,D*52
$GNGSA,A,3,09,04,07,16,20,30,26,27,11,03,06,08,0.73,0.47,0.55,1*06
$GNGSA,A,3,68,69,79,67,,,,,,,,,0.73,0.47,0.55,2*0B
$GNGSA,A,3,09,06,31,05,04,24,34,15,,,,,0.73,0.47,0.55,3*0D
$GNGSA,A,3,37,23,20,32,38,19,25,41,,,,,0.73,0.47,0.55,4*04
$GPGSV,4,1,13,09,89,262,36,04,58,115,31,07,56,256,33,16,42,063,34,1*60
$GPGSV,4,2,13,46,33,188,30,20,20,317,24,30,19,252,26,26,16,045,28,1*61
$GPGSV,4,3,13,27,13,103,28,11,11,294,23,03,10,173,27,06,05,258,17,1*68
