$GNGGA,183150.000,4910.426128,N,12304.400208,W,2,31,0.50,8.873,M,-16.816,M,,*46
$GNGLL,4910.426128,N,12304.400208,W,183150.000,A,D*53
$GNGSA,A,3,09,04,16,07,26,03,06,11,31,20,,,0.82,0.50,0.65,1*01
$GNGSA,A,3,68,78,69,79,67,85,,,,,,,0.82,0.50,0.65,2*02
$GNGSA,A,3,09,06,31,04,05,34,36,21,,,,,0.82,0.50,0.65,3*02
$GNGSA,A,3,32,23,37,20,25,41,38,,,,,,0.82,0.50,0.65,4*07
$GPGSV,4,1,14,09,74,303,37,04,72,097,35,16,48,083,34,07,43,245,32,1*66
$GPGSV,4,2,14,48,33,182,29,26,27,051,28,03,24,174,26,06,14,269,20,1*6B
$GPGSV,4,3,14,11,14,307,27,31,10,063,23,20,10,325,23,30,07,245,24,1*62
$GPGSV,4,4,14,27,03,114,20,29,01,007,,1*6C
$GLGSV,2,1,07,68,79,094,32,78,79,120,18,69,43,319,28,79,33,202,26,1*78
$GLGSV,2,2,07,67,29,129,26,85,13,331,19,86,03,020,,1*42
$GAGSV,3,1,10,09,81,320,31,06,71,097,31,31,47,145,27,04,44,104,30,7*79
$GAGSV,3,2,10,05,27,292,26,34,20,299,24,36,14,247,19,24,10,186,21,7*7D
$GAGSV,3,3,10,15,06,346,19,21,05,030,18,7*75
$GBGSV,2,1,08,32,70,166,38,23,69,085,38,37,47,207,36,20,46,304,36,1*7C
$GBGSV,2,2,08,25,20,051,29,41,17,140,29,38,07,333,26,04,01,262,,1*71
$GNRMC,183150.000,A,4910.426128,N,12304.400208,W,0.02,0.00,051224,,,D,V*1C
$GNVTG,0.00,T,,M,0.02,N,0.04,K,D*20
$GNGGA,183151.000,4910.426140,N,12304.400250,W,2,31,0.50,8.935,M,-16.816,M,,*47
$GNGLL,4910.426140,N,12304.400250,W,183151.000,A,D*51
$GNGSA,A,3,09,04,16,07,26,03,06,11,31,20,,,0.82,0.50,0.65,1*01
$GNGSA,A,3,68,78,69,79,67,85,,,,,,,0.82,0.50,0.65,2*02
$GNGSA,A,3,09,06,31,04,05,34,36,21,,,,,0.82,0.50,0.65,3*02
$GNGSA,A,3,32,23,37,20,25,41,38,,,,,,0.82,0.50,0.65,4*07
$GPGSV,4,1,14,09,74,303,37,04,72,097,35,16,48,083,34,07,43,245,32,1*66
$GPGSV,4,2,14,48,33,182,29,26,27,051,28,03,24,174,26,06,14,269,20,1*6B
$GPGSV,4,3,14,11,14,307,26,31,10,063,23,20,10,325,24,30,07,245,24,1*64
$GPGSV,4,4,14,27,03,114,20,29,01,007,,1*6C
$GLGSV,2,1,07,68,79,094,31,78,79,120,18,69,43,319,28,79,33,202,27,1*7A
$GLGSV,2,2,07,67,29,129,26,85,13,331,19,86,03,020,,1*42
$GAGSV,3,1,10,09,81,320,31,06,71,097,31,31,47,145,27,04,44,104,29,7*71
$GAGSV,3,2,10,05,27,292,26,34,20,299,24,36,14,247,19,24,10,186,21,7*7D
$GAGSV,3,3,10,15,06,346,19,21,05,030,18,7*75
$GBGSV,2,1,08,32,70,166,38,23,69,085,38,37,47,207,36,20,46,304,36,1*7C
$GBGSV,2,2,08,25,20,051,29,41,17,140,29,38,07,333,26,04,01,262,,1*71
$GNRMC,183151.000,A,4910.426140,N,12304.400250,W,0.02,0.00,051224,,,D,V*1E
$GNVTG,0.00,T,,M,0.02,N,0.03,K,D*27
$GNGGA,183152.000,4910.426152,N,12304.400346,W,2,31,0.50,8.983,M,-16.816,M,,*4C
$GNGLL,4910.426152,N,12304.400346,W,183152.000,A,D*57
$GNGSA,A,3,09,04,16,07,26,03,06,11,31,20,,,0.82,0.50,0.65,1*01
$GNGSA,A,3,68,78,69,79,67,85,,,,,,,0.82,0.50,0.65,2*02
$GNGSA,A,3,09,06,31,04,05,34,36,21,,,,,0.82,0.50,0.65,3*02
$GNGSA,A,3,32,23,37,20,25,41,38,,,,,,0.82,0.50,0.65,4*07
$GPGSV,4,1,14,09,74,303,37,04,72,097,35,16,48,083,34,07,43,245,32,1*66
$GPGSV,4,2,14,48,33,182,29,26,27,051,28,03,24,174,26,06,14,269,22,1*69
$GPGSV,4,3,14,11,14,307,26,31,10,063,23,20,10,325,23,30,07,245,24,1*63
$GPGSV,4,4,14,27,03,114,19,29,01,007,,1*66
$GLGSV,2,1,07,68,79,094,31,78,79,120,18,69,43,319,28,79,33,202,27,1*7A
$GLGSV,2,2,07,67,29,129,26,85,13,331,19,86,03,020,,1*42
$GAGSV,3,1,10,09,81,320,31,06,71,097,31,31,47,145,27,04,44,104,29,7*71
$GAGSV,3,2,10,05,27,292,26,34,20,299,24,36,14,247,19,24,10,186,21,7*7D
$GAGSV,3,3,10,15,06,346,19,21,05,030,18,7*75
$GBGSV,2,1,08,32,70,166,38,23,69,085,38,37,47,207,36,20,46,304,36,1*7C
$GBGSV,2,2,08,25,20,051,29,41,17,140,29,38,07,333,26,04,01,262,,1*71
$GNRMC,183152.000,A,4910.426152,N,12304.400346,W,0.02,0.00,051224,,,D,V*18
$GNVTG,0.00,T,,M,0.02,N,0.04,K,D*20
$GNGGA,183153.000,4910.426224,N,12304.400430,W,2,31,0.50,9.081,M,-16.817,M,,*42
$GNGLL,4910.426224,N,12304.400430,W,183153.000,A,D*52
$GNGSA,A,3,09,04,16,07,26,03,06,11,31,20,,,0.82,0.50,0.65,1*01
$GNGSA,A,3,68,78,69,79,67,85,,,,,,,0.82,0.50,0.65,2*02
$GNGSA,A,3,09,06,31,04,05,34,36,21,,,,,0.82,0.50,0.65,3*02
$GNGSA,A,3,32,23,37,20,25,41,38,,,,,,0.82,0.50,0.65,4*07
$GPGSV,4,1,14,09,74,303,37,04,72,097,35,16,48,083,34,07,43,245,32,1*66
$GPGSV,4,2,14,48,33,182,29,26,27,051,28,03,24,174,26,06,14,269,21,1*6A
$GPGSV,4,3,14,11,14,307,26,31,10,063,23,20,10,325,23,30,07,245,24,1*63
$GPGSV,4,4,14,27,03,114,20,29,01,007,,1*6C
$GLGSV,2,1,07,68,79,094,31,78,79,120,18,69,43,319,28,79,33,202,27,1*7A
$GLGSV,2,2,07,67,29,129,27,85,13,331,19,86,03,020,,1*43
$GAGSV,3,1,10,09,81,320,31,06,71,097,31,31,47,145,27,04,44,104,29,7*71
$GAGSV,3,2,10,05,27,292,26,34,20,299,24,36,14,247,19,24,10,186,22,7*7E
$GAGSV,3,3,10,15,06,346,19,21,05,030,18,7*75
$GBGSV,2,1,08,32,70,166,38,23,69,085,38,37,47,207,36,20,46,304,36,1*7C
$GBGSV,2,2,08,25,20,051,29,41,17,140,29,38,07,333,26,04,01,262,,1*71
$GNRMC,183153.000,A,4910.426224,N,12304.400430,W,0.02,0.00,051224,,,D,V*1D
$GNVTG,0.00,T,,M,0.02,N,0.04,K,D*20
$GNGGA,183154.000,4910.426260,N,12304.400532,W,2,31,0.50,9.153,M,-16.816,M,,*49
$GNGLL,4910.426260,N,12304.400532,W,183154.000,A,D*56
$GNGSA,A,3,09,04,16,07,26,03,06,11,31,20,,,0.82,0.50,0.65,1*01
$GNGSA,A,3,68,78,69,79,67,85,,,,,,,0.82,0.50,0.65,2*02
$GNGSA,A,3,09,06,31,04,05,34,36,21,,,,,0.82,0.50,0.65,3*02
$GNGSA,A,3,32,23,37,20,25,41,38,,,,,,0.82,0.50,0.65,4*07
$GPGSV,4,1,14,09,74,303,37,04,72,097,35,16,48,083,34,07,43,245,32,1*66
$GPGSV,4,2,14,48,33,182,29,26,27,051,28,03,24,174,26,06,14,269,20,1*6B
$GPGSV,4,3,14,11,14,307,24,31,10,063,23,20,10,325,23,30,07,245,24,1*61
$GPGSV,4,4,14,27,03,114,19,29,01,007,,1*66
$GLGSV,2,1,07,68,79,094,31,78,79,120,18,69,43,319,28,79,33,202,27,1*7A
$GLGSV,2,2,07,67,29,129,27,85,13,331,19,86,03,020,,1*43
$GAGSV,3,1,10,09,81,320,31,06,71,097,31,31,47,145,27,04,44,104,29,7*71
$GAGSV,3,2,10,05,27,292,26,34,20,299,24,36,14,247,19,24,10,186,22,7*7E
$GAGSV,3,3,10,15,06,346,19,21,05,030,18,7*75
$GBGSV,2,1,08,32,70,166,38,23,69,085,38,37,47,207,36,20,46,304,36,1*7C
$GBGSV,2,2,08,25,20,051,29,41,17,140,29,38,07,333,26,04,01,262,,1*71
$GNRMC,183154.000,A,4910.426260,N,12304.400532,W,0.02,0.00,051224,,,D,V*19
$GNVTG,0.00,T,,M,0.02,N,0.04,K,D*20
$GNGGA,183155.000,4910.426302,N,12304.400688,W,2,31,0.50,9.195,M,-16.816,M,,*45
