$GNRMC,000030.000,A,4910.425180,N,12304.403064,W,0.02,237.02,090125,,,D,V*10
$GNGGA,000030.000,4910.425180,N,12304.403064,W,2,46,0.52,10.758,M,-16.816,M,,*7C
$GNVTG,237.02,T,,M,0.02,N,0.03,K,D*23
$GNGSA,A,3,19,24,06,12,17,11,14,03,32,,,,0.88,0.52,0.71,1*0A
$GNGSA,A,3,76,86,85,75,68,67,,,,,,,0.88,0.52,0.71,2*0C
$GNGSA,A,3,24,12,25,33,10,31,03,05,08,,,,0.88,0.52,0.71,3*0D
$GNGSA,A,3,26,29,35,45,24,,,,,,,,0.88,0.52,0.71,4*0B
$GPGSV,3,1,11,19,68,062,35,24,55,248,34,06,50,136,34,12,41,292,36,1*67
$GPGSV,3,2,11,17,36,060,32,46,33,188,31,11,25,172,29,14,12,107,27,1*6D
$GPGSV,3,3,11,03,10,046,21,32,08,332,27,25,03,291,19,1*5F
$GPGSV,1,1,04,24,55,248,29,06,50,136,30,11,25,172,21,14,12,107,16,8*69
$GLGSV,3,1,09,76,83,057,30,86,72,149,26,77,41,316,19,85,38,038,21,1*7C
$GLGSV,3,2,09,87,29,197,21,75,25,126,20,68,13,338,20,67,08,292,17,1*7A
$GLGSV,3,3,09,69,02,023,,1*4D
$GAGSV,3,1,10,24,84,034,33,12,48,132,28,25,36,291,28,33,36,053,31,7*7B
$GAGSV,3,2,10,10,35,160,29,31,33,102,28,03,21,290,23,11,14,179,22,7*73
$GAGSV,3,3,10,05,13,239,21,08,08,337,19,7*71
$GAGSV,3,1,09,24,84,034,26,12,48,132,25,33,36,053,23,25,36,291,24,1*73
$GAGSV,3,2,09,10,35,160,23,31,33,102,23,03,21,290,18,11,14,179,16,1*73
$GAGSV,3,3,09,05,13,239,18,1*4A
$GBGSV,3,1,10,26,68,283,31,29,55,065,29,35,55,201,31,45,47,144,28,1*79
$GBGSV,3,2,10,24,19,307,26,44,11,218,24,39,06,329,23,30,04,046,15,1*71
$GBGSV,3,3,10,41,02,354,,36,01,135,,1*71
$GBGSV,2,1,06,26,68,283,24,29,55,065,27,35,55,201,25,45,47,144,28,5*74
$GBGSV,2,2,06,24,19,307,19,44,11,218,17,5*7B
$GNGLL,4910.425180,N,12304.403064,W,000030.000,A,D*54
$GNRMC,000031.000,A,4910.425144,N,12304.403178,W,0.01,237.02,090125,,,D,V*16
$GNGGA,000031.000,4910.425144,N,12304.403178,W,2,46,0.52,10.989,M,-16.816,M,,*7B
$GNVTG,237.02,T,,M,0.01,N,0.03,K,D*20
$GNGSA,A,3,19,24,06,12,17,11,14,03,32,,,,0.88,0.52,0.71,1*0A
$GNGSA,A,3,76,86,85,75,68,67,,,,,,,0.88,0.52,0.71,2*0C
$GNGSA,A,3,24,12,25,33,10,31,03,05,08,,,,0.88,0.52,0.71,3*0D
$GNGSA,A,3,26,29,35,45,24,,,,,,,,0.88,0.52,0.71,4*0B
$GPGSV,3,1,11,19,68,062,35,24,55,248,34,06,50,136,34,12,41,292,36,1*67
$GPGSV,3,2,11,17,36,060,32,46,33,188,31,11,25,172,29,14,12,107,27,1*6D
$GPGSV,3,3,11,03,10,046,21,32,08,332,27,25,03,291,19,1*5F
$GPGSV,1,1,04,24,55,248,29,06,50,136,30,11,25,172,21,14,12,107,16,8*69
$GLGSV,3,1,09,76,83,057,30,86,72,149,26,77,41,316,19,85,38,038,21,1*7C
$GLGSV,3,2,09,87,29,197,22,75,25,126,20,68,13,338,21,67,08,292,17,1*78
$GLGSV,3,3,09,69,02,023,,1*4D
$GAGSV,3,1,10,24,84,034,33,12,48,132,28,25,36,291,28,33,36,053,31,7*7B
$GAGSV,3,2,10,10,35,160,29,31,33,102,28,03,21,290,23,11,14,179,22,7*73
$GAGSV,3,3,10,05,13,239,21,08,08,337,19,7*71
$GAGSV,3,1,09,24,84,034,26,12,48,132,25,33,36,053,23,25,36,291,24,1*73
$GAGSV,3,2,09,10,35,160,22,31,33,102,22,03,21,290,18,11,14,179,16,1*73
$GAGSV,3,3,09,05,13,239,18,1*4A
$GBGSV,3,1,10,26,68,283,31,29,55,065,29,35,55,201,31,45,47,144,28,1*79
$GBGSV,3,2,10,24,19,307,26,44,11,218,24,39,06,329,23,30,04,046,15,1*71
$GBGSV,3,3,10,41,02,354,,36,01,135,,1*71
$GBGSV,2,1,06,26,68,283,24,29,55,065,27,35,55,201,25,45,47,144,28,5*74
$GBGSV,2,2,06,24,19,307,19,44,11,218,17,5*7B
$GNGLL,4910.425144,N,12304.403178,W,000031.000,A,D*51
$PAIR010,0,1,2348,345649*3E
$GNRMC,000032.000,A,4910.425114,N,12304.403190,W,0.01,237.02,090125,,,D,V*16
$GNGGA,000032.000,4910.425114,N,12304.403190,W,2,46,0.52,11.022,M,-16.816,M,,*72
$GNVTG,237.02,T,,M,0.01,N,0.02,K,D*21
$GNGSA,A,3,19,24,06,12,17,11,14,03,32,,,,0.88,0.52,0.71,1*0A
$GNGSA,A,3,76,86,85,75,68,67,,,,,,,0.88,0.52,0.71,2*0C
$GNGSA,A,3,24,12,25,33,10,31,03,05,08,,,,0.88,0.52,0.71,3*0D
$GNGSA,A,3,26,29,35,45,24,,,,,,,,0.88,0.52,0.71,4*0B
$GPGSV,3,1,11,19,68,062,35,24,55,248,34,06,51,135,34,12,41,292,37,1*64
$GPGSV,3,2,11,17,36,060,32,46,33,188,31,11,25,172,29,14,12,107,28,1*62
$GPGSV,3,3,11,03,10,046,22,32,08,332,28,25,03,291,19,1*53
$GPGSV,1,1,04,24,55,248,29,06,51,135,30,11,25,172,21,14,12,107,16,8*6B
$GLGSV,3,1,09,76,83,057,30,86,72,149,26,77,41,316,19,85,38,038,21,1*7C
$GLGSV,3,2,09,87,29,197,22,75,25,126,20,68,13,338,21,67,08,292,17,1*78
$GLGSV,3,3,09,69,02,023,,1*4D
$GAGSV,3,1,10,24,84,034,33,12,48,132,28,25,36,291,28,33,36,053,31,7*7B
$GAGSV,3,2,10,10,35,160,29,31,33,102,28,03,21,290,24,11,14,179,22,7*74
$GAGSV,3,3,10,05,13,239,22,08,08,337,19,7*72
$GAGSV,3,1,09,24,84,034,26,12,48,132,25,33,36,053,24,25,36,291,24,1*74
$GAGSV,3,2,09,10,35,160,22,31,33,102,22,03,21,290,18,11,14,179,16,1*73
$GAGSV,3,3,09,05,13,239,18,1*4A
$GBGSV,3,1,10,26,68,283,30,29,55,065,29,35,55,201,30,45,47,144,28,1*79
$GBGSV,3,2,10,24,19,307,26,44,11,218,24,39,06,329,23,30,04,046,14,1*70
$GBGSV,3,3,10,41,02,354,,36,01,135,,1*71
$GBGSV,2,1,06,26,68,283,24,29,55,065,27,35,55,201,25,45,47,144,28,5*74
$GBGSV,2,2,06,24,19,307,19,44,11,218,17,5*7B
$GNGLL,4910.425114,N,12304.403190,W,000032.000,A,D*51
$GNRMC,000033.000,A,4910.425162,N,12304.403202,W,0.01,237.02,090125,,,D,V*1E
$GNGGA,000033.000,4910.425162,N,12304.403202,W,2,46,0.52,11.232,M,-16.816,M,,*79
$GNVTG,237.02,T,,M,0.01,N,0.03,K,D*20
$GNGSA,A,3,19,24,06,12,17,11,14,03,32,,,,0.88,0.52,0.71,1*0A
$GNGSA,A,3,76,86,85,75,68,67,,,,,,,0.88,0.52,0.71,2*0C
$GNGSA,A,3,24,12,25,33,10,31,03,05,08,,,,0.88,0.52,0.71,3*0D
$GNGSA,A,3,26,35,29,45,24,,,,,,,,0.88,0.52,0.71,4*0B
$GPGSV,3,1,11,19,68,062,35,24,55,248,34,06,51,135,34,12,41,292,37,1*64
$GPGSV,3,2,11,17,36,060,32,46,33,188,31,11,25,172,29,14,12,107,28,1*62
$GPGSV,3,3,11,03,10,046,23,32,08,332,28,25,03,291,19,1*52
$GPGSV,1,1,04,24,55,248,29,06,51,135,30,11,25,172,21,14,12,107,16,8*6B
$GLGSV,3,1,09,76,83,057,30,86,72,149,26,77,41,316,19,85,38,038,21,1*7C
$GLGSV,3,2,09,87,29,197,22,75,25,126,20,68,13,338,22,67,08,292,16,1*7A
$GLGSV,3,3,09,69,02,023,,1*4D
$GAGSV,3,1,10,24,84,034,33,12,48,132,28,25,36,291,28,33,36,053,31,7*7B
$GAGSV,3,2,10,10,35,160,29,31,33,102,28,03,21,290,24,11,14,179,21,7*77
$GAGSV,3,3,10,05,13,239,22,08,08,337,19,7*72
$GAGSV,3,1,09,24,84,034,26,12,48,132,25,33,36,053,24,25,36,291,24,1*74
$GAGSV,3,2,09,10,35,160,22,31,33,102,22,03,21,290,18,11,14,179,16,1*73
$GAGSV,3,3,09,05,13,239,18,1*4A
$GBGSV,3,1,10,26,68,283,30,35,55,201,30,29,55,065,28,45,47,144,28,1*78
$GBGSV,3,2,10,24,19,307,26,44,11,218,24,57,08,025,,39,06,329,23,1*7D
$GBGSV,3,3,10,30,04,046,16,36,01,135,,1*76
$GBGSV,2,1,06,26,68,283,24,29,55,065,27,35,55,201,26,45,47,144,28,5*77
$GBGSV,2,2,06,24,19,307,19,44,11,218,17,5*7B
$GNGLL,4910.425162,N,12304.403202,W,000033.000,A,D*59
$GNRMC,000034.000,A,4910.425084,N,12304.403280,W,0.01,237.02,090125,,,D,V*1A
$GNGGA,000034.000,4910.425084,N,12304.403280,W,2,46,0.52,11.379,M,-16.817,M,,*72
$GNVTG,237.02,T,,M,0.01,N,0.03,K,D*20
$GNGSA,A,3,19,24,06,12,17,11,14,03,32,,,,0.88,0.52,0.71,1*0A
$GNGSA,A,3,76,86,85,75,68,67,,,,,,,0.88,0.52,0.71,2*0C
$GNGSA,A,3,24,12,25,33,10,31,03,05,08,,,,0.88,0.52,0.71,3*0D
$GNGSA,A,3,26,35,29,45,24,,,,,,,,0.88,0.52,0.71,4*0B
$GPGSV,3,1,11,19,68,062,35,24,55,248,34,06,51,135,34,12,41,292,37,1*64
$GPGSV,3,2,11,17,36,060,32,46,33,188,31,11,25,172,29,14,12,107,27,1*6D
$GPGSV,3,3,11,03,10,046,24,32,08,332,28,25,03,291,19,1*55
$GPGSV,1,1,04,24,55,248,29,06,51,135,30,11,25,172,21,14,12,107,16,8*6B
$GLGSV,3,1,09,76,83,057,30,86,72,149,26,77,41,316,19,85,38,038,22,1*7F
$GLGSV,3,2,09,87,29,197,22,75,25,126,20,68,13,338,23,67,08,292,16,1*7B
$GLGSV,3,3,09,69,02,023,,1*4D
$GAGSV,3,1,10,24,84,034,33,12,48,132,28,25,36,291,28,33,36,053,31,7*7B
$GAGSV,3,2,10,10,35,160,29,31,33,102,28,03,21,290,24,11,14,179,21,7*77
$GAGSV,3,3,10,05,13,239,21,08,08,337,19,7*71
$GAGSV,3,1,09,24,84,034,25,12,48,132,25,33,36,053,23,25,36,291,24,1*70
$GAGSV,3,2,09,10,35,160,21,31,33,102,22,03,21,290,18,11,14,179,16,1*70
$GAGSV,3,3,09,05,13,239,18,1*4A
$GBGSV,3,1,10,26,68,283,30,35,55,201,30,29,55,065,28,45,47,144,27,1*77
$GBGSV,3,2,10,24,19,307,25,44,11,218,24,57,08,025,,39,06,329,23,1*7E
$GBGSV,3,3,10,30,04,046,15,36,01,135,,1*75
$GBGSV,2,1,06,26,68,283,24,29,55,065,26,35,55,201,25,45,47,144,27,5*7A
$GBGSV,2,2,06,24,19,307,18,44,11,218,16,5*7B
$GNGLL,4910.425084,N,12304.403280,W,000034.000,A,D*5D
$GNRMC,000035.000,A,4910.425012,N,12304.403286,W,0.02,237.02,090125,,,D,V*11
$GNGGA,000035.000,4910.425012,N,12304.403286,W,2,46,0.52,11.347,M,-16.816,M,,*76
$GNVTG,237.02,T,,M,0.02,N,0.03,K,D*23
$GNGSA,A,3,19,24,06,12,17,11,14,03,32,,,,0.88,0.52,0.71,1*0A
$GNGSA,A,3,76,86,85,75,68,67,,,,,,,0.88,0.52,0.71,2*0C
$GNGSA,A,3,24,12,25,33,10,31,03,05,08,,,,0.88,0.52,0.71,3*0D
$GNGSA,A,3,26,35,29,45,24,,,,,,,,0.88,0.52,0.71,4*0B
$GPGSV,3,1,11,19,68,062,35,24,55,248,34,06,51,135,34,12,41,292,37,1*64
$GPGSV,3,2,11,17,36,060,32,46,33,188,31,11,25,172,29,14,12,107,27,1*6D
$GPGSV,3,3,11,03,10,046,24,32,08,332,28,25,03,291,19,1*55
$GPGSV,1,1,04,24,55,248,29,06,51,135,30,11,25,172,21,14,12,107,15,8*68
$GLGSV,3,1,09,76,83,057,29,86,72,149,25,77,41,316,19,85,38,038,22,1*74
$GLGSV,3,2,09,87,29,197,22,75,25,126,20,68,13,338,22,67,08,292,16,1*7A
$GLGSV,3,3,09,69,02,023,,1*4D
$GAGSV,3,1,10,24,84,034,33,12,48,132,28,25,36,291,28,33,36,053,31,7*7B
$GAGSV,3,2,10,10,35,160,29,31,33,102,29,03,21,290,24,11,14,179,21,7*76
$GAGSV,3,3,10,05,13,239,21,08,08,337,19,7*71
$GAGSV,3,1,09,24,84,034,25,12,48,132,25,33,36,053,23,25,36,291,24,1*70
$GAGSV,3,2,09,10,35,160,22,31,33,102,22,03,21,290,18,11,14,179,16,1*73
$GAGSV,3,3,09,05,13,239,18,1*4A
$GBGSV,3,1,10,26,68,283,31,35,55,201,30,29,55,065,29,45,47,144,28,1*78
$GBGSV,3,2,10,24,19,307,25,44,11,218,24,57,08,025,,39,06,329,23,1*7E
$GBGSV,3,3,10,30,04,046,15,36,01,135,,1*75
$GBGSV,2,1,06,26,68,283,24,29,55,065,27,35,55,201,25,45,47,144,27,5*7B
$GBGSV,2,2,06,24,19,307,18,44,11,218,16,5*7B
$GNGLL,4910.425012,N,12304.403286,W,000035.000,A,D*55
$GNRMC,000036.000,A,4910.424946,N,12304.403292,W,0.02,237.02,090125,,,D,V*1E
$GNGGA,000036.000,4910.424946,N,12304.403292,W,2,46,0.52,11.360,M,-16.817,M,,*7D
$GNVTG,237.02,T,,M,0.02,N,0.03,K,D*23
$GNGSA,A,3,19,24,06,12,17,11,14,03,32,,,,0.88,0.52,0.71,1*0A
$GNGSA,A,3,76,86,85,75,68,67,,,,,,,0.88,0.52,0.71,2*0C
$GNGSA,A,3,24,12,25,33,10,31,03,05,08,,,,0.88,0.52,0.71,3*0D
$GNGSA,A,3,26,29,35,45,24,,,,,,,,0.88,0.52,0.71,4*0B
$GPGSV,3,1,11,19,68,062,35,24,55,248,34,06,51,135,33,12,41,292,37,1*63
$GPGSV,3,2,11,17,36,060,32,46,33,188,31,11,25,172,29,14,12,107,27,1*6D
$GPGSV,3,3,11,03,10,046,23,32,08,332,28,25,03,291,19,1*52
$GPGSV,1,1,04,24,55,248,29,06,51,135,30,11,25,172,21,14,12,107,14,8*69
$GLGSV,3,1,09,76,83,057,30,86,72,149,25,77,41,316,19,85,38,038,22,1*7C
$GLGSV,3,2,09,87,29,197,22,75,25,126,20,68,13,338,22,67,08,292,16,1*7A
$GLGSV,3,3,09,69,02,023,,1*4D
$GAGSV,3,1,10,24,84,034,33,12,48,132,28,25,36,291,28,33,36,053,31,7*7B
$GAGSV,3,2,10,10,35,160,29,31,33,102,29,03,21,290,24,11,14,179,21,7*76
$GAGSV,3,3,10,05,13,239,21,08,08,337,19,7*71
$GAGSV,3,1,09,24,84,034,25,12,48,132,25,33,36,053,23,25,36,291,24,1*70
$GAGSV,3,2,09,10,35,160,22,31,33,102,22,03,21,290,18,11,14,179,16,1*73
$GAGSV,3,3,09,05,13,239,18,1*4A
$GBGSV,3,1,10,26,68,283,31,29,55,065,29,35,55,201,30,45,47,144,28,1*78
$GBGSV,3,2,10,24,19,307,25,44,11,218,24,39,06,329,23,30,04,046,13,1*74
$GBGSV,3,3,10,41,02,354,,36,01,135,,1*71
$GBGSV,2,1,06,26,68,283,24,29,55,065,27,35,55,201,25,45,47,144,27,5*7B
$GBGSV,2,2,06,24,19,307,18,44,11,218,16,5*7B
$GNGLL,4910.424946,N,12304.403292,W,000036.000,A,D*5A
$GNRMC,000037.000,A,4910.424844,N,12304.403328,W,0.02,237.02,090125,,,D,V*1C
$GNGGA,000037.000,4910.424844,N,12304.403328,W,2,45,0.52,11.331,M,-16.816,M,,*79
$GNVTG,237.02,T,,M,0.02,N,0.03,K,D*23
$GNGSA,A,3,19,24,06,12,17,11,14,03,32,,,,0.88,0.52,0.71,1*0A
$GNGSA,A,3,76,86,85,75,68,67,,,,,,,0.88,0.52,0.71,2*0C
$GNGSA,A,3,24,12,25,33,10,31,03,05,08,,,,0.88,0.52,0.71,3*0D
$GNGSA,A,3,26,29,35,45,24,,,,,,,,0.88,0.52,0.71,4*0B
$GPGSV,3,1,11,19,68,062,35,24,55,248,34,06,51,135,33,12,41,292,36,1*62
$GPGSV,3,2,11,17,36,060,32,46,33,188,31,11,26,172,28,14,12,107,26,1*6E
$GPGSV,3,3,11,03,10,046,21,32,08,332,27,25,03,291,19,1*5F
$GPGSV,1,1,03,24,55,248,29,06,51,135,30,11,26,172,21,8*58
$GLGSV,3,1,09,76,83,057,30,86,72,149,25,77,41,316,19,85,38,038,21,1*7F
$GLGSV,3,2,09,87,29,197,22,75,25,126,20,68,13,338,21,67,08,292,15,1*7A
$GLGSV,3,3,09,69,02,023,,1*4D
$GAGSV,3,1,10,24,84,034,33,12,48,132,27,25,36,291,27,33,36,053,30,7*7A
$GAGSV,3,2,10,10,35,160,29,31,33,102,29,03,21,290,24,11,14,179,21,7*76
$GAGSV,3,3,10,05,13,239,20,08,08,337,19,7*70
$GAGSV,3,1,09,24,84,034,25,12,48,132,24,25,36,291,24,33,36,053,23,1*71
$GAGSV,3,2,09,10,35,160,22,31,33,102,21,03,21,290,18,11,14,179,16,1*70
$GAGSV,3,3,09,05,13,239,18,1*4A
$GBGSV,3,1,10,26,68,283,31,29,55,065,29,35,55,201,30,45,47,144,28,1*78
$GBGSV,3,2,10,24,19,307,25,44,11,218,24,39,06,329,23,30,04,046,15,1*72
$GBGSV,3,3,10,41,02,354,,36,01,135,,1*71
$GBGSV,2,1,06,26,68,283,24,29,55,065,27,35,55,201,25,45,47,144,27,5*7B
$GBGSV,2,2,06,24,19,307,18,44,11,218,15,5*78
$GNGLL,4910.424844,N,12304.403328,W,000037.000,A,D*58
$GNRMC,000038.000,A,4910.424898,N,12304.403286,W,0.02,237.02,090125,,,D,V*17
$GNGGA,000038.000,4910.424898,N,12304.403286,W,2,45,0.52,11.260,M,-16.817,M,,*76
$GNVTG,237.02,T,,M,0.02,N,0.03,K,D*23
$GNGSA,A,3,19,24,06,12,17,11,14,03,32,,,,0.88,0.52,0.71,1*0A
$GNGSA,A,3,76,86,85,75,68,67,,,,,,,0.88,0.52,0.71,2*0C
$GNGSA,A,3,24,12,25,33,10,31,03,05,08,,,,0.88,0.52,0.71,3*0D
$GNGSA,A,3,26,35,29,45,24,,,,,,,,0.88,0.52,0.71,4*0B
$GPGSV,3,1,11,19,68,062,35,24,55,248,34,06,51,135,33,12,42,292,36,1*61
$GPGSV,3,2,11,17,36,060,32,46,33,188,31,11,26,172,28,14,12,107,26,1*6E
$GPGSV,3,3,11,03,10,046,22,32,08,332,27,25,03,291,19,1*5C
$GPGSV,1,1,04,24,55,248,29,06,51,135,30,11,26,172,21,14,12,107,17,8*69
$GLGSV,3,1,09,76,83,057,30,86,72,149,25,77,41,316,19,85,38,038,21,1*7F
$GLGSV,3,2,09,87,29,197,22,75,25,126,20,68,13,338,21,67,08,292,15,1*7A
$GLGSV,3,3,09,69,02,023,,1*4D
$GAGSV,3,1,10,24,84,034,33,12,48,132,27,25,36,291,27,33,36,053,30,7*7A
$GAGSV,3,2,10,10,35,160,29,31,33,102,28,03,21,290,23,11,14,179,21,7*70
$GAGSV,3,3,10,05,13,239,20,08,08,337,19,7*70
$GAGSV,3,1,09,24,84,034,25,12,48,132,24,33,36,053,23,25,36,291,24,1*71
$GAGSV,3,2,09,10,35,160,22,31,33,102,21,03,21,290,18,11,14,179,16,1*70
$GAGSV,3,3,09,05,13,239,18,1*4A
$GBGSV,3,1,09,26,68,283,32,35,55,201,30,29,55,065,29,45,47,144,29,1*72
$GBGSV,3,2,09,24,19,307,25,44,11,218,24,39,06,329,23,30,04,046,15,1*7A
$GBGSV,3,3,09,36,01,135,,1*4C
$GBGSV,2,1,06,26,68,283,24,29,55,065,27,35,55,201,25,45,47,144,27,5*7B
$GBGSV,2,2,06,24,19,307,19,44,11,218,16,5*7A
$GNGLL,4910.424898,N,12304.403286,W,000038.000,A,D*53
$GNRMC,000039.000,A,4910.424928,N,12304.403250,W,0.02,237.02,090125,,,D,V*17
$GNGGA,000039.000,4910.424928,N,12304.403250,W,2,45,0.52,11.011,M,-16.816,M,,*73
$GNVTG,237.02,T,,M,0.02,N,0.03,K,D*23
$GNGSA,A,3,19,24,06,12,17,11,14,03,32,,,,0.88,0.52,0.71,1*0A
$GNGSA,A,3,76,86,85,75,68,67,,,,,,,0.88,0.52,0.71,2*0C
$GNGSA,A,3,24,12,25,33,10,31,03,05,08,,,,0.88,0.52,0.71,3*0D
$GNGSA,A,3,26,35,29,45,24,,,,,,,,0.88,0.52,0.71,4*0B
$GPGSV,3,1,11,19,68,062,36,24,55,248,35,06,51,135,33,12,42,292,37,1*62
$GPGSV,3,2,11,17,36,060,33,46,33,188,32,11,26,172,28,14,12,107,27,1*6D
$GPGSV,3,3,11,03,10,046,23,32,08,332,28,25,03,291,20,1*58
$GPGSV,1,1,04,24,55,248,29,06,51,135,30,11,26,172,21,14,12,107,15,8*6B
$GLGSV,3,1,09,76,83,057,30,86,72,149,24,77,41,316,19,85,38,038,20,1*7F
$GLGSV,3,2,09,87,29,197,21,75,25,126,20,68,13,338,21,67,08,292,14,1*78
$GLGSV,3,3,09,69,02,023,,1*4D
$GAGSV,3,1,10,24,84,034,33,12,48,132,28,25,36,291,28,33,36,053,31,7*7B
$GAGSV,3,2,10,10,35,160,30,31,33,102,29,03,21,290,23,11,14,179,21,7*79
$GAGSV,3,3,10,05,13,239,21,08,08,337,19,7*71
$GAGSV,3,1,09,24,84,034,25,12,48,132,24,33,36,053,23,25,36,291,24,1*71
$GAGSV,3,2,09,10,35,160,22,31,33,102,21,03,21,290,18,11,14,179,16,1*70
$GAGSV,3,3,09,05,13,239,18,1*4A
$GBGSV,3,1,09,26,68,283,32,35,55,201,30,29,55,065,29,45,47,144,29,1*72
$GBGSV,3,2,09,24,19,307,25,44,11,218,24,39,06,329,23,30,04,046,15,1*7A
$GBGSV,3,3,09,36,01,135,,1*4C
$GBGSV,2,1,06,26,68,283,24,29,55,065,27,35,55,201,25,45,47,144,27,5*7B
$GBGSV,2,2,06,24,19,307,19,44,11,218,16,5*7A
$GNGLL,4910.424928,N,12304.403250,W,000039.000,A,D*53
$GNRMC,000040.000,A,4910.424868,N,12304.403298,W,0.02,237.02,090125,,,D,V*18
$GNGGA,000040.000,4910.424868,N,12304.403298,W,2,45,0.52,11.140,M,-16.816,M,,*79
$GNVTG,237.02,T,,M,0.02,N,0.03,K,D*23
$GNGSA,A,3,19,24,06,12,17,11,14,03,32,,,,0.88,0.52,0.71,1*0A
$GNGSA,A,3,76,86,85,75,68,67,,,,,,,0.88,0.52,0.71,2*0C
$GNGSA,A,3,24,12,25,33,10,31,03,05,08,,,,0.88,0.52,0.71,3*0D
$GNGSA,A,3,26,35,29,45,24,,,,,,,,0.88,0.52,0.71,4*0B
$GPGSV,3,1,11,19,68,062,36,24,55,248,35,06,51,135,33,12,42,292,37,1*62
$GPGSV,3,2,11,17,36,060,33,46,33,188,32,11,26,172,28,14,11,108,27,1*61
$GPGSV,3,3,11,03,10,046,24,32,08,332,28,25,03,291,20,1*5F
$GPGSV,1,1,04,24,55,248,29,06,51,135,29,11,26,172,21,14,11,108,14,8*6E
$GLGSV,3,1,09,76,83,057,30,86,72,149,25,77,41,316,19,85,38,038,19,1*74
$GLGSV,3,2,09,87,29,197,21,75,25,126,20,68,13,338,21,67,08,292,13,1*7F
$GLGSV,3,3,09,69,02,023,,1*4D
$GAGSV,3,1,10,24,84,034,33,12,48,132,28,25,36,291,28,33,36,053,31,7*7B
$GAGSV,3,2,10,10,35,160,30,31,33,102,29,03,21,290,23,11,14,179,21,7*79
$GAGSV,3,3,10,05,13,239,22,08,08,337,19,7*72
$GAGSV,3,1,09,24,84,034,24,12,48,132,24,33,36,053,23,25,36,291,23,1*77
$GAGSV,3,2,09,10,35,160,22,31,33,102,21,03,21,290,18,11,14,179,16,1*70
$GAGSV,3,3,09,05,13,239,18,1*4A
$GBGSV,3,1,10,26,68,283,31,35,55,201,30,29,55,065,28,45,47,144,28,1*79
$GBGSV,3,2,10,24,19,307,25,44,11,218,24,57,08,025,,39,06,329,22,1*7F
$GBGSV,3,3,10,30,04,046,14,36,01,135,,1*74
$GBGSV,2,1,06,26,68,283,24,29,55,065,27,35,55,201,24,45,47,144,26,5*7B
$GBGSV,2,2,06,24,19,307,19,44,11,218,16,5*7A
$GNGLL,4910.424868,N,12304.403298,W,000040.000,A,D*5C
$GNRMC,000041.000,A,4910.424850,N,12304.403454,W,0.02,237.02,090125,,,D,V*14
$GNGGA,000041.000,4910.424850,N,12304.403454,W,2,45,0.52,11.067,M,-16.816,M,,*71
$GNVTG,237.02,T,,M,0.02,N,0.03,K,D*23
$GNGSA,A,3,19,24,06,12,17,11,14,03,32,,,,0.88,0.52,0.71,1*0A
$GNGSA,A,3,76,86,85,75,68,67,,,,,,,0.88,0.52,0.71,2*0C
$GNGSA,A,3,24,12,25,33,10,31,03,05,08,,,,0.88,0.52,0.71,3*0D
$GNGSA,A,3,26,35,29,45,24,,,,,,,,0.88,0.52,0.71,4*0B
$GPGSV,3,1,11,19,68,062,36,24,55,248,35,06,51,135,33,12,42,292,37,1*62
$GPGSV,3,2,11,17,36,060,33,46,33,188,32,11,26,172,28,14,11,108,27,1*61
$GPGSV,3,3,11,03,10,046,24,32,08,332,29,25,03,291,20,1*5E
$GPGSV,1,1,04,24,55,248,29,06,51,135,29,11,26,172,21,14,11,108,14,8*6E
$GLGSV,3,1,09,76,83,057,30,86,72,149,25,77,41,316,19,85,38,038,19,1*74
$GLGSV,3,2,09,87,29,197,21,75,25,126,20,68,13,338,21,67,08,292,11,1*7D
$GLGSV,3,3,09,69,02,023,,1*4D
$GAGSV,3,1,10,24,84,034,33,12,48,132,28,25,36,291,28,33,36,053,31,7*7B
$GAGSV,3,2,10,10,35,160,30,31,33,102,29,03,21,290,23,11,14,179,21,7*79
$GAGSV,3,3,10,05,13,239,22,08,08,337,19,7*72
$GAGSV,3,1,09,24,84,034,24,12,48,132,24,33,36,053,23,25,36,291,23,1*77
$GAGSV,3,2,09,10,35,160,22,31,33,102,21,03,21,290,18,11,14,179,16,1*70
$GAGSV,3,3,09,05,13,239,18,1*4A
$GBGSV,3,1,10,26,68,283,32,35,55,201,31,29,55,065,29,45,47,144,29,1*7B
$GBGSV,3,2,10,24,19,307,26,44,11,218,24,57,08,025,,39,06,329,22,1*7C
$GBGSV,3,3,10,30,04,046,15,36,01,135,,1*75
$GBGSV,2,1,06,26,68,283,24,29,55,065,27,35,55,201,24,45,47,144,26,5*7B
$GBGSV,2,2,06,24,19,307,20,44,11,218,16,5*70
$GNGLL,4910.424850,N,12304.403454,W,000041.000,A,D*50
$GNRMC,000042.000,A,4910.424796,N,12304.403496,W,0.01,237.02,090125,,,D,V*1F
$GNGGA,000042.000,4910.424796,N,12304.403496,W,2,45,0.52,11.090,M,-16.816,M,,*71
$GNVTG,237.02,T,,M,0.01,N,0.03,K,D*20
$GNGSA,A,3,19,24,06,12,17,11,14,03,32,,,,0.88,0.52,0.71,1*0A
$GNGSA,A,3,76,86,85,75,68,67,,,,,,,0.88,0.52,0.71,2*0C
$GNGSA,A,3,24,12,25,33,10,31,03,05,08,,,,0.88,0.52,0.71,3*0D
$GNGSA,A,3,26,35,29,45,24,,,,,,,,0.88,0.52,0.71,4*0B
$GPGSV,3,1,11,19,68,062,36,24,55,248,35,06,51,135,33,12,42,292,36,1*63
$GPGSV,3,2,11,17,36,060,33,46,33,188,31,11,26,172,27,14,11,108,26,1*6C
$GPGSV,3,3,11,03,10,046,24,32,08,332,29,25,03,291,20,1*5E
$GPGSV,1,1,03,24,55,248,28,06,51,135,29,11,26,172,20,8*50
$GLGSV,3,1,09,76,83,057,30,86,72,149,25,77,41,316,19,85,38,038,19,1*74
$GLGSV,3,2,09,87,29,197,20,75,25,126,20,68,13,338,21,67,08,292,13,1*7E
$GLGSV,3,3,09,69,02,023,,1*4D
$GAGSV,3,1,10,24,84,034,33,12,48,132,28,25,36,291,28,33,36,053,31,7*7B
$GAGSV,3,2,10,10,35,160,30,31,33,102,29,03,21,290,23,11,14,179,21,7*79
$GAGSV,3,3,10,05,13,239,21,08,08,337,19,7*71
$GAGSV,3,1,09,24,84,034,24,12,48,132,24,25,36,291,23,33,36,053,22,1*76
$GAGSV,3,2,09,10,35,160,22,31,33,102,21,03,21,290,17,11,14,179,15,1*7C
$GAGSV,3,3,09,05,13,239,18,1*4A
$GBGSV,3,1,11,26,68,283,32,35,55,201,31,29,55,065,29,45,47,144,29,1*7A
$GBGSV,3,2,11,24,19,307,26,44,11,218,24,57,08,025,,39,06,329,22,1*7D
$GBGSV,3,3,11,30,04,046,14,41,02,354,,36,01,135,,1*40
$GBGSV,2,1,06,26,68,283,23,29,55,065,26,35,55,201,24,45,47,144,26,5*7D
$GBGSV,2,2,06,24,19,307,19,44,11,218,16,5*7A
$GNGLL,4910.424796,N,12304.403496,W,000042.000,A,D*58
$GNRMC,000043.000,A,4910.424814,N,12304.403586,W,0.02,237.02,090125,,,D,V*18
$GNGGA,000043.000,4910.424814,N,12304.403586,W,2,45,0.52,10.926,M,-16.817,M,,*71
$GNVTG,237.02,T,,M,0.02,N,0.03,K,D*23
$GNGSA,A,3,19,24,06,12,17,11,14,03,32,,,,0.88,0.52,0.71,1*0A
$GNGSA,A,3,76,86,85,75,68,67,,,,,,,0.88,0.52,0.71,2*0C
$GNGSA,A,3,24,12,25,33,10,31,03,05,08,,,,0.88,0.52,0.71,3*0D
$GNGSA,A,3,26,35,29,45,24,,,,,,,,0.88,0.52,0.71,4*0B
$GPGSV,3,1,11,19,68,062,36,24,55,248,35,06,51,135,33,12,42,292,36,1*63
$GPGSV,3,2,11,17,35,060,33,46,33,188,31,11,26,172,27,14,11,108,26,1*6F
$GPGSV,3,3,11,03,10,046,25,32,08,332,29,25,03,291,20,1*5F
$GPGSV,1,1,03,24,55,248,28,06,51,135,29,11,26,172,20,8*50
$GLGSV,3,1,09,76,83,057,30,86,72,149,25,77,41,316,19,85,38,038,19,1*74
$GLGSV,3,2,09,87,29,197,20,75,25,126,20,68,13,338,21,67,08,292,13,1*7E
$GLGSV,3,3,09,69,02,023,,1*4D
$GAGSV,3,1,10,24,84,034,33,12,48,132,28,25,36,291,28,33,36,053,31,7*7B
$GAGSV,3,2,10,10,35,160,30,31,33,102,29,03,21,290,23,11,14,179,21,7*79
$GAGSV,3,3,10,05,13,239,21,08,08,337,19,7*71
$GAGSV,3,1,09,24,84,034,24,12,48,132,24,25,36,291,23,33,36,053,22,1*76
$GAGSV,3,2,09,10,35,160,22,31,33,102,21,03,21,290,17,11,14,179,15,1*7C
$GAGSV,3,3,09,05,13,239,18,1*4A
$GBGSV,3,1,11,26,68,283,32,35,55,201,31,29,55,065,29,45,47,144,29,1*7A
$GBGSV,3,2,11,24,19,307,26,44,11,218,24,57,08,025,,39,06,329,22,1*7D
$GBGSV,3,3,11,30,04,046,14,41,02,354,,36,01,135,,1*40
$GBGSV,2,1,06,26,68,283,23,29,55,065,26,35,55,201,24,45,47,144,26,5*7D
$GBGSV,2,2,06,24,19,307,19,44,11,218,16,5*7A
$GNGLL,4910.424814,N,12304.403586,W,000043.000,A,D*5C
$GNRMC,000044.000,A,4910.424814,N,12304.403598,W,0.01,237.02,090125,,,D,V*13
$GNGGA,000044.000,4910.424814,N,12304.403598,W,2,45,0.52,11.046,M,-16.816,M,,*76
$GNVTG,237.02,T,,M,0.01,N,0.03,K,D*20
$GNGSA,A,3,19,24,06,12,17,11,14,03,32,,,,0.88,0.52,0.71,1*0A
$GNGSA,A,3,76,86,85,75,68,67,,,,,,,0.88,0.52,0.71,2*0C
$GNGSA,A,3,24,12,25,33,10,31,03,05,08,,,,0.88,0.52,0.71,3*0D
$GNGSA,A,3,26,35,29,45,24,,,,,,,,0.88,0.52,0.71,4*0B
$GPGSV,3,1,11,19,68,062,36,24,55,248,35,06,51,135,33,12,42,292,36,1*63
$GPGSV,3,2,11,17,35,060,33,46,33,188,31,11,26,172,27,14,11,108,27,1*6E
$GPGSV,3,3,11,03,10,046,25,32,08,332,29,25,03,291,20,1*5F
$GPGSV,1,1,03,24,55,248,28,06,51,135,29,11,26,172,20,8*50
$GLGSV,3,1,09,76,83,057,30,86,72,149,26,77,41,316,18,85,38,038,20,1*7C
$GLGSV,3,2,09,87,29,197,20,75,25,126,20,68,13,338,21,67,08,292,13,1*7E
$GLGSV,3,3,09,69,02,023,,1*4D
$GAGSV,3,1,10,24,84,034,33,12,48,132,28,25,36,291,28,33,36,053,31,7*7B
$GAGSV,3,2,10,10,35,160,30,31,33,102,29,03,21,290,23,11,14,179,21,7*79
$GAGSV,3,3,10,05,13,239,22,08,08,337,19,7*72
$GAGSV,3,1,09,24,84,034,24,12,48,132,24,25,36,291,23,33,36,053,22,1*76
$GAGSV,3,2,09,10,35,160,22,31,33,102,21,03,21,290,17,11,14,179,15,1*7C
$GAGSV,3,3,09,05,13,239,18,1*4A
$GBGSV,3,1,11,26,68,283,32,35,55,201,31,29,55,065,29,45,47,144,29,1*7A
$GBGSV,3,2,11,24,19,307,26,44,11,218,24,57,08,025,,39,06,329,22,1*7D
$GBGSV,3,3,11,30,04,046,15,41,02,354,,36,01,135,,1*41
$GBGSV,2,1,06,26,68,283,23,29,55,065,26,35,55,201,24,45,47,144,26,5*7D
$GBGSV,2,2,06,24,19,307,19,44,11,218,16,5*7A
$GNGLL,4910.424814,N,12304.403598,W,000044.000,A,D*54
$GNRMC,000045.000,A,4910.424826,N,12304.403652,W,0.01,237.02,090125,,,D,V*16
$GNGGA,000045.000,4910.424826,N,12304.403652,W,2,45,0.52,11.080,M,-16.816,M,,*79
$GNVTG,237.02,T,,M,0.01,N,0.03,K,D*20
$GNGSA,A,3,19,24,06,12,17,11,14,03,32,,,,0.88,0.52,0.71,1*0A
$GNGSA,A,3,76,86,85,75,68,67,,,,,,,0.88,0.52,0.71,2*0C
$GNGSA,A,3,24,12,25,33,10,31,03,05,08,,,,0.88,0.52,0.71,3*0D
$GNGSA,A,3,26,35,29,45,24,,,,,,,,0.88,0.52,0.71,4*0B
$GPGSV,3,1,11,19,67,062,36,24,55,248,35,06,51,135,33,12,42,292,36,1*6C
$GPGSV,3,2,11,17,35,060,33,46,33,188,31,11,26,172,27,14,11,108,26,1*6F
$GPGSV,3,3,11,03,10,046,25,32,08,332,29,25,03,291,20,1*5F
$GPGSV,1,1,03,24,55,248,28,06,51,135,29,11,26,172,20,8*50
$GLGSV,3,1,09,76,83,057,30,86,72,149,26,77,41,316,18,85,38,038,20,1*7C
$GLGSV,3,2,09,87,29,197,21,75,25,126,21,68,13,338,21,67,08,292,14,1*79
$GLGSV,3,3,09,69,02,023,,1*4D
$GAGSV,3,1,10,24,84,034,33,12,48,132,28,25,36,291,28,33,36,053,31,7*7B
$GAGSV,3,2,10,10,35,160,30,31,33,102,29,03,21,290,23,11,14,179,21,7*79
$GAGSV,3,3,10,05,13,239,22,08,08,337,19,7*72
$GAGSV,3,1,09,24,84,034,24,12,48,132,24,25,36,291,23,33,36,053,22,1*76
$GAGSV,3,2,09,10,35,160,22,31,33,102,21,03,21,290,17,11,14,179,15,1*7C
$GAGSV,3,3,09,05,13,239,18,1*4A
$GBGSV,3,1,11,26,68,283,32,35,55,201,31,29,55,065,29,45,47,144,28,1*7B
$GBGSV,3,2,11,24,19,307,26,44,11,218,24,57,08,025,,39,06,329,23,1*7C
$GBGSV,3,3,11,30,04,046,15,41,02,354,,36,01,135,,1*41
$GBGSV,2,1,06,26,68,283,23,29,55,065,26,35,55,201,24,45,47,144,26,5*7D
$GBGSV,2,2,06,24,19,307,19,44,11,218,16,5*7A
$GNGLL,4910.424826,N,12304.403652,W,000045.000,A,D*51
$GNRMC,000046.000,A,4910.424910,N,12304.403634,W,0.02,237.02,090125,,,D,V*12
$GNGGA,000046.000,4910.424910,N,12304.403634,W,2,45,0.52,11.032,M,-16.816,M,,*77
$GNVTG,237.02,T,,M,0.02,N,0.03,K,D*23
$GNGSA,A,3,19,24,06,12,17,11,14,03,32,,,,0.88,0.52,0.71,1*0A
$GNGSA,A,3,76,86,85,75,68,67,,,,,,,0.88,0.52,0.71,2*0C
$GNGSA,A,3,24,12,25,33,10,31,03,05,08,,,,0.88,0.52,0.71,3*0D
$GNGSA,A,3,26,35,29,45,24,,,,,,,,0.88,0.52,0.71,4*0B
$GPGSV,3,1,11,19,67,062,36,24,55,248,35,06,51,135,33,12,42,292,36,1*6C
$GPGSV,3,2,11,17,35,060,33,46,33,188,31,11,26,172,27,14,11,108,26,1*6F
$GPGSV,3,3,11,03,10,046,25,32,08,332,29,25,03,291,21,1*5E
$GPGSV,1,1,03,24,55,248,29,06,51,135,29,11,26,172,21,8*50
$GLGSV,3,1,09,76,83,057,30,86,72,149,27,77,41,316,19,85,38,038,20,1*7C
$GLGSV,3,2,09,87,29,197,21,75,25,126,21,68,13,338,21,67,08,292,12,1*7F
$GLGSV,3,3,09,69,02,023,,1*4D
$GAGSV,3,1,10,24,84,034,34,12,48,132,28,25,36,291,28,33,36,053,31,7*7C
$GAGSV,3,2,10,10,35,160,30,31,33,102,29,03,21,290,23,11,14,179,21,7*79
$GAGSV,3,3,10,05,13,239,22,08,08,337,19,7*72
$GAGSV,3,1,09,24,84,034,24,12,48,132,24,25,36,291,23,33,36,053,22,1*76
$GAGSV,3,2,09,10,35,160,22,31,33,102,21,03,21,290,17,11,14,179,16,1*7F
$GAGSV,3,3,09,05,13,239,18,1*4A
$GBGSV,3,1,11,26,68,283,32,35,55,201,30,29,55,065,29,45,47,144,28,1*7A
$GBGSV,3,2,11,24,19,307,25,44,11,218,24,57,08,025,,39,06,329,22,1*7E
$GBGSV,3,3,11,30,04,046,16,41,02,354,,36,01,135,,1*42
$GBGSV,2,1,06,26,68,283,24,29,55,065,26,35,55,201,24,45,47,144,27,5*7B
$GBGSV,2,2,06,24,19,307,19,44,11,218,16,5*7A
$GNGLL,4910.424910,N,12304.403634,W,000046.000,A,D*56
$GNRMC,000047.000,A,4910.424886,N,12304.403586,W,0.01,237.02,090125,,,D,V*14
$GNGGA,000047.000,4910.424886,N,12304.403586,W,2,45,0.52,10.894,M,-16.817,M,,*76
$GNVTG,237.02,T,,M,0.01,N,0.03,K,D*20
$GNGSA,A,3,19,24,06,12,17,11,14,03,32,,,,0.88,0.52,0.71,1*0A
$GNGSA,A,3,76,86,85,75,68,67,,,,,,,0.88,0.52,0.71,2*0C
$GNGSA,A,3,24,12,25,33,10,31,03,05,08,,,,0.88,0.52,0.71,3*0D
$GNGSA,A,3,26,35,29,45,24,,,,,,,,0.88,0.52,0.71,4*0B
$GPGSV,3,1,11,19,67,062,36,24,55,248,35,06,51,135,33,12,42,292,36,1*6C
$GPGSV,3,2,11,17,35,060,33,46,33,188,31,11,26,172,27,14,11,108,26,1*6F
$GPGSV,3,3,11,03,10,046,25,32,08,332,29,25,03,291,21,1*5E
$GPGSV,1,1,03,24,55,248,29,06,51,135,29,11,26,172,20,8*51
$GLGSV,3,1,09,76,83,057,30,86,72,149,26,77,41,316,19,85,38,038,20,1*7D
$GLGSV,3,2,09,87,29,197,21,75,25,126,21,68,13,338,21,67,08,292,11,1*7C
$GLGSV,3,3,09,69,02,023,,1*4D
$GAGSV,3,1,10,24,84,034,34,12,48,132,28,25,36,291,28,33,36,053,31,7*7C
$GAGSV,3,2,10,10,35,160,30,31,33,102,29,03,21,290,23,11,14,179,20,7*78
$GAGSV,3,3,10,05,13,239,22,08,08,337,19,7*72
$GAGSV,3,1,09,24,84,034,24,12,48,132,24,25,36,291,23,33,36,053,22,1*76
$GAGSV,3,2,09,10,35,160,22,31,33,102,22,03,21,290,17,11,14,179,16,1*7C
$GAGSV,3,3,09,05,13,239,18,1*4A
$GBGSV,3,1,11,26,68,283,31,35,55,201,29,29,55,065,28,45,47,144,27,1*7F
$GBGSV,3,2,11,24,19,307,25,44,11,218,24,57,08,025,,39,06,329,21,1*7D
$GBGSV,3,3,11,30,04,046,14,41,02,354,,36,01,135,,1*40
$GBGSV,2,1,06,26,68,283,24,29,55,065,26,35,55,201,24,45,47,144,27,5*7B
$GBGSV,2,2,06,24,19,307,19,44,11,218,16,5*7A
$GNGLL,4910.424886,N,12304.403586,W,000047.000,A,D*53
$GNRMC,000048.000,A,4910.424796,N,12304.403718,W,0.01,237.02,090125,,,D,V*10
$GNGGA,000048.000,4910.424796,N,12304.403718,W,2,45,0.52,10.760,M,-16.816,M,,*77
$GNVTG,237.02,T,,M,0.01,N,0.03,K,D*20
$GNGSA,A,3,19,24,06,12,17,11,14,03,32,,,,0.88,0.52,0.71,1*0A
$GNGSA,A,3,76,86,85,75,68,67,,,,,,,0.88,0.52,0.71,2*0C
$GNGSA,A,3,24,12,25,33,10,31,03,05,08,,,,0.88,0.52,0.71,3*0D
$GNGSA,A,3,26,35,29,45,24,,,,,,,,0.88,0.52,0.71,4*0B
$GPGSV,3,1,11,19,67,062,36,24,55,248,35,06,51,135,33,12,42,292,36,1*6C
$GPGSV,3,2,11,17,35,060,33,46,33,188,31,11,26,172,27,14,11,108,26,1*6F
$GPGSV,3,3,11,03,10,046,25,32,08,332,29,25,03,291,20,1*5F
$GPGSV,1,1,03,24,55,248,29,06,51,135,29,11,26,172,20,8*51
$GLGSV,3,1,09,76,83,057,30,86,72,149,27,77,41,316,19,85,38,038,20,1*7C
$GLGSV,3,2,09,87,29,197,21,75,25,126,21,68,13,338,21,67,08,292,12,1*7F
$GLGSV,3,3,09,69,02,023,,1*4D
$GAGSV,3,1,10,24,84,034,34,12,48,132,28,25,36,291,28,33,36,053,31,7*7C
$GAGSV,3,2,10,10,35,160,30,31,33,102,29,03,21,290,23,11,14,179,20,7*78
$GAGSV,3,3,10,05,13,239,22,08,08,337,19,7*72
$GAGSV,3,1,09,24,84,034,24,12,48,132,24,25,36,291,23,33,36,053,22,1*76
$GAGSV,3,2,09,10,35,160,22,31,33,102,22,03,21,290,17,11,14,179,15,1*7F
$GAGSV,3,3,09,05,13,239,18,1*4A
$GBGSV,3,1,11,26,68,283,31,35,55,201,29,29,55,065,27,45,47,144,27,1*70
$GBGSV,3,2,11,24,19,307,25,44,11,218,23,57,08,025,,39,06,329,21,1*7A
$GBGSV,3,3,11,30,04,046,15,41,02,354,,36,01,135,,1*41
$GBGSV,2,1,06,26,68,283,24,29,55,065,26,35,55,201,24,45,47,144,26,5*7A
$GBGSV,2,2,06,24,19,307,19,44,11,218,16,5*7A
$GNGLL,4910.424796,N,12304.403718,W,000048.000,A,D*57
$GNRMC,000049.000,A,4910.424736,N,12304.403820,W,0.02,237.02,090125,,,D,V*1C
$GNGGA,000049.000,4910.424736,N,12304.403820,W,2,45,0.52,10.616,M,-16.816,M,,*78
$GNVTG,237.02,T,,M,0.02,N,0.03,K,D*23
$GNGSA,A,3,19,24,06,12,17,11,14,03,32,,,,0.88,0.52,0.71,1*0A
$GNGSA,A,3,76,86,85,75,68,67,,,,,,,0.88,0.52,0.71,2*0C
$GNGSA,A,3,24,12,25,33,10,31,03,05,08,,,,0.88,0.52,0.71,3*0D
$GNGSA,A,3,26,35,29,45,24,,,,,,,,0.88,0.52,0.71,4*0B
$GPGSV,3,1,11,19,67,062,36,24,55,248,35,06,51,135,33,12,42,292,36,1*6C
$GPGSV,3,2,11,17,35,060,33,46,33,188,31,11,26,172,27,14,11,108,26,1*6F
$GPGSV,3,3,11,03,10,046,25,32,08,332,29,25,03,291,20,1*5F
$GPGSV,1,1,03,24,55,248,28,06,51,135,29,11,26,172,20,8*50
$GLGSV,3,1,09,76,83,057,30,86,72,149,26,77,41,316,19,85,38,038,19,1*77
$GLGSV,3,2,09,87,29,197,21,75,25,126,21,68,13,338,21,67,08,292,10,1*7D
$GLGSV,3,3,09,69,02,023,,1*4D
$GAGSV,3,1,10,24,84,034,34,12,48,132,28,25,36,291,28,33,36,053,31,7*7C
$GAGSV,3,2,10,10,35,160,30,31,33,102,29,03,21,290,23,11,14,179,20,7*78
$GAGSV,3,3,10,05,13,239,22,08,08,337,19,7*72
$GAGSV,3,1,09,24,84,034,24,12,48,132,24,25,36,291,23,33,36,053,21,1*75
$GAGSV,3,2,09,10,35,160,21,31,33,102,22,03,21,290,17,11,14,179,15,1*7C
$GAGSV,3,3,09,05,13,239,17,1*45
$GBGSV,3,1,11,26,68,283,31,35,55,201,29,29,55,065,27,45,47,144,27,1*70
$GBGSV,3,2,11,24,19,307,25,44,11,218,23,57,08,025,,39,06,329,21,1*7A
$GBGSV,3,3,11,30,04,046,14,41,02,354,,36,01,135,,1*40
$GBGSV,2,1,06,26,68,283,24,29,55,065,26,35,55,201,24,45,47,144,26,5*7A
$GBGSV,2,2,06,24,19,307,19,44,11,218,16,5*7A
$GNGLL,4910.424736,N,12304.403820,W,000049.000,A,D*58
$GNRMC,000050.000,A,4910.424688,N,12304.403886,W,0.01,237.02,090125,,,D,V*1F
$GNGGA,000050.000,4910.424688,N,12304.403886,W,2,45,0.52,10.667,M,-16.817,M,,*7F
$GNVTG,237.02,T,,M,0.01,N,0.03,K,D*20
$GNGSA,A,3,19,24,06,12,17,11,14,03,32,,,,0.88,0.52,0.71,1*0A
$GNGSA,A,3,76,86,85,75,68,67,,,,,,,0.88,0.52,0.71,2*0C
$GNGSA,A,3,24,12,25,33,10,31,03,05,08,,,,0.88,0.52,0.71,3*0D
$GNGSA,A,3,26,35,29,45,24,,,,,,,,0.88,0.52,0.71,4*0B
$GPGSV,3,1,11,19,67,062,36,24,55,246,35,06,51,135,33,12,42,292,36,1*62
$GPGSV,3,2,11,17,35,060,33,46,33,188,31,11,26,172,27,14,11,108,26,1*6F
$GPGSV,3,3,11,03,10,046,25,32,08,332,29,25,03,291,20,1*5F
$GPGSV,1,1,03,24,55,246,28,06,51,135,28,11,26,172,20,8*5F
$GLGSV,3,1,09,76,83,057,30,86,72,149,26,77,41,316,19,85,38,038,18,1*76
$GLGSV,3,2,09,87,29,197,20,75,25,126,21,68,13,338,20,67,08,292,11,1*7C
$GLGSV,3,3,09,69,02,023,,1*4D
$GAGSV,3,1,10,24,84,034,34,12,48,132,28,25,36,291,27,33,36,053,31,7*73
$GAGSV,3,2,10,10,35,160,30,31,33,102,29,03,21,290,23,11,14,179,20,7*78
$GAGSV,3,3,10,05,13,239,22,08,08,337,19,7*72
$GAGSV,3,1,09,24,84,034,24,12,48,132,23,25,36,291,23,33,36,053,20,1*73
$GAGSV,3,2,09,10,35,160,21,31,33,102,22,03,21,290,17,11,14,179,15,1*7C
$GAGSV,3,3,09,05,13,239,16,1*44
$GBGSV,3,1,11,26,68,283,31,35,55,201,29,29,55,065,27,45,47,144,27,1*70
$GBGSV,3,2,11,24,19,307,25,44,11,218,23,57,08,025,,39,06,329,22,1*79
$GBGSV,3,3,11,30,04,046,13,41,02,354,,36,01,135,,1*47
$GBGSV,2,1,06,26,68,283,23,29,55,065,26,35,55,201,24,45,47,144,25,5*7E
$GBGSV,2,2,06,24,19,307,19,44,11,218,16,5*7A
$GNGLL,4910.424688,N,12304.403886,W,000050.000,A,D*58
$GNRMC,000051.000,A,4910.424628,N,12304.403958,W,0.01,237.02,090125,,,D,V*16
$GNGGA,000051.000,4910.424628,N,12304.403958,W,2,44,0.53,10.502,M,-16.816,M,,*77
$GNVTG,237.02,T,,M,0.01,N,0.03,K,D*20
$GNGSA,A,3,19,24,06,12,17,11,14,03,32,,,,0.90,0.53,0.73,1*00
$GNGSA,A,3,76,86,85,75,68,,,,,,,,0.90,0.53,0.73,2*07
$GNGSA,A,3,24,12,25,33,10,31,03,05,08,,,,0.90,0.53,0.73,3*07
$GNGSA,A,3,26,35,29,45,24,,,,,,,,0.90,0.53,0.73,4*01
$GPGSV,3,1,11,19,67,062,36,24,55,246,35,06,51,135,33,12,42,292,36,1*62
$GPGSV,3,2,11,17,35,060,33,46,33,188,31,11,26,172,26,14,11,108,26,1*6E
$GPGSV,3,3,11,03,10,046,25,32,08,332,29,25,04,292,21,1*5A
$GPGSV,1,1,03,24,55,246,27,06,51,135,28,11,26,172,19,8*5A
$GLGSV,3,1,09,76,83,057,30,86,72,149,26,77,41,316,19,85,38,038,18,1*76
$GLGSV,3,2,09,87,29,197,20,75,25,126,21,68,13,338,20,67,08,292,,1*7C
$GLGSV,3,3,09,69,02,023,,1*4D
$GAGSV,3,1,10,24,84,034,34,12,48,132,28,25,36,291,27,33,36,053,31,7*73
$GAGSV,3,2,10,10,35,160,30,31,33,102,29,03,21,290,23,11,14,179,20,7*78
$GAGSV,3,3,10,05,13,239,22,08,08,337,19,7*72
$GAGSV,3,1,09,24,84,034,23,12,48,132,22,25,36,291,22,33,36,053,20,1*74
$GAGSV,3,2,09,10,35,160,21,31,33,102,21,03,21,290,16,11,14,179,14,1*7F
$GAGSV,3,3,09,05,13,239,16,1*44
$GBGSV,3,1,11,26,68,283,31,35,55,201,29,29,55,065,27,45,47,144,27,1*70
$GBGSV,3,2,11,24,19,307,25,44,11,218,23,57,08,025,,39,06,329,21,1*7A
$GBGSV,3,3,11,30,04,046,13,41,02,354,,36,01,135,,1*47
$GBGSV,2,1,06,26,68,283,22,29,55,065,25,35,55,201,23,45,47,144,25,5*7B
$GBGSV,2,2,06,24,19,307,19,44,11,218,16,5*7A
$GNGLL,4910.424628,N,12304.403958,W,000051.000,A,D*51
$GNRMC,000052.000,A,4910.424628,N,12304.404018,W,0.01,237.02,090125,,,D,V*1F
$GNGGA,000052.000,4910.424628,N,12304.404018,W,2,44,0.53,10.569,M,-16.816,M,,*73
$GNVTG,237.02,T,,M,0.01,N,0.03,K,D*20
$GNGSA,A,3,19,24,06,12,17,11,14,03,32,,,,0.90,0.53,0.73,1*00
$GNGSA,A,3,76,86,85,75,68,,,,,,,,0.90,0.53,0.73,2*07
$GNGSA,A,3,24,12,25,33,10,31,03,05,08,,,,0.90,0.53,0.73,3*07
$GNGSA,A,3,26,29,35,45,24,,,,,,,,0.90,0.53,0.73,4*01
$GPGSV,3,1,11,19,67,062,36,24,55,246,35,06,51,135,32,12,42,292,36,1*63
$GPGSV,3,2,11,17,35,060,33,46,33,188,31,11,26,172,26,14,11,108,26,1*6E
$GPGSV,3,3,11,03,10,046,25,32,08,332,29,25,04,292,21,1*5A
$GPGSV,1,1,03,24,55,246,27,06,51,135,28,11,26,172,19,8*5A
$GLGSV,3,1,09,76,83,057,30,86,72,149,25,77,41,316,19,85,38,038,18,1*75
$GLGSV,3,2,09,87,29,197,20,75,25,126,21,68,13,338,20,67,08,292,,1*7C
$GLGSV,3,3,09,69,02,023,,1*4D
$GAGSV,3,1,10,24,84,034,34,12,48,132,27,25,36,291,27,33,36,053,31,7*7C
$GAGSV,3,2,10,10,35,160,29,31,33,102,29,03,21,290,23,11,14,179,20,7*70
$GAGSV,3,3,10,05,13,239,22,08,08,337,19,7*72
$GAGSV,3,1,09,24,84,034,23,12,48,132,22,25,36,291,22,33,36,053,20,1*74
$GAGSV,3,2,09,10,35,160,20,31,33,102,20,03,21,290,15,11,14,179,14,1*7C
$GAGSV,3,3,09,05,13,239,16,1*44
$GBGSV,3,1,10,26,68,283,31,29,55,065,27,35,55,201,29,45,47,144,27,1*71
$GBGSV,3,2,10,24,19,307,25,44,11,218,23,39,06,329,21,30,04,046,12,1*70
$GBGSV,3,3,10,41,02,354,,36,01,135,,1*71
$GBGSV,2,1,06,26,68,283,22,29,55,065,25,35,55,201,23,45,47,144,25,5*7B
$GBGSV,2,2,06,24,19,307,19,44,11,218,16,5*7A
$GNGLL,4910.424628,N,12304.404018,W,000052.000,A,D*58
$GNRMC,000053.000,A,4910.424586,N,12304.404036,W,0.01,237.02,090125,,,D,V*15
$GNGGA,000053.000,4910.424586,N,12304.404036,W,2,44,0.53,10.285,M,-16.816,M,,*7C
$GNVTG,237.02,T,,M,0.01,N,0.02,K,D*21
$GNGSA,A,3,19,24,06,12,17,11,14,03,32,,,,0.90,0.53,0.73,1*00
$GNGSA,A,3,76,86,85,75,68,,,,,,,,0.90,0.53,0.73,2*07
$GNGSA,A,3,24,12,25,33,10,31,03,05,08,,,,0.90,0.53,0.73,3*07
$GNGSA,A,3,26,29,35,45,24,,,,,,,,0.90,0.53,0.73,4*01
$GPGSV,3,1,11,19,67,062,35,24,55,246,34,06,51,135,32,12,42,292,35,1*62
$GPGSV,3,2,11,17,35,060,32,46,33,188,30,11,26,172,26,14,11,108,25,1*6D
$GPGSV,3,3,11,03,10,046,25,32,08,332,28,25,04,292,21,1*5B
$GPGSV,1,1,03,24,55,246,26,06,51,135,27,11,26,172,19,8*54
$GLGSV,3,1,09,76,83,057,30,86,72,149,25,77,41,316,19,85,38,038,18,1*75
$GLGSV,3,2,09,87,29,197,20,75,25,126,22,68,13,338,20,67,08,292,,1*7F
$GLGSV,3,3,09,69,02,023,,1*4D
$GAGSV,3,1,10,24,84,034,33,12,48,132,26,25,36,291,27,33,36,053,30,7*7B
$GAGSV,3,2,10,10,35,160,29,31,33,102,28,03,21,290,22,11,14,179,20,7*70
$GAGSV,3,3,10,05,13,239,22,08,08,337,19,7*72
$GAGSV,3,1,09,24,84,034,22,12,48,132,21,25,36,291,21,33,36,053,20,1*75
$GAGSV,3,2,09,10,35,160,19,31,33,102,20,03,21,290,15,11,14,179,14,1*76
$GAGSV,3,3,09,05,13,239,16,1*44
$GBGSV,3,1,10,26,68,283,31,29,55,065,26,35,55,201,29,45,47,144,27,1*70
$GBGSV,3,2,10,24,19,307,25,44,11,218,23,39,06,329,21,30,04,046,14,1*76
$GBGSV,3,3,10,41,02,354,,36,01,135,,1*71
$GBGSV,2,1,06,26,68,283,21,29,55,065,25,35,55,201,22,45,47,144,24,5*78
$GBGSV,2,2,06,24,19,307,18,44,11,218,16,5*7B
$GNGLL,4910.424586,N,12304.404036,W,000053.000,A,D*52
$GNRMC,000054.000,A,4910.424550,N,12304.404066,W,0.01,237.02,090125,,,D,V*1C
$GNGGA,000054.000,4910.424550,N,12304.404066,W,2,44,0.53,9.999,M,-16.817,M,,*4A
$GNVTG,237.02,T,,M,0.01,N,0.01,K,D*22
$GNGSA,A,3,19,24,06,12,17,11,14,03,32,,,,0.90,0.53,0.73,1*00
$GNGSA,A,3,76,86,85,75,68,,,,,,,,0.90,0.53,0.73,2*07
$GNGSA,A,3,24,12,25,33,10,31,03,05,08,,,,0.90,0.53,0.73,3*07
$GNGSA,A,3,26,29,35,45,24,,,,,,,,0.90,0.53,0.73,4*01
$GPGSV,3,1,11,19,67,062,35,24,55,246,34,06,51,135,32,12,42,292,35,1*62
$GPGSV,3,2,11,17,35,060,32,46,33,188,30,11,26,172,26,14,11,108,25,1*6D
$GPGSV,3,3,11,03,10,046,25,32,08,332,28,25,04,292,21,1*5B
$GPGSV,1,1,03,24,55,246,26,06,51,135,27,11,26,172,19,8*54
$GLGSV,3,1,09,76,83,057,30,86,72,149,25,77,41,316,19,85,38,038,18,1*75
$GLGSV,3,2,09,87,29,197,20,75,25,126,22,68,13,338,20,67,08,292,,1*7F
$GLGSV,3,3,09,69,02,023,,1*4D
$GAGSV,3,1,10,24,84,034,33,12,48,132,26,25,36,291,27,33,36,053,30,7*7B
$GAGSV,3,2,10,10,35,160,29,31,33,102,28,03,21,290,22,11,14,179,20,7*70
$GAGSV,3,3,10,05,13,239,22,08,08,337,19,7*72
$GAGSV,3,1,09,24,84,034,22,12,48,132,21,25,36,291,21,33,36,053,20,1*75
$GAGSV,3,2,09,10,35,160,20,31,33,102,20,03,21,290,15,11,14,179,14,1*7C
$GAGSV,3,3,09,05,13,239,16,1*44
$GBGSV,3,1,10,26,68,283,31,29,55,065,26,35,55,201,29,45,47,144,27,1*70
$GBGSV,3,2,10,24,19,307,25,44,11,218,23,39,06,329,20,30,04,046,13,1*70
$GBGSV,3,3,10,41,02,354,,36,01,135,,1*71
$GBGSV,2,1,06,26,68,283,21,29,55,065,25,35,55,201,22,45,47,144,24,5*78
$GBGSV,2,2,06,24,19,307,18,44,11,218,16,5*7B
$GNGLL,4910.424550,N,12304.404066,W,000054.000,A,D*5B
$GNRMC,000055.000,A,4910.424508,N,12304.404168,W,0.01,237.02,090125,,,D,V*1F
$GNGGA,000055.000,4910.424508,N,12304.404168,W,2,44,0.53,10.010,M,-16.816,M,,*78
$GNVTG,237.02,T,,M,0.01,N,0.01,K,D*22
$GNGSA,A,3,19,24,06,12,17,11,14,03,32,,,,0.90,0.53,0.73,1*00
$GNGSA,A,3,76,86,85,75,68,,,,,,,,0.90,0.53,0.73,2*07
$GNGSA,A,3,24,12,25,33,10,31,03,05,08,,,,0.90,0.53,0.73,3*07
$GNGSA,A,3,26,29,35,45,24,,,,,,,,0.90,0.53,0.73,4*01
$GPGSV,3,1,11,19,67,062,35,24,55,246,34,06,51,135,32,12,42,292,35,1*62
$GPGSV,3,2,11,17,35,060,32,46,33,188,30,11,26,172,26,14,11,108,25,1*6D
$GPGSV,3,3,11,03,10,046,25,32,08,332,28,25,04,292,21,1*5B
$GPGSV,1,1,03,24,55,246,26,06,51,135,28,11,26,172,19,8*5B
$GLGSV,3,1,09,76,83,057,30,86,72,149,26,77,41,316,19,85,38,038,18,1*76
$GLGSV,3,2,09,87,29,197,19,75,25,126,22,68,13,338,19,67,08,292,,1*7F
$GLGSV,3,3,09,69,02,023,,1*4D
$GAGSV,3,1,10,24,84,034,33,12,48,132,27,25,36,291,27,33,36,053,30,7*7A
$GAGSV,3,2,10,10,35,160,29,31,33,102,28,03,21,290,22,11,14,179,20,7*70
$GAGSV,3,3,10,05,13,239,23,08,08,337,20,7*79
$GAGSV,3,1,09,24,84,034,22,12,48,132,22,25,36,291,22,33,36,053,21,1*74
$GAGSV,3,2,09,10,35,160,20,31,33,102,20,03,21,290,15,11,14,179,14,1*7C
$GAGSV,3,3,09,05,13,239,16,1*44
$GBGSV,3,1,10,26,68,283,31,29,55,065,27,35,55,201,29,45,47,144,27,1*71
$GBGSV,3,2,10,24,19,307,25,44,11,218,23,39,06,329,21,30,04,046,14,1*76
$GBGSV,3,3,10,41,02,354,,36,01,135,,1*71
$GBGSV,2,1,06,26,68,283,22,29,55,065,25,35,55,201,22,45,47,144,24,5*7B
$GBGSV,2,2,06,24,19,307,18,44,11,218,16,5*7B
$GNGLL,4910.424508,N,12304.404168,W,000055.000,A,D*58
$GNRMC,000056.000,A,4910.424538,N,12304.404264,W,0.01,237.02,090125,,,D,V*10
$GNGGA,000056.000,4910.424538,N,12304.404264,W,2,44,0.53,9.898,M,-16.816,M,,*47
$GNVTG,237.02,T,,M,0.01,N,0.01,K,D*22
$GNGSA,A,3,19,24,06,12,17,11,14,03,32,,,,0.90,0.53,0.73,1*00
$GNGSA,A,3,76,86,85,75,68,,,,,,,,0.90,0.53,0.73,2*07
$GNGSA,A,3,24,12,25,33,10,31,03,05,08,,,,0.90,0.53,0.73,3*07
$GNGSA,A,3,26,35,29,45,24,,,,,,,,0.90,0.53,0.73,4*01
$GPGSV,3,1,11,19,67,062,35,24,55,246,34,06,51,135,32,12,42,292,35,1*62
$GPGSV,3,2,11,17,35,060,32,46,33,188,30,11,26,172,26,14,11,108,25,1*6D
$GPGSV,3,3,11,03,10,046,25,32,08,332,29,25,04,292,21,1*5A
$GPGSV,1,1,03,24,55,246,27,06,51,135,28,11,26,172,19,8*5A
$GLGSV,3,1,09,76,83,057,30,86,72,149,26,77,41,316,19,85,38,038,18,1*76
$GLGSV,3,2,09,87,29,197,19,75,25,126,21,68,13,338,18,67,08,292,,1*7D
$GLGSV,3,3,09,69,02,023,,1*4D
$GAGSV,3,1,10,24,84,034,33,12,48,132,27,25,36,291,27,33,36,053,30,7*7A
$GAGSV,3,2,10,10,35,160,29,31,33,102,28,03,21,290,22,11,14,179,20,7*70
$GAGSV,3,3,10,05,13,239,23,08,08,337,20,7*79
$GAGSV,3,1,09,24,84,034,22,12,48,132,22,25,36,291,22,33,36,053,21,1*74
$GAGSV,3,2,09,10,35,160,20,31,33,102,20,03,21,290,16,11,14,179,14,1*7F
$GAGSV,3,3,09,05,13,239,16,1*44
$GBGSV,3,1,11,26,68,283,31,35,55,201,29,29,55,065,27,45,47,144,27,1*70
$GBGSV,3,2,11,24,19,307,25,44,11,218,23,57,08,025,,39,06,329,21,1*7A
$GBGSV,3,3,11,30,04,046,14,41,02,354,,36,01,135,,1*40
$GBGSV,2,1,06,26,68,283,22,29,55,065,25,35,55,201,22,45,47,144,24,5*7B
$GBGSV,2,2,06,24,19,307,18,44,11,218,16,5*7B
$GNGLL,4910.424538,N,12304.404264,W,000056.000,A,D*57
$GNRMC,000057.000,A,4910.424490,N,12304.404258,W,0.01,237.02,090125,,,D,V*1D
$GNGGA,000057.000,4910.424490,N,12304.404258,W,2,44,0.53,9.871,M,-16.816,M,,*4D
$GNVTG,237.02,T,,M,0.01,N,0.01,K,D*22
$GNGSA,A,3,19,24,06,12,17,11,14,03,32,,,,0.90,0.53,0.73,1*00
$GNGSA,A,3,76,86,85,75,68,,,,,,,,0.90,0.53,0.73,2*07
$GNGSA,A,3,24,12,25,33,10,31,03,05,08,,,,0.90,0.53,0.73,3*07
$GNGSA,A,3,26,35,29,45,24,,,,,,,,0.90,0.53,0.73,4*01
$GPGSV,3,1,11,19,67,062,35,24,55,246,34,06,51,135,32,12,42,292,35,1*62
$GPGSV,3,2,11,17,35,060,32,46,33,188,30,11,26,172,26,14,11,108,26,1*6E
$GPGSV,3,3,11,03,10,046,26,32,08,332,29,25,04,292,21,1*59
$GPGSV,1,1,03,24,55,246,27,06,51,135,28,11,26,172,19,8*5A
$GLGSV,2,1,08,76,83,057,30,86,72,149,26,77,41,316,19,85,38,038,18,1*76
$GLGSV,2,2,08,87,29,197,19,75,25,126,21,68,13,338,18,67,08,292,,1*7D
$GAGSV,3,1,10,24,84,034,33,12,48,132,27,25,36,291,27,33,36,053,30,7*7A
$GAGSV,3,2,10,10,35,160,29,31,33,102,28,03,21,290,22,11,14,179,20,7*70
$GAGSV,3,3,10,05,13,239,23,08,08,337,20,7*79
$GAGSV,3,1,09,24,84,034,22,12,48,132,23,25,36,291,22,33,36,053,21,1*75
$GAGSV,3,2,09,10,35,160,20,31,33,102,20,03,21,290,16,11,14,179,14,1*7F
$GAGSV,3,3,09,05,13,239,16,1*44
$GBGSV,3,1,11,26,68,283,31,35,55,201,29,29,55,065,26,45,47,144,27,1*71
$GBGSV,3,2,11,24,19,307,25,44,11,218,23,57,08,025,,39,06,329,21,1*7A
$GBGSV,3,3,11,30,04,046,14,41,02,354,,36,01,135,,1*40
$GBGSV,2,1,06,26,68,283,22,29,55,065,25,35,55,201,22,45,47,144,24,5*7B
$GBGSV,2,2,06,24,19,307,18,44,11,218,16,5*7B
$GNGLL,4910.424490,N,12304.404258,W,000057.000,A,D*5A
$GNRMC,000058.000,A,4910.424490,N,12304.404300,W,0.01,237.02,090125,,,D,V*1E
$GNGGA,000058.000,4910.424490,N,12304.404300,W,2,44,0.53,10.018,M,-16.816,M,,*71
$GNVTG,237.02,T,,M,0.01,N,0.02,K,D*21
$GNGSA,A,3,19,24,06,12,17,11,14,03,32,,,,0.90,0.53,0.73,1*00
$GNGSA,A,3,76,86,85,75,68,,,,,,,,0.90,0.53,0.73,2*07
$GNGSA,A,3,24,12,25,33,10,31,03,05,08,,,,0.90,0.53,0.73,3*07
$GNGSA,A,3,26,29,35,45,24,,,,,,,,0.90,0.53,0.73,4*01
$GPGSV,3,1,11,19,67,062,35,24,55,246,34,06,51,135,32,12,42,292,35,1*62
$GPGSV,3,2,11,17,35,060,32,46,33,188,30,11,26,172,26,14,11,108,26,1*6E
$GPGSV,3,3,11,03,10,046,26,32,08,331,29,25,04,292,21,1*5A
$GPGSV,1,1,03,24,55,246,28,06,51,135,28,11,26,172,19,8*55
$GLGSV,3,1,09,76,83,057,30,86,72,149,27,77,41,316,19,85,38,038,18,1*77
$GLGSV,3,2,09,87,29,197,19,75,25,126,22,68,13,338,18,67,08,292,,1*7E
$GLGSV,3,3,09,69,02,023,,1*4D
$GAGSV,3,1,10,24,84,034,33,12,48,132,27,25,36,291,28,33,36,053,30,7*75
$GAGSV,3,2,10,10,35,160,29,31,33,102,28,03,21,290,22,11,14,179,20,7*70
$GAGSV,3,3,10,05,13,239,23,08,08,337,20,7*79
$GAGSV,3,1,09,24,84,034,22,12,48,132,23,25,36,291,22,33,36,053,21,1*75
$GAGSV,3,2,09,10,35,160,20,31,33,102,21,03,21,290,16,11,14,179,15,1*7F
$GAGSV,3,3,09,05,13,239,16,1*44
$GBGSV,3,1,10,26,68,283,31,29,55,065,27,35,55,201,29,45,47,144,27,1*71
$GBGSV,3,2,10,24,19,307,25,44,11,218,23,39,06,329,21,30,04,046,13,1*71
$GBGSV,3,3,10,41,02,354,,36,01,135,,1*71
$GBGSV,2,1,06,26,68,283,22,29,55,065,25,35,55,201,22,45,47,144,24,5*7B
$GBGSV,2,2,06,24,19,307,18,44,11,218,16,5*7B
$GNGLL,4910.424490,N,12304.404300,W,000058.000,A,D*59
$GNRMC,000059.000,A,4910.424526,N,12304.404360,W,0.01,237.02,090125,,,D,V*15
$GNGGA,000059.000,4910.424526,N,12304.404360,W,2,44,0.53,9.838,M,-16.816,M,,*48
$GNVTG,237.02,T,,M,0.01,N,0.02,K,D*21
$GNGSA,A,3,19,24,06,12,17,11,14,03,32,,,,0.90,0.53,0.73,1*00
$GNGSA,A,3,76,86,85,75,68,,,,,,,,0.90,0.53,0.73,2*07
$GNGSA,A,3,24,12,25,33,10,31,03,05,08,,,,0.90,0.53,0.73,3*07
$GNGSA,A,3,26,35,29,45,24,,,,,,,,0.90,0.53,0.73,4*01
$GPGSV,3,1,11,19,67,062,35,24,55,246,35,06,51,135,33,12,42,292,35,1*62
$GPGSV,3,2,11,17,35,060,32,46,33,188,30,11,26,172,27,14,11,108,26,1*6F
$GPGSV,3,3,11,03,10,046,26,32,08,331,29,25,04,292,21,1*5A
$GPGSV,1,1,03,24,55,246,28,06,51,135,28,11,26,172,19,8*55
$GLGSV,3,1,09,76,83,057,30,86,72,149,26,77,41,316,19,85,38,038,18,1*76
$GLGSV,3,2,09,87,29,197,19,75,25,126,22,68,13,338,18,67,08,292,,1*7E
$GLGSV,3,3,09,69,02,023,,1*4D
$GAGSV,3,1,10,24,84,034,33,12,48,132,27,25,36,291,28,33,36,053,30,7*75
$GAGSV,3,2,10,10,35,160,29,31,33,102,28,03,21,290,22,11,14,179,20,7*70
$GAGSV,3,3,10,05,13,239,23,08,08,337,20,7*79
$GAGSV,3,1,09,24,84,034,22,12,48,132,22,25,36,291,22,33,36,053,21,1*74
$GAGSV,3,2,09,10,35,160,19,31,33,102,21,03,21,290,16,11,14,179,15,1*75
$GAGSV,3,3,09,05,13,239,16,1*44
$GBGSV,3,1,10,26,68,283,31,35,55,201,29,29,55,065,27,45,47,144,27,1*71
$GBGSV,3,2,10,24,19,307,25,44,11,218,23,57,08,025,,39,06,329,21,1*7B
$GBGSV,3,3,10,30,04,046,14,36,01,135,,1*74
$GBGSV,2,1,06,26,68,283,22,29,55,065,25,35,55,201,22,45,47,144,24,5*7B
$GBGSV,2,2,06,24,19,307,18,44,11,218,15,5*78
$GNGLL,4910.424526,N,12304.404360,W,000059.000,A,D*52
$GNRMC,000100.000,A,4910.424508,N,12304.404456,W,0.01,237.02,090125,,,D,V*16
