$GNGGA,000030.000,4910.426830,N,12304.398732,W,2,31,0.48,6.548,M,-16.816,M,,*43
$GNGLL,4910.426830,N,12304.398732,W,000030.000,A,D*54
$GNGSA,A,3,19,24,06,12,17,11,14,03,32,,,,0.82,0.48,0.67,1*0C
$GNGSA,A,3,76,86,85,87,75,68,67,,,,,,0.82,0.48,0.67,2*05
$GNGSA,A,3,24,12,25,33,10,31,03,05,,,,,0.82,0.48,0.67,3*03
$GNGSA,A,3,26,35,29,45,24,44,39,,,,,,0.82,0.48,0.67,4*07
$GPGSV,3,1,11,19,67,062,34,24,55,246,34,06,50,135,33,12,42,292,33,1*65
$GPGSV,3,2,11,17,35,060,30,46,33,188,31,11,26,172,29,14,11,108,27,1*63
$GPGSV,3,3,11,03,10,046,17,32,08,331,25,25,04,292,20,1*55
$GLGSV,2,1,07,76,83,061,36,86,73,148,37,85,37,038,27,87,29,197,25,1*7C
$GLGSV,2,2,07,75,25,127,29,68,13,338,27,67,08,291,19,1*4F
$GAGSV,3,1,10,24,84,038,30,12,49,131,26,25,37,291,25,33,36,053,28,7*7C
$GAGSV,3,2,10,10,35,160,27,31,33,102,26,03,21,289,19,11,15,179,18,7*7A
$GAGSV,3,3,10,05,13,238,19,08,08,337,17,7*75
$GBGSV,3,1,11,26,68,283,36,35,55,201,34,29,55,065,34,45,47,144,34,1*7B
$GBGSV,3,2,11,24,19,307,28,44,11,218,27,57,08,025,,39,06,329,23,1*71
$GBGSV,3,3,11,30,04,046,16,41,02,354,,36,01,135,,1*42
$GNRMC,000030.000,A,4910.426830,N,12304.398732,W,0.02,126.58,090125,,,D,V*1C
$GNVTG,126.58,T,,M,0.02,N,0.04,K,D*28
$PAIRLOG,Full*51
$GNGGA,000031.000,4910.426704,N,12304.398660,W,2,31,0.48,6.504,M,-16.816,M,,*44
$GNGLL,4910.426704,N,12304.398660,W,000031.000,A,D*5B
$GNGSA,A,3,19,24,06,12,17,11,14,03,32,,,,0.82,0.48,0.67,1*0C
$GNGSA,A,3,76,86,85,87,75,68,67,,,,,,0.82,0.48,0.67,2*05
$GNGSA,A,3,24,12,25,33,10,31,03,05,,,,,0.82,0.48,0.67,3*03
$GNGSA,A,3,26,35,29,45,24,44,39,,,,,,0.82,0.48,0.67,4*07
$GPGSV,3,1,11,19,67,062,34,24,55,246,34,06,50,135,33,12,42,292,33,1*65
$GPGSV,3,2,11,17,35,060,30,46,33,188,31,11,26,172,29,14,11,108,27,1*63
$GPGSV,3,3,11,03,10,046,17,32,08,331,25,25,04,292,20,1*55
$GLGSV,2,1,07,76,83,061,36,86,73,148,37,85,37,038,27,87,29,197,25,1*7C
$GLGSV,2,2,07,75,25,127,29,68,13,338,27,67,08,291,18,1*4E
$GAGSV,3,1,10,24,84,038,30,12,49,131,26,25,37,291,25,33,36,053,28,7*7C
$GAGSV,3,2,10,10,35,160,27,31,33,102,26,03,21,289,19,11,15,179,18,7*7A
$GAGSV,3,3,10,05,13,238,20,08,08,337,17,7*7F
$GBGSV,3,1,11,26,68,283,36,35,55,201,34,29,55,065,34,45,47,144,34,1*7B
$GBGSV,3,2,11,24,19,307,28,44,11,218,27,57,08,025,,39,06,329,23,1*71
$GBGSV,3,3,11,30,04,046,15,41,02,354,,36,01,135,,1*41
$GNRMC,000031.000,A,4910.426704,N,12304.398660,W,0.03,126.58,090125,,,D,V*12
$GNVTG,126.58,T,,M,0.03,N,0.05,K,D*28
$PAIRLOG,Full*51
$GNGGA,000032.000,4910.426596,N,12304.398630,W,2,31,0.48,6.598,M,-16.817,M,,*4F
$GNGLL,4910.426596,N,12304.398630,W,000032.000,A,D*54
$GNGSA,A,3,19,24,06,12,17,11,14,03,32,,,,0.82,0.48,0.67,1*0C
$GNGSA,A,3,76,86,85,87,75,68,67,,,,,,0.82,0.48,0.67,2*05
$GNGSA,A,3,24,12,25,33,10,31,03,05,,,,,0.82,0.48,0.67,3*03
$GNGSA,A,3,26,35,29,45,24,44,39,,,,,,0.82,0.48,0.67,4*07
$GPGSV,3,1,11,19,67,062,34,24,55,246,34,06,50,135,33,12,42,292,34,1*62
$GPGSV,3,2,11,17,35,060,30,46,33,188,31,11,26,172,29,14,11,108,27,1*63
$GPGSV,3,3,11,03,10,046,17,32,08,331,25,25,04,292,20,1*55
$GLGSV,2,1,07,76,83,061,36,86,73,148,37,85,37,038,27,87,29,197,26,1*7F
$GLGSV,2,2,07,75,25,127,29,68,13,338,27,67,08,291,18,1*4E
$GAGSV,3,1,10,24,84,038,30,12,49,131,26,25,37,291,25,33,36,053,28,7*7C
$GAGSV,3,2,10,10,35,160,27,31,33,102,26,03,21,289,19,11,15,179,18,7*7A
$GAGSV,3,3,10,05,13,238,20,08,08,337,17,7*7F
$GBGSV,3,1,11,26,68,283,36,35,55,201,34,29,55,065,34,45,47,144,34,1*7B
$GBGSV,3,2,11,24,19,307,28,44,11,218,27,57,08,025,,39,06,329,23,1*71
$GBGSV,3,3,11,30,04,046,15,41,02,354,,36,01,135,,1*41
$GNRMC,000032.000,A,4910.426596,N,12304.398630,W,0.03,126.58,090125,,,D,V*1D
$GNVTG,126.58,T,,M,0.03,N,0.05,K,D*28
$PAIRLOG,Full*51
$GNGGA,000033.000,4910.426548,N,12304.398546,W,2,31,0.48,6.550,M,-16.817,M,,*4B
$GNGLL,4910.426548,N,12304.398546,W,000033.000,A,D*54
$GNGSA,A,3,19,24,06,12,17,11,14,03,32,,,,0.82,0.48,0.67,1*0C
$GNGSA,A,3,76,86,85,87,75,68,67,,,,,,0.82,0.48,0.67,2*05
$GNGSA,A,3,24,12,25,33,10,31,03,05,,,,,0.82,0.48,0.67,3*03
$GNGSA,A,3,26,35,29,45,24,44,39,,,,,,0.82,0.48,0.67,4*07
$GPGSV,3,1,11,19,67,062,34,24,55,246,34,06,50,135,33,12,42,292,34,1*62
$GPGSV,3,2,11,17,35,060,30,46,33,188,31,11,26,172,29,14,11,108,27,1*63
$GPGSV,3,3,11,03,10,046,17,32,08,331,27,25,04,292,20,1*57
$GLGSV,2,1,07,76,83,061,36,86,73,148,38,85,37,038,27,87,29,197,27,1*71
$GLGSV,2,2,07,75,25,127,29,68,13,338,27,67,08,291,18,1*4E
$GAGSV,3,1,10,24,84,038,30,12,49,131,26,25,37,291,25,33,36,053,28,7*7C
$GAGSV,3,2,10,10,35,160,27,31,33,102,27,03,21,289,19,11,15,179,18,7*7B
$GAGSV,3,3,10,05,13,238,20,08,08,337,17,7*7F
$GBGSV,3,1,11,26,68,283,36,35,55,201,34,29,55,065,33,45,47,144,34,1*7C
$GBGSV,3,2,11,24,19,307,28,44,11,218,27,57,08,025,,39,06,329,23,1*71
$GBGSV,3,3,11,30,04,046,17,41,02,354,,36,01,135,,1*43
$GNRMC,000033.000,A,4910.426548,N,12304.398546,W,0.03,126.58,090125,,,D,V*1D
$GNVTG,126.58,T,,M,0.03,N,0.05,K,D*28
$PAIRLOG,Full*51
$GNGGA,000034.000,4910.426416,N,12304.398594,W,2,31,0.48,6.512,M,-16.817,M,,*4F
$GNGLL,4910.426416,N,12304.398594,W,000034.000,A,D*56
$GNGSA,A,3,19,24,06,12,17,11,14,03,32,,,,0.82,0.48,0.67,1*0C
$GNGSA,A,3,76,86,85,87,75,68,67,,,,,,0.82,0.48,0.67,2*05
$GNGSA,A,3,24,12,25,33,10,31,03,05,,,,,0.82,0.48,0.67,3*03
$GNGSA,A,3,26,35,29,45,24,44,39,,,,,,0.82,0.48,0.67,4*07
$GPGSV,3,1,11,19,67,062,35,24,55,246,35,06,50,135,34,12,42,292,35,1*64
$GPGSV,3,2,11,17,35,060,31,46,33,188,31,11,26,172,29,14,11,108,28,1*6D
$GPGSV,3,3,11,03,10,046,18,32,08,331,27,25,04,292,20,1*58
$GLGSV,2,1,07,76,83,061,35,86,73,148,37,85,37,038,27,87,29,197,27,1*7D
$GLGSV,2,2,07,75,25,127,29,68,13,338,28,67,08,291,18,1*41
$GAGSV,3,1,10,24,84,038,31,12,49,131,26,25,37,291,26,33,36,053,29,7*7F
$GAGSV,3,2,10,10,35,160,28,31,33,102,27,03,21,289,20,11,15,179,18,7*7E
$GAGSV,3,3,10,05,13,238,21,08,08,337,17,7*7E
$GBGSV,3,1,11,26,68,283,36,35,55,201,34,29,55,065,33,45,47,144,34,1*7C
$GBGSV,3,2,11,24,19,307,28,44,11,218,27,57,08,025,,39,06,329,23,1*71
$GBGSV,3,3,11,30,04,046,15,41,02,354,,36,01,135,,1*41
$GNRMC,000034.000,A,4910.426416,N,12304.398594,W,0.02,126.58,090125,,,D,V*1E
$GNVTG,126.58,T,,M,0.02,N,0.04,K,D*28
$PAIRLOG,Full*51
$GNGGA,000035.000,4910.426260,N,12304.398678,W,2,31,0.48,6.574,M,-16.816,M,,*49
$GNGLL,4910.426260,N,12304.398678,W,000035.000,A,D*51
$GNGSA,A,3,19,24,06,12,17,11,14,03,32,,,,0.82,0.48,0.67,1*0C
$GNGSA,A,3,76,86,85,87,75,68,67,,,,,,0.82,0.48,0.67,2*05
$GNGSA,A,3,24,12,25,33,10,31,03,05,,,,,0.82,0.48,0.67,3*03
$GNGSA,A,3,26,35,29,45,24,44,39,,,,,,0.82,0.48,0.67,4*07
$GPGSV,3,1,11,19,67,062,34,24,55,246,34,06,50,135,33,12,42,292,35,1*63
$GPGSV,3,2,11,17,35,060,30,46,33,188,30,11,26,172,28,14,11,108,27,1*63
$GPGSV,3,3,11,03,10,046,18,32,08,331,25,25,04,292,20,1*5A
$GLGSV,2,1,07,76,83,061,35,86,73,148,37,85,37,038,26,87,29,197,26,1*7D
$GLGSV,2,2,07,75,25,127,28,68,13,338,28,67,08,291,18,1*40
$GAGSV,3,1,10,24,84,038,31,12,49,131,25,25,37,291,25,33,36,053,28,7*7E
$GAGSV,3,2,10,10,35,160,27,31,33,102,27,03,21,289,20,11,15,179,18,7*71
$GAGSV,3,3,10,05,13,238,20,08,08,337,17,7*7F
$GBGSV,3,1,11,26,68,283,36,35,55,201,34,29,55,065,34,45,47,144,34,1*7B
$GBGSV,3,2,11,24,19,307,28,44,11,218,27,57,08,025,,39,06,329,24,1*76
$GBGSV,3,3,11,30,04,046,16,41,02,354,,36,01,135,,1*42
$GNRMC,000035.000,A,4910.426260,N,12304.398678,W,0.03,126.58,090125,,,D,V*18
$GNVTG,126.58,T,,M,0.03,N,0.05,K,D*28
$PAIRLOG,Full*51
$GNGGA,000036.000,4910.426146,N,12304.398702,W,2,31,0.48,6.600,M,-16.816,M,,*41
$GNGLL,4910.426146,N,12304.398702,W,000036.000,A,D*59
$GNGSA,A,3,19,24,06,12,17,11,14,03,32,,,,0.82,0.48,0.67,1*0C
$GNGSA,A,3,76,86,85,87,75,68,67,,,,,,0.82,0.48,0.67,2*05
$GNGSA,A,3,24,12,25,33,10,31,03,05,,,,,0.82,0.48,0.67,3*03
$GNGSA,A,3,26,35,29,45,24,44,39,,,,,,0.82,0.48,0.67,4*07
$GPGSV,3,1,11,19,67,062,34,24,55,246,34,06,50,135,33,12,42,292,35,1*63
$GPGSV,3,2,11,17,35,060,30,46,33,188,30,11,26,172,28,14,11,108,27,1*63
$GPGSV,3,3,11,03,10,046,19,32,08,331,26,25,04,292,20,1*58
$GLGSV,2,1,07,76,83,061,34,86,73,148,37,85,37,038,27,87,29,197,26,1*7D
$GLGSV,2,2,07,75,25,127,28,68,13,338,28,67,08,291,18,1*40
$GAGSV,3,1,10,24,84,038,31,12,49,131,25,25,37,291,25,33,36,053,28,7*7E
$GAGSV,3,2,10,10,35,160,26,31,33,102,27,03,21,289,20,11,15,179,18,7*70
$GAGSV,3,3,10,05,13,238,20,08,08,337,17,7*7F
$GBGSV,3,1,11,26,68,283,36,35,55,201,34,29,55,065,34,45,47,144,34,1*7B
$GBGSV,3,2,11,24,19,307,28,44,11,218,27,57,08,025,,39,06,329,24,1*76
$GBGSV,3,3,11,30,04,046,16,41,02,354,,36,01,135,,1*42
$GNRMC,000036.000,A,4910.426146,N,12304.398702,W,0.03,126.58,090125,,,D,V*10
$GNVTG,126.58,T,,M,0.03,N,0.05,K,D*28
$PAIRLOG,Full*51
$GNGGA,000037.000,4910.426038,N,12304.398714,W,2,31,0.48,6.682,M,-16.816,M,,*45
$GNGLL,4910.426038,N,12304.398714,W,000037.000,A,D*57
$GNGSA,A,3,19,24,06,12,17,11,14,03,32,,,,0.82,0.48,0.67,1*0C
$GNGSA,A,3,76,86,85,87,75,68,67,,,,,,0.82,0.48,0.67,2*05
$GNGSA,A,3,24,12,25,33,10,31,03,05,,,,,0.82,0.48,0.67,3*03
$GNGSA,A,3,26,35,29,45,24,44,39,,,,,,0.82,0.48,0.67,4*07
$GPGSV,3,1,11,19,67,062,34,24,55,246,34,06,50,135,33,12,42,292,35,1*63
$GPGSV,3,2,11,17,35,060,30,46,33,188,30,11,26,172,28,14,11,108,27,1*63
$GPGSV,3,3,11,03,10,046,18,32,08,331,25,25,04,292,20,1*5A
$GLGSV,2,1,07,76,83,061,34,86,73,148,37,85,37,038,28,87,29,197,26,1*72
$GLGSV,2,2,07,75,25,127,28,68,13,338,28,67,08,291,18,1*40
$GAGSV,3,1,10,24,84,038,31,12,49,131,25,25,37,291,25,33,36,053,28,7*7E
$GAGSV,3,2,10,10,35,160,26,31,33,102,28,03,21,289,20,11,15,179,18,7*7F
$GAGSV,3,3,10,05,13,238,20,08,08,337,17,7*7F
$GBGSV,3,1,11,26,68,283,35,35,55,201,33,29,55,065,33,45,47,144,33,1*7F
$GBGSV,3,2,11,24,19,307,27,44,11,218,26,57,08,025,,39,06,329,23,1*7F
$GBGSV,3,3,11,30,04,046,16,41,02,354,,36,01,135,,1*42
$GNRMC,000037.000,A,4910.426038,N,12304.398714,W,0.03,126.58,090125,,,D,V*1E
$GNVTG,126.58,T,,M,0.03,N,0.05,K,D*28
$PAIRLOG,Full*51
$GNGGA,000038.000,4910.425978,N,12304.398762,W,2,31,0.48,6.762,M,-16.817,M,,*4B
$GNGLL,4910.425978,N,12304.398762,W,000038.000,A,D*57
$GNGSA,A,3,19,24,06,12,17,11,14,03,32,,,,0.82,0.48,0.67,1*0C
$GNGSA,A,3,76,86,85,87,75,68,67,,,,,,0.82,0.48,0.67,2*05
$GNGSA,A,3,24,12,25,33,10,31,03,05,,,,,0.82,0.48,0.67,3*03
$GNGSA,A,3,26,35,29,45,24,44,39,,,,,,0.82,0.48,0.67,4*07
$GPGSV,3,1,11,19,67,062,34,24,55,246,34,06,50,135,33,12,42,292,34,1*62
$GPGSV,3,2,11,17,35,060,30,46,33,188,30,11,26,172,28,14,11,108,27,1*63
$GPGSV,3,3,11,03,10,046,17,32,08,331,26,25,04,292,20,1*56
$GLGSV,2,1,07,76,83,061,34,86,73,148,37,85,37,038,28,87,29,197,26,1*72
$GLGSV,2,2,07,75,25,127,28,68,13,338,27,67,08,291,18,1*4F
$GAGSV,3,1,10,24,84,038,31,12,49,131,25,25,37,291,25,33,36,053,28,7*7E
$GAGSV,3,2,10,10,35,160,26,31,33,102,27,03,21,289,19,11,15,179,18,7*7A
$GAGSV,3,3,10,05,13,238,20,08,08,337,17,7*7F
$GBGSV,3,1,11,26,68,283,35,35,55,201,32,29,55,065,33,45,47,144,33,1*7E
$GBGSV,3,2,11,24,19,307,27,44,11,218,26,57,08,025,,39,06,329,22,1*7E
$GBGSV,3,3,11,30,04,046,16,41,02,354,,36,01,135,,1*42
$GNRMC,000038.000,A,4910.425978,N,12304.398762,W,0.02,126.58,090125,,,D,V*1F
$GNVTG,126.58,T,,M,0.02,N,0.04,K,D*28
$PAIRLOG,Full*51
$GNGGA,000039.000,4910.425954,N,12304.398666,W,2,31,0.48,6.887,M,-16.816,M,,*44
$GNGLL,4910.425954,N,12304.398666,W,000039.000,A,D*5D
$GNGSA,A,3,19,24,06,12,17,11,14,03,32,,,,0.82,0.48,0.67,1*0C
$GNGSA,A,3,76,86,85,87,75,68,67,,,,,,0.82,0.48,0.67,2*05
$GNGSA,A,3,24,12,25,10,33,31,03,05,,,,,0.82,0.48,0.67,3*03
$GNGSA,A,3,26,29,35,45,24,44,39,,,,,,0.82,0.48,0.67,4*07
$GPGSV,3,1,11,19,67,062,34,24,55,246,33,06,51,135,32,12,42,292,33,1*62
$GPGSV,3,2,11,17,35,060,30,46,33,188,30,11,26,172,28,14,11,108,25,1*61
$GPGSV,3,3,11,03,10,046,17,32,08,331,24,25,04,292,20,1*54
$GLGSV,2,1,07,76,83,063,34,86,73,147,37,85,37,038,28,87,29,197,26,1*7F
$GLGSV,2,2,07,75,24,127,28,68,13,337,27,67,07,291,18,1*4E
$GAGSV,3,1,10,24,84,040,29,12,49,131,24,25,37,291,24,10,36,160,25,7*75
$GAGSV,3,2,10,33,35,053,27,31,33,102,26,03,21,289,19,11,15,179,18,7*7A
$GAGSV,3,3,10,05,13,238,20,08,08,337,17,7*7F
$GBGSV,3,1,11,26,69,282,36,29,55,065,34,35,55,201,33,45,47,145,33,1*7A
$GBGSV,3,2,11,24,20,307,28,44,11,218,27,57,08,025,,39,06,329,23,1*7B
$GBGSV,3,3,11,30,04,046,16,41,02,354,,36,01,135,,1*42
$GNRMC,000039.000,A,4910.425954,N,12304.398666,W,0.02,126.58,090125,,,D,V*15
$GNVTG,126.58,T,,M,0.02,N,0.04,K,D*28
$PAIRLOG,Full*51
$GNGGA,000040.000,4910.425924,N,12304.398642,W,2,31,0.48,7.029,M,-16.817,M,,*47
$GNGLL,4910.425924,N,12304.398642,W,000040.000,A,D*52
$GNGSA,A,3,19,24,06,12,17,11,14,03,32,,,,0.82,0.48,0.67,1*0C
$GNGSA,A,3,76,86,85,87,75,68,67,,,,,,0.82,0.48,0.67,2*05
$GNGSA,A,3,24,12,25,10,33,31,03,05,,,,,0.82,0.48,0.67,3*03
$GNGSA,A,3,26,29,35,45,24,44,39,,,,,,0.82,0.48,0.67,4*07
$GPGSV,3,1,11,19,67,062,33,24,55,246,32,06,51,135,31,12,42,292,32,1*66
$GPGSV,3,2,11,17,35,060,29,46,33,188,29,11,26,172,27,14,11,108,23,1*68
$GPGSV,3,3,11,03,10,046,18,32,08,331,22,25,04,292,20,1*5D
$GLGSV,2,1,07,76,83,063,34,86,73,147,37,85,37,038,28,87,29,197,27,1*7E
$GLGSV,2,2,07,75,24,127,27,68,13,337,26,67,07,291,17,1*4F
$GAGSV,3,1,10,24,84,040,28,12,49,131,23,25,37,291,23,10,36,160,23,7*72
$GAGSV,3,2,10,33,35,053,26,31,33,102,25,03,21,289,18,11,15,179,17,7*76
$GAGSV,3,3,10,05,13,238,19,08,08,337,16,7*74
$GBGSV,3,1,11,26,69,282,35,29,55,065,33,35,55,201,32,45,47,145,32,1*7E
$GBGSV,3,2,11,24,20,307,27,44,11,218,26,57,08,025,,39,06,329,22,1*74
$GBGSV,3,3,11,30,04,046,16,41,02,354,,36,01,135,,1*42
$GNRMC,000040.000,A,4910.425924,N,12304.398642,W,0.01,126.58,090125,,,D,V*19
$GNVTG,126.58,T,,M,0.01,N,0.03,K,D*2C
$PAIRLOG,Full*51
$GNGGA,000041.000,4910.425900,N,12304.398618,W,2,31,0.48,7.238,M,-16.816,M,,*4C
$GNGLL,4910.425900,N,12304.398618,W,000041.000,A,D*5A
$GNGSA,A,3,19,24,06,12,17,11,14,03,32,,,,0.82,0.48,0.67,1*0C
$GNGSA,A,3,76,86,85,87,75,68,67,,,,,,0.82,0.48,0.67,2*05
$GNGSA,A,3,24,12,25,10,33,31,03,05,,,,,0.82,0.48,0.67,3*03
$GNGSA,A,3,26,29,35,45,24,44,39,,,,,,0.82,0.48,0.67,4*07
$GPGSV,3,1,11,19,67,062,33,24,55,246,31,06,51,135,31,12,42,292,31,1*66
$GPGSV,3,2,11,17,35,060,28,46,33,188,29,11,26,172,26,14,11,108,24,1*6F
$GPGSV,3,3,11,03,10,046,17,32,08,331,24,25,04,292,19,1*5E
$GLGSV,2,1,07,76,83,063,34,86,73,147,36,85,37,038,28,87,29,197,27,1*7F
$GLGSV,2,2,07,75,24,127,26,68,13,337,27,67,07,291,17,1*4F
$GAGSV,3,1,10,24,84,040,28,12,49,131,23,25,37,291,22,10,36,160,23,7*73
$GAGSV,3,2,10,33,35,053,25,31,33,102,25,03,21,289,17,11,15,179,16,7*7B
$GAGSV,3,3,10,05,13,238,19,08,08,337,16,7*74
$GBGSV,3,1,11,26,69,282,35,29,55,065,33,35,55,201,32,45,47,145,32,1*7E
$GBGSV,3,2,11,24,20,307,27,44,11,218,26,57,08,025,,39,06,329,22,1*74
$GBGSV,3,3,11,30,04,046,16,41,02,354,,36,01,135,,1*42
$GNRMC,000041.000,A,4910.425900,N,12304.398618,W,0.01,126.58,090125,,,D,V*11
$GNVTG,126.58,T,,M,0.01,N,0.03,K,D*2C
$PAIRLOG,Full*51
$GNGGA,000042.000,4910.425762,N,12304.398756,W,2,31,0.48,7.548,M,-16.817,M,,*4F
$GNGLL,4910.425762,N,12304.398756,W,000042.000,A,D*58
$GNGSA,A,3,19,24,06,12,17,11,14,03,32,,,,0.82,0.48,0.67,1*0C
$GNGSA,A,3,76,86,85,87,75,68,67,,,,,,0.82,0.48,0.67,2*05
$GNGSA,A,3,24,12,25,10,33,31,03,05,,,,,0.82,0.48,0.67,3*03
$GNGSA,A,3,26,29,35,45,24,44,39,,,,,,0.82,0.48,0.67,4*07
$GPGSV,3,1,11,19,67,062,33,24,55,246,32,06,51,135,31,12,42,292,31,1*65
$GPGSV,3,2,11,17,35,060,29,46,33,188,29,11,26,172,26,14,11,108,24,1*6E
$GPGSV,3,3,11,03,10,046,19,32,08,331,26,25,04,292,19,1*52
$GLGSV,2,1,07,76,83,063,34,86,73,147,36,85,37,038,28,87,29,197,27,1*7F
$GLGSV,2,2,07,75,24,127,26,68,13,337,27,67,07,291,17,1*4F
$GAGSV,3,1,10,24,84,040,28,12,49,131,23,25,37,291,22,10,36,160,23,7*73
$GAGSV,3,2,10,33,35,053,25,31,33,102,25,03,21,289,17,11,15,179,16,7*7B
$GAGSV,3,3,10,05,13,238,19,08,08,337,16,7*74
$GBGSV,3,1,11,26,69,282,35,29,55,065,33,35,55,201,32,45,47,145,32,1*7E
$GBGSV,3,2,11,24,20,307,27,44,11,218,26,57,08,025,,39,06,329,22,1*74
$GBGSV,3,3,11,30,04,046,16,41,02,354,,36,01,135,,1*42
$GNRMC,000042.000,A,4910.425762,N,12304.398756,W,0.02,126.58,090125,,,D,V*10
$GNVTG,126.58,T,,M,0.02,N,0.03,K,D*2F
$PAIRLOG,Full*51
$GNGGA,000043.000,4910.425714,N,12304.398690,W,2,31,0.48,7.831,M,-16.816,M,,*46
$GNGLL,4910.425714,N,12304.398690,W,000043.000,A,D*53
$GNGSA,A,3,19,24,06,12,17,11,14,03,32,,,,0.82,0.48,0.67,1*0C
$GNGSA,A,3,76,86,85,87,75,68,67,,,,,,0.82,0.48,0.67,2*05
$GNGSA,A,3,24,12,25,10,33,31,03,05,,,,,0.82,0.48,0.67,3*03
$GNGSA,A,3,26,29,35,45,24,44,39,,,,,,0.82,0.48,0.67,4*07
$GPGSV,3,1,11,19,67,062,33,24,55,246,32,06,51,135,31,12,42,292,30,1*64
$GPGSV,3,2,11,17,35,060,29,46,33,188,29,11,26,172,26,14,11,108,24,1*6E
$GPGSV,3,3,11,03,10,046,19,32,08,331,24,25,04,292,19,1*50
$GLGSV,2,1,07,76,83,063,34,86,73,147,35,85,37,038,28,87,29,197,27,1*7C
$GLGSV,2,2,07,75,24,127,25,68,13,337,27,67,07,291,17,1*4C
$GAGSV,3,1,10,24,84,040,28,12,49,131,23,25,37,291,22,10,36,160,23,7*73
$GAGSV,3,2,10,33,35,053,25,31,33,102,25,03,21,289,17,11,15,179,16,7*7B
$GAGSV,3,3,10,05,13,238,19,08,08,337,16,7*74
$GBGSV,3,1,11,26,69,282,35,29,55,065,33,35,55,201,32,45,47,145,32,1*7E
$GBGSV,3,2,11,24,20,307,26,44,11,218,26,57,08,025,,39,06,329,22,1*75
$GBGSV,3,3,11,30,04,046,16,41,02,354,,36,01,135,,1*42
$GNRMC,000043.000,A,4910.425714,N,12304.398690,W,0.02,126.58,090125,,,D,V*1B
$GNVTG,126.58,T,,M,0.02,N,0.04,K,D*28
$PAIRLOG,Full*51
$GNGGA,000044.000,4910.425630,N,12304.398774,W,2,31,0.48,8.060,M,-16.817,M,,*4F
$GNGLL,4910.425630,N,12304.398774,W,000044.000,A,D*58
$GNGSA,A,3,19,24,06,12,17,11,14,03,32,,,,0.82,0.48,0.67,1*0C
$GNGSA,A,3,76,86,85,87,75,68,67,,,,,,0.82,0.48,0.67,2*05
$GNGSA,A,3,24,12,25,10,33,31,03,05,,,,,0.82,0.48,0.67,3*03
$GNGSA,A,3,26,29,35,45,24,44,39,,,,,,0.82,0.48,0.67,4*07
$GPGSV,3,1,11,19,67,062,33,24,55,246,32,06,51,135,31,12,42,292,31,1*65
$GPGSV,3,2,11,17,35,060,29,46,33,188,29,11,26,172,25,14,11,108,27,1*6E
$GPGSV,3,3,11,03,10,046,19,32,08,331,26,25,04,292,19,1*52
$GLGSV,2,1,07,76,83,063,34,86,73,147,35,85,37,038,28,87,29,197,27,1*7C
$GLGSV,2,2,07,75,24,127,25,68,13,337,26,67,07,291,17,1*4D
$GAGSV,3,1,10,24,84,040,28,12,49,131,23,25,37,291,22,10,36,160,23,7*73
$GAGSV,3,2,10,33,35,053,25,31,33,102,25,03,21,289,17,11,15,179,16,7*7B
$GAGSV,3,3,10,05,13,238,19,08,08,337,16,7*74
$GBGSV,3,1,10,26,69,282,35,29,55,065,33,35,55,201,32,45,47,145,33,1*7E
$GBGSV,3,2,10,24,20,307,27,44,11,218,26,57,08,025,,39,06,329,22,1*75
$GBGSV,3,3,10,30,04,046,16,36,01,135,,1*76
$GNRMC,000044.000,A,4910.425630,N,12304.398774,W,0.02,126.58,090125,,,D,V*10
$GNVTG,126.58,T,,M,0.02,N,0.03,K,D*2F
$PAIRLOG,Full*51
$GNGGA,000045.000,4910.425522,N,12304.398894,W,2,31,0.48,8.214,M,-16.816,M,,*4F
$GNGLL,4910.425522,N,12304.398894,W,000045.000,A,D*58
$GNGSA,A,3,19,24,06,12,17,11,14,03,32,,,,0.82,0.48,0.67,1*0C
$GNGSA,A,3,76,86,85,87,75,68,67,,,,,,0.82,0.48,0.67,2*05
$GNGSA,A,3,24,12,25,10,33,31,03,05,,,,,0.82,0.48,0.67,3*03
$GNGSA,A,3,26,29,35,45,24,44,39,,,,,,0.82,0.48,0.67,4*07
$GPGSV,3,1,11,19,67,062,33,24,55,246,32,06,51,134,31,12,42,292,31,1*64
$GPGSV,3,2,11,17,35,060,29,46,33,188,29,11,26,172,27,14,11,108,27,1*6C
$GPGSV,3,3,11,03,10,046,17,32,08,331,26,25,04,292,19,1*5C
$GLGSV,2,1,07,76,83,063,34,86,73,147,35,85,37,038,28,87,29,197,27,1*7C
$GLGSV,2,2,07,75,24,127,25,68,13,337,26,67,07,291,17,1*4D
$GAGSV,3,1,10,24,84,040,28,12,49,131,23,25,37,291,22,10,36,160,22,7*72
$GAGSV,3,2,10,33,35,053,25,31,33,102,25,03,21,289,17,11,15,179,17,7*7A
$GAGSV,3,3,10,05,13,238,19,08,08,337,16,7*74
$GBGSV,3,1,11,26,69,282,35,29,55,065,33,35,55,201,32,45,47,145,32,1*7E
$GBGSV,3,2,11,24,20,307,27,44,11,218,26,57,08,025,,39,06,329,22,1*74
$GBGSV,3,3,11,30,04,046,16,41,02,354,,36,01,135,,1*42
$GNRMC,000045.000,A,4910.425522,N,12304.398894,W,0.01,126.58,090125,,,D,V*13
$GNVTG,126.58,T,,M,0.01,N,0.03,K,D*2C
$PAIRLOG,Full*51
$GNGGA,000046.000,4910.425366,N,12304.399116,W,2,31,0.48,8.404,M,-16.817,M,,*4E
$GNGLL,4910.425366,N,12304.399116,W,000046.000,A,D*5F
$GNGSA,A,3,19,24,06,12,17,11,14,03,32,,,,0.82,0.48,0.67,1*0C
$GNGSA,A,3,76,86,85,87,75,68,67,,,,,,0.82,0.48,0.67,2*05
$GNGSA,A,3,24,12,25,10,33,31,03,05,,,,,0.82,0.48,0.67,3*03
$GNGSA,A,3,26,29,35,45,24,44,39,,,,,,0.82,0.48,0.67,4*07
$GPGSV,3,1,11,19,67,062,33,24,55,246,32,06,51,134,31,12,42,292,32,1*67
$GPGSV,3,2,11,17,35,060,29,46,33,188,29,11,26,172,27,14,11,108,27,1*6C
$GPGSV,3,3,11,03,10,046,18,32,08,331,25,25,04,292,19,1*50
$GLGSV,2,1,07,76,83,063,35,86,73,147,35,85,37,038,28,87,29,197,27,1*7D
$GLGSV,2,2,07,75,24,127,25,68,13,337,26,67,07,291,17,1*4D
$GAGSV,3,1,10,24,84,040,28,12,49,131,23,25,37,291,23,10,36,160,23,7*72
$GAGSV,3,2,10,33,35,053,25,31,33,102,26,03,21,289,17,11,15,179,17,7*79
$GAGSV,3,3,10,05,13,238,19,08,08,337,16,7*74
$GBGSV,3,1,11,26,69,282,34,29,55,065,33,35,55,201,32,45,47,145,32,1*7F
$GBGSV,3,2,11,24,20,307,26,44,11,218,26,57,08,025,,39,06,329,21,1*76
$GBGSV,3,3,11,30,04,046,16,41,02,354,,36,01,135,,1*42
$GNRMC,000046.000,A,4910.425366,N,12304.399116,W,0.02,126.58,090125,,,D,V*17
$GNVTG,126.58,T,,M,0.02,N,0.03,K,D*2F
$PAIRLOG,Full*51
$GNGGA,000047.000,4910.425228,N,12304.399242,W,2,31,0.48,8.563,M,-16.816,M,,*47
$GNGLL,4910.425228,N,12304.399242,W,000047.000,A,D*57
$GNGSA,A,3,19,24,06,12,17,11,14,03,32,,,,0.82,0.48,0.67,1*0C
$GNGSA,A,3,76,86,85,87,75,68,67,,,,,,0.82,0.48,0.67,2*05
$GNGSA,A,3,24,12,25,10,33,31,03,05,,,,,0.82,0.48,0.67,3*03
$GNGSA,A,3,26,29,35,45,24,44,39,,,,,,0.82,0.48,0.67,4*07
$GPGSV,3,1,11,19,67,062,34,24,55,246,32,06,51,134,31,12,42,292,32,1*60
$GPGSV,3,2,11,17,35,060,29,46,33,188,29,11,26,172,27,14,11,108,26,1*6D
$GPGSV,3,3,11,03,10,046,20,32,08,331,28,25,04,292,19,1*56
$GLGSV,2,1,07,76,83,063,35,86,73,147,36,85,37,038,28,87,29,197,26,1*7F
$GLGSV,2,2,07,75,24,127,25,68,13,337,27,67,07,291,17,1*4C
$GAGSV,3,1,10,24,84,040,29,12,49,131,23,25,37,291,24,10,36,160,24,7*73
$GAGSV,3,2,10,33,35,053,26,31,33,102,26,03,21,289,18,11,15,179,17,7*75
$GAGSV,3,3,10,05,13,238,19,08,08,337,17,7*75
$GBGSV,3,1,11,26,69,282,34,29,55,065,33,35,55,201,32,45,47,145,32,1*7F
$GBGSV,3,2,11,24,20,307,26,44,11,218,26,57,08,025,,39,06,329,22,1*75
$GBGSV,3,3,11,30,04,046,15,41,02,354,,36,01,135,,1*41
$GNRMC,000047.000,A,4910.425228,N,12304.399242,W,0.02,126.58,090125,,,D,V*1F
$GNVTG,126.58,T,,M,0.02,N,0.04,K,D*28
$PAIRLOG,Full*51
$GNGGA,000048.000,4910.425174,N,12304.399242,W,2,31,0.48,8.644,M,-16.817,M,,*45
$GNGLL,4910.425174,N,12304.399242,W,000048.000,A,D*52
$GNGSA,A,3,19,24,06,12,17,11,14,03,32,,,,0.82,0.48,0.67,1*0C
$GNGSA,A,3,76,86,85,87,75,68,67,,,,,,0.82,0.48,0.67,2*05
$GNGSA,A,3,24,12,25,10,33,31,03,05,,,,,0.82,0.48,0.67,3*03
$GNGSA,A,3,26,29,35,45,24,44,39,,,,,,0.82,0.48,0.67,4*07
$GPGSV,3,1,11,19,67,062,34,24,55,246,31,06,51,134,31,12,42,292,31,1*60
$GPGSV,3,2,11,17,35,060,28,46,33,188,29,11,26,172,25,14,11,108,25,1*6D
$GPGSV,3,3,11,03,10,046,17,32,08,331,26,25,04,292,19,1*5C
$GLGSV,2,1,07,76,83,063,34,86,73,147,36,85,37,038,28,87,29,197,26,1*7E
$GLGSV,2,2,07,75,24,127,23,68,13,337,26,67,07,291,16,1*4A
$GAGSV,3,1,10,24,84,040,28,12,49,131,23,25,37,291,23,10,36,160,24,7*75
$GAGSV,3,2,10,33,35,053,25,31,33,102,26,03,21,289,18,11,15,179,17,7*76
$GAGSV,3,3,10,05,13,238,19,08,08,337,17,7*75
$GBGSV,3,1,11,26,69,282,34,29,55,065,33,35,55,201,32,45,47,145,32,1*7F
$GBGSV,3,2,11,24,20,307,27,44,11,218,26,57,08,025,,39,06,329,22,1*74
$GBGSV,3,3,11,30,04,046,15,41,02,354,,36,01,135,,1*41
$GNRMC,000048.000,A,4910.425174,N,12304.399242,W,0.02,126.58,090125,,,D,V*1A
$GNVTG,126.58,T,,M,0.02,N,0.03,K,D*2F
$PAIRLOG,Full*51
$GNGGA,000049.000,4910.425102,N,12304.399290,W,2,31,0.48,8.726,M,-16.816,M,,*4E
$GNGLL,4910.425102,N,12304.399290,W,000049.000,A,D*5D
$GNGSA,A,3,19,24,06,12,17,11,14,03,32,,,,0.82,0.48,0.67,1*0C
$GNGSA,A,3,76,86,85,87,75,68,67,,,,,,0.82,0.48,0.67,2*05
$GNGSA,A,3,24,12,25,10,33,31,03,05,,,,,0.82,0.48,0.67,3*03
$GNGSA,A,3,26,29,35,45,24,44,39,,,,,,0.82,0.48,0.67,4*07
$GPGSV,3,1,11,19,67,062,34,24,55,246,31,06,51,134,31,12,42,292,31,1*60
$GPGSV,3,2,11,17,35,060,28,46,33,188,29,11,26,172,25,14,11,108,25,1*6D
$GPGSV,3,3,11,03,10,046,19,32,08,331,25,25,04,292,18,1*50
$GLGSV,2,1,07,76,83,063,34,86,73,147,36,85,37,038,27,87,29,197,26,1*71
$GLGSV,2,2,07,75,24,127,23,68,13,337,26,67,07,291,16,1*4A
$GAGSV,3,1,10,24,84,040,28,12,49,131,23,25,37,291,22,10,36,160,24,7*74
$GAGSV,3,2,10,33,35,053,25,31,33,102,26,03,21,289,18,11,15,179,17,7*76
$GAGSV,3,3,10,05,13,238,19,08,08,337,17,7*75
$GBGSV,3,1,11,26,69,282,34,29,55,065,33,35,55,201,32,45,47,145,32,1*7F
$GBGSV,3,2,11,24,20,307,27,44,11,218,26,57,08,025,,39,06,329,22,1*74
$GBGSV,3,3,11,30,04,046,15,41,02,354,,36,01,135,,1*41
$GNRMC,000049.000,A,4910.425102,N,12304.399290,W,0.02,126.58,090125,,,D,V*15
$GNVTG,126.58,T,,M,0.02,N,0.03,K,D*2F
$PAIRLOG,Full*51
$GNGGA,000050.000,4910.425042,N,12304.399314,W,2,31,0.48,8.825,M,-16.817,M,,*43
$GNGLL,4910.425042,N,12304.399314,W,000050.000,A,D*5D
$GNGSA,A,3,19,24,06,12,17,11,14,03,32,,,,0.82,0.48,0.67,1*0C
$GNGSA,A,3,76,86,85,87,75,68,67,,,,,,0.82,0.48,0.67,2*05
$GNGSA,A,3,24,12,25,10,33,31,03,05,,,,,0.82,0.48,0.67,3*03
$GNGSA,A,3,26,29,35,45,24,44,39,,,,,,0.82,0.48,0.67,4*07
$GPGSV,3,1,11,19,67,062,34,24,55,246,31,06,51,134,31,12,42,292,31,1*60
$GPGSV,3,2,11,17,35,060,28,46,33,188,29,11,26,172,25,14,11,108,25,1*6D
$GPGSV,3,3,11,03,10,046,19,32,08,331,25,25,04,292,18,1*50
$GLGSV,2,1,07,76,83,063,35,86,73,147,36,85,37,038,27,87,29,197,25,1*73
$GLGSV,2,2,07,75,24,127,23,68,13,337,26,67,07,291,16,1*4A
$GAGSV,3,1,10,24,84,040,28,12,49,131,23,25,37,291,22,10,36,160,24,7*74
$GAGSV,3,2,10,33,35,053,25,31,33,102,26,03,21,289,18,11,15,179,17,7*76
$GAGSV,3,3,10,05,13,238,19,08,08,337,17,7*75
$GBGSV,3,1,11,26,69,282,34,29,55,065,33,35,55,201,32,45,47,145,32,1*7F
$GBGSV,3,2,11,24,20,307,27,44,11,218,27,57,08,025,,39,06,329,22,1*75
$GBGSV,3,3,11,30,04,046,16,41,02,354,,36,01,135,,1*42
$GNRMC,000050.000,A,4910.425042,N,12304.399314,W,0.01,126.58,090125,,,D,V*16
$GNVTG,126.58,T,,M,0.01,N,0.02,K,D*2D
$PAIRLOG,Full*51
$GNGGA,000051.000,4910.424958,N,12304.399410,W,2,31,0.48,8.824,M,-16.817,M,,*43
$GNGLL,4910.424958,N,12304.399410,W,000051.000,A,D*5C
$GNGSA,A,3,19,24,06,12,17,11,14,03,32,,,,0.82,0.48,0.67,1*0C
$GNGSA,A,3,76,86,85,87,75,68,67,,,,,,0.82,0.48,0.67,2*05
$GNGSA,A,3,24,12,25,10,33,31,03,05,,,,,0.82,0.48,0.67,3*03
$GNGSA,A,3,26,29,35,45,24,44,39,,,,,,0.82,0.48,0.67,4*07
$GPGSV,3,1,11,19,67,062,34,24,55,246,31,06,51,134,31,12,42,292,31,1*60
$GPGSV,3,2,11,17,35,060,28,46,33,188,29,11,26,172,25,14,11,108,25,1*6D
$GPGSV,3,3,11,03,10,046,20,32,08,331,25,25,04,292,18,1*5A
$GLGSV,2,1,07,76,83,063,35,86,73,147,35,85,37,038,27,87,29,197,25,1*70
$GLGSV,2,2,07,75,24,127,22,68,13,337,26,67,07,291,16,1*4B
$GAGSV,3,1,10,24,84,040,28,12,49,131,23,25,37,291,22,10,36,160,23,7*73
$GAGSV,3,2,10,33,35,053,25,31,33,102,25,03,21,289,18,11,15,179,17,7*75
$GAGSV,3,3,10,05,13,238,18,08,08,337,16,7*75
$GBGSV,3,1,11,26,69,282,34,29,55,065,32,35,55,201,32,45,47,145,32,1*7E
$GBGSV,3,2,11,24,20,307,26,44,11,218,27,57,08,025,,39,06,329,22,1*74
$GBGSV,3,3,11,30,04,046,16,41,02,354,,36,01,135,,1*42
$GNRMC,000051.000,A,4910.424958,N,12304.399410,W,0.01,126.58,090125,,,D,V*17
$GNVTG,126.58,T,,M,0.01,N,0.01,K,D*2E
$PAIRLOG,Full*51
$GNGGA,000052.000,4910.424814,N,12304.399668,W,2,31,0.48,8.915,M,-16.816,M,,*46
$GNGLL,4910.424814,N,12304.399668,W,000052.000,A,D*5B
$GNGSA,A,3,19,24,06,12,17,11,14,03,32,,,,0.82,0.48,0.67,1*0C
$GNGSA,A,3,76,86,85,87,75,68,67,,,,,,0.82,0.48,0.67,2*05
$GNGSA,A,3,24,12,25,10,33,31,03,05,,,,,0.82,0.48,0.67,3*03
$GNGSA,A,3,26,29,35,45,24,44,39,,,,,,0.82,0.48,0.67,4*07
$GPGSV,3,1,11,19,67,062,34,24,55,246,32,06,51,134,31,12,42,292,31,1*63
$GPGSV,3,2,11,17,35,060,28,46,33,188,29,11,26,172,26,14,11,108,25,1*6E
$GPGSV,3,3,11,03,10,046,20,32,08,331,25,25,04,292,18,1*5A
$GLGSV,2,1,07,76,83,063,35,86,73,147,35,85,37,038,26,87,29,197,25,1*71
$GLGSV,2,2,07,75,24,127,22,68,13,337,26,67,07,291,16,1*4B
$GAGSV,3,1,10,24,84,040,28,12,49,131,23,25,37,291,21,10,36,160,23,7*70
$GAGSV,3,2,10,33,35,053,25,31,33,102,26,03,21,289,18,11,15,179,17,7*76
$GAGSV,3,3,10,05,13,238,18,08,08,337,14,7*77
$GBGSV,3,1,11,26,69,282,34,29,55,065,32,35,55,201,32,45,47,145,32,1*7E
$GBGSV,3,2,11,24,20,307,26,44,11,218,27,57,08,025,,39,06,329,22,1*74
$GBGSV,3,3,11,30,04,046,15,41,02,354,,36,01,135,,1*41
$GNRMC,000052.000,A,4910.424814,N,12304.399668,W,0.02,126.58,090125,,,D,V*13
$GNVTG,126.58,T,,M,0.02,N,0.03,K,D*2F
$PAIRLOG,Full*51
$GNGGA,000053.000,4910.424736,N,12304.399848,W,2,31,0.48,8.935,M,-16.817,M,,*47
$GNGLL,4910.424736,N,12304.399848,W,000053.000,A,D*59
$GNGSA,A,3,19,24,06,12,17,11,14,03,32,,,,0.82,0.48,0.67,1*0C
$GNGSA,A,3,76,86,85,87,75,68,67,,,,,,0.82,0.48,0.67,2*05
$GNGSA,A,3,24,12,25,10,33,31,03,05,,,,,0.82,0.48,0.67,3*03
$GNGSA,A,3,26,29,35,45,24,44,39,,,,,,0.82,0.48,0.67,4*07
$GPGSV,3,1,11,19,67,062,33,24,55,246,32,06,51,134,31,12,42,292,31,1*64
$GPGSV,3,2,11,17,35,060,28,46,33,188,29,11,26,172,25,14,11,108,25,1*6D
$GPGSV,3,3,11,03,10,046,20,32,08,331,25,25,04,292,18,1*5A
$GLGSV,2,1,07,76,83,063,34,86,73,147,35,85,37,038,26,87,29,197,24,1*71
$GLGSV,2,2,07,75,24,127,22,68,13,337,25,67,07,291,16,1*48
$GAGSV,3,1,10,24,84,040,28,12,49,131,22,25,37,291,21,10,36,160,23,7*71
$GAGSV,3,2,10,33,35,053,25,31,33,102,25,03,21,289,18,11,15,179,17,7*75
$GAGSV,3,3,10,05,13,238,18,08,08,337,14,7*77
$GBGSV,3,1,11,26,69,282,34,29,55,065,31,35,55,201,31,45,47,145,31,1*7D
$GBGSV,3,2,11,24,20,307,25,44,11,218,26,57,08,025,,39,06,329,22,1*76
$GBGSV,3,3,11,30,04,046,16,41,02,354,,36,01,135,,1*42
$GNRMC,000053.000,A,4910.424736,N,12304.399848,W,0.02,126.58,090125,,,D,V*11
$GNVTG,126.58,T,,M,0.02,N,0.04,K,D*28
$PAIRLOG,Full*51
$GNGGA,000054.000,4910.424664,N,12304.400022,W,2,31,0.48,8.978,M,-16.816,M,,*4D
$GNGLL,4910.424664,N,12304.400022,W,000054.000,A,D*5B
$GNGSA,A,3,19,24,06,12,17,11,14,03,32,,,,0.82,0.48,0.67,1*0C
$GNGSA,A,3,76,86,85,87,75,68,67,,,,,,0.82,0.48,0.67,2*05
$GNGSA,A,3,24,12,25,10,33,31,03,05,,,,,0.82,0.48,0.67,3*03
$GNGSA,A,3,26,29,35,45,24,44,39,,,,,,0.82,0.48,0.67,4*07
$GPGSV,3,1,11,19,67,062,33,24,55,246,32,06,51,134,31,12,42,292,31,1*64
$GPGSV,3,2,11,17,35,060,28,46,33,188,29,11,26,172,24,14,11,108,25,1*6C
$GPGSV,3,3,11,03,10,046,20,32,08,331,25,25,04,292,18,1*5A
$GLGSV,2,1,07,76,83,063,34,86,73,147,35,85,37,038,26,87,29,197,24,1*71
$GLGSV,2,2,07,75,24,127,22,68,13,337,26,67,07,291,16,1*4B
$GAGSV,3,1,10,24,84,040,28,12,49,131,22,25,37,291,21,10,36,160,23,7*71
$GAGSV,3,2,10,33,35,053,25,31,33,102,25,03,21,289,18,11,15,179,17,7*75
$GAGSV,3,3,10,05,13,238,18,08,08,337,14,7*77
$GBGSV,3,1,11,26,69,282,34,29,55,065,31,35,55,201,31,45,47,145,31,1*7D
$GBGSV,3,2,11,24,20,307,25,44,11,218,26,57,08,025,,39,06,329,22,1*76
$GBGSV,3,3,11,30,04,046,16,41,02,354,,36,01,135,,1*42
$GNRMC,000054.000,A,4910.424664,N,12304.400022,W,0.02,126.58,090125,,,D,V*13
$GNVTG,126.58,T,,M,0.02,N,0.04,K,D*28
$PAIRLOG,Full*51
$GNGGA,000055.000,4910.424586,N,12304.400232,W,2,31,0.48,8.963,M,-16.816,M,,*4A
$GNGLL,4910.424586,N,12304.400232,W,000055.000,A,D*56
$GNGSA,A,3,19,24,06,12,17,11,14,03,32,,,,0.82,0.48,0.67,1*0C
$GNGSA,A,3,76,86,85,87,75,68,67,,,,,,0.82,0.48,0.67,2*05
$GNGSA,A,3,24,12,25,10,33,31,03,05,,,,,0.82,0.48,0.67,3*03
$GNGSA,A,3,26,29,35,45,24,44,39,,,,,,0.82,0.48,0.67,4*07
$GPGSV,3,1,11,19,67,062,33,24,55,246,32,06,51,134,31,12,42,292,31,1*64
$GPGSV,3,2,11,17,35,060,28,46,33,188,29,11,26,172,25,14,11,108,25,1*6D
$GPGSV,3,3,11,03,10,046,21,32,08,331,25,25,04,292,18,1*5B
$GLGSV,2,1,07,76,83,063,34,86,73,147,35,85,37,038,26,87,29,197,24,1*71
$GLGSV,2,2,07,75,24,127,22,68,13,337,25,67,07,291,16,1*48
$GAGSV,3,1,10,24,84,040,28,12,49,131,22,25,37,291,21,10,36,160,22,7*70
$GAGSV,3,2,10,33,35,053,25,31,33,102,25,03,21,289,18,11,15,179,17,7*75
$GAGSV,3,3,10,05,13,238,18,08,08,337,14,7*77
$GBGSV,3,1,11,26,69,282,34,29,55,065,31,35,55,201,31,45,47,145,31,1*7D
$GBGSV,3,2,11,24,20,307,27,44,11,218,26,57,08,025,,39,06,329,22,1*74
$GBGSV,3,3,11,30,04,046,16,41,02,354,,36,01,135,,1*42
$GNRMC,000055.000,A,4910.424586,N,12304.400232,W,0.03,126.58,090125,,,D,V*1F
$GNVTG,126.58,T,,M,0.03,N,0.05,K,D*28
$PAIRLOG,Full*51
$GNGGA,000056.000,4910.424538,N,12304.400484,W,2,31,0.48,8.979,M,-16.816,M,,*4C
$GNGLL,4910.424538,N,12304.400484,W,000056.000,A,D*5B
$GNGSA,A,3,19,24,06,12,17,11,14,03,32,,,,0.82,0.48,0.67,1*0C
$GNGSA,A,3,76,86,85,87,75,68,67,,,,,,0.82,0.48,0.67,2*05
$GNGSA,A,3,24,12,25,10,33,31,03,05,,,,,0.82,0.48,0.67,3*03
$GNGSA,A,3,26,29,35,45,24,44,39,,,,,,0.82,0.48,0.67,4*07
$GPGSV,3,1,11,19,67,062,33,24,55,246,31,06,51,134,31,12,42,292,31,1*67
$GPGSV,3,2,11,17,35,060,28,46,33,188,29,11,26,172,24,14,11,108,25,1*6C
$GPGSV,3,3,11,03,10,046,21,32,08,331,25,25,04,292,18,1*5B
$GLGSV,2,1,07,76,83,063,34,86,73,147,35,85,37,038,26,87,29,197,24,1*71
$GLGSV,2,2,07,75,24,127,21,68,13,337,25,67,07,291,16,1*4B
$GAGSV,3,1,10,24,84,040,28,12,49,131,22,25,37,291,21,10,36,160,23,7*71
$GAGSV,3,2,10,33,35,053,25,31,33,102,25,03,21,289,18,11,15,179,17,7*75
$GAGSV,3,3,10,05,13,238,18,08,08,337,14,7*77
$GBGSV,3,1,11,26,69,282,34,29,55,065,32,35,55,201,31,45,47,145,31,1*7E
$GBGSV,3,2,11,24,20,307,27,44,11,218,26,57,08,025,,39,06,329,22,1*74
$GBGSV,3,3,11,30,04,046,16,41,02,354,,36,01,135,,1*42
$GNRMC,000056.000,A,4910.424538,N,12304.400484,W,0.03,126.58,090125,,,D,V*12
$GNVTG,126.58,T,,M,0.03,N,0.05,K,D*28
$PAIRLOG,Full*51
$GNGGA,000057.000,4910.424490,N,12304.400628,W,2,31,0.48,9.007,M,-16.817,M,,*4A
$GNGLL,4910.424490,N,12304.400628,W,000057.000,A,D*5D
$GNGSA,A,3,19,24,06,12,17,11,14,03,32,,,,0.82,0.48,0.67,1*0C
$GNGSA,A,3,76,86,85,87,75,68,67,,,,,,0.82,0.48,0.67,2*05
$GNGSA,A,3,24,12,25,10,33,31,03,05,,,,,0.82,0.48,0.67,3*03
$GNGSA,A,3,26,29,35,45,24,44,39,,,,,,0.82,0.48,0.67,4*07
$GPGSV,3,1,11,19,67,062,33,24,55,246,31,06,51,134,31,12,42,292,31,1*67
$GPGSV,3,2,11,17,35,060,28,46,33,188,29,11,26,172,24,14,11,108,25,1*6C
$GPGSV,3,3,11,03,10,046,23,32,08,331,25,25,04,292,18,1*59
$GLGSV,2,1,07,76,83,063,34,86,73,147,35,85,37,038,26,87,29,197,23,1*76
$GLGSV,2,2,07,75,24,127,21,68,13,337,25,67,07,291,16,1*4B
$GAGSV,3,1,10,24,84,040,28,12,49,131,22,25,37,291,21,10,36,160,22,7*70
$GAGSV,3,2,10,33,35,053,25,31,33,102,26,03,21,289,18,11,15,179,17,7*76
$GAGSV,3,3,10,05,13,238,18,08,08,337,15,7*76
$GBGSV,3,1,11,26,69,282,33,29,55,065,32,35,55,201,31,45,47,145,31,1*79
$GBGSV,3,2,11,24,20,307,26,44,11,218,26,57,08,025,,39,06,329,22,1*75
$GBGSV,3,3,11,30,04,046,16,41,02,354,,36,01,135,,1*42
$GNRMC,000057.000,A,4910.424490,N,12304.400628,W,0.03,126.58,090125,,,D,V*14
$GNVTG,126.58,T,,M,0.03,N,0.05,K,D*28
$PAIRLOG,Full*51
$GNGGA,000058.000,4910.424478,N,12304.400778,W,2,31,0.48,9.040,M,-16.817,M,,*44
$GNGLL,4910.424478,N,12304.400778,W,000058.000,A,D*50
$GNGSA,A,3,19,24,06,12,17,11,14,03,32,,,,0.82,0.48,0.67,1*0C
$GNGSA,A,3,76,86,85,87,75,68,67,,,,,,0.82,0.48,0.67,2*05
$GNGSA,A,3,24,12,25,10,33,31,03,05,,,,,0.82,0.48,0.67,3*03
$GNGSA,A,3,26,29,35,45,24,44,39,,,,,,0.82,0.48,0.67,4*07
$GPGSV,3,1,11,19,67,062,33,24,55,246,31,06,51,134,31,12,42,292,31,1*67
$GPGSV,3,2,11,17,35,060,28,46,33,188,29,11,26,172,24,14,11,108,25,1*6C
$GPGSV,3,3,11,03,10,046,23,32,08,331,25,25,04,292,18,1*59
$GLGSV,2,1,07,76,83,063,35,86,73,147,35,85,37,038,27,87,29,197,23,1*76
$GLGSV,2,2,07,75,24,127,21,68,13,337,25,67,07,291,17,1*4A
$GAGSV,3,1,10,24,84,040,28,12,49,131,22,25,37,291,22,10,36,160,22,7*73
$GAGSV,3,2,10,33,35,053,24,31,33,102,26,03,21,289,18,11,15,179,17,7*77
$GAGSV,3,3,10,05,13,238,18,08,08,337,16,7*75
$GBGSV,3,1,11,26,69,282,33,29,55,065,32,35,55,201,31,45,47,145,31,1*79
$GBGSV,3,2,11,24,20,307,26,44,11,218,26,57,08,025,,39,06,329,22,1*75
$GBGSV,3,3,11,30,04,046,16,41,02,354,,36,01,135,,1*42
$GNRMC,000058.000,A,4910.424478,N,12304.400778,W,0.03,126.58,090125,,,D,V*19
$GNVTG,126.58,T,,M,0.03,N,0.05,K,D*28
$PAIRLOG,Full*51
$GNGGA,000059.000,4910.424460,N,12304.400904,W,2,31,0.48,8.978,M,-16.816,M,,*4B
$GNGLL,4910.424460,N,12304.400904,W,000059.000,A,D*5D
$GNGSA,A,3,19,24,06,12,17,11,14,03,32,,,,0.82,0.48,0.67,1*0C
$GNGSA,A,3,76,86,85,87,75,68,67,,,,,,0.82,0.48,0.67,2*05
$GNGSA,A,3,24,12,25,10,33,31,03,05,,,,,0.82,0.48,0.67,3*03
$GNGSA,A,3,26,29,35,45,24,44,39,,,,,,0.82,0.48,0.67,4*07
$GPGSV,3,1,11,19,67,062,33,24,55,246,31,06,51,134,31,12,42,292,31,1*67
$GPGSV,3,2,11,17,35,060,28,46,33,188,29,11,26,172,24,14,11,108,25,1*6C
$GPGSV,3,3,11,03,10,046,23,32,08,331,25,25,04,292,18,1*59
$GLGSV,2,1,07,76,83,063,34,86,73,147,35,85,37,038,27,87,29,197,23,1*77
$GLGSV,2,2,07,75,24,127,21,68,13,337,25,67,07,291,17,1*4A
$GAGSV,3,1,10,24,84,040,28,12,49,131,22,25,37,291,22,10,36,160,22,7*73
$GAGSV,3,2,10,33,35,053,24,31,33,102,26,03,21,289,19,11,15,179,17,7*76
$GAGSV,3,3,10,05,13,238,18,08,08,337,17,7*74
$GBGSV,3,1,11,26,69,282,32,29,55,065,32,35,55,201,31,45,47,145,31,1*78
$GBGSV,3,2,11,24,20,307,26,44,11,218,25,57,08,025,,39,06,329,22,1*76
$GBGSV,3,3,11,30,04,046,16,41,02,354,,36,01,135,,1*42
$GNRMC,000059.000,A,4910.424460,N,12304.400904,W,0.02,126.58,090125,,,D,V*15
$GNVTG,126.58,T,,M,0.02,N,0.04,K,D*28
$PAIRLOG,Full*51
$GNGGA,000100.000,4910.424454,N,12304.401072,W,2,31,0.48,8.904,M,-16.816,M,,*43
