$GNGGA,011536.000,4910.427754,N,12304.400766,W,2,31,0.46,9.763,M,-16.816,M,,*41
$GNGLL,4910.427754,N,12304.400766,W,011536.000,A,D*5C
$GNGSA,A,3,19,17,22,24,14,06,12,13,15,02,30,,0.78,0.46,0.63,1*06
$GNGSA,A,3,82,80,79,,,,,,,,,,0.78,0.46,0.63,2*06
$GNGSA,A,3,27,30,34,29,15,19,36,07,,,,,0.78,0.46,0.63,3*0F
$GNGSA,A,3,45,29,26,30,35,36,14,42,33,,,,0.78,0.46,0.63,4*01
$GPGSV,3,1,12,19,74,182,39,17,64,067,39,22,59,079,38,24,46,297,37,1*65
$GPGSV,3,2,12,14,37,090,34,46,33,187,34,06,22,154,33,12,17,277,17,1*65
$GPGSV,3,3,12,13,16,208,30,15,16,243,28,02,13,035,29,30,05,145,28,1*66
$GLGSV,2,1,07,82,61,081,27,80,60,088,29,83,45,159,,72,20,321,18,1*71
$GLGSV,2,2,07,71,17,271,15,79,10,111,23,74,10,301,,1*40
$GAGSV,3,1,10,27,68,292,36,30,54,081,35,34,39,085,33,29,33,258,29,7*75
$GAGSV,3,2,10,15,25,145,28,19,24,309,21,21,16,276,17,36,16,032,25,7*78
$GAGSV,3,3,10,07,12,205,26,02,04,090,20,7*78
$GBGSV,3,1,09,45,76,127,40,29,64,119,39,26,44,299,38,30,27,048,35,1*76
$GBGSV,3,2,09,35,25,195,35,36,24,122,32,14,09,308,25,42,07,282,16,1*79
$GBGSV,3,3,09,33,07,332,29,1*41
$GNRMC,011536.000,A,4910.427754,N,12304.400766,W,0.01,29.77,051224,,,D,V*2B
$GNVTG,29.77,T,,M,0.01,N,0.02,K,D*1E
$GNGGA,011537.000,4910.427766,N,12304.400802,W,2,31,0.46,9.804,M,-16.816,M,,*42
$GNGLL,4910.427766,N,12304.400802,W,011537.000,A,D*51
$GNGSA,A,3,19,17,22,24,14,06,12,13,15,02,30,,0.78,0.46,0.63,1*06
$GNGSA,A,3,82,80,79,,,,,,,,,,0.78,0.46,0.63,2*06
$GNGSA,A,3,27,30,34,29,15,19,36,07,,,,,0.78,0.46,0.63,3*0F
$GNGSA,A,3,45,29,26,30,35,36,14,42,33,,,,0.78,0.46,0.63,4*01
$GPGSV,3,1,12,19,74,182,39,17,64,067,39,22,59,079,38,24,46,297,37,1*65
$GPGSV,3,2,12,14,37,090,34,46,33,187,34,06,22,154,33,12,17,277,18,1*6A
$GPGSV,3,3,12,13,16,208,30,15,16,243,28,02,13,035,29,30,05,145,28,1*66
$GLGSV,2,1,07,82,61,081,26,80,60,088,29,83,45,159,,72,20,321,18,1*70
$GLGSV,2,2,07,71,17,271,15,79,10,111,24,74,10,301,,1*47
$GAGSV,3,1,10,27,68,292,36,30,54,081,35,34,39,085,33,29,33,258,29,7*75
$GAGSV,3,2,10,15,25,145,28,19,24,309,21,21,16,276,17,36,16,032,25,7*78
$GAGSV,3,3,10,07,12,205,26,02,04,090,20,7*78
$GBGSV,3,1,09,45,76,127,40,29,64,119,39,26,44,299,38,30,27,048,35,1*76
$GBGSV,3,2,09,35,25,195,35,36,24,122,32,14,09,308,26,42,07,282,16,1*7A
$GBGSV,3,3,09,33,07,332,29,1*41
$GNRMC,011537.000,A,4910.427766,N,12304.400802,W,0.01,29.77,051224,,,D,V*26
$GNVTG,29.77,T,,M,0.01,N,0.02,K,D*1E
$GNGGA,011538.000,4910.427778,N,12304.400832,W,2,31,0.46,9.821,M,-16.816,M,,*46
$GNGLL,4910.427778,N,12304.400832,W,011538.000,A,D*52
$GNGSA,A,3,19,17,22,24,14,06,12,13,15,02,30,,0.78,0.46,0.63,1*06
$GNGSA,A,3,82,80,79,,,,,,,,,,0.78,0.46,0.63,2*06
$GNGSA,A,3,27,30,34,29,15,19,36,07,,,,,0.78,0.46,0.63,3*0F
$GNGSA,A,3,45,29,26,30,35,36,14,42,33,,,,0.78,0.46,0.63,4*01
$GPGSV,3,1,12,19,74,182,39,17,64,067,39,22,59,079,38,24,47,296,37,1*65
$GPGSV,3,2,12,14,37,090,34,46,33,187,34,06,22,154,33,12,17,277,18,1*6A
$GPGSV,3,3,12,13,16,208,30,15,16,243,28,02,13,035,29,30,05,145,28,1*66
$GLGSV,2,1,07,82,61,081,26,80,60,088,29,83,45,159,,72,20,321,18,1*70
$GLGSV,2,2,07,71,17,271,15,79,10,111,24,74,10,301,,1*47
$GAGSV,3,1,10,27,68,292,36,30,54,081,35,34,39,085,33,29,33,258,29,7*75
$GAGSV,3,2,10,15,25,145,28,19,24,309,21,21,16,276,17,36,16,032,25,7*78
$GAGSV,3,3,10,07,12,205,26,02,04,090,19,7*72
$GBGSV,3,1,09,45,76,127,40,29,64,119,39,26,44,299,38,30,27,048,35,1*76
$GBGSV,3,2,09,35,25,195,35,36,24,122,32,14,09,308,26,42,07,282,16,1*7A
$GBGSV,3,3,09,33,07,332,29,1*41
$GNRMC,011538.000,A,4910.427778,N,12304.400832,W,0.01,29.77,051224,,,D,V*25
$GNVTG,29.77,T,,M,0.01,N,0.02,K,D*1E
$GNGGA,011539.000,4910.427760,N,12304.400850,W,2,31,0.46,9.825,M,-16.816,M,,*4E
$GNGLL,4910.427760,N,12304.400850,W,011539.000,A,D*5E
$GNGSA,A,3,19,17,22,24,14,06,12,13,15,02,30,,0.78,0.46,0.63,1*06
$GNGSA,A,3,82,80,79,,,,,,,,,,0.78,0.46,0.63,2*06
$GNGSA,A,3,27,30,34,29,15,19,36,07,,,,,0.78,0.46,0.63,3*0F
$GNGSA,A,3,45,29,26,30,35,36,14,42,33,,,,0.78,0.46,0.63,4*01
$GPGSV,3,1,12,19,74,182,39,17,64,067,39,22,59,079,38,24,47,296,37,1*65
$GPGSV,3,2,12,14,37,090,34,46,33,187,34,06,22,154,33,12,17,277,18,1*6A
$GPGSV,3,3,12,13,16,208,30,15,16,243,28,02,13,035,29,30,05,145,28,1*66
$GLGSV,2,1,07,82,61,081,27,80,60,088,29,83,45,159,,72,20,321,18,1*71
$GLGSV,2,2,07,71,17,271,15,79,10,111,24,74,10,301,,1*47
$GAGSV,3,1,10,27,68,292,36,30,54,081,35,34,39,085,33,29,33,258,29,7*75
$GAGSV,3,2,10,15,25,145,28,19,24,309,21,21,16,276,17,36,16,032,25,7*78
$GAGSV,3,3,10,07,12,205,26,02,04,090,19,7*72
$GBGSV,3,1,09,45,76,127,40,29,64,119,39,26,44,299,38,30,27,048,35,1*76
$GBGSV,3,2,09,35,25,195,35,36,24,122,32,14,09,308,25,42,07,282,16,1*79
$GBGSV,3,3,09,33,07,332,29,1*41
$GNRMC,011539.000,A,4910.427760,N,12304.400850,W,0.01,29.77,051224,,,D,V*29
$GNVTG,29.77,T,,M,0.01,N,0.02,K,D*1E
$GNGGA,011540.000,4910.427742,N,12304.400928,W,2,31,0.46,9.819,M,-16.816,M,,*41
$GNGLL,4910.427742,N,12304.400928,W,011540.000,A,D*5E
$GNGSA,A,3,19,17,22,24,14,06,12,13,15,02,30,,0.78,0.46,0.63,1*06
$GNGSA,A,3,82,80,79,,,,,,,,,,0.78,0.46,0.63,2*06
$GNGSA,A,3,27,30,34,29,15,19,36,07,,,,,0.78,0.46,0.63,3*0F
$GNGSA,A,3,45,29,26,30,35,36,14,42,33,,,,0.78,0.46,0.63,4*01
$GPGSV,3,1,12,19,74,182,39,17,64,067,39,22,59,079,38,24,47,296,37,1*65
$GPGSV,3,2,12,14,37,090,34,46,33,187,34,06,22,154,32,12,17,277,18,1*6B
$GPGSV,3,3,12,13,16,208,30,15,16,243,28,02,13,035,29,30,05,145,28,1*66
$GLGSV,2,1,07,82,61,081,27,80,60,088,29,83,45,159,,72,20,321,18,1*71
$GLGSV,2,2,07,71,17,271,16,79,10,111,24,74,10,301,,1*44
$GAGSV,3,1,10,27,68,292,36,30,54,081,35,34,39,085,33,29,33,258,29,7*75
$GAGSV,3,2,10,15,25,145,28,19,24,309,21,21,16,276,17,36,16,032,25,7*78
$GAGSV,3,3,10,07,12,205,26,02,04,090,19,7*72
$GBGSV,3,1,09,45,76,127,40,29,64,119,39,26,44,299,38,30,27,048,35,1*76
$GBGSV,3,2,09,35,25,195,35,36,24,122,32,14,09,308,25,42,07,282,16,1*79
$GBGSV,3,3,09,33,07,332,29,1*41
$GNRMC,011540.000,A,4910.427742,N,12304.400928,W,0.01,29.77,051224,,,D,V*29
$GNVTG,29.77,T,,M,0.01,N,0.02,K,D*1E
$GNGGA,011541.000,4910.427718,N,12304.400958,W,2,31,0.46,9.821,M,-16.816,M,,*43
$GNGLL,4910.427718,N,12304.400958,W,011541.000,A,D*57
$GNGSA,A,3,19,17,22,24,14,06,12,13,15,02,30,,0.78,0.46,0.63,1*06
$GNGSA,A,3,82,80,79,,,,,,,,,,0.78,0.46,0.63,2*06
$GNGSA,A,3,27,30,34,29,15,19,36,07,,,,,0.78,0.46,0.63,3*0F
$GNGSA,A,3,45,29,26,30,35,36,14,42,33,,,,0.78,0.46,0.63,4*01
$GPGSV,3,1,12,19,74,182,39,17,64,067,39,22,59,079,38,24,47,296,37,1*65
$GPGSV,3,2,12,14,37,090,34,46,33,187,34,06,22,154,32,12,17,277,19,1*6A
$GPGSV,3,3,12,13,16,208,30,15,16,243,28,02,13,035,29,30,05,145,28,1*66
$GLGSV,2,1,07,82,61,081,26,80,60,088,29,83,45,159,,72,20,321,18,1*70
$GLGSV,2,2,07,71,17,271,16,79,10,111,24,74,10,301,,1*44
$GAGSV,3,1,10,27,68,292,36,30,54,081,35,34,39,085,33,29,33,258,29,7*75
$GAGSV,3,2,10,15,25,145,28,19,24,309,21,21,16,276,17,36,16,032,25,7*78
$GAGSV,3,3,10,07,12,205,26,02,04,090,19,7*72
$GBGSV,3,1,09,45,76,127,40,29,64,119,39,26,44,299,38,30,27,048,35,1*76
$GBGSV,3,2,09,35,25,195,35,36,24,122,32,14,09,308,25,42,07,282,16,1*79
$GBGSV,3,3,09,33,07,332,29,1*41
$GNRMC,011541.000,A,4910.427718,N,12304.400958,W,0.01,29.77,051224,,,D,V*20
$GNVTG,29.77,T,,M,0.01,N,0.02,K,D*1E
$GNGGA,011542.000,4910.427682,N,12304.400970,W,2,31,0.46,9.873,M,-16.816,M,,*4F
$GNGLL,4910.427682,N,12304.400970,W,011542.000,A,D*5C
$GNGSA,A,3,19,17,22,24,14,06,12,13,15,02,30,,0.78,0.46,0.63,1*06
$GNGSA,A,3,82,80,79,,,,,,,,,,0.78,0.46,0.63,2*06
$GNGSA,A,3,27,30,34,29,15,19,36,07,,,,,0.78,0.46,0.63,3*0F
$GNGSA,A,3,45,29,26,30,35,36,14,42,33,,,,0.78,0.46,0.63,4*01
$GPGSV,3,1,12,19,74,182,39,17,64,067,39,22,59,079,38,24,47,296,37,1*65
$GPGSV,3,2,12,14,37,090,34,46,33,187,34,06,22,154,31,12,17,277,19,1*69
$GPGSV,3,3,12,13,16,208,30,15,16,243,28,02,13,035,29,30,05,145,27,1*69
$GLGSV,2,1,07,82,61,081,26,80,60,088,29,83,45,159,,72,20,321,19,1*71
$GLGSV,2,2,07,71,17,271,17,79,10,111,24,74,10,301,,1*45
$GAGSV,3,1,10,27,68,292,36,30,54,081,35,34,39,085,33,29,33,258,29,7*75
$GAGSV,3,2,10,15,25,145,28,19,24,309,21,21,16,276,17,36,16,032,25,7*78
$GAGSV,3,3,10,07,12,205,26,02,04,090,19,7*72
$GBGSV,3,1,09,45,76,127,40,29,64,119,39,26,44,299,38,30,27,048,35,1*76
$GBGSV,3,2,09,35,25,195,35,36,24,122,32,14,09,308,25,42,07,282,16,1*79
$GBGSV,3,3,09,33,07,332,29,1*41
$GNRMC,011542.000,A,4910.427682,N,12304.400970,W,0.01,29.77,051224,,,D,V*2B
$GNVTG,29.77,T,,M,0.01,N,0.01,K,D*1D
$GNGGA,011543.000,4910.427682,N,12304.400964,W,2,31,0.46,9.966,M,-16.816,M,,*4E
$GNGLL,4910.427682,N,12304.400964,W,011543.000,A,D*58
$GNGSA,A,3,19,17,22,24,14,06,12,13,15,02,30,,0.78,0.46,0.63,1*06
$GNGSA,A,3,82,80,79,,,,,,,,,,0.78,0.46,0.63,2*06
$GNGSA,A,3,27,30,34,29,15,19,36,07,,,,,0.78,0.46,0.63,3*0F
$GNGSA,A,3,45,29,26,30,35,36,14,42,33,,,,0.78,0.46,0.63,4*01
$GPGSV,3,1,12,19,74,182,39,17,64,067,39,22,59,079,38,24,47,296,37,1*65
$GPGSV,3,2,12,14,37,090,34,46,33,187,34,06,22,154,31,12,17,277,19,1*69
$GPGSV,3,3,12,13,16,208,30,15,16,243,28,02,13,035,29,30,05,145,27,1*69
$GLGSV,2,1,07,82,61,081,26,80,60,088,29,83,45,159,,72,20,321,19,1*71
$GLGSV,2,2,07,71,17,271,18,79,10,111,24,74,10,301,,1*4A
$GAGSV,3,1,10,27,68,292,36,30,54,081,35,34,39,085,33,29,33,258,29,7*75
$GAGSV,3,2,10,15,25,145,28,19,24,309,21,21,16,276,17,36,16,032,25,7*78
$GAGSV,3,3,10,07,12,205,26,02,04,090,19,7*72
$GBGSV,3,1,09,45,76,127,40,29,64,119,39,26,44,299,38,30,27,048,35,1*76
$GBGSV,3,2,09,35,25,195,35,36,24,122,32,14,09,308,25,42,07,282,15,1*7A
$GBGSV,3,3,09,33,07,332,29,1*41
$GNRMC,011543.000,A,4910.427682,N,12304.400964,W,0.01,29.77,051224,,,D,V*2F
$GNVTG,29.77,T,,M,0.01,N,0.01,K,D*1D
$GNGGA,011544.000,4910.427688,N,12304.400958,W,2,31,0.46,9.997,M,-16.816,M,,*42
$GNGLL,4910.427688,N,12304.400958,W,011544.000,A,D*5A
$GNGSA,A,3,19,17,22,24,14,06,12,13,15,02,30,,0.78,0.46,0.63,1*06
$GNGSA,A,3,82,80,79,,,,,,,,,,0.78,0.46,0.63,2*06
$GNGSA,A,3,27,30,34,29,15,19,36,07,,,,,0.78,0.46,0.63,3*0F
$GNGSA,A,3,45,29,26,30,35,36,14,42,33,,,,0.78,0.46,0.63,4*01
$GPGSV,3,1,12,19,74,182,39,17,64,067,39,22,59,079,38,24,47,296,37,1*65
$GPGSV,3,2,12,14,37,090,34,46,33,187,34,06,22,154,31,12,17,277,18,1*68
$GPGSV,3,3,12,13,16,208,30,15,16,243,28,02,13,035,29,30,04,145,27,1*68
$GLGSV,2,1,07,82,61,081,26,80,60,088,30,83,45,159,,72,20,321,19,1*79
$GLGSV,2,2,07,71,17,271,18,79,10,111,25,74,10,301,,1*4B
$GAGSV,3,1,10,27,68,292,36,30,54,081,35,34,39,085,33,29,33,258,29,7*75
$GAGSV,3,2,10,15,25,145,29,19,24,309,22,21,16,276,17,36,16,032,25,7*7A
$GAGSV,3,3,10,07,12,205,26,02,04,090,19,7*72
$GBGSV,3,1,09,45,76,127,40,29,64,119,39,26,44,299,38,30,27,048,35,1*76
$GBGSV,3,2,09,35,25,195,35,36,24,122,32,14,09,308,25,42,07,282,14,1*7B
$GBGSV,3,3,09,33,07,332,29,1*41
$GNRMC,011544.000,A,4910.427688,N,12304.400958,W,0.01,29.77,051224,,,D,V*2D
$GNVTG,29.77,T,,M,0.01,N,0.02,K,D*1E
$GNGGA,011545.000,4910.427688,N,12304.400964,W,2,30,0.48,10.121,M,-16.817,M,,*7F
$GNGLL,4910.427688,N,12304.400964,W,011545.000,A,D*54
$GNGSA,A,3,19,17,22,24,14,06,12,13,15,02,,,0.82,0.48,0.67,1*0A
$GNGSA,A,3,82,80,79,,,,,,,,,,0.82,0.48,0.67,2*09
$GNGSA,A,3,27,30,34,29,15,19,36,07,,,,,0.82,0.48,0.67,3*00
$GNGSA,A,3,45,29,26,30,35,36,14,42,33,,,,0.82,0.48,0.67,4*0E
$GPGSV,3,1,12,19,74,182,39,17,64,067,39,22,59,079,38,24,47,296,37,1*65
$GPGSV,3,2,12,14,37,090,34,46,33,187,34,06,22,154,31,12,17,277,18,1*68
$GPGSV,3,3,12,13,16,208,30,15,16,243,28,02,13,035,29,30,04,145,27,1*68
$GLGSV,2,1,06,82,61,081,26,80,60,088,29,83,45,159,,72,20,321,19,1*70
$GLGSV,2,2,06,71,17,271,18,79,10,111,25,1*7A
$GAGSV,3,1,10,27,68,292,36,30,54,081,35,34,39,085,33,29,33,258,29,7*75
$GAGSV,3,2,10,15,25,145,29,19,24,309,22,21,16,276,17,36,16,032,26,7*79
$GAGSV,3,3,10,07,12,205,26,02,04,090,19,7*72
$GBGSV,3,1,09,45,76,127,40,29,64,119,39,26,44,299,38,30,27,048,35,1*76
$GBGSV,3,2,09,35,25,195,35,36,24,122,32,14,09,308,24,42,07,282,14,1*7A
$GBGSV,3,3,09,33,07,332,28,1*40
$GNRMC,011545.000,A,4910.427688,N,12304.400964,W,0.01,29.77,051224,,,D,V*23
$GNVTG,29.77,T,,M,0.01,N,0.01,K,D*1D
$GNGGA,011546.000,4910.427670,N,12304.401000,W,2,30,0.48,10.222,M,-16.816,M,,*70
$GNGLL,4910.427670,N,12304.401000,W,011546.000,A,D*5A
$GNGSA,A,3,19,17,22,24,14,06,12,13,15,02,,,0.82,0.48,0.67,1*0A
$GNGSA,A,3,82,80,79,,,,,,,,,,0.82,0.48,0.67,2*09
$GNGSA,A,3,27,30,34,29,15,19,36,07,,,,,0.82,0.48,0.67,3*00
$GNGSA,A,3,45,29,26,30,35,36,14,42,33,,,,0.82,0.48,0.67,4*0E
$GPGSV,3,1,12,19,74,182,39,17,64,067,39,22,59,079,38,24,47,296,37,1*65
$GPGSV,3,2,12,14,37,090,34,46,33,187,34,06,22,154,31,12,17,277,18,1*68
$GPGSV,3,3,12,13,16,208,30,15,16,243,28,02,13,035,29,30,04,145,27,1*68
$GLGSV,2,1,07,82,61,081,25,80,60,088,29,83,45,159,,72,20,321,19,1*72
$GLGSV,2,2,07,71,17,271,18,79,10,111,25,74,10,301,,1*4B
$GAGSV,3,1,10,27,68,292,36,30,54,081,35,34,39,085,33,29,33,258,29,7*75
$GAGSV,3,2,10,15,25,145,29,19,24,309,22,21,16,276,17,36,16,032,26,7*79
$GAGSV,3,3,10,07,12,205,26,02,04,090,19,7*72
$GBGSV,3,1,09,45,76,127,40,29,64,119,39,26,44,299,38,30,27,048,35,1*76
$GBGSV,3,2,09,35,25,195,35,36,24,122,32,14,09,308,24,42,07,282,13,1*7D
$GBGSV,3,3,09,33,07,332,28,1*40
$GNRMC,011546.000,A,4910.427670,N,12304.401000,W,0.01,29.77,051224,,,D,V*2D
$GNVTG,29.77,T,,M,0.01,N,0.02,K,D*1E
$GNGGA,011547.000,4910.427658,N,12304.401048,W,2,30,0.48,10.261,M,-16.816,M,,*70
$GNGLL,4910.427658,N,12304.401048,W,011547.000,A,D*5D
$GNGSA,A,3,19,17,22,24,14,06,12,13,15,02,,,0.82,0.48,0.67,1*0A
$GNGSA,A,3,82,80,79,,,,,,,,,,0.82,0.48,0.67,2*09
$GNGSA,A,3,27,30,34,29,15,19,36,07,,,,,0.82,0.48,0.67,3*00
$GNGSA,A,3,45,29,26,30,35,36,14,42,33,,,,0.82,0.48,0.67,4*0E
$GPGSV,3,1,12,19,74,182,39,17,64,067,39,22,59,079,38,24,47,296,37,1*65
$GPGSV,3,2,12,14,37,090,34,46,33,187,34,06,22,154,31,12,17,277,18,1*68
$GPGSV,3,3,12,13,16,208,30,15,16,243,28,02,13,035,29,30,04,145,27,1*68
$GLGSV,2,1,07,82,61,081,25,80,60,088,29,83,45,159,,72,20,321,19,1*72
$GLGSV,2,2,07,71,17,271,18,79,10,111,25,74,10,301,,1*4B
$GAGSV,3,1,10,27,68,292,36,30,54,081,35,34,39,085,33,29,33,258,29,7*75
$GAGSV,3,2,10,15,25,145,29,19,24,309,22,21,16,276,17,36,16,032,26,7*79
$GAGSV,3,3,10,07,12,205,26,02,04,090,19,7*72
$GBGSV,3,1,09,45,76,127,40,29,64,119,39,26,44,299,38,30,27,048,35,1*76
$GBGSV,3,2,09,35,25,195,35,36,24,122,32,14,09,308,24,42,07,282,15,1*7B
$GBGSV,3,3,09,33,07,332,29,1*41
$GNRMC,011547.000,A,4910.427658,N,12304.401048,W,0.01,29.77,051224,,,D,V*2A
$GNVTG,29.77,T,,M,0.01,N,0.02,K,D*1E
$GNGGA,011548.000,4910.427640,N,12304.401108,W,2,30,0.48,10.235,M,-16.816,M,,*72
$GNGLL,4910.427640,N,12304.401108,W,011548.000,A,D*5E
$GNGSA,A,3,19,17,22,24,14,06,12,13,15,02,,,0.82,0.48,0.67,1*0A
$GNGSA,A,3,82,80,79,,,,,,,,,,0.82,0.48,0.67,2*09
$GNGSA,A,3,27,30,34,29,15,19,36,07,,,,,0.82,0.48,0.67,3*00
$GNGSA,A,3,45,29,26,30,35,36,14,42,33,,,,0.82,0.48,0.67,4*0E
$GPGSV,3,1,12,19,74,182,39,17,64,067,39,22,59,079,38,24,47,296,37,1*65
$GPGSV,3,2,12,14,37,090,34,46,33,187,34,06,22,154,31,12,17,277,18,1*68
$GPGSV,3,3,12,13,16,208,30,15,16,243,28,02,13,035,29,30,04,145,27,1*68
$GLGSV,2,1,07,82,61,081,26,80,60,088,29,83,45,159,,72,20,321,19,1*71
$GLGSV,2,2,07,71,17,271,18,79,10,111,25,74,10,301,,1*4B
$GAGSV,3,1,10,27,68,292,36,30,54,081,35,34,39,085,33,29,33,258,29,7*75
$GAGSV,3,2,10,15,25,145,29,19,24,309,22,21,16,276,17,36,16,032,26,7*79
$GAGSV,3,3,10,07,12,205,26,02,04,090,19,7*72
$GBGSV,3,1,09,45,76,127,40,29,64,119,39,26,44,299,38,30,27,048,35,1*76
$GBGSV,3,2,09,35,25,195,36,36,24,122,32,14,09,308,24,42,07,282,15,1*78
$GBGSV,3,3,09,33,07,332,29,1*41
$GNRMC,011548.000,A,4910.427640,N,12304.401108,W,0.01,29.77,051224,,,D,V*29
$GNVTG,29.77,T,,M,0.01,N,0.03,K,D*1F
$GNGGA,011549.000,4910.427586,N,12304.401162,W,2,30,0.48,10.169,M,-16.816,M,,*7C
$GNGLL,4910.427586,N,12304.401162,W,011549.000,A,D*5A
$GNGSA,A,3,19,17,22,24,14,06,12,13,15,02,,,0.82,0.48,0.67,1*0A
$GNGSA,A,3,82,80,79,,,,,,,,,,0.82,0.48,0.67,2*09
$GNGSA,A,3,27,30,34,29,15,19,36,07,,,,,0.82,0.48,0.67,3*00
$GNGSA,A,3,45,29,26,30,35,36,14,42,33,,,,0.82,0.48,0.67,4*0E
$GPGSV,3,1,12,19,74,182,39,17,64,067,39,22,59,079,38,24,47,296,37,1*65
$GPGSV,3,2,12,14,37,090,34,46,33,187,34,06,22,154,31,12,17,277,18,1*68
$GPGSV,3,3,12,13,16,208,30,15,16,243,28,02,13,035,29,30,04,145,27,1*68
$GLGSV,2,1,07,82,61,081,26,80,60,088,29,83,45,159,,72,20,321,19,1*71
$GLGSV,2,2,07,71,17,271,18,79,10,111,25,74,10,301,,1*4B
$GAGSV,3,1,10,27,68,292,36,30,54,081,35,34,39,085,33,29,33,258,29,7*75
$GAGSV,3,2,10,15,25,145,29,19,24,309,22,21,16,276,17,36,16,032,26,7*79
$GAGSV,3,3,10,07,12,205,26,02,04,090,19,7*72
$GBGSV,3,1,09,45,76,127,40,29,64,119,39,26,44,299,38,30,27,048,35,1*76
$GBGSV,3,2,09,35,25,195,36,36,24,122,32,14,09,308,24,42,07,282,15,1*78
$GBGSV,3,3,09,33,07,332,29,1*41
$GNRMC,011549.000,A,4910.427586,N,12304.401162,W,0.01,29.77,051224,,,D,V*2D
$GNVTG,29.77,T,,M,0.01,N,0.03,K,D*1F
$GNGGA,011550.000,4910.427568,N,12304.401186,W,2,30,0.48,10.116,M,-16.817,M,,*77
$GNGLL,4910.427568,N,12304.401186,W,011550.000,A,D*58
$GNGSA,A,3,19,17,22,24,14,06,12,13,15,02,,,0.82,0.48,0.67,1*0A
$GNGSA,A,3,82,80,79,,,,,,,,,,0.82,0.48,0.67,2*09
$GNGSA,A,3,27,30,34,29,15,19,36,07,,,,,0.82,0.48,0.67,3*00
$GNGSA,A,3,45,29,26,30,35,36,14,42,33,,,,0.82,0.48,0.67,4*0E
$GPGSV,3,1,12,19,74,182,39,17,64,067,39,22,59,079,38,24,47,296,37,1*65
$GPGSV,3,2,12,14,37,090,34,46,33,187,34,06,22,154,31,12,17,277,18,1*68
$GPGSV,3,3,12,13,16,208,30,15,16,243,28,02,13,035,29,30,04,145,27,1*68
$GLGSV,2,1,07,82,61,081,26,80,60,088,29,83,45,159,,72,20,321,19,1*71
$GLGSV,2,2,07,71,17,271,18,79,10,111,25,74,10,301,,1*4B
$GAGSV,3,1,10,27,68,292,36,30,54,081,35,34,39,085,33,29,33,258,29,7*75
$GAGSV,3,2,10,15,25,145,29,19,24,309,22,21,16,276,17,36,16,032,26,7*79
$GAGSV,3,3,10,07,12,205,26,02,04,090,19,7*72
$GBGSV,3,1,09,45,76,127,40,29,64,119,39,26,44,299,38,30,27,048,35,1*76
$GBGSV,3,2,09,35,25,195,36,36,24,122,32,14,09,308,24,42,07,282,16,1*7B
$GBGSV,3,3,09,33,07,332,29,1*41
$GNRMC,011550.000,A,4910.427568,N,12304.401186,W,0.02,29.77,051224,,,D,V*2C
$GNVTG,29.77,T,,M,0.02,N,0.03,K,D*1C
$GNGGA,011551.000,4910.427616,N,12304.401144,W,2,30,0.48,10.196,M,-16.816,M,,*7B
$GNGLL,4910.427616,N,12304.401144,W,011551.000,A,D*5D
$GNGSA,A,3,19,17,22,24,14,06,12,13,15,02,,,0.82,0.48,0.67,1*0A
$GNGSA,A,3,82,80,79,,,,,,,,,,0.82,0.48,0.67,2*09
$GNGSA,A,3,27,30,34,29,15,19,36,07,,,,,0.82,0.48,0.67,3*00
$GNGSA,A,3,45,29,26,30,35,36,14,42,33,,,,0.82,0.48,0.67,4*0E
$GPGSV,3,1,12,19,74,182,39,17,64,067,39,22,59,079,38,24,47,296,37,1*65
$GPGSV,3,2,12,14,37,090,34,46,33,187,34,06,22,154,31,12,17,277,18,1*68
$GPGSV,3,3,12,13,16,208,30,15,16,243,28,02,13,035,28,30,04,145,27,1*69
$GLGSV,2,1,07,82,61,081,26,80,60,088,29,83,45,159,,72,20,321,19,1*71
$GLGSV,2,2,07,71,17,271,18,79,10,111,25,74,10,301,,1*4B
$GAGSV,3,1,10,27,68,292,36,30,54,081,35,34,39,085,33,29,33,258,29,7*75
$GAGSV,3,2,10,15,25,145,28,19,24,309,22,21,16,276,17,36,16,032,26,7*78
$GAGSV,3,3,10,07,12,205,26,02,04,090,19,7*72
$GBGSV,3,1,09,45,76,127,41,29,64,119,39,26,44,299,38,30,27,048,35,1*77
$GBGSV,3,2,09,35,25,195,36,36,24,122,33,14,09,308,24,42,07,282,14,1*78
$GBGSV,3,3,09,33,07,332,30,1*49
$GNRMC,011551.000,A,4910.427616,N,12304.401144,W,0.02,29.77,051224,,,D,V*29
$GNVTG,29.77,T,,M,0.02,N,0.03,K,D*1C
$GNGGA,011552.000,4910.427634,N,12304.401186,W,2,30,0.48,10.302,M,-16.816,M,,*79
$GNGLL,4910.427634,N,12304.401186,W,011552.000,A,D*50
$GNGSA,A,3,19,17,22,24,14,06,12,13,15,02,,,0.82,0.48,0.67,1*0A
$GNGSA,A,3,82,80,79,,,,,,,,,,0.82,0.48,0.67,2*09
$GNGSA,A,3,27,30,34,29,15,19,36,07,,,,,0.82,0.48,0.67,3*00
$GNGSA,A,3,45,29,26,30,35,36,14,42,33,,,,0.82,0.48,0.67,4*0E
$GPGSV,3,1,12,19,74,182,39,17,64,067,38,22,59,079,37,24,47,296,37,1*6B
$GPGSV,3,2,12,14,37,090,34,46,33,187,34,06,22,154,30,12,17,277,18,1*69
$GPGSV,3,3,12,13,16,208,30,15,16,243,28,02,13,035,28,30,04,145,27,1*69
$GLGSV,2,1,07,82,61,081,26,80,60,088,29,83,45,159,,72,20,321,19,1*71
$GLGSV,2,2,07,71,17,271,17,79,10,111,25,74,10,301,,1*44
$GAGSV,3,1,10,27,68,292,36,30,54,081,35,34,39,085,33,29,33,258,29,7*75
$GAGSV,3,2,10,15,25,145,28,19,24,309,22,21,16,276,17,36,16,032,26,7*78
$GAGSV,3,3,10,07,12,205,26,02,04,090,19,7*72
$GBGSV,3,1,09,45,76,127,41,29,64,119,39,26,44,299,38,30,27,048,35,1*77
$GBGSV,3,2,09,35,25,195,36,36,24,122,33,14,09,308,24,42,07,282,16,1*7A
$GBGSV,3,3,09,33,07,332,30,1*49
$GNRMC,011552.000,A,4910.427634,N,12304.401186,W,0.02,29.77,051224,,,D,V*24
$GNVTG,29.77,T,,M,0.02,N,0.04,K,D*1B
$GNGGA,011553.000,4910.427604,N,12304.401180,W,2,30,0.48,10.401,M,-16.816,M,,*79
$GNGLL,4910.427604,N,12304.401180,W,011553.000,A,D*54
$GNGSA,A,3,19,17,22,24,14,06,12,13,15,02,,,0.82,0.48,0.67,1*0A
$GNGSA,A,3,82,80,79,,,,,,,,,,0.82,0.48,0.67,2*09
$GNGSA,A,3,27,30,34,29,15,19,36,07,,,,,0.82,0.48,0.67,3*00
$GNGSA,A,3,45,29,26,30,35,36,14,42,33,,,,0.82,0.48,0.67,4*0E
$GPGSV,3,1,12,19,74,182,39,17,64,067,38,22,59,079,37,24,47,296,37,1*6B
$GPGSV,3,2,12,14,37,090,34,46,33,187,34,06,22,154,30,12,17,277,18,1*69
$GPGSV,3,3,12,13,16,208,30,15,16,243,28,02,13,035,28,30,04,145,26,1*68
$GLGSV,2,1,07,82,61,081,25,80,60,088,29,83,45,159,,72,20,321,18,1*73
$GLGSV,2,2,07,71,17,271,17,79,10,111,24,74,10,301,,1*45
$GAGSV,3,1,10,27,68,292,36,30,54,081,35,34,39,085,33,29,33,258,29,7*75
$GAGSV,3,2,10,15,25,145,28,19,24,309,23,21,16,276,17,36,16,032,26,7*79
$GAGSV,3,3,10,07,12,205,26,02,04,090,19,7*72
$GBGSV,3,1,09,45,76,127,41,29,64,119,39,26,44,299,38,30,27,048,35,1*77
$GBGSV,3,2,09,35,25,195,36,36,24,122,33,14,09,308,24,42,07,282,16,1*7A
$GBGSV,3,3,09,33,07,332,30,1*49
$GNRMC,011553.000,A,4910.427604,N,12304.401180,W,0.02,29.77,051224,,,D,V*20
$GNVTG,29.77,T,,M,0.02,N,0.04,K,D*1B
$GNGGA,011554.000,4910.427574,N,12304.401132,W,2,30,0.48,10.527,M,-16.816,M,,*76
$GNGLL,4910.427574,N,12304.401132,W,011554.000,A,D*5E
$GNGSA,A,3,19,17,22,24,14,06,12,13,15,02,,,0.82,0.48,0.67,1*0A
$GNGSA,A,3,82,80,79,,,,,,,,,,0.82,0.48,0.67,2*09
$GNGSA,A,3,27,30,34,29,15,19,36,07,,,,,0.82,0.48,0.67,3*00
$GNGSA,A,3,45,29,26,30,35,36,14,42,33,,,,0.82,0.48,0.67,4*0E
$GPGSV,3,1,12,19,74,182,38,17,64,067,37,22,59,079,36,24,47,296,36,1*65
$GPGSV,3,2,12,14,37,090,33,46,33,187,33,06,22,154,29,12,17,277,18,1*61
$GPGSV,3,3,12,13,16,208,29,15,16,243,28,02,13,035,27,30,04,145,25,1*6C
$GLGSV,2,1,07,82,61,081,24,80,60,088,28,83,45,159,,72,20,321,18,1*73
$GLGSV,2,2,07,71,17,271,17,79,10,111,24,74,10,301,,1*45
$GAGSV,3,1,10,27,68,292,35,30,54,081,34,34,39,085,33,29,33,258,28,7*76
$GAGSV,3,2,10,15,25,145,27,19,24,309,22,21,16,276,17,36,16,032,25,7*74
$GAGSV,3,3,10,07,12,205,26,02,04,090,19,7*72
$GBGSV,3,1,09,45,76,127,41,29,64,119,39,26,44,299,38,30,27,048,35,1*77
$GBGSV,3,2,09,35,25,195,36,36,24,122,33,14,09,308,25,42,07,282,15,1*78
$GBGSV,3,3,09,33,07,332,30,1*49
$GNRMC,011554.000,A,4910.427574,N,12304.401132,W,0.02,29.77,051224,,,D,V*2A
$GNVTG,29.77,T,,M,0.02,N,0.04,K,D*1B
$GNGGA,011555.000,4910.427586,N,12304.401114,W,2,30,0.48,10.679,M,-16.816,M,,*76
$GNGLL,4910.427586,N,12304.401114,W,011555.000,A,D*56
$GNGSA,A,3,19,17,22,24,14,06,12,13,15,02,,,0.82,0.48,0.67,1*0A
$GNGSA,A,3,82,80,79,,,,,,,,,,0.82,0.48,0.67,2*09
$GNGSA,A,3,27,30,34,29,15,19,36,07,,,,,0.82,0.48,0.67,3*00
$GNGSA,A,3,45,29,26,30,35,36,14,42,33,,,,0.82,0.48,0.67,4*0E
$GPGSV,3,1,12,19,74,182,38,17,64,067,37,22,59,079,36,24,47,296,36,1*65
$GPGSV,3,2,12,14,37,090,33,46,33,187,32,06,22,154,28,12,17,277,18,1*61
$GPGSV,3,3,12,13,16,208,29,15,16,243,28,02,13,035,26,30,04,145,25,1*6D
$GLGSV,2,1,07,82,61,081,25,80,60,088,29,83,45,159,,72,20,321,18,1*73
$GLGSV,2,2,07,71,17,271,17,79,10,111,24,74,10,301,,1*45
$GAGSV,3,1,10,27,68,292,35,30,54,081,33,34,39,085,33,29,33,258,28,7*71
$GAGSV,3,2,10,15,25,145,26,19,24,309,22,21,16,276,16,36,16,032,25,7*74
$GAGSV,3,3,10,07,12,205,25,02,03,091,19,7*77
$GBGSV,3,1,09,45,76,127,41,29,64,119,39,26,44,299,38,30,27,048,35,1*77
$GBGSV,3,2,09,35,25,195,36,36,24,122,33,14,09,308,25,42,07,282,16,1*7B
$GBGSV,3,3,09,33,07,332,30,1*49
$GNRMC,011555.000,A,4910.427586,N,12304.401114,W,0.02,29.77,051224,,,D,V*22
$GNVTG,29.77,T,,M,0.02,N,0.03,K,D*1C
$GNGGA,011556.000,4910.427622,N,12304.401042,W,2,30,0.48,10.898,M,-16.817,M,,*7A
$GNGLL,4910.427622,N,12304.401042,W,011556.000,A,D*5A
$GNGSA,A,3,19,17,22,24,14,06,12,13,15,02,,,0.82,0.48,0.67,1*0A
$GNGSA,A,3,82,80,79,,,,,,,,,,0.82,0.48,0.67,2*09
$GNGSA,A,3,27,30,34,29,15,19,36,07,,,,,0.82,0.48,0.67,3*00
$GNGSA,A,3,45,29,26,30,35,36,14,42,33,,,,0.82,0.48,0.67,4*0E
$GPGSV,3,1,12,19,74,182,38,17,64,067,37,22,59,079,36,24,47,296,36,1*65
$GPGSV,3,2,12,14,37,090,33,46,33,187,32,06,22,154,29,12,17,277,17,1*6F
$GPGSV,3,3,12,13,16,208,29,15,16,243,28,02,13,035,26,30,04,145,25,1*6D
$GLGSV,2,1,07,82,61,081,25,80,60,088,29,83,45,159,,72,20,321,18,1*73
$GLGSV,2,2,07,71,17,271,16,79,10,111,24,74,10,301,,1*44
$GAGSV,3,1,10,27,68,292,35,30,54,081,33,34,39,085,32,29,33,258,28,7*70
$GAGSV,3,2,10,15,25,145,26,19,24,309,22,21,16,276,16,36,16,032,25,7*74
$GAGSV,3,3,10,07,12,205,25,02,03,091,19,7*77
$GBGSV,3,1,09,45,76,127,41,29,64,119,39,26,44,299,38,30,27,048,35,1*77
$GBGSV,3,2,09,35,25,195,36,36,24,122,33,14,09,308,25,42,07,282,15,1*78
$GBGSV,3,3,09,33,07,332,30,1*49
$GNRMC,011556.000,A,4910.427622,N,12304.401042,W,0.01,29.77,051224,,,D,V*2D
$GNVTG,29.77,T,,M,0.01,N,0.02,K,D*1E
$GNGGA,011557.000,4910.427700,N,12304.400958,W,2,30,0.48,11.023,M,-16.816,M,,*71
$GNGLL,4910.427700,N,12304.400958,W,011557.000,A,D*59
$GNGSA,A,3,19,17,22,24,14,06,12,13,15,02,,,0.82,0.48,0.67,1*0A
$GNGSA,A,3,82,80,79,,,,,,,,,,0.82,0.48,0.67,2*09
$GNGSA,A,3,27,30,34,29,15,19,36,07,,,,,0.82,0.48,0.67,3*00
$GNGSA,A,3,45,29,26,30,35,36,14,42,33,,,,0.82,0.48,0.67,4*0E
$GPGSV,3,1,12,19,74,182,38,17,64,067,37,22,59,079,36,24,47,296,36,1*65
$GPGSV,3,2,12,14,37,090,33,46,33,187,32,06,22,154,29,12,17,277,17,1*6F
$GPGSV,3,3,12,13,16,208,29,15,16,243,28,02,13,035,26,30,04,145,25,1*6D
$GLGSV,2,1,07,82,61,081,25,80,60,088,29,83,45,159,,72,20,321,18,1*73
$GLGSV,2,2,07,71,17,271,16,79,10,111,24,74,10,301,,1*44
$GAGSV,3,1,10,27,68,292,35,30,54,081,34,34,39,085,32,29,33,258,28,7*77
$GAGSV,3,2,10,15,25,145,26,19,24,309,22,21,16,276,16,36,16,032,25,7*74
$GAGSV,3,3,10,07,12,205,25,02,03,091,19,7*77
$GBGSV,3,1,09,45,76,127,41,29,64,119,39,26,44,299,38,30,27,048,35,1*77
$GBGSV,3,2,09,35,25,195,36,36,24,122,33,14,09,308,25,42,07,282,17,1*7A
$GBGSV,3,3,09,33,07,332,30,1*49
$GNRMC,011557.000,A,4910.427700,N,12304.400958,W,0.01,29.77,051224,,,D,V*2E
$GNVTG,29.77,T,,M,0.01,N,0.03,K,D*1F
$GNGGA,011558.000,4910.427694,N,12304.400892,W,2,30,0.48,11.131,M,-16.816,M,,*77
$GNGLL,4910.427694,N,12304.400892,W,011558.000,A,D*5D
$GNGSA,A,3,19,17,22,24,14,06,12,13,15,02,,,0.82,0.48,0.67,1*0A
$GNGSA,A,3,82,80,79,,,,,,,,,,0.82,0.48,0.67,2*09
$GNGSA,A,3,27,30,34,29,15,19,36,07,,,,,0.82,0.48,0.67,3*00
$GNGSA,A,3,45,29,26,30,35,36,14,42,33,,,,0.82,0.48,0.67,4*0E
$GPGSV,3,1,12,19,74,182,38,17,64,067,37,22,59,079,36,24,47,296,36,1*65
$GPGSV,3,2,12,14,37,090,33,46,33,187,32,06,22,154,29,12,17,277,17,1*6F
$GPGSV,3,3,12,13,16,208,29,15,16,243,28,02,13,035,26,30,04,145,25,1*6D
$GLGSV,2,1,07,82,61,081,25,80,60,088,29,83,45,159,,72,20,321,18,1*73
$GLGSV,2,2,07,71,17,271,17,79,10,111,24,74,10,301,,1*45
$GAGSV,3,1,10,27,68,292,35,30,54,081,34,34,39,085,32,29,33,258,28,7*77
$GAGSV,3,2,10,15,25,145,26,19,24,309,22,21,16,276,16,36,16,032,25,7*74
$GAGSV,3,3,10,07,12,205,25,02,03,091,19,7*77
$GBGSV,3,1,09,45,76,127,41,29,64,119,39,26,44,299,38,30,27,048,35,1*77
$GBGSV,3,2,09,35,25,195,36,36,24,122,33,14,09,308,25,42,07,282,16,1*7B
$GBGSV,3,3,09,33,07,332,30,1*49
$GNRMC,011558.000,A,4910.427694,N,12304.400892,W,0.02,29.77,051224,,,D,V*29
$GNVTG,29.77,T,,M,0.02,N,0.03,K,D*1C
$GNGGA,011559.000,4910.427706,N,12304.400796,W,2,30,0.48,11.229,M,-16.816,M,,*7D
$GNGLL,4910.427706,N,12304.400796,W,011559.000,A,D*5D
$GNGSA,A,3,19,17,22,24,14,06,12,13,15,02,,,0.82,0.48,0.67,1*0A
$GNGSA,A,3,82,80,79,,,,,,,,,,0.82,0.48,0.67,2*09
$GNGSA,A,3,27,30,34,29,15,19,36,07,,,,,0.82,0.48,0.67,3*00
$GNGSA,A,3,45,29,26,30,35,36,14,42,33,,,,0.82,0.48,0.67,4*0E
$GPGSV,3,1,12,19,74,182,38,17,64,067,37,22,59,079,36,24,47,296,36,1*65
$GPGSV,3,2,12,14,37,090,33,46,33,187,32,06,22,154,29,12,17,277,16,1*6E
$GPGSV,3,3,12,13,16,208,29,15,16,243,28,02,13,035,26,30,04,145,25,1*6D
$GLGSV,2,1,07,82,61,081,25,80,60,088,29,83,45,159,,72,20,321,18,1*73
$GLGSV,2,2,07,71,17,271,17,79,10,111,24,74,10,301,,1*45
$GAGSV,3,1,10,27,68,292,35,30,54,081,34,34,39,085,32,29,33,258,28,7*77
$GAGSV,3,2,10,15,25,145,26,19,24,309,22,21,16,276,16,36,16,032,25,7*74
$GAGSV,3,3,10,07,12,205,25,02,03,091,19,7*77
$GBGSV,3,1,09,45,76,127,41,29,64,119,39,26,44,299,38,30,27,048,36,1*74
$GBGSV,3,2,09,35,25,195,36,36,24,122,32,14,09,308,25,42,07,282,15,1*79
$GBGSV,3,3,09,33,07,332,30,1*49
$GNRMC,011559.000,A,4910.427706,N,12304.400796,W,0.02,29.77,051224,,,D,V*29
$GNVTG,29.77,T,,M,0.02,N,0.03,K,D*1C
$GNGGA,011600.000,4910.427730,N,12304.400682,W,2,30,0.48,11.366,M,-16.816,M,,*79
$GNGLL,4910.427730,N,12304.400682,W,011600.000,A,D*53
$GNGSA,A,3,19,17,22,24,14,06,12,13,15,02,,,0.82,0.48,0.67,1*0A
$GNGSA,A,3,82,80,79,,,,,,,,,,0.82,0.48,0.67,2*09
$GNGSA,A,3,27,30,34,29,15,19,36,07,,,,,0.82,0.48,0.67,3*00
$GNGSA,A,3,45,29,26,30,35,36,14,42,33,,,,0.82,0.48,0.67,4*0E
$GPGSV,3,1,12,19,74,182,38,17,64,067,37,22,59,079,36,24,47,296,36,1*65
$GPGSV,3,2,12,14,37,090,33,46,33,187,32,06,22,154,29,12,17,277,16,1*6E
$GPGSV,3,3,12,13,16,208,29,15,16,243,28,02,13,035,26,30,04,145,25,1*6D
$GLGSV,2,1,07,82,61,081,25,80,60,088,29,83,45,159,,72,20,321,18,1*73
$GLGSV,2,2,07,71,17,271,17,79,10,111,24,74,10,301,,1*45
$GAGSV,3,1,10,27,68,292,35,30,54,081,34,34,39,085,32,29,33,258,28,7*77
$GAGSV,3,2,10,15,25,145,27,19,24,309,22,21,16,276,16,36,16,032,25,7*75
$GAGSV,3,3,10,07,11,205,26,02,03,091,19,7*77
$GBGSV,3,1,09,45,76,127,41,29,64,119,39,26,44,299,38,30,27,048,36,1*74
$GBGSV,3,2,09,35,25,195,36,36,24,122,32,14,09,308,25,42,07,282,14,1*78
$GBGSV,3,3,09,33,07,332,29,1*41
$GNRMC,011600.000,A,4910.427730,N,12304.400682,W,0.02,29.77,051224,,,D,V*27
$GNVTG,29.77,T,,M,0.02,N,0.03,K,D*1C
$GNGGA,011601.000,4910.427730,N,12304.400574,W,2,30,0.48,11.520,M,-16.816,M,,*76
$GNGLL,4910.427730,N,12304.400574,W,011601.000,A,D*58
$GNGSA,A,3,19,17,22,24,14,06,12,13,15,02,,,0.82,0.48,0.67,1*0A
$GNGSA,A,3,82,80,79,,,,,,,,,,0.82,0.48,0.67,2*09
$GNGSA,A,3,27,30,34,29,15,19,36,07,,,,,0.82,0.48,0.67,3*00
$GNGSA,A,3,45,29,26,30,35,36,14,42,33,,,,0.82,0.48,0.67,4*0E
$GPGSV,3,1,12,19,74,182,38,17,64,067,37,22,59,079,36,24,47,296,36,1*65
$GPGSV,3,2,12,14,37,090,33,46,33,187,32,06,22,154,29,12,17,277,15,1*6D
$GPGSV,3,3,12,13,16,208,29,15,16,243,28,02,13,035,26,30,04,145,24,1*6C
$GLGSV,2,1,07,82,61,081,26,80,60,088,30,83,45,159,,72,20,321,18,1*78
$GLGSV,2,2,07,71,17,271,18,79,10,111,24,74,10,301,,1*4A
$GAGSV,3,1,10,27,68,292,35,30,54,081,34,34,39,085,31,29,33,258,27,7*7B
$GAGSV,3,2,10,15,25,145,27,19,24,309,22,21,16,276,16,36,16,032,25,7*75
$GAGSV,3,3,10,07,11,205,26,02,03,091,19,7*77
$GBGSV,3,1,09,45,76,127,41,29,64,119,39,26,44,299,38,30,27,048,36,1*74
$GBGSV,3,2,09,35,25,195,36,36,24,122,32,14,09,308,25,42,07,282,14,1*78
$GBGSV,3,3,09,33,07,332,29,1*41
$GNRMC,011601.000,A,4910.427730,N,12304.400574,W,0.02,29.77,051224,,,D,V*2C
$GNVTG,29.77,T,,M,0.02,N,0.03,K,D*1C
$PAIR010,0,1,2343,350179*35
$GNGGA,011602.000,4910.427718,N,12304.400496,W,2,30,0.48,11.663,M,-16.816,M,,*76
$GNGLL,4910.427718,N,12304.400496,W,011602.000,A,D*5C
$GNGSA,A,3,19,17,22,24,14,06,12,13,15,02,,,0.82,0.48,0.67,1*0A
$GNGSA,A,3,82,80,79,,,,,,,,,,0.82,0.48,0.67,2*09
$GNGSA,A,3,27,30,34,29,15,19,36,07,,,,,0.82,0.48,0.67,3*00
$GNGSA,A,3,45,29,26,30,35,36,14,42,33,,,,0.82,0.48,0.67,4*0E
$GPGSV,3,1,12,19,74,182,38,17,64,067,37,22,59,079,36,24,47,296,36,1*65
$GPGSV,3,2,12,14,37,090,33,46,33,187,32,06,22,154,29,12,17,277,15,1*6D
$GPGSV,3,3,12,13,16,208,29,15,16,243,28,02,13,035,26,30,04,145,25,1*6D
$GLGSV,2,1,07,82,61,081,26,80,60,088,30,83,45,159,,72,20,321,17,1*77
$GLGSV,2,2,07,71,17,271,18,79,10,111,24,74,10,301,,1*4A
$GAGSV,3,1,10,27,68,292,35,30,54,081,33,34,39,085,31,29,33,258,27,7*7C
$GAGSV,3,2,10,15,25,145,26,19,24,309,22,21,16,276,16,36,16,032,25,7*74
$GAGSV,3,3,10,07,11,205,26,02,03,091,19,7*77
$GBGSV,3,1,09,45,76,127,40,29,64,119,39,26,44,299,38,30,27,048,35,1*76
$GBGSV,3,2,09,35,25,195,35,36,24,122,32,14,09,308,25,42,07,282,15,1*7A
$GBGSV,3,3,09,33,07,332,29,1*41
$GNRMC,011602.000,A,4910.427718,N,12304.400496,W,0.02,29.77,051224,,,D,V*28
$GNVTG,29.77,T,,M,0.02,N,0.03,K,D*1C
$GNGGA,011603.000,4910.427688,N,12304.400472,W,2,30,0.48,11.715,M,-16.817,M,,*74
$GNGLL,4910.427688,N,12304.400472,W,011603.000,A,D*5F
$GNGSA,A,3,19,17,22,24,14,06,12,13,15,02,,,0.82,0.48,0.67,1*0A
$GNGSA,A,3,82,80,79,,,,,,,,,,0.82,0.48,0.67,2*09
$GNGSA,A,3,27,30,34,29,15,19,36,07,,,,,0.82,0.48,0.67,3*00
$GNGSA,A,3,45,29,26,30,35,36,14,42,33,,,,0.82,0.48,0.67,4*0E
$GPGSV,3,1,12,19,74,182,38,17,64,067,37,22,59,079,36,24,47,296,36,1*65
$GPGSV,3,2,12,14,37,090,33,46,33,187,32,06,22,154,29,12,17,277,14,1*6C
$GPGSV,3,3,12,13,16,208,29,15,16,243,28,02,13,035,26,30,04,145,25,1*6D
$GLGSV,2,1,07,82,61,081,26,80,60,088,30,83,45,159,,72,20,321,17,1*77
$GLGSV,2,2,07,71,17,271,17,79,10,111,24,74,10,301,,1*45
$GAGSV,3,1,10,27,68,292,35,30,54,081,33,34,39,085,31,29,33,258,27,7*7C
$GAGSV,3,2,10,15,25,145,26,19,24,309,22,21,16,276,16,36,16,032,25,7*74
$GAGSV,3,3,10,07,11,205,26,02,03,091,19,7*77
$GBGSV,3,1,09,45,76,127,40,29,64,119,39,26,44,299,38,30,27,048,35,1*76
$GBGSV,3,2,09,35,25,195,35,36,24,122,32,14,09,308,25,42,07,282,14,1*7B
$GBGSV,3,3,09,33,07,332,29,1*41
$GNRMC,011603.000,A,4910.427688,N,12304.400472,W,0.02,29.77,051224,,,D,V*2B
$GNVTG,29.77,T,,M,0.02,N,0.03,K,D*1C
$GNGGA,011604.000,4910.427646,N,12304.400508,W,2,30,0.48,11.707,M,-16.816,M,,*7F
$GNGLL,4910.427646,N,12304.400508,W,011604.000,A,D*56
$GNGSA,A,3,19,17,22,24,14,06,12,13,15,02,,,0.82,0.48,0.67,1*0A
$GNGSA,A,3,82,80,79,,,,,,,,,,0.82,0.48,0.67,2*09
$GNGSA,A,3,27,30,34,29,15,19,36,07,,,,,0.82,0.48,0.67,3*00
$GNGSA,A,3,45,29,26,30,35,36,14,42,33,,,,0.82,0.48,0.67,4*0E
$GPGSV,3,1,12,19,74,182,38,17,64,067,37,22,59,079,36,24,47,296,36,1*65
$GPGSV,3,2,12,14,37,090,33,46,33,187,32,06,22,154,29,12,17,277,13,1*6B
$GPGSV,3,3,12,13,16,208,29,15,16,243,27,02,13,035,26,30,04,145,25,1*62
$GLGSV,2,1,07,82,61,081,26,80,60,088,30,83,45,159,,72,20,321,17,1*77
$GLGSV,2,2,07,71,17,271,17,79,10,111,24,74,10,301,,1*45
$GAGSV,3,1,10,27,68,292,35,30,54,081,33,34,39,085,31,29,33,258,27,7*7C
$GAGSV,3,2,10,15,25,145,27,19,24,309,22,21,16,276,16,36,16,032,25,7*75
$GAGSV,3,3,10,07,11,205,26,02,03,091,19,7*77
$GBGSV,3,1,09,45,76,127,40,29,64,119,39,26,44,299,38,30,27,048,35,1*76
$GBGSV,3,2,09,35,25,195,35,36,24,122,32,14,09,308,25,42,07,282,16,1*79
$GBGSV,3,3,09,33,07,332,29,1*41
$GNRMC,011604.000,A,4910.427646,N,12304.400508,W,0.02,29.77,051224,,,D,V*22
$GNVTG,29.77,T,,M,0.02,N,0.03,K,D*1C
$GNGGA,011605.000,4910.427670,N,12304.400490,W,2,30,0.48,11.771,M,-16.816,M,,*7A
$GNGLL,4910.427670,N,12304.400490,W,011605.000,A,D*52
$GNGSA,A,3,19,17,22,24,14,06,12,13,15,02,,,0.82,0.48,0.67,1*0A
$GNGSA,A,3,82,80,79,,,,,,,,,,0.82,0.48,0.67,2*09
$GNGSA,A,3,27,30,34,29,15,19,36,07,,,,,0.82,0.48,0.67,3*00
$GNGSA,A,3,45,29,26,30,35,36,14,42,33,,,,0.82,0.48,0.67,4*0E
$GPGSV,3,1,12,19,74,182,38,17,64,067,37,22,59,079,36,24,47,296,36,1*65
$GPGSV,3,2,12,14,37,090,33,46,33,187,32,06,22,154,29,12,17,277,15,1*6D
$GPGSV,3,3,12,13,16,208,29,15,16,243,27,02,13,035,26,30,04,145,25,1*62
$GLGSV,2,1,07,82,61,081,26,80,60,088,30,83,45,159,,72,20,321,16,1*76
$GLGSV,2,2,07,71,17,271,16,79,10,111,24,74,10,301,,1*44
$GAGSV,3,1,10,27,68,292,35,30,54,081,34,34,39,085,31,29,33,258,28,7*74
$GAGSV,3,2,10,15,25,145,27,19,24,309,22,21,16,276,16,36,16,032,25,7*75
$GAGSV,3,3,10,07,11,205,26,02,03,091,19,7*77
$GBGSV,3,1,09,45,76,127,40,29,64,119,39,26,44,299,38,30,27,048,35,1*76
$GBGSV,3,2,09,35,25,195,35,36,24,122,32,14,09,308,25,42,07,282,15,1*7A
$GBGSV,3,3,09,33,07,332,29,1*41
$GNRMC,011605.000,A,4910.427670,N,12304.400490,W,0.01,29.77,051224,,,D,V*25
$GNVTG,29.77,T,,M,0.01,N,0.03,K,D*1F
$GNGGA,011606.000,4910.427634,N,12304.400460,W,2,30,0.48,11.756,M,-16.816,M,,*73
