$GNGGA,211011.000,4910.42581132,N,12304.39854799,W,1,08,1.29,29.750,M,-19.737,M,,*79
$GNRMC,211011.000,A,4910.42581132,N,12304.39854799,W,0.105,053.81,281024,,,A,V*2A
$GNGLL,4910.42581132,N,12304.39854799,W,211011.000,A,A*51
$GNVTG,053.81,T,,M,0.105,N,0.194,K,A*24
$GNGSA,A,3,04,07,09,16,,,,,,,,,3.04,1.29,2.75,1*01
$GNGSA,A,3,,,,,,,,,,,,,3.04,1.29,2.75,2*0F
$GNGSA,A,3,,,,,,,,,,,,,3.04,1.29,2.75,3*0E
$GNGSA,A,3,21,22,36,45,,,,,,,,,3.04,1.29,2.75,4*0E
$GNGSA,A,3,,,,,,,,,,,,,3.04,1.29,2.75,5*08
$GNGSA,A,3,,,,,,,,,,,,,3.04,1.29,2.75,6*0B
$GPGSV,2,1,05,04,70,100,30,07,42,245,28,09,73,301,32,16,47,081,30,1*6B
$GPGSV,2,2,05,26,,,25,1*62
$GPGSV,1,1,00,6*63
$GPGSV,1,1,00,8*6D
$GLGSV,1,1,00,1*78
$GLGSV,1,1,00,3*7A
$GAGSV,1,1,00,7*73
$GAGSV,1,1,00,2*76
$GAGSV,1,1,00,1*75
$GAGSV,1,1,00,5*71
$GBGSV,1,1,04,21,73,277,34,22,45,148,31,36,46,059,30,45,71,178,33,1*7F
$GBGSV,1,1,00,B*05
$GBGSV,1,1,00,8*7F
$GBGSV,1,1,04,21,73,277,30,22,45,148,26,36,46,059,26,45,71,178,30,3*7B
$GBGSV,1,1,00,5*72
$GBGSV,1,1,00,6*71
$GQGSV,1,1,00,1*65
$GQGSV,1,1,00,6*62
$GQGSV,1,1,00,8*6C
$GIGSV,1,1,00,1*7D
$GNGGA,211012.000,4910.42582961,N,12304.39874074,W,1,08,1.29,29.405,M,-19.737,M,,*72
$GNRMC,211012.000,A,4910.42582961,N,12304.39874074,W,0.115,053.81,281024,,,A,V*23
$GNGLL,4910.42582961,N,12304.39874074,W,211012.000,A,A*59
$GNVTG,053.81,T,,M,0.115,N,0.213,K,A*29
$GNGSA,A,3,04,07,09,16,,,,,,,,,3.04,1.29,2.75,1*01
$GNGSA,A,3,,,,,,,,,,,,,3.04,1.29,2.75,2*0F
$GNGSA,A,3,,,,,,,,,,,,,3.04,1.29,2.75,3*0E
$GNGSA,A,3,21,22,36,45,,,,,,,,,3.04,1.29,2.75,4*0E
$GNGSA,A,3,,,,,,,,,,,,,3.04,1.29,2.75,5*08
$GNGSA,A,3,,,,,,,,,,,,,3.04,1.29,2.75,6*0B
$GPGSV,2,1,05,04,70,100,30,07,42,245,28,09,73,301,32,16,47,081,30,1*6B
$GPGSV,2,2,05,26,,,25,1*62
$GPGSV,1,1,00,6*63
$GPGSV,1,1,00,8*6D
$GLGSV,1,1,00,1*78
$GLGSV,1,1,00,3*7A
$GAGSV,1,1,00,7*73
$GAGSV,1,1,00,2*76
$GAGSV,1,1,00,1*75
$GAGSV,1,1,00,5*71
$GBGSV,1,1,04,21,73,277,34,22,45,148,31,36,46,059,30,45,71,178,33,1*7F
$GBGSV,1,1,00,B*05
$GBGSV,1,1,00,8*7F
$GBGSV,1,1,04,21,73,277,30,22,45,148,26,36,46,059,26,45,71,178,30,3*7B
$GBGSV,1,1,00,5*72
$GBGSV,1,1,00,6*71
$GQGSV,1,1,00,1*65
$GQGSV,1,1,00,6*62
$GQGSV,1,1,00,8*6C
$GIGSV,1,1,00,1*7D
$GNGGA,211013.000,4910.42582779,N,12304.39877502,W,1,08,1.29,29.053,M,-19.737,M,,*74
$GNRMC,211013.000,A,4910.42582779,N,12304.39877502,W,0.120,053.81,281024,,,A,V*24
$GNGLL,4910.42582779,N,12304.39877502,W,211013.000,A,A*58
$GNVTG,053.81,T,,M,0.120,N,0.222,K,A*2D
$GNGSA,A,3,04,07,09,16,,,,,,,,,3.04,1.29,2.75,1*01
$GNGSA,A,3,,,,,,,,,,,,,3.04,1.29,2.75,2*0F
$GNGSA,A,3,,,,,,,,,,,,,3.04,1.29,2.75,3*0E
$GNGSA,A,3,21,22,36,45,,,,,,,,,3.04,1.29,2.75,4*0E
$GNGSA,A,3,,,,,,,,,,,,,3.04,1.29,2.75,5*08
$GNGSA,A,3,,,,,,,,,,,,,3.04,1.29,2.75,6*0B
$GPGSV,2,1,05,04,70,100,30,07,42,245,29,09,73,301,32,16,47,081,30,1*6A
$GPGSV,2,2,05,26,,,25,1*62
$GPGSV,1,1,00,6*63
$GPGSV,1,1,00,8*6D
$GLGSV,1,1,00,1*78
$GLGSV,1,1,00,3*7A
$GAGSV,1,1,00,7*73
$GAGSV,1,1,00,2*76
$GAGSV,1,1,00,1*75
$GAGSV,1,1,00,5*71
$GBGSV,1,1,04,21,73,277,34,22,45,148,31,36,46,059,30,45,71,178,33,1*7F
$GBGSV,1,1,00,B*05
$GBGSV,1,1,00,8*7F
$GBGSV,1,1,04,21,73,277,30,22,45,148,26,36,46,059,25,45,71,178,30,3*78
$GBGSV,1,1,00,5*72
$GBGSV,1,1,00,6*71
$GQGSV,1,1,00,1*65
$GQGSV,1,1,00,6*62
$GQGSV,1,1,00,8*6C
$GIGSV,1,1,00,1*7D
$GNGGA,211014.000,4910.42573949,N,12304.39884667,W,1,08,1.29,28.846,M,-19.737,M,,*71
$GNRMC,211014.000,A,4910.42573949,N,12304.39884667,W,0.066,053.81,281024,,,A,V*2F
$GNGLL,4910.42573949,N,12304.39884667,W,211014.000,A,A*50
$GNVTG,053.81,T,,M,0.066,N,0.123,K,A*2C
$GNGSA,A,3,04,07,09,16,,,,,,,,,3.04,1.29,2.75,1*01
$GNGSA,A,3,,,,,,,,,,,,,3.04,1.29,2.75,2*0F
$GNGSA,A,3,,,,,,,,,,,,,3.04,1.29,2.75,3*0E
$GNGSA,A,3,21,22,36,45,,,,,,,,,3.04,1.29,2.75,4*0E
$GNGSA,A,3,,,,,,,,,,,,,3.04,1.29,2.75,5*08
$GNGSA,A,3,,,,,,,,,,,,,3.04,1.29,2.75,6*0B
$GPGSV,2,1,05,04,70,100,31,07,42,245,28,09,73,301,32,16,47,081,30,1*6A
$GPGSV,2,2,05,26,,,25,1*62
$GPGSV,1,1,00,6*63
$GPGSV,1,1,00,8*6D
$GLGSV,1,1,00,1*78
$GLGSV,1,1,00,3*7A
$GAGSV,1,1,00,7*73
$GAGSV,1,1,00,2*76
$GAGSV,1,1,00,1*75
$GAGSV,1,1,00,5*71
$GBGSV,1,1,04,21,73,277,34,22,45,148,31,36,46,059,30,45,71,178,33,1*7F
$GBGSV,1,1,00,B*05
$GBGSV,1,1,00,8*7F
$GBGSV,1,1,04,21,73,277,29,22,45,148,25,36,46,059,25,45,71,178,29,3*7B
$GBGSV,1,1,00,5*72
$GBGSV,1,1,00,6*71
$GQGSV,1,1,00,1*65
$GQGSV,1,1,00,6*62
$GQGSV,1,1,00,8*6C
$GIGSV,1,1,00,1*7D
$GNGGA,211015.000,4910.42564056,N,12304.39889210,W,1,08,1.29,28.612,M,-19.737,M,,*77
$GNRMC,211015.000,A,4910.42564056,N,12304.39889210,W,0.029,053.81,281024,,,A,V*2D
$GNGLL,4910.42564056,N,12304.39889210,W,211015.000,A,A*59
$GNVTG,053.81,T,,M,0.029,N,0.054,K,A*26
$GNGSA,A,3,04,07,09,16,,,,,,,,,3.04,1.29,2.75,1*01
$GNGSA,A,3,,,,,,,,,,,,,3.04,1.29,2.75,2*0F
$GNGSA,A,3,,,,,,,,,,,,,3.04,1.29,2.75,3*0E
$GNGSA,A,3,21,22,36,45,,,,,,,,,3.04,1.29,2.75,4*0E
$GNGSA,A,3,,,,,,,,,,,,,3.04,1.29,2.75,5*08
$GNGSA,A,3,,,,,,,,,,,,,3.04,1.29,2.75,6*0B
$GPGSV,2,1,05,04,70,100,30,07,42,245,28,09,73,301,32,16,47,081,30,1*6B
$GPGSV,2,2,05,26,,,24,1*63
$GPGSV,1,1,00,6*63
$GPGSV,1,1,00,8*6D
$GLGSV,1,1,00,1*78
$GLGSV,1,1,00,3*7A
$GAGSV,1,1,00,7*73
$GAGSV,1,1,00,2*76
$GAGSV,1,1,00,1*75
$GAGSV,1,1,00,5*71
$GBGSV,1,1,04,21,73,277,34,22,45,148,31,36,46,059,30,45,71,178,33,1*7F
$GBGSV,1,1,00,B*05
$GBGSV,1,1,00,8*7F
$GBGSV,1,1,04,21,73,277,29,22,45,148,24,36,46,059,25,45,71,178,29,3*7A
$GBGSV,1,1,00,5*72
$GBGSV,1,1,00,6*71
$GQGSV,1,1,00,1*65
$GQGSV,1,1,00,6*62
$GQGSV,1,1,00,8*6C
$GIGSV,1,1,00,1*7D
$GNGGA,211016.000,4910.42557368,N,12304.39897295,W,1,08,1.29,28.357,M,-19.737,M,,*7C
$GNRMC,211016.000,A,4910.42557368,N,12304.39897295,W,0.046,053.81,281024,,,A,V*2B
$GNGLL,4910.42557368,N,12304.39897295,W,211016.000,A,A*56
$GNVTG,053.81,T,,M,0.046,N,0.084,K,A*22
$GNGSA,A,3,04,07,09,16,,,,,,,,,3.04,1.29,2.75,1*01
$GNGSA,A,3,,,,,,,,,,,,,3.04,1.29,2.75,2*0F
$GNGSA,A,3,,,,,,,,,,,,,3.04,1.29,2.75,3*0E
$GNGSA,A,3,21,22,36,45,,,,,,,,,3.04,1.29,2.75,4*0E
$GNGSA,A,3,,,,,,,,,,,,,3.04,1.29,2.75,5*08
$GNGSA,A,3,,,,,,,,,,,,,3.04,1.29,2.75,6*0B
$GPGSV,2,1,05,04,70,100,30,07,42,245,28,09,73,301,31,16,47,081,30,1*68
$GPGSV,2,2,05,26,,,25,1*62
$GPGSV,1,1,00,6*63
$GPGSV,1,1,00,8*6D
$GLGSV,1,1,00,1*78
$GLGSV,1,1,00,3*7A
$GAGSV,1,1,00,7*73
$GAGSV,1,1,00,2*76
$GAGSV,1,1,00,1*75
$GAGSV,1,1,00,5*71
$GBGSV,1,1,04,21,73,277,34,22,45,148,32,36,46,059,30,45,71,178,33,1*7C
$GBGSV,1,1,00,B*05
$GBGSV,1,1,00,8*7F
$GBGSV,1,1,04,21,73,277,29,22,45,148,24,36,46,059,25,45,71,178,29,3*7A
$GBGSV,1,1,00,5*72
$GBGSV,1,1,00,6*71
$GQGSV,1,1,00,1*65
$GQGSV,1,1,00,6*62
$GQGSV,1,1,00,8*6C
$GIGSV,1,1,00,1*7D
$GNGGA,211017.000,4910.42553690,N,12304.39901375,W,1,08,1.29,27.993,M,-19.737,M,,*77
$GNRMC,211017.000,A,4910.42553690,N,12304.39901375,W,0.049,053.81,281024,,,A,V*22
$GNGLL,4910.42553690,N,12304.39901375,W,211017.000,A,A*50
$GNVTG,053.81,T,,M,0.049,N,0.092,K,A*2A
$GNGSA,A,3,04,07,09,16,,,,,,,,,3.04,1.29,2.75,1*01
$GNGSA,A,3,,,,,,,,,,,,,3.04,1.29,2.75,2*0F
$GNGSA,A,3,,,,,,,,,,,,,3.04,1.29,2.75,3*0E
$GNGSA,A,3,21,22,36,45,,,,,,,,,3.04,1.29,2.75,4*0E
$GNGSA,A,3,,,,,,,,,,,,,3.04,1.29,2.75,5*08
$GNGSA,A,3,,,,,,,,,,,,,3.04,1.29,2.75,6*0B
$GPGSV,2,1,05,04,70,100,30,07,42,245,28,09,73,301,32,16,47,081,30,1*6B
$GPGSV,2,2,05,26,,,24,1*63
$GPGSV,1,1,00,6*63
$GPGSV,1,1,00,8*6D
$GLGSV,1,1,00,1*78
$GLGSV,1,1,00,3*7A
$GAGSV,1,1,00,7*73
$GAGSV,1,1,00,2*76
$GAGSV,1,1,00,1*75
$GAGSV,1,1,00,5*71
$GBGSV,1,1,04,21,73,277,33,22,45,148,31,36,46,059,30,45,71,178,34,1*7F
$GBGSV,1,1,00,B*05
$GBGSV,1,1,00,8*7F
$GBGSV,1,1,04,21,73,277,29,22,45,148,25,36,46,059,25,45,71,178,29,3*7B
$GBGSV,1,1,00,5*72
$GBGSV,1,1,00,6*71
$GQGSV,1,1,00,1*65
$GQGSV,1,1,00,6*62
$GQGSV,1,1,00,8*6C
$GIGSV,1,1,00,1*7D
$GNGGA,211018.000,4910.42548013,N,12304.39898927,W,1,08,1.29,27.701,M,-19.737,M,,*76
$GNRMC,211018.000,A,4910.42548013,N,12304.39898927,W,0.041,053.81,281024,,,A,V*2E
$GNGLL,4910.42548013,N,12304.39898927,W,211018.000,A,A*54
$GNVTG,053.81,T,,M,0.041,N,0.077,K,A*29
$GNGSA,A,3,04,07,09,16,,,,,,,,,3.04,1.29,2.75,1*01
$GNGSA,A,3,,,,,,,,,,,,,3.04,1.29,2.75,2*0F
$GNGSA,A,3,,,,,,,,,,,,,3.04,1.29,2.75,3*0E
$GNGSA,A,3,21,22,36,45,,,,,,,,,3.04,1.29,2.75,4*0E
$GNGSA,A,3,,,,,,,,,,,,,3.04,1.29,2.75,5*08
$GNGSA,A,3,,,,,,,,,,,,,3.04,1.29,2.75,6*0B
$GPGSV,2,1,05,04,70,100,30,07,42,245,27,09,73,301,32,16,47,081,29,1*6C
$GPGSV,2,2,05,26,,,24,1*63
$GPGSV,1,1,00,6*63
$GPGSV,1,1,00,8*6D
$GLGSV,1,1,00,1*78
$GLGSV,1,1,00,3*7A
$GAGSV,1,1,00,7*73
$GAGSV,1,1,00,2*76
$GAGSV,1,1,00,1*75
$GAGSV,1,1,00,5*71
$GBGSV,1,1,04,21,73,277,33,22,45,148,32,36,46,059,30,45,71,178,34,1*7C
$GBGSV,1,1,00,B*05
$GBGSV,1,1,00,8*7F
$GBGSV,1,1,04,21,73,277,29,22,45,148,25,36,46,059,24,45,71,178,29,3*7A
$GBGSV,1,1,00,5*72
$GBGSV,1,1,00,6*71
$GQGSV,1,1,00,1*65
$GQGSV,1,1,00,6*62
$GQGSV,1,1,00,8*6C
$GIGSV,1,1,00,1*7D
$GNGGA,211019.000,4910.42549755,N,12304.39905107,W,1,08,1.29,27.486,M,-19.737,M,,*70
$GNRMC,211019.000,A,4910.42549755,N,12304.39905107,W,0.028,053.81,281024,,,A,V*2B
$GNGLL,4910.42549755,N,12304.39905107,W,211019.000,A,A*5E
$GNVTG,053.81,T,,M,0.028,N,0.052,K,A*21
$GNGSA,A,3,04,07,09,16,,,,,,,,,3.04,1.29,2.75,1*01
$GNGSA,A,3,,,,,,,,,,,,,3.04,1.29,2.75,2*0F
$GNGSA,A,3,,,,,,,,,,,,,3.04,1.29,2.75,3*0E
$GNGSA,A,3,21,22,36,45,,,,,,,,,3.04,1.29,2.75,4*0E
$GNGSA,A,3,,,,,,,,,,,,,3.04,1.29,2.75,5*08
$GNGSA,A,3,,,,,,,,,,,,,3.04,1.29,2.75,6*0B
$GPGSV,2,1,05,04,70,100,30,07,42,245,28,09,73,301,32,16,47,081,30,1*6B
$GPGSV,2,2,05,26,,,24,1*63
$GPGSV,1,1,00,6*63
$GPGSV,1,1,00,8*6D
$GLGSV,1,1,00,1*78
$GLGSV,1,1,00,3*7A
$GAGSV,1,1,00,7*73
$GAGSV,1,1,00,2*76
$GAGSV,1,1,00,1*75
$GAGSV,1,1,00,5*71
$GBGSV,1,1,04,21,73,277,33,22,45,148,32,36,46,059,30,45,71,178,33,1*7B
$GBGSV,1,1,00,B*05
$GBGSV,1,1,00,8*7F
$GBGSV,1,1,04,21,73,277,29,22,45,148,24,36,46,059,25,45,71,178,30,3*72
$GBGSV,1,1,00,5*72
$GBGSV,1,1,00,6*71
$GQGSV,1,1,00,1*65
$GQGSV,1,1,00,6*62
$GQGSV,1,1,00,8*6C
$GIGSV,1,1,00,1*7D
$GNGGA,211020.000,4910.42549582,N,12304.39902765,W,1,08,1.34,27.202,M,-19.737,M,,*71
$GNRMC,211020.000,A,4910.42549582,N,12304.39902765,W,0.027,053.81,281024,,,A,V*23
$GNGLL,4910.42549582,N,12304.39902765,W,211020.000,A,A*59
$GNVTG,053.81,T,,M,0.027,N,0.051,K,A*2D
$GNGSA,A,3,04,07,09,16,,,,,,,,,3.08,1.34,2.77,1*03
$GNGSA,A,3,,,,,,,,,,,,,3.08,1.34,2.77,2*0D
$GNGSA,A,3,,,,,,,,,,,,,3.08,1.34,2.77,3*0C
$GNGSA,A,3,21,22,36,45,,,,,,,,,3.08,1.34,2.77,4*0C
$GNGSA,A,3,,,,,,,,,,,,,3.08,1.34,2.77,5*0A
$GNGSA,A,3,,,,,,,,,,,,,3.08,1.34,2.77,6*09
$GPGSV,2,1,05,04,70,100,31,07,42,245,28,09,73,301,32,16,47,081,30,1*6A
$GPGSV,2,2,05,26,,,24,1*63
$GPGSV,1,1,00,6*63
$GPGSV,1,1,00,8*6D
$GLGSV,1,1,00,1*78
$GLGSV,1,1,00,3*7A
$GAGSV,1,1,00,7*73
$GAGSV,1,1,00,2*76
$GAGSV,1,1,00,1*75
$GAGSV,1,1,00,5*71
$GBGSV,1,1,04,21,73,277,33,22,45,148,32,36,46,059,30,45,71,178,34,1*7C
$GBGSV,1,1,00,B*05
$GBGSV,1,1,00,8*7F
$GBGSV,1,1,04,21,73,277,29,22,45,148,25,36,46,059,25,45,71,178,30,3*73
$GBGSV,1,1,00,5*72
$GBGSV,1,1,00,6*71
$GQGSV,1,1,00,1*65
$GQGSV,1,1,00,6*62
$GQGSV,1,1,00,8*6C
$GIGSV,1,1,00,1*7D
$GNGGA,211021.000,4910.42553858,N,12304.39897645,W,1,08,1.29,26.925,M,-19.737,M,,*7C
$GNRMC,211021.000,A,4910.42553858,N,12304.39897645,W,0.027,053.81,281024,,,A,V*2D
$GNGLL,4910.42553858,N,12304.39897645,W,211021.000,A,A*57
$GNVTG,053.81,T,,M,0.027,N,0.050,K,A*2C
$GNGSA,A,3,04,07,09,16,,,,,,,,,3.04,1.29,2.75,1*01
$GNGSA,A,3,,,,,,,,,,,,,3.04,1.29,2.75,2*0F
$GNGSA,A,3,,,,,,,,,,,,,3.04,1.29,2.75,3*0E
$GNGSA,A,3,21,22,36,45,,,,,,,,,3.04,1.29,2.75,4*0E
$GNGSA,A,3,,,,,,,,,,,,,3.04,1.29,2.75,5*08
$GNGSA,A,3,,,,,,,,,,,,,3.04,1.29,2.75,6*0B
$GPGSV,2,1,05,04,70,100,30,07,42,245,28,09,73,301,32,16,47,081,30,1*6B
$GPGSV,2,2,05,26,,,24,1*63
$GPGSV,1,1,00,6*63
$GPGSV,1,1,00,8*6D
$GLGSV,1,1,00,1*78
$GLGSV,1,1,00,3*7A
$GAGSV,1,1,00,7*73
$GAGSV,1,1,00,2*76
$GAGSV,1,1,00,1*75
$GAGSV,1,1,00,5*71
$GBGSV,1,1,04,21,73,277,34,22,45,148,32,36,46,059,30,45,71,178,34,1*7B
$GBGSV,1,1,00,B*05
$GBGSV,1,1,00,8*7F
$GBGSV,1,1,04,21,73,277,30,22,45,148,25,36,46,059,24,45,71,178,29,3*72
$GBGSV,1,1,00,5*72
$GBGSV,1,1,00,6*71
$GQGSV,1,1,00,1*65
$GQGSV,1,1,00,6*62
$GQGSV,1,1,00,8*6C
$GIGSV,1,1,00,1*7D
$GNGGA,211022.000,4910.42555401,N,12304.39900651,W,1,08,1.29,26.602,M,-19.737,M,,*79
$GNRMC,211022.000,A,4910.42555401,N,12304.39900651,W,0.043,053.81,281024,,,A,V*20
$GNGLL,4910.42555401,N,12304.39900651,W,211022.000,A,A*58
$GNVTG,053.81,T,,M,0.043,N,0.080,K,A*23
$GNGSA,A,3,04,07,09,16,,,,,,,,,3.04,1.29,2.75,1*01
$GNGSA,A,3,,,,,,,,,,,,,3.04,1.29,2.75,2*0F
$GNGSA,A,3,,,,,,,,,,,,,3.04,1.29,2.75,3*0E
$GNGSA,A,3,21,22,36,45,,,,,,,,,3.04,1.29,2.75,4*0E
$GNGSA,A,3,,,,,,,,,,,,,3.04,1.29,2.75,5*08
$GNGSA,A,3,,,,,,,,,,,,,3.04,1.29,2.75,6*0B
$GPGSV,2,1,05,04,70,100,30,07,42,245,28,09,73,301,31,16,47,081,30,1*68
$GPGSV,2,2,05,26,,,24,1*63
$GPGSV,1,1,00,6*63
$GPGSV,1,1,00,8*6D
$GLGSV,1,1,00,1*78
$GLGSV,1,1,00,3*7A
$GAGSV,1,1,00,7*73
$GAGSV,1,1,00,2*76
$GAGSV,1,1,00,1*75
$GAGSV,1,1,00,5*71
$GBGSV,1,1,04,21,73,277,34,22,45,148,32,36,46,059,30,45,71,178,34,1*7B
$GBGSV,1,1,00,B*05
$GBGSV,1,1,00,8*7F
$GBGSV,1,1,04,21,73,277,29,22,45,148,26,36,46,059,24,45,71,178,29,3*79
$GBGSV,1,1,00,5*72
$GBGSV,1,1,00,6*71
$GQGSV,1,1,00,1*65
$GQGSV,1,1,00,6*62
$GQGSV,1,1,00,8*6C
$GIGSV,1,1,00,1*7D
$GNGGA,211023.000,4910.42556115,N,12304.39888652,W,1,08,1.34,26.402,M,-19.737,M,,*77
$GNRMC,211023.000,A,4910.42556115,N,12304.39888652,W,0.044,053.81,281024,,,A,V*27
$GNGLL,4910.42556115,N,12304.39888652,W,211023.000,A,A*58
$GNVTG,053.81,T,,M,0.044,N,0.082,K,A*26
$GNGSA,A,3,04,07,09,16,,,,,,,,,3.08,1.34,2.77,1*03
$GNGSA,A,3,,,,,,,,,,,,,3.08,1.34,2.77,2*0D
$GNGSA,A,3,,,,,,,,,,,,,3.08,1.34,2.77,3*0C
$GNGSA,A,3,21,22,36,45,,,,,,,,,3.08,1.34,2.77,4*0C
$GNGSA,A,3,,,,,,,,,,,,,3.08,1.34,2.77,5*0A
$GNGSA,A,3,,,,,,,,,,,,,3.08,1.34,2.77,6*09
$GPGSV,2,1,05,04,70,100,30,07,42,245,28,09,73,301,31,16,47,081,30,1*68
$GPGSV,2,2,05,26,,,24,1*63
$GPGSV,1,1,00,6*63
$GPGSV,1,1,00,8*6D
$GLGSV,1,1,00,1*78
$GLGSV,1,1,00,3*7A
$GAGSV,1,1,00,7*73
$GAGSV,1,1,00,2*76
$GAGSV,1,1,00,1*75
$GAGSV,1,1,00,5*71
$GBGSV,1,1,04,21,73,277,34,22,45,148,32,36,46,059,30,45,71,178,34,1*7B
$GBGSV,1,1,00,B*05
$GBGSV,1,1,00,8*7F
$GBGSV,1,1,04,21,73,277,29,22,45,148,24,36,46,059,24,45,71,178,30,3*73
$GBGSV,1,1,00,5*72
$GBGSV,1,1,00,6*71
$GQGSV,1,1,00,1*65
$GQGSV,1,1,00,6*62
$GQGSV,1,1,00,8*6C
$GIGSV,1,1,00,1*7D
$GNGGA,211024.000,4910.42555653,N,12304.39886950,W,1,08,1.34,26.184,M,-19.737,M,,*7E
$GNRMC,211024.000,A,4910.42555653,N,12304.39886950,W,0.053,053.81,281024,,,A,V*23
$GNGLL,4910.42555653,N,12304.39886950,W,211024.000,A,A*5A
$GNVTG,053.81,T,,M,0.053,N,0.099,K,A*2A
$GNGSA,A,3,04,07,09,16,,,,,,,,,3.08,1.34,2.77,1*03
$GNGSA,A,3,,,,,,,,,,,,,3.08,1.34,2.77,2*0D
$GNGSA,A,3,,,,,,,,,,,,,3.08,1.34,2.77,3*0C
$GNGSA,A,3,21,22,36,45,,,,,,,,,3.08,1.34,2.77,4*0C
$GNGSA,A,3,,,,,,,,,,,,,3.08,1.34,2.77,5*0A
$GNGSA,A,3,,,,,,,,,,,,,3.08,1.34,2.77,6*09
$GPGSV,2,1,05,04,70,100,31,07,42,245,28,09,73,301,31,16,47,081,30,1*69
$GPGSV,2,2,05,26,,,25,1*62
$GPGSV,1,1,00,6*63
$GPGSV,1,1,00,8*6D
$GLGSV,1,1,00,1*78
$GLGSV,1,1,00,3*7A
$GAGSV,1,1,00,7*73
$GAGSV,1,1,00,2*76
$GAGSV,1,1,00,1*75
$GAGSV,1,1,00,5*71
$GBGSV,1,1,04,21,73,277,34,22,45,148,32,36,46,059,30,45,71,178,34,1*7B
$GBGSV,1,1,00,B*05
$GBGSV,1,1,00,8*7F
$GBGSV,1,1,04,21,73,277,30,22,45,148,25,36,46,059,24,45,71,178,30,3*7A
$GBGSV,1,1,00,5*72
$GBGSV,1,1,00,6*71
$GQGSV,1,1,00,1*65
$GQGSV,1,1,00,6*62
$GQGSV,1,1,00,8*6C
$GIGSV,1,1,00,1*7D
$GNGGA,211025.000,4910.42558899,N,12304.39902515,W,1,08,1.29,25.918,M,-19.737,M,,*78
$GNRMC,211025.000,A,4910.42558899,N,12304.39902515,W,0.063,053.81,281024,,,A,V*24
$GNGLL,4910.42558899,N,12304.39902515,W,211025.000,A,A*5E
$GNVTG,053.81,T,,M,0.063,N,0.117,K,A*2E
$GNGSA,A,3,04,07,09,16,,,,,,,,,3.03,1.29,2.75,1*06
$GNGSA,A,3,,,,,,,,,,,,,3.03,1.29,2.75,2*08
$GNGSA,A,3,,,,,,,,,,,,,3.03,1.29,2.75,3*09
$GNGSA,A,3,21,22,36,45,,,,,,,,,3.03,1.29,2.75,4*09
$GNGSA,A,3,,,,,,,,,,,,,3.03,1.29,2.75,5*0F
$GNGSA,A,3,,,,,,,,,,,,,3.03,1.29,2.75,6*0C
$GPGSV,2,1,05,04,70,100,31,07,42,245,29,09,73,301,32,16,47,081,31,1*6A
$GPGSV,2,2,05,26,,,25,1*62
$GPGSV,1,1,00,6*63
$GPGSV,1,1,00,8*6D
$GLGSV,1,1,00,1*78
$GLGSV,1,1,00,3*7A
$GAGSV,1,1,00,7*73
$GAGSV,1,1,00,2*76
$GAGSV,1,1,00,1*75
$GAGSV,1,1,00,5*71
$GBGSV,1,1,04,21,73,277,34,22,45,148,32,36,46,059,30,45,71,178,34,1*7B
$GBGSV,1,1,00,B*05
$GBGSV,1,1,00,8*7F
$GBGSV,1,1,04,21,73,277,31,22,45,148,26,36,46,059,25,45,71,178,31,3*78
$GBGSV,1,1,00,5*72
$GBGSV,1,1,00,6*71
$GQGSV,1,1,00,1*65
$GQGSV,1,1,00,6*62
$GQGSV,1,1,00,8*6C
$GIGSV,1,1,00,1*7D
$GNGGA,211026.000,4910.42560663,N,12304.39914130,W,1,08,1.34,25.631,M,-19.737,M,,*77
$GNRMC,211026.000,A,4910.42560663,N,12304.39914130,W,0.069,053.81,281024,,,A,V*29
$GNGLL,4910.42560663,N,12304.39914130,W,211026.000,A,A*59
$GNVTG,053.81,T,,M,0.069,N,0.128,K,A*28
$GNGSA,A,3,04,07,09,16,,,,,,,,,3.08,1.34,2.77,1*03
$GNGSA,A,3,,,,,,,,,,,,,3.08,1.34,2.77,2*0D
$GNGSA,A,3,,,,,,,,,,,,,3.08,1.34,2.77,3*0C
$GNGSA,A,3,21,22,36,45,,,,,,,,,3.08,1.34,2.77,4*0C
$GNGSA,A,3,,,,,,,,,,,,,3.08,1.34,2.77,5*0A
$GNGSA,A,3,,,,,,,,,,,,,3.08,1.34,2.77,6*09
$GPGSV,2,1,05,04,70,100,31,07,42,245,29,09,73,301,32,16,47,081,31,1*6A
$GPGSV,2,2,05,26,,,25,1*62
$GPGSV,1,1,00,6*63
$GPGSV,1,1,00,8*6D
$GLGSV,1,1,00,1*78
$GLGSV,1,1,00,3*7A
$GAGSV,1,1,00,7*73
$GAGSV,1,1,00,2*76
$GAGSV,1,1,00,1*75
$GAGSV,1,1,00,5*71
$GBGSV,1,1,04,21,73,277,34,22,45,148,32,36,46,059,30,45,71,178,34,1*7B
$GBGSV,1,1,00,B*05
$GBGSV,1,1,00,8*7F
$GBGSV,1,1,04,21,73,277,31,22,45,148,26,36,46,059,24,45,71,178,31,3*79
$GBGSV,1,1,00,5*72
$GBGSV,1,1,00,6*71
$GQGSV,1,1,00,1*65
$GQGSV,1,1,00,6*62
$GQGSV,1,1,00,8*6C
$GIGSV,1,1,00,1*7D
$GNGGA,211027.000,4910.42563011,N,12304.39917684,W,1,08,1.29,25.390,M,-19.737,M,,*7F
$GNRMC,211027.000,A,4910.42563011,N,12304.39917684,W,0.069,053.81,281024,,,A,V*23
$GNGLL,4910.42563011,N,12304.39917684,W,211027.000,A,A*53
$GNVTG,053.81,T,,M,0.069,N,0.127,K,A*27
$GNGSA,A,3,04,07,09,16,,,,,,,,,3.03,1.29,2.75,1*06
$GNGSA,A,3,,,,,,,,,,,,,3.03,1.29,2.75,2*08
$GNGSA,A,3,,,,,,,,,,,,,3.03,1.29,2.75,3*09
$GNGSA,A,3,21,22,36,45,,,,,,,,,3.03,1.29,2.75,4*09
$GNGSA,A,3,,,,,,,,,,,,,3.03,1.29,2.75,5*0F
$GNGSA,A,3,,,,,,,,,,,,,3.03,1.29,2.75,6*0C
$GPGSV,2,1,05,04,70,100,31,07,42,245,29,09,73,301,32,16,47,081,31,1*6A
$GPGSV,2,2,05,26,,,26,1*61
$GPGSV,1,1,00,6*63
$GPGSV,1,1,00,8*6D
$GLGSV,1,1,00,1*78
$GLGSV,1,1,00,3*7A
$GAGSV,1,1,00,7*73
$GAGSV,1,1,00,2*76
$GAGSV,1,1,00,1*75
$GAGSV,1,1,00,5*71
$GBGSV,1,1,04,21,73,277,34,22,45,148,32,36,46,059,30,45,71,178,35,1*7A
$GBGSV,1,1,00,B*05
$GBGSV,1,1,00,8*7F
$GBGSV,1,1,04,21,73,277,30,22,45,148,26,36,46,059,24,45,71,178,30,3*79
$GBGSV,1,1,00,5*72
$GBGSV,1,1,00,6*71
$GQGSV,1,1,00,1*65
$GQGSV,1,1,00,6*62
$GQGSV,1,1,00,8*6C
$GIGSV,1,1,00,1*7D
$GNGGA,211028.000,4910.42568571,N,12304.39914987,W,1,08,1.47,25.075,M,-19.737,M,,*77
$GNRMC,211028.000,A,4910.42568571,N,12304.39914987,W,0.076,053.81,281024,,,A,V*25
$GNGLL,4910.42568571,N,12304.39914987,W,211028.000,A,A*5B
$GNVTG,053.81,T,,M,0.076,N,0.140,K,A*28
$GNGSA,A,3,04,07,09,16,,,,,,,,,3.18,1.47,2.83,1*0D
$GNGSA,A,3,,,,,,,,,,,,,3.18,1.47,2.83,2*03
$GNGSA,A,3,,,,,,,,,,,,,3.18,1.47,2.83,3*02
$GNGSA,A,3,21,22,36,45,,,,,,,,,3.18,1.47,2.83,4*02
$GNGSA,A,3,,,,,,,,,,,,,3.18,1.47,2.83,5*04
$GNGSA,A,3,,,,,,,,,,,,,3.18,1.47,2.83,6*07
$GPGSV,2,1,05,04,70,100,31,07,42,245,29,09,73,301,31,16,47,081,30,1*68
$GPGSV,2,2,05,26,,,25,1*62
$GPGSV,1,1,00,6*63
$GPGSV,1,1,00,8*6D
$GLGSV,1,1,00,1*78
$GLGSV,1,1,00,3*7A
$GAGSV,1,1,00,7*73
$GAGSV,1,1,00,2*76
$GAGSV,1,1,00,1*75
$GAGSV,1,1,00,5*71
$GBGSV,1,1,04,21,73,277,34,22,45,148,32,36,46,059,30,45,71,178,34,1*7B
$GBGSV,1,1,00,B*05
$GBGSV,1,1,00,8*7F
$GBGSV,1,1,04,21,73,277,30,22,45,148,25,36,46,059,23,45,71,178,29,3*75
$GBGSV,1,1,00,5*72
$GBGSV,1,1,00,6*71
$GQGSV,1,1,00,1*65
$GQGSV,1,1,00,6*62
$GQGSV,1,1,00,8*6C
$GIGSV,1,1,00,1*7D
$GNGGA,211029.000,4910.42563458,N,12304.39921614,W,1,08,1.34,24.757,M,-19.737,M,,*76
$GNRMC,211029.000,A,4910.42563458,N,12304.39921614,W,0.132,053.81,281024,,,A,V*27
$GNGLL,4910.42563458,N,12304.39921614,W,211029.000,A,A*58
$GNVTG,053.81,T,,M,0.132,N,0.245,K,A*2F
$GNGSA,A,3,04,07,09,16,,,,,,,,,3.08,1.34,2.77,1*03
$GNGSA,A,3,,,,,,,,,,,,,3.08,1.34,2.77,2*0D
$GNGSA,A,3,,,,,,,,,,,,,3.08,1.34,2.77,3*0C
$GNGSA,A,3,21,22,36,45,,,,,,,,,3.08,1.34,2.77,4*0C
$GNGSA,A,3,,,,,,,,,,,,,3.08,1.34,2.77,5*0A
$GNGSA,A,3,,,,,,,,,,,,,3.08,1.34,2.77,6*09
$GPGSV,2,1,05,04,70,100,30,07,42,245,29,09,73,301,31,16,47,081,30,1*69
$GPGSV,2,2,05,26,,,25,1*62
$GPGSV,1,1,00,6*63
$GPGSV,1,1,00,8*6D
$GLGSV,1,1,00,1*78
$GLGSV,1,1,00,3*7A
$GAGSV,1,1,00,7*73
$GAGSV,1,1,00,2*76
$GAGSV,1,1,00,1*75
$GAGSV,1,1,00,5*71
$GBGSV,1,1,04,21,73,277,33,22,45,148,32,36,46,059,30,45,71,178,34,1*7C
$GBGSV,1,1,00,B*05
$GBGSV,1,1,00,8*7F
$GBGSV,1,1,04,21,73,277,29,22,45,148,25,36,46,059,22,45,71,178,29,3*7C
$GBGSV,1,1,00,5*72
$GBGSV,1,1,00,6*71
$GQGSV,1,1,00,1*65
$GQGSV,1,1,00,6*62
$GQGSV,1,1,00,8*6C
$GIGSV,1,1,00,1*7D
$GNGGA,211030.000,4910.42554292,N,12304.39941826,W,1,08,1.29,24.479,M,-19.737,M,,*70
$GNRMC,211030.000,A,4910.42554292,N,12304.39941826,W,0.090,053.81,281024,,,A,V*2B
$GNGLL,4910.42554292,N,12304.39941826,W,211030.000,A,A*5D
$GNVTG,053.81,T,,M,0.090,N,0.167,K,A*25
$GNGSA,A,3,04,07,09,16,,,,,,,,,3.03,1.29,2.74,1*07
$GNGSA,A,3,,,,,,,,,,,,,3.03,1.29,2.74,2*09
$GNGSA,A,3,,,,,,,,,,,,,3.03,1.29,2.74,3*08
$GNGSA,A,3,21,22,36,45,,,,,,,,,3.03,1.29,2.74,4*08
$GNGSA,A,3,,,,,,,,,,,,,3.03,1.29,2.74,5*0E
$GNGSA,A,3,,,,,,,,,,,,,3.03,1.29,2.74,6*0D
$GPGSV,2,1,05,04,70,100,31,07,42,245,29,09,73,301,31,16,47,081,30,1*68
$GPGSV,2,2,05,26,,,25,1*62
$GPGSV,1,1,00,6*63
$GPGSV,1,1,00,8*6D
$GLGSV,1,1,00,1*78
$GLGSV,1,1,00,3*7A
$GAGSV,1,1,00,7*73
$GAGSV,1,1,00,2*76
$GAGSV,1,1,00,1*75
$GAGSV,1,1,00,5*71
$GBGSV,1,1,04,21,73,277,33,22,45,148,32,36,46,059,30,45,71,178,34,1*7C
$GBGSV,1,1,00,B*05
$GBGSV,1,1,00,8*7F
$GBGSV,1,1,04,21,73,277,29,22,45,148,24,36,46,059,24,45,71,178,29,3*7B
$GBGSV,1,1,00,5*72
$GBGSV,1,1,00,6*71
$GQGSV,1,1,00,1*65
$GQGSV,1,1,00,6*62
$GQGSV,1,1,00,8*6C
$GIGSV,1,1,00,1*7D
$GNGGA,211031.000,4910.42547843,N,12304.39946013,W,1,08,1.41,24.232,M,-19.737,M,,*7B
$GNRMC,211031.000,A,4910.42547843,N,12304.39946013,W,0.033,053.81,281024,,,A,V*2E
$GNGLL,4910.42547843,N,12304.39946013,W,211031.000,A,A*51
$GNVTG,053.81,T,,M,0.033,N,0.062,K,A*28
$GNGSA,A,3,04,07,09,16,,,,,,,,,3.13,1.41,2.79,1*05
$GNGSA,A,3,,,,,,,,,,,,,3.13,1.41,2.79,2*0B
$GNGSA,A,3,,,,,,,,,,,,,3.13,1.41,2.79,3*0A
$GNGSA,A,3,21,22,36,45,,,,,,,,,3.13,1.41,2.79,4*0A
$GNGSA,A,3,,,,,,,,,,,,,3.13,1.41,2.79,5*0C
$GNGSA,A,3,,,,,,,,,,,,,3.13,1.41,2.79,6*0F
$GPGSV,2,1,05,04,70,100,30,07,42,245,29,09,73,301,31,16,47,081,30,1*69
$GPGSV,2,2,05,26,,,25,1*62
$GPGSV,1,1,00,6*63
$GPGSV,1,1,00,8*6D
$GLGSV,1,1,00,1*78
$GLGSV,1,1,00,3*7A
$GAGSV,1,1,00,7*73
$GAGSV,1,1,00,2*76
$GAGSV,1,1,00,1*75
$GAGSV,1,1,00,5*71
$GBGSV,1,1,04,21,73,277,33,22,45,148,32,36,46,059,30,45,71,178,34,1*7C
$GBGSV,1,1,00,B*05
$GBGSV,1,1,00,8*7F
$GBGSV,1,1,04,21,73,277,30,22,45,148,24,36,46,059,23,45,71,178,30,3*7C
$GBGSV,1,1,00,5*72
$GBGSV,1,1,00,6*71
$GQGSV,1,1,00,1*65
$GQGSV,1,1,00,6*62
$GQGSV,1,1,00,8*6C
$GIGSV,1,1,00,1*7D
$GNGGA,211032.000,4910.42551748,N,12304.39955306,W,1,08,1.50,24.011,M,-19.737,M,,*7D
$GNRMC,211032.000,A,4910.42551748,N,12304.39955306,W,0.043,053.81,281024,,,A,V*2C
$GNGLL,4910.42551748,N,12304.39955306,W,211032.000,A,A*54
$GNVTG,053.81,T,,M,0.043,N,0.080,K,A*23
$GNGSA,A,3,04,07,09,16,,,,,,,,,3.46,1.50,3.11,1*0A
$GNGSA,A,3,,,,,,,,,,,,,3.46,1.50,3.11,2*04
$GNGSA,A,3,,,,,,,,,,,,,3.46,1.50,3.11,3*05
$GNGSA,A,3,21,22,36,45,,,,,,,,,3.46,1.50,3.11,4*05
$GNGSA,A,3,,,,,,,,,,,,,3.46,1.50,3.11,5*03
$GNGSA,A,3,,,,,,,,,,,,,3.46,1.50,3.11,6*00
$GPGSV,2,1,05,04,70,100,30,07,42,245,28,09,73,301,30,16,47,081,29,1*61
$GPGSV,2,2,05,26,,,24,1*63
$GPGSV,1,1,00,6*63
$GPGSV,1,1,00,8*6D
$GLGSV,1,1,00,1*78
$GLGSV,1,1,00,3*7A
$GAGSV,1,1,00,7*73
$GAGSV,1,1,00,2*76
$GAGSV,1,1,00,1*75
$GAGSV,1,1,00,5*71
$GBGSV,1,1,04,21,73,277,34,22,45,148,33,36,46,059,30,45,71,178,35,1*7B
$GBGSV,1,1,00,B*05
$GBGSV,1,1,00,8*7F
$GBGSV,1,1,04,21,73,277,28,22,45,148,24,36,46,059,22,45,71,178,29,3*7C
$GBGSV,1,1,00,5*72
$GBGSV,1,1,00,6*71
$GQGSV,1,1,00,1*65
$GQGSV,1,1,00,6*62
$GQGSV,1,1,00,8*6C
$GIGSV,1,1,00,1*7D
$GNGGA,211033.000,4910.42555485,N,12304.39957530,W,1,08,1.63,23.705,M,-19.737,M,,*7E
$GNRMC,211033.000,A,4910.42555485,N,12304.39957530,W,0.100,053.81,281024,,,A,V*2C
$GNGLL,4910.42555485,N,12304.39957530,W,211033.000,A,A*52
$GNVTG,053.81,T,,M,0.100,N,0.185,K,A*21
$GNGSA,A,3,04,07,09,16,,,,,,,,,3.53,1.63,3.13,1*0C
$GNGSA,A,3,,,,,,,,,,,,,3.53,1.63,3.13,2*02
$GNGSA,A,3,,,,,,,,,,,,,3.53,1.63,3.13,3*03
$GNGSA,A,3,21,22,36,45,,,,,,,,,3.53,1.63,3.13,4*03
$GNGSA,A,3,,,,,,,,,,,,,3.53,1.63,3.13,5*05
$GNGSA,A,3,,,,,,,,,,,,,3.53,1.63,3.13,6*06
$GPGSV,2,1,05,04,70,100,30,07,42,245,28,09,73,301,30,16,47,081,30,1*69
$GPGSV,2,2,05,26,,,24,1*63
$GPGSV,1,1,00,6*63
$GPGSV,1,1,00,8*6D
$GLGSV,1,1,00,1*78
$GLGSV,1,1,00,3*7A
$GAGSV,1,1,00,7*73
$GAGSV,1,1,00,2*76
$GAGSV,1,1,00,1*75
$GAGSV,1,1,00,5*71
$GBGSV,1,1,04,21,73,277,33,22,45,148,32,36,46,059,30,45,71,178,34,1*7C
$GBGSV,1,1,00,B*05
$GBGSV,1,1,00,8*7F
$GBGSV,1,1,04,21,73,277,29,22,45,148,25,36,46,059,24,45,71,178,30,3*72
$GBGSV,1,1,00,5*72
$GBGSV,1,1,00,6*71
$GQGSV,1,1,00,1*65
$GQGSV,1,1,00,6*62
$GQGSV,1,1,00,8*6C
$GIGSV,1,1,00,1*7D
$GNGGA,211034.000,4910.42552851,N,12304.39956907,W,1,08,1.42,23.424,M,-19.737,M,,*71
$GNRMC,211034.000,A,4910.42552851,N,12304.39956907,W,0.037,053.81,281024,,,A,V*25
$GNGLL,4910.42552851,N,12304.39956907,W,211034.000,A,A*5E
$GNVTG,053.81,T,,M,0.037,N,0.069,K,A*27
$GNGSA,A,3,04,07,09,16,,,,,,,,,3.24,1.42,2.91,1*04
$GNGSA,A,3,,,,,,,,,,,,,3.24,1.42,2.91,2*0A
$GNGSA,A,3,,,,,,,,,,,,,3.24,1.42,2.91,3*0B
$GNGSA,A,3,21,22,36,45,,,,,,,,,3.24,1.42,2.91,4*0B
$GNGSA,A,3,,,,,,,,,,,,,3.24,1.42,2.91,5*0D
$GNGSA,A,3,,,,,,,,,,,,,3.24,1.42,2.91,6*0E
$GPGSV,2,1,05,04,70,100,30,07,42,245,29,09,73,301,31,16,47,081,30,1*69
$GPGSV,2,2,05,26,,,25,1*62
$GPGSV,1,1,00,6*63
$GPGSV,1,1,00,8*6D
$GLGSV,1,1,00,1*78
$GLGSV,1,1,00,3*7A
$GAGSV,1,1,00,7*73
$GAGSV,1,1,00,2*76
$GAGSV,1,1,00,1*75
$GAGSV,1,1,00,5*71
$GBGSV,1,1,04,21,73,277,33,22,45,148,32,36,46,059,30,45,71,178,34,1*7C
$GBGSV,1,1,00,B*05
$GBGSV,1,1,00,8*7F
$GBGSV,1,1,04,21,73,277,30,22,45,148,25,36,46,059,23,45,71,178,30,3*7D
$GBGSV,1,1,00,5*72
$GBGSV,1,1,00,6*71
$GQGSV,1,1,00,1*65
$GQGSV,1,1,00,6*62
$GQGSV,1,1,00,8*6C
$GIGSV,1,1,00,1*7D
$GNGGA,211035.000,4910.42548504,N,12304.39970403,W,1,08,1.42,23.148,M,-19.737,M,,*74
$GNRMC,211035.000,A,4910.42548504,N,12304.39970403,W,0.155,053.81,281024,,,A,V*2A
$GNGLL,4910.42548504,N,12304.39970403,W,211035.000,A,A*54
$GNVTG,053.81,T,,M,0.155,N,0.286,K,A*21
$GNGSA,A,3,04,07,09,16,,,,,,,,,3.24,1.42,2.91,1*04
$GNGSA,A,3,,,,,,,,,,,,,3.24,1.42,2.91,2*0A
$GNGSA,A,3,,,,,,,,,,,,,3.24,1.42,2.91,3*0B
$GNGSA,A,3,21,22,36,45,,,,,,,,,3.24,1.42,2.91,4*0B
$GNGSA,A,3,,,,,,,,,,,,,3.24,1.42,2.91,5*0D
$GNGSA,A,3,,,,,,,,,,,,,3.24,1.42,2.91,6*0E
$GPGSV,2,1,05,04,70,100,30,07,42,245,28,09,73,301,31,16,47,081,29,1*60
$GPGSV,2,2,05,26,,,25,1*62
$GPGSV,1,1,00,6*63
$GPGSV,1,1,00,8*6D
$GLGSV,1,1,00,1*78
$GLGSV,1,1,00,3*7A
$GAGSV,1,1,00,7*73
$GAGSV,1,1,00,2*76
$GAGSV,1,1,00,1*75
$GAGSV,1,1,00,5*71
$GBGSV,1,1,04,21,73,277,33,22,45,148,32,36,46,059,30,45,71,178,34,1*7C
$GBGSV,1,1,00,B*05
$GBGSV,1,1,00,8*7F
$GBGSV,1,1,04,21,73,277,29,22,45,148,24,36,46,059,22,45,71,178,29,3*7D
$GBGSV,1,1,00,5*72
$GBGSV,1,1,00,6*71
$GQGSV,1,1,00,1*65
$GQGSV,1,1,00,6*62
$GQGSV,1,1,00,8*6C
$GIGSV,1,1,00,1*7D
$GNGGA,211036.000,4910.42539878,N,12304.39974153,W,1,08,1.29,22.795,M,-19.737,M,,*79
$GNRMC,211036.000,A,4910.42539878,N,12304.39974153,W,0.058,053.81,281024,,,A,V*21
$GNGLL,4910.42539878,N,12304.39974153,W,211036.000,A,A*53
$GNVTG,053.81,T,,M,0.058,N,0.108,K,A*28
$GNGSA,A,3,04,07,09,16,,,,,,,,,3.03,1.29,2.74,1*07
$GNGSA,A,3,,,,,,,,,,,,,3.03,1.29,2.74,2*09
$GNGSA,A,3,,,,,,,,,,,,,3.03,1.29,2.74,3*08
$GNGSA,A,3,21,22,36,45,,,,,,,,,3.03,1.29,2.74,4*08
$GNGSA,A,3,,,,,,,,,,,,,3.03,1.29,2.74,5*0E
$GNGSA,A,3,,,,,,,,,,,,,3.03,1.29,2.74,6*0D
$GPGSV,2,1,05,04,70,100,31,07,42,245,29,09,73,301,32,16,47,081,31,1*6A
$GPGSV,2,2,05,26,,,26,1*61
$GPGSV,1,1,00,6*63
$GPGSV,1,1,00,8*6D
$GLGSV,1,1,00,1*78
$GLGSV,1,1,00,3*7A
$GAGSV,1,1,00,7*73
$GAGSV,1,1,00,2*76
$GAGSV,1,1,00,1*75
$GAGSV,1,1,00,5*71
$GBGSV,1,1,04,21,73,277,32,22,45,148,31,36,46,059,29,45,71,178,33,1*71
$GBGSV,1,1,00,B*05
$GBGSV,1,1,00,8*7F
$GBGSV,1,1,04,21,73,277,30,22,45,148,26,36,46,059,25,45,71,178,30,3*78
$GBGSV,1,1,00,5*72
$GBGSV,1,1,00,6*71
$GQGSV,1,1,00,1*65
$GQGSV,1,1,00,6*62
$GQGSV,1,1,00,8*6C
$GIGSV,1,1,00,1*7D
$GNGGA,211037.000,4910.42547016,N,12304.39971954,W,1,08,1.29,22.525,M,-19.737,M,,*72
$GNRMC,211037.000,A,4910.42547016,N,12304.39971954,W,0.075,053.81,281024,,,A,V*2C
$GNGLL,4910.42547016,N,12304.39971954,W,211037.000,A,A*51
$GNVTG,053.81,T,,M,0.075,N,0.138,K,A*24
$GNGSA,A,3,04,07,09,16,,,,,,,,,3.03,1.29,2.74,1*07
$GNGSA,A,3,,,,,,,,,,,,,3.03,1.29,2.74,2*09
$GNGSA,A,3,,,,,,,,,,,,,3.03,1.29,2.74,3*08
$GNGSA,A,3,21,22,36,45,,,,,,,,,3.03,1.29,2.74,4*08
$GNGSA,A,3,,,,,,,,,,,,,3.03,1.29,2.74,5*0E
$GNGSA,A,3,,,,,,,,,,,,,3.03,1.29,2.74,6*0D
$GPGSV,2,1,05,04,70,100,31,07,42,245,30,09,73,301,32,16,47,081,31,1*62
$GPGSV,2,2,05,26,,,27,1*60
$GPGSV,1,1,00,6*63
$GPGSV,1,1,00,8*6D
$GLGSV,1,1,00,1*78
$GLGSV,1,1,00,3*7A
$GAGSV,1,1,00,7*73
$GAGSV,1,1,00,2*76
$GAGSV,1,1,00,1*75
$GAGSV,1,1,00,5*71
$GBGSV,1,1,04,21,73,277,31,22,45,148,31,36,46,059,29,45,71,178,33,1*72
$GBGSV,1,1,00,B*05
$GBGSV,1,1,00,8*7F
$GBGSV,1,1,04,21,73,277,30,22,45,148,26,36,46,059,24,45,71,178,30,3*79
$GBGSV,1,1,00,5*72
$GBGSV,1,1,00,6*71
$GQGSV,1,1,00,1*65
$GQGSV,1,1,00,6*62
$GQGSV,1,1,00,8*6C
$GIGSV,1,1,00,1*7D
$GNGGA,211038.000,4910.42557648,N,12304.39968830,W,1,08,1.29,22.252,M,-19.737,M,,*7D
$GNRMC,211038.000,A,4910.42557648,N,12304.39968830,W,0.181,053.81,281024,,,A,V*2E
$GNGLL,4910.42557648,N,12304.39968830,W,211038.000,A,A*59
$GNVTG,053.81,T,,M,0.181,N,0.336,K,A*22
$GNGSA,A,3,04,07,09,16,,,,,,,,,3.03,1.29,2.74,1*07
$GNGSA,A,3,,,,,,,,,,,,,3.03,1.29,2.74,2*09
$GNGSA,A,3,,,,,,,,,,,,,3.03,1.29,2.74,3*08
$GNGSA,A,3,21,22,36,45,,,,,,,,,3.03,1.29,2.74,4*08
$GNGSA,A,3,,,,,,,,,,,,,3.03,1.29,2.74,5*0E
$GNGSA,A,3,,,,,,,,,,,,,3.03,1.29,2.74,6*0D
$GPGSV,2,1,05,04,70,100,31,07,42,246,29,09,73,301,32,16,47,081,30,1*68
$GPGSV,2,2,05,26,,,26,1*61
$GPGSV,1,1,00,6*63
$GPGSV,1,1,00,8*6D
$GLGSV,1,1,00,1*78
$GLGSV,1,1,00,3*7A
$GAGSV,1,1,00,7*73
$GAGSV,1,1,00,2*76
$GAGSV,1,1,00,1*75
$GAGSV,1,1,00,5*71
$GBGSV,1,1,04,21,73,277,32,22,45,148,31,36,46,059,29,45,71,178,33,1*71
$GBGSV,1,1,00,B*05
$GBGSV,1,1,00,8*7F
$GBGSV,1,1,04,21,73,277,29,22,45,148,25,36,46,059,23,45,71,178,30,3*75
$GBGSV,1,1,00,5*72
$GBGSV,1,1,00,6*71
$GQGSV,1,1,00,1*65
$GQGSV,1,1,00,6*62
$GQGSV,1,1,00,8*6C
$GIGSV,1,1,00,1*7D
$GNGGA,211039.000,4910.42559272,N,12304.39989454,W,1,08,1.29,21.920,M,-19.737,M,,*73
$GNRMC,211039.000,A,4910.42559272,N,12304.39989454,W,0.132,053.81,281024,,,A,V*25
$GNGLL,4910.42559272,N,12304.39989454,W,211039.000,A,A*5A
$GNVTG,053.81,T,,M,0.132,N,0.245,K,A*2F
$GNGSA,A,3,04,07,09,16,,,,,,,,,3.03,1.29,2.74,1*07
$GNGSA,A,3,,,,,,,,,,,,,3.03,1.29,2.74,2*09
$GNGSA,A,3,,,,,,,,,,,,,3.03,1.29,2.74,3*08
$GNGSA,A,3,21,22,36,45,,,,,,,,,3.03,1.29,2.74,4*08
$GNGSA,A,3,,,,,,,,,,,,,3.03,1.29,2.74,5*0E
$GNGSA,A,3,,,,,,,,,,,,,3.03,1.29,2.74,6*0D
$GPGSV,2,1,05,04,70,100,31,07,42,246,29,09,73,301,32,16,47,081,30,1*68
$GPGSV,2,2,05,26,,,26,1*61
$GPGSV,1,1,00,6*63
$GPGSV,1,1,00,8*6D
$GLGSV,1,1,00,1*78
$GLGSV,1,1,00,3*7A
$GAGSV,1,1,00,7*73
$GAGSV,1,1,00,2*76
$GAGSV,1,1,00,1*75
$GAGSV,1,1,00,5*71
$GBGSV,1,1,04,21,73,277,33,22,45,148,32,36,46,059,30,45,71,178,34,1*7C
$GBGSV,1,1,00,B*05
$GBGSV,1,1,00,8*7F
$GBGSV,1,1,04,21,73,277,30,22,45,148,25,36,46,059,24,45,71,178,29,3*72
$GBGSV,1,1,00,5*72
$GBGSV,1,1,00,6*71
$GQGSV,1,1,00,1*65
$GQGSV,1,1,00,6*62
$GQGSV,1,1,00,8*6C
$GIGSV,1,1,00,1*7D
$GNGGA,211040.000,4910.42559338,N,12304.40007237,W,1,08,1.29,21.675,M,-19.737,M,,*7F
$GNRMC,211040.000,A,4910.42559338,N,12304.40007237,W,0.115,053.81,281024,,,A,V*23
$GNGLL,4910.42559338,N,12304.40007237,W,211040.000,A,A*59
$GNVTG,053.81,T,,M,0.115,N,0.214,K,A*2E
$GNGSA,A,3,04,07,09,16,,,,,,,,,3.03,1.29,2.74,1*07
$GNGSA,A,3,,,,,,,,,,,,,3.03,1.29,2.74,2*09
$GNGSA,A,3,,,,,,,,,,,,,3.03,1.29,2.74,3*08
$GNGSA,A,3,21,22,36,45,,,,,,,,,3.03,1.29,2.74,4*08
$GNGSA,A,3,,,,,,,,,,,,,3.03,1.29,2.74,5*0E
$GNGSA,A,3,,,,,,,,,,,,,3.03,1.29,2.74,6*0D
$GPGSV,2,1,05,04,70,100,31,07,42,246,29,09,73,301,32,16,47,081,30,1*68
$GPGSV,2,2,05,26,,,26,1*61
$GPGSV,1,1,00,6*63
$GPGSV,1,1,00,8*6D
$GLGSV,1,1,00,1*78
$GLGSV,1,1,00,3*7A
$GAGSV,1,1,00,7*73
$GAGSV,1,1,00,2*76
$GAGSV,1,1,00,1*75
$GAGSV,1,1,00,5*71
$GBGSV,1,1,04,21,73,277,32,22,45,148,32,36,46,059,29,45,71,178,34,1*75
$GBGSV,1,1,00,B*05
$GBGSV,1,1,00,8*7F
$GBGSV,1,1,04,21,73,277,30,22,45,148,25,36,46,059,24,45,71,178,29,3*72
$GBGSV,1,1,00,5*72
$GBGSV,1,1,00,6*71
$GQGSV,1,1,00,1*65
$GQGSV,1,1,00,6*62
$GQGSV,1,1,00,8*6C
$GIGSV,1,1,00,1*7D
$GNGGA,211041.000,4910.42560094,N,12304.40010569,W,1,08,1.29,21.478,M,-19.737,M,,*74
$GNRMC,211041.000,A,4910.42560094,N,12304.40010569,W,0.091,053.81,281024,,,A,V*2A
$GNGLL,4910.42560094,N,12304.40010569,W,211041.000,A,A*5D
$GNVTG,053.81,T,,M,0.091,N,0.168,K,A*2B
$GNGSA,A,3,04,07,09,16,,,,,,,,,3.03,1.29,2.74,1*07
$GNGSA,A,3,,,,,,,,,,,,,3.03,1.29,2.74,2*09
$GNGSA,A,3,,,,,,,,,,,,,3.03,1.29,2.74,3*08
$GNGSA,A,3,21,22,36,45,,,,,,,,,3.03,1.29,2.74,4*08
$GNGSA,A,3,,,,,,,,,,,,,3.03,1.29,2.74,5*0E
$GNGSA,A,3,,,,,,,,,,,,,3.03,1.29,2.74,6*0D
$GPGSV,2,1,05,04,70,100,31,07,42,246,29,09,73,301,32,16,47,081,31,1*69
$GPGSV,2,2,05,26,,,27,1*60
$GPGSV,1,1,00,6*63
$GPGSV,1,1,00,8*6D
$GLGSV,1,1,00,1*78
$GLGSV,1,1,00,3*7A
$GAGSV,1,1,00,7*73
$GAGSV,1,1,00,2*76
$GAGSV,1,1,00,1*75
$GAGSV,1,1,00,5*71
$GBGSV,1,1,04,21,73,276,32,22,45,148,31,36,46,059,29,45,71,178,34,1*77
$GBGSV,1,1,00,B*05
$GBGSV,1,1,00,8*7F
$GBGSV,1,1,04,21,73,276,30,22,45,148,26,36,46,059,25,45,71,178,30,3*79
$GBGSV,1,1,00,5*72
$GBGSV,1,1,00,6*71
$GQGSV,1,1,00,1*65
$GQGSV,1,1,00,6*62
$GQGSV,1,1,00,8*6C
$GIGSV,1,1,00,1*7D
$GNGGA,211042.000,4910.42547486,N,12304.40034381,W,1,08,1.29,21.241,M,-19.737,M,,*7F
$GNRMC,211042.000,A,4910.42547486,N,12304.40034381,W,0.110,053.81,281024,,,A,V*25
$GNGLL,4910.42547486,N,12304.40034381,W,211042.000,A,A*5A
$GNVTG,053.81,T,,M,0.110,N,0.203,K,A*2D
$GNGSA,A,3,04,07,09,16,,,,,,,,,3.03,1.29,2.74,1*07
$GNGSA,A,3,,,,,,,,,,,,,3.03,1.29,2.74,2*09
$GNGSA,A,3,,,,,,,,,,,,,3.03,1.29,2.74,3*08
$GNGSA,A,3,21,22,36,45,,,,,,,,,3.03,1.29,2.74,4*08
$GNGSA,A,3,,,,,,,,,,,,,3.03,1.29,2.74,5*0E
$GNGSA,A,3,,,,,,,,,,,,,3.03,1.29,2.74,6*0D
$GPGSV,2,1,05,04,70,100,31,07,42,246,29,09,73,301,33,16,47,081,31,1*68
$GPGSV,2,2,05,26,,,27,1*60
$GPGSV,1,1,00,6*63
$GPGSV,1,1,00,8*6D
$GLGSV,1,1,00,1*78
$GLGSV,1,1,00,3*7A
$GAGSV,1,1,00,7*73
$GAGSV,1,1,00,2*76
$GAGSV,1,1,00,1*75
$GAGSV,1,1,00,5*71
$GBGSV,1,1,04,21,73,276,32,22,45,148,31,36,46,059,29,45,71,178,34,1*77
$GBGSV,1,1,00,B*05
$GBGSV,1,1,00,8*7F
$GBGSV,1,1,04,21,73,276,30,22,45,148,26,36,46,059,25,45,71,178,30,3*79
$GBGSV,1,1,00,5*72
$GBGSV,1,1,00,6*71
$GQGSV,1,1,00,1*65
$GQGSV,1,1,00,6*62
$GQGSV,1,1,00,8*6C
$GIGSV,1,1,00,1*7D
$GNGGA,211043.000,4910.42547251,N,12304.40045353,W,1,08,1.29,20.941,M,-19.737,M,,*71
$GNRMC,211043.000,A,4910.42547251,N,12304.40045353,W,0.083,053.81,281024,,,A,V*2A
$GNGLL,4910.42547251,N,12304.40045353,W,211043.000,A,A*5E
$GNVTG,053.81,T,,M,0.083,N,0.155,K,A*26
$GNGSA,A,3,04,07,09,16,,,,,,,,,3.03,1.29,2.74,1*07
$GNGSA,A,3,,,,,,,,,,,,,3.03,1.29,2.74,2*09
$GNGSA,A,3,,,,,,,,,,,,,3.03,1.29,2.74,3*08
$GNGSA,A,3,21,22,36,45,,,,,,,,,3.03,1.29,2.74,4*08
$GNGSA,A,3,,,,,,,,,,,,,3.03,1.29,2.74,5*0E
$GNGSA,A,3,,,,,,,,,,,,,3.03,1.29,2.74,6*0D
$GPGSV,2,1,05,04,70,100,31,07,42,246,29,09,73,301,32,16,47,081,31,1*69
$GPGSV,2,2,05,26,,,27,1*60
$GPGSV,1,1,00,6*63
$GPGSV,1,1,00,8*6D
$GLGSV,1,1,00,1*78
$GLGSV,1,1,00,3*7A
$GAGSV,1,1,00,7*73
$GAGSV,1,1,00,2*76
$GAGSV,1,1,00,1*75
$GAGSV,1,1,00,5*71
$GBGSV,1,1,04,21,73,276,32,22,45,148,31,36,46,059,29,45,71,178,34,1*77
$GBGSV,1,1,00,B*05
$GBGSV,1,1,00,8*7F
$GBGSV,1,1,04,21,73,276,30,22,45,148,25,36,46,059,24,45,71,178,30,3*7B
$GBGSV,1,1,00,5*72
$GBGSV,1,1,00,6*71
$GQGSV,1,1,00,1*65
$GQGSV,1,1,00,6*62
$GQGSV,1,1,00,8*6C
$GIGSV,1,1,00,1*7D
$GNGGA,211044.000,4910.42550483,N,12304.40037339,W,1,08,1.29,20.692,M,-19.737,M,,*71
$GNRMC,211044.000,A,4910.42550483,N,12304.40037339,W,0.016,053.81,281024,,,A,V*27
$GNGLL,4910.42550483,N,12304.40037339,W,211044.000,A,A*5F
$GNVTG,053.81,T,,M,0.016,N,0.029,K,A*20
$GNGSA,A,3,04,07,09,16,,,,,,,,,3.03,1.29,2.74,1*07
$GNGSA,A,3,,,,,,,,,,,,,3.03,1.29,2.74,2*09
$GNGSA,A,3,,,,,,,,,,,,,3.03,1.29,2.74,3*08
$GNGSA,A,3,21,22,36,45,,,,,,,,,3.03,1.29,2.74,4*08
$GNGSA,A,3,,,,,,,,,,,,,3.03,1.29,2.74,5*0E
$GNGSA,A,3,,,,,,,,,,,,,3.03,1.29,2.74,6*0D
$GPGSV,2,1,05,04,70,100,31,07,42,246,30,09,73,301,32,16,47,081,31,1*61
$GPGSV,2,2,05,26,,,27,1*60
$GPGSV,1,1,00,6*63
$GPGSV,1,1,00,8*6D
$GLGSV,1,1,00,1*78
$GLGSV,1,1,00,3*7A
$GAGSV,1,1,00,7*73
$GAGSV,1,1,00,2*76
$GAGSV,1,1,00,1*75
$GAGSV,1,1,00,5*71
$GBGSV,1,1,04,21,73,276,32,22,45,148,32,36,46,059,29,45,71,178,34,1*74
$GBGSV,1,1,00,B*05
$GBGSV,1,1,00,8*7F
$GBGSV,1,1,04,21,73,276,29,22,45,148,25,36,46,059,25,45,71,178,30,3*72
$GBGSV,1,1,00,5*72
$GBGSV,1,1,00,6*71
$GQGSV,1,1,00,1*65
$GQGSV,1,1,00,6*62
$GQGSV,1,1,00,8*6C
$GIGSV,1,1,00,1*7D
$GNGGA,211045.000,4910.42556395,N,12304.40033387,W,1,08,1.29,20.441,M,-19.737,M,,*7B
$GNRMC,211045.000,A,4910.42556395,N,12304.40033387,W,0.030,053.81,281024,,,A,V*25
$GNGLL,4910.42556395,N,12304.40033387,W,211045.000,A,A*59
$GNVTG,053.81,T,,M,0.030,N,0.056,K,A*2C
$GNGSA,A,3,04,07,09,16,,,,,,,,,3.03,1.29,2.74,1*07
$GNGSA,A,3,,,,,,,,,,,,,3.03,1.29,2.74,2*09
$GNGSA,A,3,,,,,,,,,,,,,3.03,1.29,2.74,3*08
$GNGSA,A,3,21,22,36,45,,,,,,,,,3.03,1.29,2.74,4*08
$GNGSA,A,3,,,,,,,,,,,,,3.03,1.29,2.74,5*0E
$GNGSA,A,3,,,,,,,,,,,,,3.03,1.29,2.74,6*0D
$GPGSV,2,1,05,04,70,100,31,07,42,246,29,09,73,301,32,16,47,081,31,1*69
$GPGSV,2,2,05,26,,,27,1*60
$GPGSV,1,1,00,6*63
$GPGSV,1,1,00,8*6D
$GLGSV,1,1,00,1*78
$GLGSV,1,1,00,3*7A
$GAGSV,1,1,00,7*73
$GAGSV,1,1,00,2*76
$GAGSV,1,1,00,1*75
$GAGSV,1,1,00,5*71
$GBGSV,1,1,04,21,73,276,32,22,45,148,32,36,46,059,30,45,71,178,34,1*7C
$GBGSV,1,1,00,B*05
$GBGSV,1,1,00,8*7F
$GBGSV,1,1,04,21,73,276,30,22,45,148,25,36,46,059,24,45,71,178,30,3*7B
$GBGSV,1,1,00,5*72
$GBGSV,1,1,00,6*71
$GQGSV,1,1,00,1*65
$GQGSV,1,1,00,6*62
$GQGSV,1,1,00,8*6C
$GIGSV,1,1,00,1*7D
$GNGGA,211046.000,4910.42559227,N,12304.40046596,W,1,08,1.29,20.250,M,-19.737,M,,*7D
$GNRMC,211046.000,A,4910.42559227,N,12304.40046596,W,0.037,053.81,281024,,,A,V*22
$GNGLL,4910.42559227,N,12304.40046596,W,211046.000,A,A*59
$GNVTG,053.81,T,,M,0.037,N,0.069,K,A*27
$GNGSA,A,3,04,07,09,16,,,,,,,,,3.03,1.29,2.74,1*07
$GNGSA,A,3,,,,,,,,,,,,,3.03,1.29,2.74,2*09
$GNGSA,A,3,,,,,,,,,,,,,3.03,1.29,2.74,3*08
$GNGSA,A,3,21,22,36,45,,,,,,,,,3.03,1.29,2.74,4*08
$GNGSA,A,3,,,,,,,,,,,,,3.03,1.29,2.74,5*0E
$GNGSA,A,3,,,,,,,,,,,,,3.03,1.29,2.74,6*0D
$GPGSV,2,1,05,04,70,100,31,07,42,246,29,09,73,301,32,16,47,080,30,1*69
$GPGSV,2,2,05,26,,,27,1*60
$GPGSV,1,1,00,6*63
$GPGSV,1,1,00,8*6D
$GLGSV,1,1,00,1*78
$GLGSV,1,1,00,3*7A
$GAGSV,1,1,00,7*73
$GAGSV,1,1,00,2*76
$GAGSV,1,1,00,1*75
$GAGSV,1,1,00,5*71
$GBGSV,1,1,04,21,73,276,33,22,45,148,32,36,46,059,30,45,71,178,34,1*7D
$GBGSV,1,1,00,B*05
$GBGSV,1,1,00,8*7F
$GBGSV,1,1,04,21,73,276,30,22,45,148,24,36,46,059,24,45,71,178,30,3*7A
$GBGSV,1,1,00,5*72
$GBGSV,1,1,00,6*71
$GQGSV,1,1,00,1*65
$GQGSV,1,1,00,6*62
$GQGSV,1,1,00,8*6C
$GIGSV,1,1,00,1*7D
$GNGGA,211047.000,4910.42562401,N,12304.40052681,W,1,08,1.29,20.050,M,-19.737,M,,*74
$GNRMC,211047.000,A,4910.42562401,N,12304.40052681,W,0.058,053.81,281024,,,A,V*20
$GNGLL,4910.42562401,N,12304.40052681,W,211047.000,A,A*52
$GNVTG,053.81,T,,M,0.058,N,0.107,K,A*27
$GNGSA,A,3,04,07,09,16,,,,,,,,,3.03,1.29,2.74,1*07
$GNGSA,A,3,,,,,,,,,,,,,3.03,1.29,2.74,2*09
$GNGSA,A,3,,,,,,,,,,,,,3.03,1.29,2.74,3*08
$GNGSA,A,3,21,22,36,45,,,,,,,,,3.03,1.29,2.74,4*08
$GNGSA,A,3,,,,,,,,,,,,,3.03,1.29,2.74,5*0E
$GNGSA,A,3,,,,,,,,,,,,,3.03,1.29,2.74,6*0D
$GPGSV,2,1,05,04,70,100,31,07,42,246,29,09,73,301,32,16,47,080,31,1*68
$GPGSV,2,2,05,26,,,27,1*60
$GPGSV,1,1,00,6*63
$GPGSV,1,1,00,8*6D
$GLGSV,1,1,00,1*78
$GLGSV,1,1,00,3*7A
$GAGSV,1,1,00,7*73
$GAGSV,1,1,00,2*76
$GAGSV,1,1,00,1*75
$GAGSV,1,1,00,5*71
$GBGSV,1,1,04,21,73,276,33,22,45,148,32,36,46,059,30,45,71,178,34,1*7D
$GBGSV,1,1,00,B*05
$GBGSV,1,1,00,8*7F
$GBGSV,1,1,04,21,73,276,29,22,45,148,25,36,46,059,24,45,71,178,30,3*73
$GBGSV,1,1,00,5*72
$GBGSV,1,1,00,6*71
$GQGSV,1,1,00,1*65
$GQGSV,1,1,00,6*62
$GQGSV,1,1,00,8*6C
$GIGSV,1,1,00,1*7D
$GNGGA,211048.000,4910.42576124,N,12304.40071616,W,1,08,1.29,19.790,M,-19.737,M,,*72
$GNRMC,211048.000,A,4910.42576124,N,12304.40071616,W,0.185,053.81,281024,,,A,V*26
$GNGLL,4910.42576124,N,12304.40071616,W,211048.000,A,A*55
$GNVTG,053.81,T,,M,0.185,N,0.342,K,A*25
$GNGSA,A,3,04,07,09,16,,,,,,,,,3.03,1.29,2.74,1*07
$GNGSA,A,3,,,,,,,,,,,,,3.03,1.29,2.74,2*09
$GNGSA,A,3,,,,,,,,,,,,,3.03,1.29,2.74,3*08
$GNGSA,A,3,21,22,36,45,,,,,,,,,3.03,1.29,2.74,4*08
$GNGSA,A,3,,,,,,,,,,,,,3.03,1.29,2.74,5*0E
$GNGSA,A,3,,,,,,,,,,,,,3.03,1.29,2.74,6*0D
$GPGSV,2,1,05,04,70,100,31,07,42,246,29,09,73,301,32,16,47,080,30,1*69
$GPGSV,2,2,05,26,,,27,1*60
$GPGSV,1,1,00,6*63
$GPGSV,1,1,00,8*6D
$GLGSV,1,1,00,1*78
$GLGSV,1,1,00,3*7A
$GAGSV,1,1,00,7*73
$GAGSV,1,1,00,2*76
$GAGSV,1,1,00,1*75
$GAGSV,1,1,00,5*71
$GBGSV,1,1,04,21,73,276,33,22,45,148,32,36,46,059,30,45,71,178,34,1*7D
$GBGSV,1,1,00,B*05
$GBGSV,1,1,00,8*7F
$GBGSV,1,1,04,21,73,276,29,22,45,148,25,36,46,059,24,45,71,178,29,3*7B
$GBGSV,1,1,00,5*72
$GBGSV,1,1,00,6*71
$GQGSV,1,1,00,1*65
$GQGSV,1,1,00,6*62
$GQGSV,1,1,00,8*6C
$GIGSV,1,1,00,1*7D
$GNGGA,211049.000,4910.42575386,N,12304.40081174,W,1,08,1.29,19.585,M,-19.737,M,,*70
$GNRMC,211049.000,A,4910.42575386,N,12304.40081174,W,0.182,053.81,281024,,,A,V*25
$GNGLL,4910.42575386,N,12304.40081174,W,211049.000,A,A*51
$GNVTG,053.81,T,,M,0.182,N,0.337,K,A*20
$GNGSA,A,3,04,07,09,16,,,,,,,,,3.03,1.29,2.74,1*07
$GNGSA,A,3,,,,,,,,,,,,,3.03,1.29,2.74,2*09
$GNGSA,A,3,,,,,,,,,,,,,3.03,1.29,2.74,3*08
$GNGSA,A,3,21,22,36,45,,,,,,,,,3.03,1.29,2.74,4*08
$GNGSA,A,3,,,,,,,,,,,,,3.03,1.29,2.74,5*0E
$GNGSA,A,3,,,,,,,,,,,,,3.03,1.29,2.74,6*0D
$GPGSV,2,1,05,04,70,100,30,07,42,246,29,09,73,301,32,16,47,080,30,1*68
$GPGSV,2,2,05,26,,,27,1*60
$GPGSV,1,1,00,6*63
$GPGSV,1,1,00,8*6D
$GLGSV,1,1,00,1*78
$GLGSV,1,1,00,3*7A
$GAGSV,1,1,00,7*73
$GAGSV,1,1,00,2*76
$GAGSV,1,1,00,1*75
$GAGSV,1,1,00,5*71
$GBGSV,1,1,04,21,73,276,32,22,45,148,31,36,46,059,30,45,71,178,34,1*7F
$GBGSV,1,1,00,B*05
$GBGSV,1,1,00,8*7F
$GBGSV,1,1,04,21,73,276,28,22,45,148,24,36,46,059,24,45,71,178,29,3*7B
$GBGSV,1,1,00,5*72
$GBGSV,1,1,00,6*71
$GQGSV,1,1,00,1*65
$GQGSV,1,1,00,6*62
$GQGSV,1,1,00,8*6C
$GIGSV,1,1,00,1*7D
$GNGGA,211050.000,4910.42581585,N,12304.40088428,W,1,08,1.29,19.432,M,-19.737,M,,*7E
$GNRMC,211050.000,A,4910.42581585,N,12304.40088428,W,0.136,053.81,281024,,,A,V*29
$GNGLL,4910.42581585,N,12304.40088428,W,211050.000,A,A*52
$GNVTG,053.81,T,,M,0.136,N,0.251,K,A*2E
$GNGSA,A,3,04,07,09,16,,,,,,,,,3.03,1.29,2.74,1*07
$GNGSA,A,3,,,,,,,,,,,,,3.03,1.29,2.74,2*09
$GNGSA,A,3,,,,,,,,,,,,,3.03,1.29,2.74,3*08
$GNGSA,A,3,21,22,36,45,,,,,,,,,3.03,1.29,2.74,4*08
$GNGSA,A,3,,,,,,,,,,,,,3.03,1.29,2.74,5*0E
$GNGSA,A,3,,,,,,,,,,,,,3.03,1.29,2.74,6*0D
$GPGSV,2,1,05,04,70,100,30,07,42,246,28,09,73,301,32,16,47,080,30,1*69
$GPGSV,2,2,05,26,,,27,1*60
$GPGSV,1,1,00,6*63
$GPGSV,1,1,00,8*6D
$GLGSV,1,1,00,1*78
$GLGSV,1,1,00,3*7A
$GAGSV,1,1,00,7*73
$GAGSV,1,1,00,2*76
$GAGSV,1,1,00,1*75
$GAGSV,1,1,00,5*71
$GBGSV,1,1,04,21,73,276,33,22,45,148,32,36,46,059,30,45,71,178,34,1*7D
$GBGSV,1,1,00,B*05
$GBGSV,1,1,00,8*7F
$GBGSV,1,1,04,21,73,276,28,22,45,148,24,36,46,059,23,45,71,178,29,3*7C
$GBGSV,1,1,00,5*72
$GBGSV,1,1,00,6*71
$GQGSV,1,1,00,1*65
$GQGSV,1,1,00,6*62
$GQGSV,1,1,00,8*6C
$GIGSV,1,1,00,1*7D
$GNGGA,211051.000,4910.42585105,N,12304.40092453,W,1,08,1.29,19.129,M,-19.737,M,,*7F
$GNRMC,211051.000,A,4910.42585105,N,12304.40092453,W,0.112,053.81,281024,,,A,V*21
$GNGLL,4910.42585105,N,12304.40092453,W,211051.000,A,A*5C
$GNVTG,053.81,T,,M,0.112,N,0.207,K,A*2B
$GNGSA,A,3,04,07,09,16,,,,,,,,,3.03,1.29,2.74,1*07
$GNGSA,A,3,,,,,,,,,,,,,3.03,1.29,2.74,2*09
$GNGSA,A,3,,,,,,,,,,,,,3.03,1.29,2.74,3*08
$GNGSA,A,3,21,22,36,45,,,,,,,,,3.03,1.29,2.74,4*08
$GNGSA,A,3,,,,,,,,,,,,,3.03,1.29,2.74,5*0E
$GNGSA,A,3,,,,,,,,,,,,,3.03,1.29,2.74,6*0D
$GPGSV,2,1,05,04,70,100,30,07,42,246,29,09,73,301,32,16,47,080,30,1*68
$GPGSV,2,2,05,26,,,27,1*60
$GPGSV,1,1,00,6*63
$GPGSV,1,1,00,8*6D
$GLGSV,1,1,00,1*78
$GLGSV,1,1,00,3*7A
$GAGSV,1,1,00,7*73
$GAGSV,1,1,00,2*76
$GAGSV,1,1,00,1*75
$GAGSV,1,1,00,5*71
$GBGSV,1,1,04,21,73,276,33,22,45,148,31,36,46,059,30,45,71,178,34,1*7E
$GBGSV,1,1,00,B*05
$GBGSV,1,1,00,8*7F
$GBGSV,1,1,04,21,73,276,29,22,45,148,25,36,46,059,24,45,71,178,29,3*7B
$GBGSV,1,1,00,5*72
$GBGSV,1,1,00,6*71
$GQGSV,1,1,00,1*65
$GQGSV,1,1,00,6*62
$GQGSV,1,1,00,8*6C
$GIGSV,1,1,00,1*7D
$GNGGA,211052.000,4910.42589675,N,12304.40082619,W,1,08,1.29,18.845,M,-19.737,M,,*7F
$GNRMC,211052.000,A,4910.42589675,N,12304.40082619,W,0.062,053.81,281024,,,A,V*25
$GNGLL,4910.42589675,N,12304.40082619,W,211052.000,A,A*5E
$GNVTG,053.81,T,,M,0.062,N,0.115,K,A*2D
$GNGSA,A,3,04,07,09,16,,,,,,,,,3.03,1.29,2.74,1*07
$GNGSA,A,3,,,,,,,,,,,,,3.03,1.29,2.74,2*09
$GNGSA,A,3,,,,,,,,,,,,,3.03,1.29,2.74,3*08
$GNGSA,A,3,21,22,36,45,,,,,,,,,3.03,1.29,2.74,4*08
$GNGSA,A,3,,,,,,,,,,,,,3.03,1.29,2.74,5*0E
$GNGSA,A,3,,,,,,,,,,,,,3.03,1.29,2.74,6*0D
$GPGSV,2,1,05,04,70,100,31,07,42,246,29,09,73,301,33,16,47,080,30,1*68
$GPGSV,2,2,05,26,,,27,1*60
$GPGSV,1,1,00,6*63
$GPGSV,1,1,00,8*6D
$GLGSV,1,1,00,1*78
$GLGSV,1,1,00,3*7A
$GAGSV,1,1,00,7*73
$GAGSV,1,1,00,2*76
$GAGSV,1,1,00,1*75
$GAGSV,1,1,00,5*71
$GBGSV,1,1,04,21,73,276,33,22,45,148,31,36,46,059,30,45,71,178,34,1*7E
$GBGSV,1,1,00,B*05
$GBGSV,1,1,00,8*7F
$GBGSV,1,1,04,21,73,276,30,22,45,148,26,36,46,059,24,45,71,178,30,3*78
$GBGSV,1,1,00,5*72
$GBGSV,1,1,00,6*71
$GQGSV,1,1,00,1*65
$GQGSV,1,1,00,6*62
$GQGSV,1,1,00,8*6C
$GIGSV,1,1,00,1*7D
$GNGGA,211053.000,4910.42600968,N,12304.40080391,W,1,08,1.29,18.660,M,-19.737,M,,*71
$GNRMC,211053.000,A,4910.42600968,N,12304.40080391,W,0.056,053.81,281024,,,A,V*25
$GNGLL,4910.42600968,N,12304.40080391,W,211053.000,A,A*59
$GNVTG,053.81,T,,M,0.056,N,0.103,K,A*2D
$GNGSA,A,3,04,07,09,16,,,,,,,,,3.03,1.29,2.74,1*07
$GNGSA,A,3,,,,,,,,,,,,,3.03,1.29,2.74,2*09
$GNGSA,A,3,,,,,,,,,,,,,3.03,1.29,2.74,3*08
$GNGSA,A,3,21,22,36,45,,,,,,,,,3.03,1.29,2.74,4*08
$GNGSA,A,3,,,,,,,,,,,,,3.03,1.29,2.74,5*0E
$GNGSA,A,3,,,,,,,,,,,,,3.03,1.29,2.74,6*0D
$GPGSV,2,1,05,04,70,100,31,07,42,246,29,09,73,301,32,16,47,080,30,1*69
$GPGSV,2,2,05,26,,,27,1*60
$GPGSV,1,1,01,04,70,100,05,6*55
$GPGSV,1,1,00,8*6D
$GLGSV,1,1,00,1*78
$GLGSV,1,1,00,3*7A
$GAGSV,1,1,00,7*73
$GAGSV,1,1,00,2*76
$GAGSV,1,1,00,1*75
$GAGSV,1,1,00,5*71
$GBGSV,1,1,04,21,73,276,33,22,45,148,31,36,46,059,30,45,71,178,35,1*7F
$GBGSV,1,1,00,B*05
$GBGSV,1,1,00,8*7F
$GBGSV,1,1,04,21,73,276,29,22,45,148,25,36,46,059,25,45,71,178,30,3*72
$GBGSV,1,1,00,5*72
$GBGSV,1,1,00,6*71
$GQGSV,1,1,00,1*65
$GQGSV,1,1,00,6*62
$GQGSV,1,1,00,8*6C
$GIGSV,1,1,00,1*7D
$GNGGA,211054.000,4910.42598017,N,12304.40105299,W,1,08,1.29,18.489,M,-19.737,M,,*75
$GNRMC,211054.000,A,4910.42598017,N,12304.40105299,W,0.058,053.81,281024,,,A,V*2A
$GNGLL,4910.42598017,N,12304.40105299,W,211054.000,A,A*58
$GNVTG,053.81,T,,M,0.058,N,0.108,K,A*28
$GNGSA,A,3,04,07,09,16,,,,,,,,,3.03,1.29,2.74,1*07
$GNGSA,A,3,,,,,,,,,,,,,3.03,1.29,2.74,2*09
$GNGSA,A,3,,,,,,,,,,,,,3.03,1.29,2.74,3*08
$GNGSA,A,3,21,22,36,45,,,,,,,,,3.03,1.29,2.74,4*08
$GNGSA,A,3,,,,,,,,,,,,,3.03,1.29,2.74,5*0E
$GNGSA,A,3,,,,,,,,,,,,,3.03,1.29,2.74,6*0D
$GPGSV,2,1,05,04,70,100,30,07,42,246,29,09,73,301,32,16,47,080,30,1*68
$GPGSV,2,2,05,26,,,27,1*60
$GPGSV,1,1,01,04,70,100,16,6*57
$GPGSV,1,1,00,8*6D
$GLGSV,1,1,00,1*78
$GLGSV,1,1,00,3*7A
$GAGSV,1,1,00,7*73
$GAGSV,1,1,00,2*76
$GAGSV,1,1,00,1*75
$GAGSV,1,1,00,5*71
$GBGSV,1,1,04,21,73,276,33,22,45,148,31,36,46,059,30,45,71,178,34,1*7E
$GBGSV,1,1,00,B*05
$GBGSV,1,1,00,8*7F
$GBGSV,1,1,04,21,73,276,29,22,45,148,25,36,46,059,24,45,71,178,30,3*73
$GBGSV,1,1,00,5*72
$GBGSV,1,1,00,6*71
$GQGSV,1,1,00,1*65
$GQGSV,1,1,00,6*62
$GQGSV,1,1,00,8*6C
$GIGSV,1,1,00,1*7D
$GNGGA,211055.000,4910.42599930,N,12304.40119093,W,1,08,1.29,18.152,M,-19.737,M,,*7F
$GNRMC,211055.000,A,4910.42599930,N,12304.40119093,W,0.064,053.81,281024,,,A,V*2C
$GNGLL,4910.42599930,N,12304.40119093,W,211055.000,A,A*51
$GNVTG,053.81,T,,M,0.064,N,0.118,K,A*26
$GNGSA,A,3,04,07,09,16,,,,,,,,,3.03,1.29,2.74,1*07
$GNGSA,A,3,,,,,,,,,,,,,3.03,1.29,2.74,2*09
$GNGSA,A,3,,,,,,,,,,,,,3.03,1.29,2.74,3*08
$GNGSA,A,3,21,22,36,45,,,,,,,,,3.03,1.29,2.74,4*08
$GNGSA,A,3,,,,,,,,,,,,,3.03,1.29,2.74,5*0E
$GNGSA,A,3,,,,,,,,,,,,,3.03,1.29,2.74,6*0D
$GPGSV,2,1,05,04,70,100,30,07,42,246,29,09,73,301,32,16,47,080,30,1*68
$GPGSV,2,2,05,26,,,27,1*60
$GPGSV,1,1,00,6*63
$GPGSV,1,1,00,8*6D
$GLGSV,1,1,00,1*78
$GLGSV,1,1,00,3*7A
$GAGSV,1,1,00,7*73
$GAGSV,1,1,00,2*76
$GAGSV,1,1,00,1*75
$GAGSV,1,1,00,5*71
$GBGSV,1,1,04,21,73,276,32,22,45,148,31,36,46,059,29,45,71,178,34,1*77
$GBGSV,1,1,00,B*05
$GBGSV,1,1,00,8*7F
$GBGSV,1,1,04,21,73,276,29,22,45,148,25,36,46,059,24,45,71,178,30,3*73
$GBGSV,1,1,00,5*72
$GBGSV,1,1,00,6*71
$GQGSV,1,1,00,1*65
$GQGSV,1,1,00,6*62
$GQGSV,1,1,00,8*6C
$GIGSV,1,1,00,1*7D
$GNGGA,211056.000,4910.42594271,N,12304.40121539,W,1,08,1.29,18.032,M,-19.737,M,,*76
$GNRMC,211056.000,A,4910.42594271,N,12304.40121539,W,0.026,053.81,281024,,,A,V*24
$GNGLL,4910.42594271,N,12304.40121539,W,211056.000,A,A*5F
$GNVTG,053.81,T,,M,0.026,N,0.049,K,A*25
$GNGSA,A,3,04,07,09,16,,,,,,,,,3.03,1.29,2.74,1*07
$GNGSA,A,3,,,,,,,,,,,,,3.03,1.29,2.74,2*09
$GNGSA,A,3,,,,,,,,,,,,,3.03,1.29,2.74,3*08
$GNGSA,A,3,21,22,36,45,,,,,,,,,3.03,1.29,2.74,4*08
$GNGSA,A,3,,,,,,,,,,,,,3.03,1.29,2.74,5*0E
$GNGSA,A,3,,,,,,,,,,,,,3.03,1.29,2.74,6*0D
$GPGSV,2,1,05,04,70,100,30,07,42,246,29,09,73,301,32,16,47,080,30,1*68
$GPGSV,2,2,05,26,,,27,1*60
$GPGSV,1,1,00,6*63
$GPGSV,1,1,00,8*6D
$GLGSV,1,1,00,1*78
$GLGSV,1,1,00,3*7A
$GAGSV,1,1,00,7*73
$GAGSV,1,1,00,2*76
$GAGSV,1,1,00,1*75
$GAGSV,1,1,00,5*71
$GBGSV,1,1,04,21,73,276,32,22,45,148,30,36,46,059,29,45,71,178,34,1*76
$GBGSV,1,1,00,B*05
$GBGSV,1,1,00,8*7F
$GBGSV,1,1,04,21,73,276,29,22,45,148,25,36,46,059,24,45,71,178,30,3*73
$GBGSV,1,1,00,5*72
$GBGSV,1,1,00,6*71
$GQGSV,1,1,00,1*65
$GQGSV,1,1,00,6*62
$GQGSV,1,1,00,8*6C
$GIGSV,1,1,00,1*7D
$GNGGA,211057.000,4910.42589214,N,12304.40125498,W,1,08,1.29,17.810,M,-19.737,M,,*71
$GNRMC,211057.000,A,4910.42589214,N,12304.40125498,W,0.013,053.81,281024,,,A,V*22
$GNGLL,4910.42589214,N,12304.40125498,W,211057.000,A,A*5F
$GNVTG,053.81,T,,M,0.013,N,0.024,K,A*28
$GNGSA,A,3,04,07,09,16,,,,,,,,,3.03,1.29,2.74,1*07
$GNGSA,A,3,,,,,,,,,,,,,3.03,1.29,2.74,2*09
$GNGSA,A,3,,,,,,,,,,,,,3.03,1.29,2.74,3*08
$GNGSA,A,3,21,22,36,45,,,,,,,,,3.03,1.29,2.74,4*08
$GNGSA,A,3,,,,,,,,,,,,,3.03,1.29,2.74,5*0E
$GNGSA,A,3,,,,,,,,,,,,,3.03,1.29,2.74,6*0D
$GPGSV,2,1,05,04,70,100,30,07,42,246,29,09,73,301,32,16,47,080,30,1*68
$GPGSV,2,2,05,26,,,27,1*60
$GPGSV,1,1,00,6*63
$GPGSV,1,1,00,8*6D
$GLGSV,1,1,00,1*78
$GLGSV,1,1,00,3*7A
$GAGSV,1,1,00,7*73
$GAGSV,1,1,00,2*76
$GAGSV,1,1,00,1*75
$GAGSV,1,1,00,5*71
$GBGSV,1,1,04,21,73,276,31,22,45,148,30,36,46,059,29,45,71,178,33,1*72
$GBGSV,1,1,00,B*05
$GBGSV,1,1,00,8*7F
$GBGSV,1,1,04,21,73,276,29,22,45,148,26,36,46,059,24,45,71,178,30,3*70
$GBGSV,1,1,00,5*72
$GBGSV,1,1,00,6*71
$GQGSV,1,1,00,1*65
$GQGSV,1,1,00,6*62
$GQGSV,1,1,00,8*6C
$GIGSV,1,1,00,1*7D
$GNGGA,211058.000,4910.42589907,N,12304.40122664,W,1,08,1.29,17.659,M,-19.737,M,,*72
$GNRMC,211058.000,A,4910.42589907,N,12304.40122664,W,0.083,053.81,281024,,,A,V*2B
$GNGLL,4910.42589907,N,12304.40122664,W,211058.000,A,A*5F
$GNVTG,053.81,T,,M,0.083,N,0.154,K,A*27
$GNGSA,A,3,04,07,09,16,,,,,,,,,3.03,1.29,2.74,1*07
$GNGSA,A,3,,,,,,,,,,,,,3.03,1.29,2.74,2*09
$GNGSA,A,3,,,,,,,,,,,,,3.03,1.29,2.74,3*08
$GNGSA,A,3,21,22,36,45,,,,,,,,,3.03,1.29,2.74,4*08
$GNGSA,A,3,,,,,,,,,,,,,3.03,1.29,2.74,5*0E
$GNGSA,A,3,,,,,,,,,,,,,3.03,1.29,2.74,6*0D
$GPGSV,2,1,05,04,70,100,30,07,42,246,29,09,73,301,32,16,47,080,30,1*68
$GPGSV,2,2,05,26,,,28,1*6F
$GPGSV,1,1,00,6*63
$GPGSV,1,1,00,8*6D
$GLGSV,1,1,00,1*78
$GLGSV,1,1,00,3*7A
$GAGSV,1,1,00,7*73
$GAGSV,1,1,00,2*76
$GAGSV,1,1,00,1*75
$GAGSV,1,1,00,5*71
$GBGSV,1,1,04,21,73,276,31,22,45,148,30,36,46,059,29,45,71,178,33,1*72
$GBGSV,1,1,00,B*05
$GBGSV,1,1,00,8*7F
$GBGSV,1,1,04,21,73,276,29,22,45,148,25,36,46,059,25,45,71,178,30,3*72
$GBGSV,1,1,00,5*72
$GBGSV,1,1,00,6*71
$GQGSV,1,1,00,1*65
$GQGSV,1,1,00,6*62
$GQGSV,1,1,00,8*6C
$GIGSV,1,1,00,1*7D
$GNGGA,211059.000,4910.42584479,N,12304.40135163,W,1,08,1.29,17.448,M,-19.737,M,,*7E
$GNRMC,211059.000,A,4910.42584479,N,12304.40135163,W,0.021,053.81,281024,,,A,V*2D
$GNGLL,4910.42584479,N,12304.40135163,W,211059.000,A,A*51
$GNVTG,053.81,T,,M,0.021,N,0.038,K,A*24
$GNGSA,A,3,04,07,09,16,,,,,,,,,3.03,1.29,2.73,1*00
$GNGSA,A,3,,,,,,,,,,,,,3.03,1.29,2.73,2*0E
$GNGSA,A,3,,,,,,,,,,,,,3.03,1.29,2.73,3*0F
$GNGSA,A,3,21,22,36,45,,,,,,,,,3.03,1.29,2.73,4*0F
$GNGSA,A,3,,,,,,,,,,,,,3.03,1.29,2.73,5*09
$GNGSA,A,3,,,,,,,,,,,,,3.03,1.29,2.73,6*0A
$GPGSV,2,1,05,04,70,100,30,07,42,246,28,09,73,301,32,16,47,080,29,1*61
$GPGSV,2,2,05,26,,,27,1*60
$GPGSV,1,1,00,6*63
$GPGSV,1,1,00,8*6D
$GLGSV,1,1,00,1*78
$GLGSV,1,1,00,3*7A
$GAGSV,1,1,00,7*73
$GAGSV,1,1,00,2*76
$GAGSV,1,1,00,1*75
$GAGSV,1,1,00,5*71
$GBGSV,1,1,04,21,73,276,31,22,45,148,29,36,46,059,28,45,71,178,33,1*7B
$GBGSV,1,1,00,B*05
$GBGSV,1,1,00,8*7F
$GBGSV,1,1,04,21,73,276,28,22,45,148,24,36,46,059,23,45,71,178,29,3*7C
$GBGSV,1,1,00,5*72
$GBGSV,1,1,00,6*71
$GQGSV,1,1,00,1*65
$GQGSV,1,1,00,6*62
$GQGSV,1,1,00,8*6C
$GIGSV,1,1,00,1*7D
$GNGGA,211100.000,4910.42580579,N,12304.40147336,W,1,08,1.29,17.223,M,-19.737,M,,*7A
$GNRMC,211100.000,A,4910.42580579,N,12304.40147336,W,0.092,053.81,281024,,,A,V*2A
$GNGLL,4910.42580579,N,12304.40147336,W,211100.000,A,A*5E
$GNVTG,053.81,T,,M,0.092,N,0.171,K,A*20
$GNGSA,A,3,04,07,09,16,,,,,,,,,3.02,1.29,2.73,1*01
$GNGSA,A,3,,,,,,,,,,,,,3.02,1.29,2.73,2*0F
$GNGSA,A,3,,,,,,,,,,,,,3.02,1.29,2.73,3*0E
$GNGSA,A,3,21,22,36,45,,,,,,,,,3.02,1.29,2.73,4*0E
$GNGSA,A,3,,,,,,,,,,,,,3.02,1.29,2.73,5*08
$GNGSA,A,3,,,,,,,,,,,,,3.02,1.29,2.73,6*0B
$GPGSV,2,1,05,04,70,100,29,07,42,246,27,09,73,301,30,16,47,080,28,1*65
$GPGSV,2,2,05,26,,,26,1*61
$GPGSV,1,1,01,04,70,100,07,6*57
$GPGSV,1,1,00,8*6D
$GLGSV,1,1,00,1*78
$GLGSV,1,1,00,3*7A
$GAGSV,1,1,00,7*73
$GAGSV,1,1,00,2*76
$GAGSV,1,1,00,1*75
$GAGSV,1,1,00,5*71
$GBGSV,1,1,04,21,73,276,30,22,45,148,29,36,46,059,28,45,71,178,32,1*7B
$GBGSV,1,1,00,B*05
$GBGSV,1,1,00,8*7F
$GBGSV,1,1,04,21,73,276,27,22,45,148,24,36,46,059,22,45,71,178,28,3*73
$GBGSV,1,1,00,5*72
$GBGSV,1,1,00,6*71
$GQGSV,1,1,00,1*65
$GQGSV,1,1,00,6*62
$GQGSV,1,1,00,8*6C
$GIGSV,1,1,00,1*7D
$GNGGA,211101.000,4910.42573118,N,12304.40155226,W,1,08,1.29,17.040,M,-19.737,M,,*70
$GNRMC,211101.000,A,4910.42573118,N,12304.40155226,W,0.159,053.81,281024,,,A,V*21
$GNGLL,4910.42573118,N,12304.40155226,W,211101.000,A,A*53
$GNVTG,053.81,T,,M,0.159,N,0.294,K,A*2E
$GNGSA,A,3,04,07,09,16,,,,,,,,,3.02,1.29,2.73,1*01
$GNGSA,A,3,,,,,,,,,,,,,3.02,1.29,2.73,2*0F
$GNGSA,A,3,,,,,,,,,,,,,3.02,1.29,2.73,3*0E
$GNGSA,A,3,21,22,36,45,,,,,,,,,3.02,1.29,2.73,4*0E
$GNGSA,A,3,,,,,,,,,,,,,3.02,1.29,2.73,5*08
$GNGSA,A,3,,,,,,,,,,,,,3.02,1.29,2.73,6*0B
$GPGSV,2,1,05,04,70,100,28,07,42,246,27,09,73,301,30,16,47,080,28,1*64
$GPGSV,2,2,05,26,,,25,1*62
$GPGSV,1,1,00,6*63
$GPGSV,1,1,00,8*6D
$GLGSV,1,1,00,1*78
$GLGSV,1,1,00,3*7A
$GAGSV,1,1,00,7*73
$GAGSV,1,1,00,2*76
$GAGSV,1,1,00,1*75
$GAGSV,1,1,00,5*71
$GBGSV,1,1,04,21,73,276,31,22,45,148,29,36,46,059,28,45,71,178,33,1*7B
$GBGSV,1,1,00,B*05
$GBGSV,1,1,00,8*7F
$GBGSV,1,1,04,21,73,276,27,22,45,148,24,36,46,059,23,45,71,178,29,3*73
$GBGSV,1,1,00,5*72
$GBGSV,1,1,00,6*71
$GQGSV,1,1,00,1*65
$GQGSV,1,1,00,6*62
$GQGSV,1,1,00,8*6C
$GIGSV,1,1,00,1*7D
$GNGGA,211102.000,4910.42573626,N,12304.40164074,W,1,08,1.29,16.807,M,-19.737,M,,*74
$GNRMC,211102.000,A,4910.42573626,N,12304.40164074,W,0.042,053.81,281024,,,A,V*24
$GNGLL,4910.42573626,N,12304.40164074,W,211102.000,A,A*5D
$GNVTG,053.81,T,,M,0.042,N,0.077,K,A*2A
$GNGSA,A,3,04,07,09,16,,,,,,,,,3.02,1.29,2.73,1*01
$GNGSA,A,3,,,,,,,,,,,,,3.02,1.29,2.73,2*0F
$GNGSA,A,3,,,,,,,,,,,,,3.02,1.29,2.73,3*0E
$GNGSA,A,3,21,22,36,45,,,,,,,,,3.02,1.29,2.73,4*0E
$GNGSA,A,3,,,,,,,,,,,,,3.02,1.29,2.73,5*08
$GNGSA,A,3,,,,,,,,,,,,,3.02,1.29,2.73,6*0B
$GPGSV,2,1,05,04,70,100,28,07,42,246,27,09,73,301,30,16,47,080,28,1*64
$GPGSV,2,2,05,26,,,25,1*62
$GPGSV,1,1,00,6*63
$GPGSV,1,1,00,8*6D
$GLGSV,1,1,00,1*78
$GLGSV,1,1,00,3*7A
$GAGSV,1,1,00,7*73
$GAGSV,1,1,00,2*76
$GAGSV,1,1,00,1*75
$GAGSV,1,1,00,5*71
$GBGSV,1,1,04,21,73,276,31,22,45,148,29,36,46,059,29,45,71,178,33,1*7A
$GBGSV,1,1,00,B*05
$GBGSV,1,1,00,8*7F
$GBGSV,1,1,04,21,73,276,27,22,45,148,24,36,46,059,22,45,71,178,29,3*72
$GBGSV,1,1,00,5*72
$GBGSV,1,1,00,6*71
$GQGSV,1,1,00,1*65
$GQGSV,1,1,00,6*62
$GQGSV,1,1,00,8*6C
$GIGSV,1,1,00,1*7D
$GNGGA,211103.000,4910.42557348,N,12304.40168870,W,1,08,1.41,16.561,M,-19.737,M,,*7D
$GNRMC,211103.000,A,4910.42557348,N,12304.40168870,W,0.109,053.81,281024,,,A,V*20
$GNGLL,4910.42557348,N,12304.40168870,W,211103.000,A,A*57
$GNVTG,053.81,T,,M,0.109,N,0.202,K,A*24
$GNGSA,A,3,04,07,09,16,,,,,,,,,3.12,1.41,2.78,1*05
$GNGSA,A,3,,,,,,,,,,,,,3.12,1.41,2.78,2*0B
$GNGSA,A,3,,,,,,,,,,,,,3.12,1.41,2.78,3*0A
$GNGSA,A,3,21,22,36,45,,,,,,,,,3.12,1.41,2.78,4*0A
$GNGSA,A,3,,,,,,,,,,,,,3.12,1.41,2.78,5*0C
$GNGSA,A,3,,,,,,,,,,,,,3.12,1.41,2.78,6*0F
$GPGSV,2,1,05,04,70,100,29,07,42,246,28,09,73,301,31,16,47,080,29,1*6A
$GPGSV,2,2,05,26,,,26,1*61
$GPGSV,1,1,00,6*63
$GPGSV,1,1,00,8*6D
$GLGSV,1,1,00,1*78
$GLGSV,1,1,00,3*7A
$GAGSV,1,1,00,7*73
$GAGSV,1,1,00,2*76
$GAGSV,1,1,00,1*75
$GAGSV,1,1,00,5*71
$GBGSV,1,1,04,21,73,276,31,22,45,148,29,36,46,059,29,45,71,178,33,1*7A
$GBGSV,1,1,00,B*05
$GBGSV,1,1,00,8*7F
$GBGSV,1,1,04,21,73,276,27,22,45,148,25,36,46,059,23,45,71,178,29,3*72
$GBGSV,1,1,00,5*72
$GBGSV,1,1,00,6*71
$GQGSV,1,1,00,1*65
$GQGSV,1,1,00,6*62
$GQGSV,1,1,00,8*6C
$GIGSV,1,1,00,1*7D
$GNGGA,211104.000,4910.42561773,N,12304.40200540,W,1,08,1.29,16.166,M,-19.737,M,,*7D
$GNRMC,211104.000,A,4910.42561773,N,12304.40200540,W,0.128,053.81,281024,,,A,V*2E
$GNGLL,4910.42561773,N,12304.40200540,W,211104.000,A,A*5A
$GNVTG,053.81,T,,M,0.128,N,0.238,K,A*2E
$GNGSA,A,3,04,07,09,16,,,,,,,,,3.02,1.29,2.73,1*01
$GNGSA,A,3,,,,,,,,,,,,,3.02,1.29,2.73,2*0F
$GNGSA,A,3,,,,,,,,,,,,,3.02,1.29,2.73,3*0E
$GNGSA,A,3,21,22,36,45,,,,,,,,,3.02,1.29,2.73,4*0E
$GNGSA,A,3,,,,,,,,,,,,,3.02,1.29,2.73,5*08
$GNGSA,A,3,,,,,,,,,,,,,3.02,1.29,2.73,6*0B
$GPGSV,2,1,05,04,70,100,29,07,42,246,28,09,73,301,31,16,47,080,29,1*6A
$GPGSV,2,2,05,26,,,26,1*61
$GPGSV,1,1,00,6*63
$GPGSV,1,1,00,8*6D
$GLGSV,1,1,00,1*78
$GLGSV,1,1,00,3*7A
$GAGSV,1,1,00,7*73
$GAGSV,1,1,00,2*76
$GAGSV,1,1,00,1*75
$GAGSV,1,1,00,5*71
$GBGSV,1,1,04,21,73,276,32,22,45,148,29,36,46,059,29,45,71,178,33,1*79
$GBGSV,1,1,00,B*05
$GBGSV,1,1,00,8*7F
$GBGSV,1,1,04,21,73,276,29,22,45,148,25,36,46,059,25,45,71,178,30,3*72
$GBGSV,1,1,00,5*72
$GBGSV,1,1,00,6*71
$GQGSV,1,1,00,1*65
$GQGSV,1,1,00,6*62
$GQGSV,1,1,00,8*6C
$GIGSV,1,1,00,1*7D
$GNGGA,211105.000,4910.42557033,N,12304.40231273,W,1,08,1.29,15.941,M,-19.737,M,,*71
$GNRMC,211105.000,A,4910.42557033,N,12304.40231273,W,0.167,053.81,281024,,,A,V*27
$GNGLL,4910.42557033,N,12304.40231273,W,211105.000,A,A*58
$GNVTG,053.81,T,,M,0.167,N,0.310,K,A*2E
$GNGSA,A,3,04,07,09,16,,,,,,,,,3.02,1.29,2.73,1*01
$GNGSA,A,3,,,,,,,,,,,,,3.02,1.29,2.73,2*0F
$GNGSA,A,3,,,,,,,,,,,,,3.02,1.29,2.73,3*0E
$GNGSA,A,3,21,22,36,45,,,,,,,,,3.02,1.29,2.73,4*0E
$GNGSA,A,3,,,,,,,,,,,,,3.02,1.29,2.73,5*08
$GNGSA,A,3,,,,,,,,,,,,,3.02,1.29,2.73,6*0B
$GPGSV,2,1,05,04,70,100,29,07,42,246,28,09,73,301,31,16,47,080,29,1*6A
$GPGSV,2,2,05,26,,,26,1*61
$GPGSV,1,1,00,6*63
$GPGSV,1,1,00,8*6D
$GLGSV,1,1,00,1*78
$GLGSV,1,1,00,3*7A
$GAGSV,1,1,00,7*73
$GAGSV,1,1,00,2*76
$GAGSV,1,1,00,1*75
$GAGSV,1,1,00,5*71
$GBGSV,1,1,04,21,73,276,32,22,45,148,29,36,46,059,29,45,71,178,33,1*79
$GBGSV,1,1,00,B*05
$GBGSV,1,1,00,8*7F
$GBGSV,1,1,04,21,73,276,28,22,45,148,25,36,46,059,24,45,71,178,29,3*7A
$GBGSV,1,1,00,5*72
$GBGSV,1,1,00,6*71
$GQGSV,1,1,00,1*65
$GQGSV,1,1,00,6*62
$GQGSV,1,1,00,8*6C
$GIGSV,1,1,00,1*7D
$GNGGA,211106.000,4910.42548922,N,12304.40240495,W,1,08,1.29,15.594,M,-19.737,M,,*79
$GNRMC,211106.000,A,4910.42548922,N,12304.40240495,W,0.113,053.81,281024,,,A,V*28
$GNGLL,4910.42548922,N,12304.40240495,W,211106.000,A,A*54
$GNVTG,053.81,T,,M,0.113,N,0.210,K,A*2C
$GNGSA,A,3,04,07,09,16,,,,,,,,,3.02,1.29,2.73,1*01
$GNGSA,A,3,,,,,,,,,,,,,3.02,1.29,2.73,2*0F
