$GNGGA,005801.000,4910.427766,N,12304.399554,W,2,29,0.48,7.117,M,-16.816,M,,*44
$GNGLL,4910.427766,N,12304.399554,W,005801.000,A,D*55
$GNGSA,A,3,17,19,22,14,24,13,15,02,06,30,,,0.84,0.48,0.69,1*02
$GNGSA,A,3,83,82,72,65,80,75,,,,,,,0.84,0.48,0.69,2*00
$GNGSA,A,3,25,02,10,08,03,24,,,,,,,0.84,0.48,0.69,3*05
$GNGSA,A,3,36,30,27,45,29,21,42,,,,,,0.84,0.48,0.69,4*07
$GPGSV,4,1,13,17,70,079,31,19,67,189,29,22,65,072,30,14,43,086,27,1*60
$GPGSV,4,2,13,24,41,301,27,51,31,159,,13,23,211,23,15,20,248,23,1*66
$GPGSV,4,3,13,02,17,039,17,06,15,156,19,12,11,273,,30,10,144,20,1*65
$GPGSV,4,4,13,21,04,026,,1*55
$GLGSV,3,1,09,83,57,076,21,74,54,317,,84,29,168,,82,26,031,27,1*7E
$GLGSV,3,2,09,72,20,274,23,65,17,332,29,80,15,106,32,75,06,298,25,1*71
$GLGSV,3,3,09,71,01,231,,1*46
$GAGSV,3,1,10,25,78,051,29,02,43,277,25,10,36,084,22,08,34,285,23,7*7E
$GAGSV,3,2,10,11,33,118,,12,29,056,,03,27,226,23,24,26,085,18,7*77
$GAGSV,3,3,10,07,09,333,,36,08,162,,7*77
$GBGSV,3,1,12,36,87,289,36,30,60,141,34,27,40,058,32,46,38,118,,1*71
$GBGSV,3,2,12,45,34,297,28,57,24,057,,29,19,195,24,21,11,295,26,1*73
$GBGSV,3,3,12,42,05,342,21,28,03,035,14,22,02,249,,58,01,127,,1*7F
$GNRMC,005801.000,A,4910.427766,N,12304.399554,W,0.02,330.82,061224,,,D,V*13
$GNVTG,330.82,T,,M,0.02,N,0.03,K,D*2D
$PAIRLOG,Full*51
$GNGGA,005802.000,4910.427724,N,12304.399494,W,2,29,0.48,6.985,M,-16.817,M,,*4F
$GNGLL,4910.427724,N,12304.399494,W,005802.000,A,D*5D
$GNGSA,A,3,17,19,22,14,24,13,15,02,06,30,,,0.84,0.48,0.69,1*02
$GNGSA,A,3,83,82,72,65,80,75,,,,,,,0.84,0.48,0.69,2*00
$GNGSA,A,3,25,02,10,08,03,24,,,,,,,0.84,0.48,0.69,3*05
$GNGSA,A,3,36,30,27,45,29,21,42,,,,,,0.84,0.48,0.69,4*07
$GPGSV,3,1,11,17,70,079,32,19,67,189,29,22,65,072,30,14,43,086,27,1*66
$GPGSV,3,2,11,24,41,301,27,51,31,159,,13,23,211,23,15,20,248,23,1*63
$GPGSV,3,3,11,02,17,039,17,06,15,156,20,30,10,144,20,1*5F
$GLGSV,3,1,09,83,57,076,21,74,54,317,,84,29,168,,82,26,031,27,1*7E
$GLGSV,3,2,09,72,20,274,23,65,17,332,29,80,15,106,32,75,06,298,25,1*71
$GLGSV,3,3,09,71,01,231,,1*46
$GAGSV,2,1,06,25,78,051,29,02,43,277,26,10,36,084,22,08,34,285,23,7*7B
$GAGSV,2,2,06,03,27,226,23,24,26,085,18,7*72
$GBGSV,2,1,08,36,87,289,36,30,60,141,34,27,40,058,32,45,34,297,28,1*7A
$GBGSV,2,2,08,29,19,195,24,21,11,295,26,42,05,342,21,28,03,035,14,1*70
$GNRMC,005802.000,A,4910.427724,N,12304.399494,W,0.02,330.82,061224,,,D,V*1B
$GNVTG,330.82,T,,M,0.02,N,0.03,K,D*2D
$PAIRLOG,Full*51
$GNGGA,005803.000,4910.427670,N,12304.399500,W,2,29,0.48,7.006,M,-16.816,M,,*40
$GNGLL,4910.427670,N,12304.399500,W,005803.000,A,D*50
$GNGSA,A,3,17,19,22,14,24,13,15,02,06,30,,,0.84,0.48,0.69,1*02
$GNGSA,A,3,83,82,72,65,80,75,,,,,,,0.84,0.48,0.69,2*00
$GNGSA,A,3,25,02,10,08,03,24,,,,,,,0.84,0.48,0.69,3*05
$GNGSA,A,3,36,30,27,45,29,21,42,,,,,,0.84,0.48,0.69,4*07
$GPGSV,3,1,11,17,70,079,32,19,67,189,29,22,65,072,30,14,43,086,26,1*67
$GPGSV,3,2,11,24,41,301,27,51,31,159,,13,23,211,23,15,20,248,23,1*63
$GPGSV,3,3,11,02,17,039,17,06,15,156,21,30,10,144,20,1*5E
$GLGSV,3,1,09,83,57,076,21,74,54,317,,84,29,168,,82,26,031,27,1*7E
$GLGSV,3,2,09,72,20,274,23,65,17,332,29,80,15,106,32,75,06,298,26,1*72
$GLGSV,3,3,09,71,01,231,,1*46
$GAGSV,2,1,06,25,78,051,29,02,43,277,26,10,36,084,23,08,34,285,23,7*7A
$GAGSV,2,2,06,03,27,226,23,24,26,085,18,7*72
$GBGSV,2,1,08,36,88,279,36,30,60,141,34,27,40,058,32,45,34,297,29,1*7B
$GBGSV,2,2,08,29,19,195,24,21,11,295,26,42,05,342,21,28,03,035,13,1*77
$GNRMC,005803.000,A,4910.427670,N,12304.399500,W,0.02,330.82,061224,,,D,V*16
$GNVTG,330.82,T,,M,0.02,N,0.03,K,D*2D
$PAIRLOG,Full*51
$GNGGA,005804.000,4910.427640,N,12304.399452,W,2,29,0.48,6.941,M,-16.817,M,,*48
$GNGLL,4910.427640,N,12304.399452,W,005804.000,A,D*52
$GNGSA,A,3,17,19,22,14,24,13,15,02,06,30,,,0.84,0.48,0.69,1*02
$GNGSA,A,3,83,82,72,65,80,75,,,,,,,0.84,0.48,0.69,2*00
$GNGSA,A,3,25,02,10,08,03,24,,,,,,,0.84,0.48,0.69,3*05
$GNGSA,A,3,36,30,27,45,29,21,42,,,,,,0.84,0.48,0.69,4*07
$GPGSV,4,1,13,17,70,079,32,19,67,189,29,22,65,072,30,14,43,086,26,1*62
$GPGSV,4,2,13,24,41,301,27,51,31,159,,13,23,211,23,15,20,248,23,1*66
$GPGSV,4,3,13,02,17,039,17,06,15,156,22,12,11,273,,30,10,144,20,1*6D
$GPGSV,4,4,13,21,04,026,,1*55
$GLGSV,3,1,09,83,57,076,21,74,54,317,,84,29,168,,82,26,031,27,1*7E
$GLGSV,3,2,09,72,20,274,23,65,17,332,30,80,15,106,32,75,06,298,25,1*79
$GLGSV,3,3,09,71,01,231,,1*46
$GAGSV,3,1,10,25,78,051,29,02,43,277,26,10,36,084,23,08,34,285,23,7*7C
$GAGSV,3,2,10,11,33,118,,12,29,056,,03,27,226,23,24,26,085,18,7*77
$GAGSV,3,3,10,07,09,333,,36,08,162,,7*77
$GBGSV,3,1,12,36,88,279,36,30,60,141,34,27,40,058,32,46,38,118,,1*71
$GBGSV,3,2,12,45,34,297,29,57,24,057,,29,19,195,24,21,11,295,26,1*72
$GBGSV,3,3,12,42,05,342,21,28,03,035,14,22,02,249,,58,01,127,,1*7F
$GNRMC,005804.000,A,4910.427640,N,12304.399452,W,0.01,330.82,061224,,,D,V*17
$GNVTG,330.82,T,,M,0.01,N,0.03,K,D*2E
$PAIRLOG,Full*51
$GNGGA,005805.000,4910.427610,N,12304.399368,W,2,29,0.48,6.851,M,-16.816,M,,*43
$GNGLL,4910.427610,N,12304.399368,W,005805.000,A,D*58
$GNGSA,A,3,17,19,22,14,24,13,15,02,06,30,,,0.84,0.48,0.69,1*02
$GNGSA,A,3,83,82,72,65,80,75,,,,,,,0.84,0.48,0.69,2*00
$GNGSA,A,3,25,02,10,08,03,24,,,,,,,0.84,0.48,0.69,3*05
$GNGSA,A,3,36,30,27,45,29,21,42,,,,,,0.84,0.48,0.69,4*07
$GPGSV,4,1,13,17,70,079,31,19,67,189,29,22,65,072,30,14,43,086,26,1*61
$GPGSV,4,2,13,24,41,301,27,51,31,159,,13,23,211,23,15,20,248,22,1*67
$GPGSV,4,3,13,02,17,039,17,06,15,156,20,12,11,273,,30,10,144,20,1*6F
$GPGSV,4,4,13,21,04,026,,1*55
$GLGSV,3,1,09,83,57,076,22,74,54,317,,84,29,168,,82,26,031,27,1*7D
$GLGSV,3,2,09,72,20,274,23,65,17,332,30,80,15,106,32,75,06,298,25,1*79
$GLGSV,3,3,09,71,01,231,17,1*40
$GAGSV,3,1,10,25,78,051,29,02,43,277,25,10,36,084,22,08,34,285,22,7*7F
$GAGSV,3,2,10,11,33,118,,12,29,056,,03,27,226,22,24,26,085,18,7*76
$GAGSV,3,3,10,07,09,333,,36,08,162,,7*77
$GBGSV,3,1,12,36,88,279,36,30,60,141,34,27,40,058,32,46,38,118,,1*71
$GBGSV,3,2,12,45,34,297,29,57,24,057,,29,19,195,24,21,11,295,25,1*71
$GBGSV,3,3,12,42,05,342,21,28,03,035,16,22,02,249,,58,01,127,,1*7D
$GNRMC,005805.000,A,4910.427610,N,12304.399368,W,0.01,330.82,061224,,,D,V*1D
$GNVTG,330.82,T,,M,0.01,N,0.03,K,D*2E
$PAIRLOG,Full*51
$GNGGA,005806.000,4910.427652,N,12304.399326,W,2,29,0.48,6.914,M,-16.817,M,,*4D
$GNGLL,4910.427652,N,12304.399326,W,005806.000,A,D*57
$GNGSA,A,3,17,19,22,14,24,13,15,02,06,30,,,0.84,0.48,0.69,1*02
$GNGSA,A,3,83,82,72,65,80,75,,,,,,,0.84,0.48,0.69,2*00
$GNGSA,A,3,25,02,10,08,03,24,,,,,,,0.84,0.48,0.69,3*05
$GNGSA,A,3,36,30,27,45,29,21,42,,,,,,0.84,0.48,0.69,4*07
$GPGSV,4,1,13,17,70,079,31,19,67,189,29,22,65,072,30,14,43,086,26,1*61
$GPGSV,4,2,13,24,41,301,27,51,31,159,,13,23,211,23,15,20,248,22,1*67
$GPGSV,4,3,13,02,17,039,17,06,15,156,23,12,11,273,,30,10,144,20,1*6C
$GPGSV,4,4,13,21,04,026,,1*55
$GLGSV,3,1,09,83,57,076,22,74,54,317,,84,29,168,,82,26,031,27,1*7D
$GLGSV,3,2,09,72,20,274,23,65,17,332,30,80,15,106,31,75,06,298,25,1*7A
$GLGSV,3,3,09,71,01,231,17,1*40
$GAGSV,3,1,10,25,78,051,29,02,43,277,25,10,36,084,22,08,34,285,22,7*7F
$GAGSV,3,2,10,11,33,118,,12,29,056,,03,27,226,22,24,26,085,17,7*79
$GAGSV,3,3,10,07,09,333,,36,08,162,19,7*7F
$GBGSV,3,1,12,36,88,279,36,30,60,141,34,27,40,058,32,46,38,118,,1*71
$GBGSV,3,2,12,45,34,297,29,57,24,057,,29,19,195,24,21,11,295,25,1*71
$GBGSV,3,3,12,42,05,342,21,28,03,035,14,22,02,249,,58,01,127,,1*7F
$GNRMC,005806.000,A,4910.427652,N,12304.399326,W,0.02,330.82,061224,,,D,V*11
$GNVTG,330.82,T,,M,0.02,N,0.03,K,D*2D
$PAIRLOG,Full*51
$GNGGA,005807.000,4910.427712,N,12304.399314,W,2,29,0.48,6.941,M,-16.817,M,,*48
$GNGLL,4910.427712,N,12304.399314,W,005807.000,A,D*52
$GNGSA,A,3,17,19,22,14,24,13,15,02,06,30,,,0.84,0.48,0.69,1*02
$GNGSA,A,3,83,82,72,65,80,75,,,,,,,0.84,0.48,0.69,2*00
$GNGSA,A,3,25,02,10,08,03,24,,,,,,,0.84,0.48,0.69,3*05
$GNGSA,A,3,36,30,27,45,29,21,42,,,,,,0.84,0.48,0.69,4*07
$GPGSV,4,1,13,17,70,079,31,19,67,189,29,22,65,072,30,14,43,086,26,1*61
$GPGSV,4,2,13,24,41,301,27,51,31,159,,13,23,211,23,15,20,248,21,1*64
$GPGSV,4,3,13,02,17,039,17,06,15,156,23,12,11,273,,30,10,144,20,1*6C
$GPGSV,4,4,13,21,04,026,,1*55
$GLGSV,3,1,09,83,57,076,22,74,54,317,,84,29,168,,82,26,031,27,1*7D
$GLGSV,3,2,09,72,20,274,23,65,17,332,30,80,15,106,31,75,06,298,24,1*7B
$GLGSV,3,3,09,71,01,231,18,1*4F
$GAGSV,3,1,10,25,78,051,29,02,43,277,25,10,36,084,22,08,34,285,22,7*7F
$GAGSV,3,2,10,11,33,118,,12,29,056,,03,27,226,22,24,26,085,17,7*79
$GAGSV,3,3,10,07,09,333,,36,08,162,18,7*7E
$GBGSV,3,1,12,36,88,279,36,30,60,141,34,27,40,058,32,46,38,118,,1*71
$GBGSV,3,2,12,45,34,297,29,57,24,057,,29,19,195,25,21,11,295,25,1*70
$GBGSV,3,3,12,42,05,342,21,28,03,035,15,22,02,249,,58,01,127,,1*7E
$GNRMC,005807.000,A,4910.427712,N,12304.399314,W,0.02,330.82,061224,,,D,V*14
$GNVTG,330.82,T,,M,0.02,N,0.04,K,D*2A
$PAIRLOG,Full*51
$GNGGA,005808.000,4910.427760,N,12304.399194,W,2,29,0.48,6.941,M,-16.816,M,,*49
$GNGLL,4910.427760,N,12304.399194,W,005808.000,A,D*52
$GNGSA,A,3,17,19,22,14,24,13,15,02,06,30,,,0.84,0.48,0.69,1*02
$GNGSA,A,3,83,82,72,65,80,75,,,,,,,0.84,0.48,0.69,2*00
$GNGSA,A,3,25,02,10,08,03,24,,,,,,,0.84,0.48,0.69,3*05
$GNGSA,A,3,36,30,27,45,29,21,42,,,,,,0.84,0.48,0.69,4*07
$GPGSV,3,1,12,17,70,079,31,19,67,189,29,22,65,072,30,14,43,086,26,1*67
$GPGSV,3,2,12,24,41,301,27,13,23,211,23,15,20,248,21,02,17,039,17,1*61
$GPGSV,3,3,12,06,15,156,22,12,11,273,,30,10,144,20,21,04,026,17,1*66
$GLGSV,3,1,09,83,57,076,22,74,54,317,,84,29,168,,82,26,031,27,1*7D
$GLGSV,3,2,09,72,20,274,23,65,17,332,30,80,15,106,31,75,,,24,1*4E
$GLGSV,3,3,09,71,,,18,1*7E
$GAGSV,3,1,10,25,78,051,29,02,43,277,25,10,36,084,22,08,34,285,22,7*7F
$GAGSV,3,2,10,11,33,118,,12,29,056,,03,27,226,23,24,26,085,16,7*79
$GAGSV,3,3,10,07,09,333,,36,08,162,18,7*7E
$GBGSV,3,1,12,36,88,279,36,30,60,141,34,27,40,058,32,46,38,118,,1*71
$GBGSV,3,2,12,45,34,297,29,57,24,057,,29,19,195,25,21,11,295,25,1*70
$GBGSV,3,3,12,42,05,342,22,28,03,035,14,22,02,249,,58,01,127,,1*7C
$GNRMC,005808.000,A,4910.427760,N,12304.399194,W,0.03,330.82,061224,,,D,V*15
$GNVTG,330.82,T,,M,0.03,N,0.05,K,D*2A
$PAIRLOG,Full*51
$GNGGA,005809.000,4910.427838,N,12304.399176,W,2,28,0.48,6.971,M,-16.816,M,,*44
$GNGLL,4910.427838,N,12304.399176,W,005809.000,A,D*5D
$GNGSA,A,3,17,19,22,14,24,13,15,02,06,30,,,0.86,0.48,0.71,1*09
$GNGSA,A,3,83,82,72,65,80,,,,,,,,0.86,0.48,0.71,2*09
$GNGSA,A,3,25,02,10,08,03,24,,,,,,,0.86,0.48,0.71,3*0E
$GNGSA,A,3,36,30,27,45,29,21,42,,,,,,0.86,0.48,0.71,4*0C
$GPGSV,3,1,10,17,70,079,32,19,67,189,29,22,65,072,30,14,43,086,27,1*67
$GPGSV,3,2,10,24,41,301,27,13,23,211,23,15,20,248,21,02,17,039,17,1*63
$GPGSV,3,3,10,06,15,156,22,30,10,144,20,1*64
$GLGSV,2,1,07,83,57,076,22,74,54,317,,84,29,168,,82,26,031,27,1*72
$GLGSV,2,2,07,72,20,274,23,65,17,332,30,80,15,106,31,1*45
$GAGSV,2,1,06,25,78,051,30,02,43,277,25,10,36,084,22,08,34,285,23,7*70
$GAGSV,2,2,06,03,27,226,23,24,26,085,16,7*7C
$GBGSV,2,1,08,36,88,279,36,30,60,141,34,27,40,058,32,45,34,297,29,1*7B
$GBGSV,2,2,08,29,19,195,25,21,11,295,24,42,05,341,21,28,03,035,12,1*76
$GNRMC,005809.000,A,4910.427838,N,12304.399176,W,0.03,330.82,061224,,,D,V*1A
$GNVTG,330.82,T,,M,0.03,N,0.05,K,D*2A
$PAIRLOG,Full*51
$GNGGA,005810.000,4910.427952,N,12304.399056,W,2,28,0.48,7.008,M,-16.816,M,,*44
$GNGLL,4910.427952,N,12304.399056,W,005810.000,A,D*5B
$GNGSA,A,3,17,19,22,14,24,13,15,02,06,30,,,0.86,0.48,0.71,1*09
$GNGSA,A,3,83,82,72,65,80,,,,,,,,0.86,0.48,0.71,2*09
$GNGSA,A,3,25,02,10,08,03,24,,,,,,,0.86,0.48,0.71,3*0E
$GNGSA,A,3,36,30,27,45,29,21,42,,,,,,0.86,0.48,0.71,4*0C
$GPGSV,4,1,13,17,70,079,32,19,67,189,30,22,65,072,30,14,43,086,27,1*6B
$GPGSV,4,2,13,24,41,301,27,13,23,211,23,15,20,248,21,02,17,039,17,1*67
$GPGSV,4,3,13,06,15,156,24,12,11,273,,30,10,144,20,21,04,026,,1*60
$GPGSV,4,4,13,33,,,,1*66
$GLGSV,3,1,09,83,57,076,23,74,54,317,,84,29,168,,82,26,031,27,1*7C
$GLGSV,3,2,09,72,20,274,23,65,17,332,30,80,15,106,30,75,06,298,,1*7C
$GLGSV,3,3,09,71,01,231,,1*46
$GAGSV,3,1,10,25,78,051,30,02,43,277,25,10,36,084,22,08,34,285,23,7*76
$GAGSV,3,2,10,11,33,118,,12,29,056,,03,27,226,23,24,26,085,16,7*79
$GAGSV,3,3,10,07,09,333,,36,08,162,,7*77
$GBGSV,3,1,12,36,88,279,36,30,60,141,34,27,40,058,32,46,38,118,,1*71
$GBGSV,3,2,12,45,34,297,29,57,24,057,,29,19,195,25,21,11,295,25,1*70
$GBGSV,3,3,12,42,05,341,20,28,03,035,13,22,02,249,,58,01,127,,1*7A
$GNRMC,005810.000,A,4910.427952,N,12304.399056,W,0.03,330.82,061224,,,D,V*1C
$GNVTG,330.82,T,,M,0.03,N,0.06,K,D*29
$PAIRLOG,Full*51
$GNGGA,005811.000,4910.428024,N,12304.399008,W,2,29,0.48,6.996,M,-16.816,M,,*47
$GNGLL,4910.428024,N,12304.399008,W,005811.000,A,D*56
$GNGSA,A,3,17,19,22,14,24,13,15,02,06,30,,,0.84,0.48,0.69,1*02
$GNGSA,A,3,83,82,72,65,80,75,,,,,,,0.84,0.48,0.69,2*00
$GNGSA,A,3,25,02,10,08,03,24,,,,,,,0.84,0.48,0.69,3*05
$GNGSA,A,3,36,30,27,45,29,21,42,,,,,,0.84,0.48,0.69,4*07
$GPGSV,4,1,13,17,70,079,31,19,67,189,30,22,65,072,30,14,43,086,27,1*68
$GPGSV,4,2,13,24,41,301,27,13,23,211,23,15,20,248,21,02,17,039,17,1*67
$GPGSV,4,3,13,06,15,156,22,12,11,273,,30,10,144,20,21,04,026,,1*66
$GPGSV,4,4,13,33,,,,1*66
$GLGSV,3,1,09,83,57,076,23,74,54,317,,84,29,168,,82,26,031,26,1*7D
$GLGSV,3,2,09,72,20,274,23,65,17,332,30,80,15,106,30,75,06,298,25,1*7B
$GLGSV,3,3,09,71,01,231,,1*46
$GAGSV,3,1,10,25,78,051,30,02,43,277,25,10,36,084,23,08,34,285,23,7*77
$GAGSV,3,2,10,11,33,118,,12,29,056,,03,27,226,23,24,26,085,16,7*79
$GAGSV,3,3,10,07,09,333,,36,08,162,,7*77
$GBGSV,3,1,12,36,88,279,36,30,60,141,34,27,40,058,32,46,38,118,,1*71
$GBGSV,3,2,12,45,34,297,29,57,24,057,,29,19,195,25,21,11,295,25,1*70
$GBGSV,3,3,12,42,05,341,21,28,03,035,14,22,02,249,,58,01,127,,1*7C
$GNRMC,005811.000,A,4910.428024,N,12304.399008,W,0.03,330.82,061224,,,D,V*11
$GNVTG,330.82,T,,M,0.03,N,0.06,K,D*29
$PAIRLOG,Full*51
$GNGGA,005812.000,4910.427952,N,12304.398990,W,2,29,0.48,6.964,M,-16.816,M,,*47
$GNGLL,4910.427952,N,12304.398990,W,005812.000,A,D*5B
$GNGSA,A,3,17,19,22,14,24,13,15,02,06,30,,,0.84,0.48,0.69,1*02
$GNGSA,A,3,83,82,72,65,80,75,,,,,,,0.84,0.48,0.69,2*00
$GNGSA,A,3,25,02,10,08,03,24,,,,,,,0.84,0.48,0.69,3*05
$GNGSA,A,3,36,30,27,45,29,21,42,,,,,,0.84,0.48,0.69,4*07
$GPGSV,3,1,11,17,70,079,31,19,67,189,30,22,65,072,30,14,43,086,27,1*6D
$GPGSV,3,2,11,24,41,301,27,13,23,211,23,15,20,248,21,02,17,039,17,1*62
$GPGSV,3,3,11,06,15,156,23,30,10,144,20,33,,,,1*64
$GLGSV,3,1,09,83,57,076,23,74,54,317,,84,29,168,,82,26,031,26,1*7D
$GLGSV,3,2,09,72,20,274,23,65,17,332,30,80,15,106,30,75,06,298,25,1*7B
$GLGSV,3,3,09,71,01,231,18,1*4F
$GAGSV,2,1,06,25,78,051,30,02,43,277,25,10,36,084,23,08,34,285,23,7*71
$GAGSV,2,2,06,03,27,226,23,24,26,085,16,7*7C
$GBGSV,2,1,08,36,88,279,36,30,60,141,34,27,40,058,32,45,35,298,29,1*75
$GBGSV,2,2,08,29,19,195,25,21,11,295,25,42,05,341,20,28,03,035,15,1*71
$GNRMC,005812.000,A,4910.427952,N,12304.398990,W,0.03,330.82,061224,,,D,V*1C
$GNVTG,330.82,T,,M,0.03,N,0.06,K,D*29
$PAIRLOG,Full*51
$GNGGA,005813.000,4910.427934,N,12304.398942,W,2,29,0.48,6.939,M,-16.816,M,,*41
$GNGLL,4910.427934,N,12304.398942,W,005813.000,A,D*55
$GNGSA,A,3,17,19,22,14,24,13,15,02,06,30,,,0.84,0.48,0.69,1*02
$GNGSA,A,3,83,82,72,65,80,75,,,,,,,0.84,0.48,0.69,2*00
$GNGSA,A,3,25,02,10,08,03,24,,,,,,,0.84,0.48,0.69,3*05
$GNGSA,A,3,36,30,27,45,29,21,42,,,,,,0.84,0.48,0.69,4*07
$GPGSV,3,1,11,17,70,079,31,19,67,189,30,22,65,072,30,14,43,086,27,1*6D
$GPGSV,3,2,11,24,41,301,27,13,23,211,23,15,20,248,21,02,17,039,17,1*62
$GPGSV,3,3,11,06,15,156,23,30,10,144,20,33,,,,1*64
$GLGSV,3,1,09,83,57,076,22,74,54,317,,84,29,168,,82,26,031,26,1*7C
$GLGSV,3,2,09,72,20,274,23,65,17,332,29,80,15,106,30,75,06,298,25,1*73
$GLGSV,3,3,09,71,01,231,17,1*40
$GAGSV,2,1,06,25,78,051,30,02,43,277,25,10,36,084,23,08,34,285,22,7*70
$GAGSV,2,2,06,03,27,226,23,24,26,085,16,7*7C
$GBGSV,2,1,08,36,88,279,36,30,60,141,34,27,40,058,32,45,35,298,29,1*75
$GBGSV,2,2,08,29,19,195,25,21,11,295,25,42,05,341,21,28,03,035,16,1*73
$GNRMC,005813.000,A,4910.427934,N,12304.398942,W,0.03,330.82,061224,,,D,V*12
$GNVTG,330.82,T,,M,0.03,N,0.05,K,D*2A
$PAIRLOG,Full*51
$GNGGA,005814.000,4910.427838,N,12304.398924,W,2,29,0.48,6.893,M,-16.817,M,,*4B
$GNGLL,4910.427838,N,12304.398924,W,005814.000,A,D*5F
$GNGSA,A,3,17,19,22,14,24,13,15,02,06,30,,,0.84,0.48,0.69,1*02
$GNGSA,A,3,83,82,72,65,80,75,,,,,,,0.84,0.48,0.69,2*00
$GNGSA,A,3,25,02,10,08,03,24,,,,,,,0.84,0.48,0.69,3*05
$GNGSA,A,3,36,30,27,45,29,21,42,,,,,,0.84,0.48,0.69,4*07
$GPGSV,3,1,11,17,70,079,31,19,67,189,30,22,65,072,30,14,43,086,27,1*6D
$GPGSV,3,2,11,24,41,301,27,13,23,211,23,15,20,248,21,02,17,039,17,1*62
$GPGSV,3,3,11,06,15,156,25,30,10,144,20,33,,,,1*62
$GLGSV,3,1,09,83,57,076,22,74,54,317,,84,29,168,,82,26,031,26,1*7C
$GLGSV,3,2,09,72,20,274,22,65,17,332,29,80,15,106,30,75,06,298,24,1*73
$GLGSV,3,3,09,71,01,231,15,1*42
$GAGSV,2,1,06,25,78,051,30,02,43,277,25,10,36,084,24,08,34,285,22,7*77
$GAGSV,2,2,06,03,27,226,23,24,26,085,16,7*7C
$GBGSV,2,1,08,36,88,279,36,30,60,141,34,27,40,058,32,45,35,298,29,1*75
$GBGSV,2,2,08,29,19,195,25,21,11,295,25,42,05,341,20,28,03,035,15,1*71
$GNRMC,005814.000,A,4910.427838,N,12304.398924,W,0.03,330.82,061224,,,D,V*18
$GNVTG,330.82,T,,M,0.03,N,0.05,K,D*2A
$PAIRLOG,Full*51
$GNGGA,005815.000,4910.427730,N,12304.398954,W,2,29,0.48,6.903,M,-16.817,M,,*42
$GNGLL,4910.427730,N,12304.398954,W,005815.000,A,D*5E
$GNGSA,A,3,17,19,22,14,24,13,15,02,06,30,,,0.84,0.48,0.69,1*02
$GNGSA,A,3,83,82,72,65,80,75,,,,,,,0.84,0.48,0.69,2*00
$GNGSA,A,3,25,02,10,08,03,24,,,,,,,0.84,0.48,0.69,3*05
$GNGSA,A,3,36,30,27,45,29,21,42,,,,,,0.84,0.48,0.69,4*07
$GPGSV,3,1,12,17,70,079,31,19,67,189,30,22,65,072,30,14,43,086,27,1*6E
$GPGSV,3,2,12,24,41,301,27,13,23,211,23,15,20,248,21,02,17,039,17,1*61
$GPGSV,3,3,12,06,15,156,25,12,11,273,,30,10,144,20,21,04,026,,1*67
$GLGSV,3,1,09,83,57,076,22,74,54,317,,84,29,168,,82,26,031,26,1*7C
$GLGSV,3,2,09,72,20,274,22,65,17,332,28,80,15,106,30,75,06,298,24,1*72
$GLGSV,3,3,09,71,01,231,14,1*43
$GAGSV,3,1,10,25,78,051,30,02,43,277,25,10,36,084,24,08,34,285,22,7*71
$GAGSV,3,2,10,11,33,118,,12,29,056,,03,27,226,23,24,26,085,17,7*78
$GAGSV,3,3,10,07,09,333,,36,08,162,,7*77
$GBGSV,3,1,12,36,88,279,36,30,60,141,34,27,40,058,32,46,36,118,,1*7F
$GBGSV,3,2,12,45,35,298,29,57,24,057,,29,19,195,25,21,11,295,25,1*7E
$GBGSV,3,3,12,42,05,341,20,28,03,035,13,22,02,249,,58,01,127,,1*7A
$GNRMC,005815.000,A,4910.427730,N,12304.398954,W,0.02,330.82,061224,,,D,V*18
$GNVTG,330.82,T,,M,0.02,N,0.04,K,D*2A
$PAIRLOG,Full*51
$GNGGA,005816.000,4910.427640,N,12304.398990,W,2,29,0.48,6.879,M,-16.816,M,,*42
$GNGLL,4910.427640,N,12304.398990,W,005816.000,A,D*53
$GNGSA,A,3,17,19,22,14,24,13,15,02,06,30,,,0.84,0.48,0.69,1*02
$GNGSA,A,3,83,82,72,65,80,75,,,,,,,0.84,0.48,0.69,2*00
$GNGSA,A,3,25,02,10,08,03,24,,,,,,,0.84,0.48,0.69,3*05
$GNGSA,A,3,36,30,27,45,29,21,42,,,,,,0.84,0.48,0.69,4*07
$GPGSV,3,1,11,17,70,079,31,19,67,189,30,22,65,072,30,14,43,086,27,1*6D
$GPGSV,3,2,11,24,41,301,27,13,23,211,23,15,20,248,21,02,17,039,17,1*62
$GPGSV,3,3,11,06,15,156,25,30,10,144,20,34,,,,1*65
$GLGSV,3,1,09,83,57,076,21,74,54,317,,84,29,168,,82,26,031,26,1*7F
$GLGSV,3,2,09,72,20,274,22,65,17,332,28,80,15,106,30,75,06,298,26,1*70
$GLGSV,3,3,09,71,01,231,14,1*43
$GAGSV,2,1,06,25,78,051,30,02,43,277,25,10,36,084,24,08,34,285,22,7*77
$GAGSV,2,2,06,03,27,226,23,24,26,085,17,7*7D
$GBGSV,2,1,08,36,88,279,36,30,60,141,34,27,40,058,32,45,35,298,29,1*75
$GBGSV,2,2,08,29,19,195,25,21,11,295,25,42,05,341,21,28,03,035,14,1*71
$GNRMC,005816.000,A,4910.427640,N,12304.398990,W,0.02,330.82,061224,,,D,V*15
$GNVTG,330.82,T,,M,0.02,N,0.03,K,D*2D
$PAIRLOG,Full*51
$GNGGA,005817.000,4910.427562,N,12304.399050,W,2,29,0.48,6.819,M,-16.816,M,,*42
$GNGLL,4910.427562,N,12304.399050,W,005817.000,A,D*55
$GNGSA,A,3,17,19,22,14,24,13,15,02,06,30,,,0.84,0.48,0.69,1*02
$GNGSA,A,3,83,82,72,65,80,75,,,,,,,0.84,0.48,0.69,2*00
$GNGSA,A,3,25,02,10,08,03,24,,,,,,,0.84,0.48,0.69,3*05
$GNGSA,A,3,36,30,27,45,29,21,42,,,,,,0.84,0.48,0.69,4*07
$GPGSV,3,1,11,17,70,079,31,19,67,189,30,22,65,072,30,14,43,086,27,1*6D
$GPGSV,3,2,11,24,41,301,27,13,23,211,23,15,20,248,21,02,17,039,17,1*62
$GPGSV,3,3,11,06,15,156,24,30,10,144,20,34,,,,1*64
$GLGSV,3,1,09,83,57,076,21,74,54,317,,84,29,168,,82,26,031,26,1*7F
$GLGSV,3,2,09,72,20,274,22,65,17,332,28,80,15,106,30,75,06,298,25,1*73
$GLGSV,3,3,09,71,01,231,12,1*45
$GAGSV,2,1,06,25,78,051,30,02,43,277,25,10,36,084,24,08,34,285,22,7*77
$GAGSV,2,2,06,03,27,226,23,24,26,085,17,7*7D
$GBGSV,2,1,08,36,88,279,36,30,60,141,34,27,40,058,32,45,35,298,29,1*75
$GBGSV,2,2,08,29,19,195,25,21,11,295,25,42,05,341,21,28,03,035,14,1*71
$GNRMC,005817.000,A,4910.427562,N,12304.399050,W,0.02,330.82,061224,,,D,V*13
$GNVTG,330.82,T,,M,0.02,N,0.03,K,D*2D
$PAIRLOG,Full*51
$GNGGA,005818.000,4910.427454,N,12304.399050,W,2,29,0.48,6.782,M,-16.816,M,,*44
$GNGLL,4910.427454,N,12304.399050,W,005818.000,A,D*5E
$GNGSA,A,3,17,19,22,14,24,13,15,02,06,30,,,0.84,0.48,0.69,1*02
$GNGSA,A,3,83,82,72,65,80,75,,,,,,,0.84,0.48,0.69,2*00
$GNGSA,A,3,25,02,10,08,03,24,,,,,,,0.84,0.48,0.69,3*05
$GNGSA,A,3,36,30,27,45,29,21,42,,,,,,0.84,0.48,0.69,4*07
$GPGSV,3,1,11,17,70,079,31,19,67,189,30,22,65,072,30,14,43,086,27,1*6D
$GPGSV,3,2,11,24,41,301,27,13,23,211,23,15,20,248,21,02,17,039,17,1*62
$GPGSV,3,3,11,06,15,156,25,30,10,144,20,34,,,,1*65
$GLGSV,3,1,09,83,57,076,21,74,54,317,,84,29,168,,82,26,031,26,1*7F
$GLGSV,3,2,09,72,20,274,22,65,17,332,28,80,15,106,30,75,06,298,25,1*73
$GLGSV,3,3,09,71,01,231,12,1*45
$GAGSV,2,1,06,25,78,051,30,02,43,277,25,10,36,084,24,08,34,285,22,7*77
$GAGSV,2,2,06,03,27,226,23,24,26,085,17,7*7D
$GBGSV,2,1,08,36,88,279,36,30,60,141,34,27,40,058,32,45,35,298,29,1*75
$GBGSV,2,2,08,29,19,195,25,21,11,295,25,42,05,341,21,28,03,035,13,1*76
$GNRMC,005818.000,A,4910.427454,N,12304.399050,W,0.02,330.82,061224,,,D,V*18
$GNVTG,330.82,T,,M,0.02,N,0.03,K,D*2D
$PAIRLOG,Full*51
$GNGGA,005819.000,4910.427394,N,12304.399062,W,2,29,0.48,6.862,M,-16.816,M,,*4E
$GNGLL,4910.427394,N,12304.399062,W,005819.000,A,D*55
$GNGSA,A,3,17,19,22,14,24,13,15,02,06,30,,,0.84,0.48,0.69,1*02
$GNGSA,A,3,83,82,72,65,80,75,,,,,,,0.84,0.48,0.69,2*00
$GNGSA,A,3,25,02,10,08,03,24,,,,,,,0.84,0.48,0.69,3*05
$GNGSA,A,3,36,30,27,45,29,21,42,,,,,,0.84,0.48,0.69,4*07
$GPGSV,4,1,13,17,70,079,31,19,67,189,30,22,65,072,30,14,43,086,27,1*68
$GPGSV,4,2,13,24,41,301,27,13,23,211,23,15,20,248,21,02,17,039,17,1*67
$GPGSV,4,3,13,06,15,156,24,12,11,273,,30,10,144,20,21,04,026,,1*60
$GPGSV,4,4,13,34,,,,1*61
$GLGSV,3,1,09,83,57,076,21,74,54,317,,84,29,168,,82,26,031,26,1*7F
$GLGSV,3,2,09,72,20,274,22,65,17,332,29,80,15,106,30,75,06,298,25,1*72
$GLGSV,3,3,09,71,01,231,13,1*44
$GAGSV,3,1,10,25,78,051,30,02,43,277,25,10,36,084,24,08,34,285,22,7*71
$GAGSV,3,2,10,11,33,118,,12,29,056,,03,27,226,23,24,26,085,18,7*77
$GAGSV,3,3,10,07,09,333,,36,08,162,,7*77
$GBGSV,3,1,12,36,88,279,36,30,60,141,34,27,40,058,32,46,36,118,,1*7F
$GBGSV,3,2,12,45,35,298,29,57,24,057,,29,19,195,25,21,11,295,25,1*7E
$GBGSV,3,3,12,42,05,341,21,28,03,035,12,22,02,249,,58,01,127,,1*7A
$GNRMC,005819.000,A,4910.427394,N,12304.399062,W,0.02,330.82,061224,,,D,V*13
$GNVTG,330.82,T,,M,0.02,N,0.03,K,D*2D
$PAIRLOG,Full*51
$GNGGA,005820.000,4910.427352,N,12304.399122,W,2,29,0.48,6.953,M,-16.816,M,,*48
$GNGLL,4910.427352,N,12304.399122,W,005820.000,A,D*50
$GNGSA,A,3,17,19,22,14,24,13,15,02,06,30,,,0.84,0.48,0.69,1*02
$GNGSA,A,3,83,82,72,65,80,75,,,,,,,0.84,0.48,0.69,2*00
$GNGSA,A,3,25,02,10,08,03,24,,,,,,,0.84,0.48,0.69,3*05
$GNGSA,A,3,36,30,27,45,29,21,42,,,,,,0.84,0.48,0.69,4*07
$GPGSV,4,1,13,17,70,079,32,19,67,189,30,22,65,072,31,14,43,086,27,1*6A
$GPGSV,4,2,13,24,41,301,27,13,23,211,23,15,20,248,21,02,17,039,17,1*67
$GPGSV,4,3,13,06,15,156,24,12,11,273,,30,10,144,20,21,04,026,,1*60
$GPGSV,4,4,13,34,,,,1*61
$GLGSV,3,1,09,83,57,076,22,74,54,317,,84,29,168,,82,26,031,26,1*7C
$GLGSV,3,2,09,72,20,274,22,65,17,332,29,80,15,106,30,75,06,298,25,1*72
$GLGSV,3,3,09,71,01,231,12,1*45
$GAGSV,3,1,10,25,78,051,30,02,43,277,25,10,36,084,24,08,34,285,22,7*71
$GAGSV,3,2,10,11,33,118,,12,29,056,,03,27,226,24,24,26,085,19,7*71
$GAGSV,3,3,10,07,09,333,,36,08,162,,7*77
$GBGSV,3,1,12,36,88,279,36,30,60,141,34,27,40,058,32,46,36,118,,1*7F
$GBGSV,3,2,12,45,35,298,29,57,24,057,,29,19,195,25,21,11,295,26,1*7D
$GBGSV,3,3,12,42,05,341,21,28,03,035,14,22,02,249,,58,01,127,,1*7C
$GNRMC,005820.000,A,4910.427352,N,12304.399122,W,0.02,330.82,061224,,,D,V*16
$GNVTG,330.82,T,,M,0.02,N,0.03,K,D*2D
$PAIRLOG,Full*51
$GNGGA,005821.000,4910.427352,N,12304.399158,W,2,29,0.48,6.968,M,-16.816,M,,*4C
$GNGLL,4910.427352,N,12304.399158,W,005821.000,A,D*5C
$GNGSA,A,3,17,19,22,14,24,13,15,02,06,30,,,0.84,0.48,0.69,1*02
$GNGSA,A,3,83,82,72,65,80,75,,,,,,,0.84,0.48,0.69,2*00
$GNGSA,A,3,25,02,10,08,03,24,,,,,,,0.84,0.48,0.69,3*05
$GNGSA,A,3,36,30,27,45,29,21,42,,,,,,0.84,0.48,0.69,4*07
$GPGSV,3,1,12,17,70,079,32,19,67,189,30,22,65,072,31,14,43,086,27,1*6C
$GPGSV,3,2,12,24,41,301,27,13,23,211,23,15,20,248,21,02,17,039,17,1*61
$GPGSV,3,3,12,06,15,156,25,12,11,273,,30,10,144,20,21,04,026,,1*67
$GLGSV,3,1,09,83,57,076,22,74,54,317,,84,29,168,,82,26,031,26,1*7C
$GLGSV,3,2,09,72,20,274,22,65,17,332,29,80,15,106,30,75,06,298,25,1*72
$GLGSV,3,3,09,71,01,231,,1*46
$GAGSV,3,1,10,25,78,051,30,02,43,277,25,10,36,084,25,08,34,285,21,7*73
$GAGSV,3,2,10,11,33,118,,12,29,056,,03,27,226,24,24,26,085,19,7*71
$GAGSV,3,3,10,07,09,333,,36,08,162,,7*77
$GBGSV,3,1,12,36,88,279,36,30,60,141,34,27,40,058,32,46,36,118,,1*7F
$GBGSV,3,2,12,45,35,298,29,57,24,057,,29,19,195,25,21,11,295,24,1*7F
$GBGSV,3,3,12,42,05,341,21,28,03,035,14,22,02,249,,58,01,127,,1*7C
$GNRMC,005821.000,A,4910.427352,N,12304.399158,W,0.01,330.82,061224,,,D,V*19
$GNVTG,330.82,T,,M,0.01,N,0.03,K,D*2E
$PAIRLOG,Full*51
$GNGGA,005822.000,4910.427298,N,12304.399164,W,2,29,0.48,6.942,M,-16.816,M,,*4F
$GNGLL,4910.427298,N,12304.399164,W,005822.000,A,D*57
$GNGSA,A,3,17,19,22,14,24,13,15,02,06,30,,,0.84,0.48,0.69,1*02
$GNGSA,A,3,83,82,72,65,80,75,,,,,,,0.84,0.48,0.69,2*00
$GNGSA,A,3,25,02,10,08,03,24,,,,,,,0.84,0.48,0.69,3*05
$GNGSA,A,3,36,30,27,45,29,21,42,,,,,,0.84,0.48,0.69,4*07
$GPGSV,4,1,13,17,70,079,32,19,67,189,31,22,65,072,31,14,43,086,27,1*6B
$GPGSV,4,2,13,24,41,301,27,13,23,211,24,15,20,248,21,02,17,039,17,1*60
$GPGSV,4,3,13,06,15,156,25,12,11,273,,30,10,144,20,21,04,026,,1*61
$GPGSV,4,4,13,37,,,,1*62
$GLGSV,3,1,09,83,57,076,22,74,54,317,,84,29,168,,82,26,031,26,1*7C
$GLGSV,3,2,09,72,20,274,22,65,17,332,29,80,15,106,30,75,06,298,25,1*72
$GLGSV,3,3,09,71,01,231,,1*46
$GAGSV,3,1,10,25,78,051,30,02,43,277,25,10,36,084,25,08,34,285,22,7*70
$GAGSV,3,2,10,11,33,118,,12,29,056,,03,27,226,24,24,26,085,19,7*71
$GAGSV,3,3,10,07,09,333,,36,08,162,,7*77
$GBGSV,3,1,12,36,88,279,36,30,60,141,34,27,40,058,32,46,36,118,,1*7F
$GBGSV,3,2,12,45,35,298,29,57,24,057,,29,19,195,25,21,11,295,25,1*7E
$GBGSV,3,3,12,42,05,341,21,28,03,035,11,22,02,249,,58,01,127,,1*79
$GNRMC,005822.000,A,4910.427298,N,12304.399164,W,0.01,330.82,061224,,,D,V*12
$GNVTG,330.82,T,,M,0.01,N,0.03,K,D*2E
$PAIRLOG,Full*51
$GNGGA,005823.000,4910.427286,N,12304.399206,W,2,29,0.48,6.886,M,-16.817,M,,*4E
$GNGLL,4910.427286,N,12304.399206,W,005823.000,A,D*5E
$GNGSA,A,3,17,19,22,14,24,13,15,02,06,30,,,0.84,0.48,0.69,1*02
$GNGSA,A,3,83,82,72,65,80,75,,,,,,,0.84,0.48,0.69,2*00
$GNGSA,A,3,25,02,10,08,03,24,,,,,,,0.84,0.48,0.69,3*05
$GNGSA,A,3,36,30,27,45,29,21,42,,,,,,0.84,0.48,0.69,4*07
$GPGSV,4,1,13,17,70,079,32,19,67,189,31,22,65,072,31,14,43,086,27,1*6B
$GPGSV,4,2,13,24,41,301,27,13,23,211,24,15,20,248,22,02,17,039,18,1*6C
$GPGSV,4,3,13,06,15,156,25,12,11,273,,30,10,144,20,21,04,026,,1*61
$GPGSV,4,4,13,37,,,,1*62
$GLGSV,3,1,09,83,57,076,22,74,54,317,,84,29,168,,82,26,031,26,1*7C
$GLGSV,3,2,09,72,20,274,22,65,17,332,29,80,15,106,30,75,06,298,25,1*72
$GLGSV,3,3,09,71,01,231,,1*46
$GAGSV,3,1,10,25,78,051,30,02,43,277,25,10,36,084,25,08,34,285,23,7*71
$GAGSV,3,2,10,11,33,118,,12,29,056,,03,27,226,24,24,26,085,19,7*71
$GAGSV,3,3,10,07,09,333,,36,08,162,,7*77
$GBGSV,3,1,12,36,88,279,36,30,60,141,34,27,40,058,32,46,36,118,,1*7F
$GBGSV,3,2,12,45,35,298,29,57,24,057,,29,19,195,25,21,11,295,24,1*7F
$GBGSV,3,3,12,42,05,341,21,28,03,035,12,22,02,249,,58,01,127,,1*7A
$GNRMC,005823.000,A,4910.427286,N,12304.399206,W,0.02,330.82,061224,,,D,V*18
$GNVTG,330.82,T,,M,0.02,N,0.03,K,D*2D
$PAIRLOG,Full*51
$GNGGA,005824.000,4910.427382,N,12304.399098,W,2,29,0.48,6.653,M,-16.816,M,,*4E
$GNGLL,4910.427382,N,12304.399098,W,005824.000,A,D*59
$GNGSA,A,3,17,19,22,14,24,13,15,02,06,30,,,0.84,0.48,0.69,1*02
$GNGSA,A,3,83,82,72,65,80,75,,,,,,,0.84,0.48,0.69,2*00
$GNGSA,A,3,25,02,10,08,03,24,,,,,,,0.84,0.48,0.69,3*05
$GNGSA,A,3,36,30,27,45,29,21,42,,,,,,0.84,0.48,0.69,4*07
$GPGSV,3,1,11,17,70,079,32,19,67,189,32,22,65,072,31,14,43,086,28,1*62
$GPGSV,3,2,11,24,41,301,28,13,23,211,24,15,20,248,22,02,17,039,18,1*66
$GPGSV,3,3,11,06,15,156,25,30,10,144,20,37,,,,1*66
$GLGSV,3,1,09,83,57,076,22,74,54,317,,84,29,168,,82,26,031,26,1*7C
$GLGSV,3,2,09,72,20,274,22,65,17,332,29,80,15,106,30,75,06,298,26,1*71
$GLGSV,3,3,09,71,01,231,,1*46
$GAGSV,2,1,06,25,78,051,30,02,43,277,25,10,36,084,25,08,34,285,23,7*77
$GAGSV,2,2,06,03,27,226,24,24,26,085,19,7*74
$GBGSV,2,1,08,36,88,279,36,30,60,141,34,27,40,058,32,45,35,298,29,1*75
$GBGSV,2,2,08,29,19,195,26,21,11,295,24,42,05,341,21,28,03,035,10,1*77
$GNRMC,005824.000,A,4910.427382,N,12304.399098,W,0.02,330.82,061224,,,D,V*1F
$GNVTG,330.82,T,,M,0.02,N,0.04,K,D*2A
$PAIRLOG,Full*51
$GNGGA,005825.000,4910.427394,N,12304.399056,W,2,29,0.48,6.434,M,-16.817,M,,*48
$GNGLL,4910.427394,N,12304.399056,W,005825.000,A,D*5D
$GNGSA,A,3,17,19,22,14,24,13,15,02,06,30,,,0.84,0.48,0.69,1*02
$GNGSA,A,3,83,82,72,65,80,75,,,,,,,0.84,0.48,0.69,2*00
$GNGSA,A,3,25,02,10,08,03,24,,,,,,,0.84,0.48,0.69,3*05
$GNGSA,A,3,36,30,27,45,29,21,42,,,,,,0.84,0.48,0.69,4*07
$GPGSV,3,1,11,17,70,079,33,19,67,189,33,22,65,072,32,14,43,086,29,1*60
$GPGSV,3,2,11,24,41,301,29,13,23,211,26,15,20,248,22,02,17,039,19,1*64
$GPGSV,3,3,11,06,15,156,27,30,10,144,20,37,,,,1*64
$GLGSV,3,1,09,83,57,076,22,74,54,317,,84,29,168,,82,26,031,26,1*7C
$GLGSV,3,2,09,72,20,274,22,65,17,332,29,80,15,106,30,75,06,298,26,1*71
$GLGSV,3,3,09,71,01,231,,1*46
$GAGSV,2,1,06,25,78,051,30,02,43,277,26,10,36,084,26,08,34,285,23,7*77
$GAGSV,2,2,06,03,27,226,24,24,26,085,19,7*74
$GBGSV,2,1,08,36,88,279,36,30,60,141,34,27,40,058,32,45,35,298,29,1*75
$GBGSV,2,2,08,29,19,195,26,21,11,295,24,42,05,341,21,28,03,035,11,1*76
$GNRMC,005825.000,A,4910.427394,N,12304.399056,W,0.02,330.82,061224,,,D,V*1B
$GNVTG,330.82,T,,M,0.02,N,0.04,K,D*2A
$PAIRLOG,Full*51
$GNGGA,005826.000,4910.427268,N,12304.398810,W,2,29,0.48,5.914,M,-16.817,M,,*4E
$GNGLL,4910.427268,N,12304.398810,W,005826.000,A,D*57
$GNGSA,A,3,17,19,22,14,24,13,15,02,06,30,,,0.84,0.48,0.69,1*02
$GNGSA,A,3,83,82,72,65,80,75,,,,,,,0.84,0.48,0.69,2*00
$GNGSA,A,3,25,02,10,08,03,24,,,,,,,0.84,0.48,0.69,3*05
$GNGSA,A,3,36,30,27,45,29,21,42,,,,,,0.84,0.48,0.69,4*07
$GPGSV,3,1,11,17,70,079,34,19,67,189,34,22,65,072,33,14,43,086,30,1*69
$GPGSV,3,2,11,24,41,301,30,13,23,211,28,15,20,248,23,02,17,039,19,1*63
$GPGSV,3,3,11,06,15,156,27,30,10,144,21,37,,,,1*65
$GLGSV,3,1,09,83,57,076,21,74,54,317,,84,29,168,,82,26,031,25,1*7C
$GLGSV,3,2,09,72,20,274,22,65,17,332,29,80,15,106,29,75,06,298,26,1*79
$GLGSV,3,3,09,71,01,231,,1*46
$GAGSV,2,1,06,25,78,051,31,02,43,277,27,10,36,084,27,08,34,285,24,7*71
$GAGSV,2,2,06,03,27,226,25,24,26,085,19,7*75
$GBGSV,2,1,08,36,88,279,36,30,60,141,34,27,40,058,32,45,35,298,29,1*75
$GBGSV,2,2,08,29,19,195,26,21,11,295,24,42,05,341,21,28,03,035,11,1*76
$GNRMC,005826.000,A,4910.427268,N,12304.398810,W,0.02,330.82,061224,,,D,V*11
$GNVTG,330.82,T,,M,0.02,N,0.04,K,D*2A
$PAIRLOG,Full*51
$GNGGA,005827.000,4910.427160,N,12304.398720,W,2,29,0.48,5.563,M,-16.816,M,,*45
$GNGLL,4910.427160,N,12304.398720,W,005827.000,A,D*51
$GNGSA,A,3,17,19,22,14,24,13,15,02,06,30,,,0.84,0.48,0.69,1*02
$GNGSA,A,3,83,82,72,65,80,75,,,,,,,0.84,0.48,0.69,2*00
$GNGSA,A,3,25,02,10,08,03,24,,,,,,,0.84,0.48,0.69,3*05
$GNGSA,A,3,36,30,27,45,29,21,42,,,,,,0.84,0.48,0.69,4*07
$GPGSV,3,1,12,17,70,079,34,19,67,189,34,22,65,072,34,14,43,086,31,1*6C
$GPGSV,3,2,12,24,41,301,31,13,23,211,29,15,20,248,24,02,17,039,20,1*6D
$GPGSV,3,3,12,06,15,156,28,12,11,273,,30,10,144,22,21,04,026,,1*68
$GLGSV,3,1,09,83,57,076,22,74,54,317,,84,29,168,,82,26,031,26,1*7C
$GLGSV,3,2,09,72,20,274,23,65,17,332,29,80,15,106,29,75,06,298,26,1*78
$GLGSV,3,3,09,71,01,231,,1*46
$GAGSV,3,1,10,25,78,051,31,02,43,277,28,10,36,084,27,08,34,285,25,7*79
$GAGSV,3,2,10,11,33,118,27,12,29,056,,03,27,226,26,24,26,085,21,7*7D
$GAGSV,3,3,10,07,09,333,,36,08,162,,7*77
$GBGSV,3,1,11,36,88,279,36,30,60,141,34,27,40,058,32,46,36,118,,1*7C
$GBGSV,3,2,11,45,35,298,29,57,24,056,,29,19,195,26,21,11,295,24,1*7E
$GBGSV,3,3,11,42,05,341,20,28,03,035,12,22,02,249,,1*40
$GNRMC,005827.000,A,4910.427160,N,12304.398720,W,0.02,330.82,061224,,,D,V*17
$GNVTG,330.82,T,,M,0.02,N,0.04,K,D*2A
$PAIRLOG,Full*51
$GNGGA,005828.000,4910.427220,N,12304.398666,W,2,29,0.48,5.503,M,-16.816,M,,*48
$GNGLL,4910.427220,N,12304.398666,W,005828.000,A,D*5A
$GNGSA,A,3,17,19,22,14,24,13,15,02,06,30,,,0.84,0.48,0.69,1*02
$GNGSA,A,3,83,82,72,65,80,75,,,,,,,0.84,0.48,0.69,2*00
$GNGSA,A,3,25,02,10,08,03,24,,,,,,,0.84,0.48,0.69,3*05
$GNGSA,A,3,36,30,27,45,29,21,42,,,,,,0.84,0.48,0.69,4*07
$GPGSV,4,1,13,17,70,079,33,19,67,189,33,22,65,072,33,14,43,086,30,1*6C
$GPGSV,4,2,13,24,41,301,30,13,23,211,25,15,20,248,23,02,17,039,20,1*61
$GPGSV,4,3,13,06,15,156,27,12,11,273,,30,10,144,22,21,04,026,,1*61
$GPGSV,4,4,13,42,,,,1*60
$GLGSV,3,1,09,83,57,076,22,74,54,317,,84,29,168,,82,26,031,26,1*7C
$GLGSV,3,2,09,72,20,274,22,65,17,332,29,80,15,106,29,75,06,298,26,1*79
$GLGSV,3,3,09,71,01,231,,1*46
$GAGSV,3,1,10,25,78,051,31,02,43,277,27,10,36,084,27,08,34,285,24,7*77
$GAGSV,3,2,10,11,33,118,,12,29,056,,03,27,226,25,24,26,085,21,7*7B
$GAGSV,3,3,10,07,09,333,,36,08,162,,7*77
$GBGSV,3,1,11,36,88,279,36,30,60,141,34,27,40,058,32,46,36,118,,1*7C
$GBGSV,3,2,11,45,35,298,29,57,24,056,,29,19,195,27,21,11,295,24,1*7F
$GBGSV,3,3,11,42,05,341,20,28,03,035,14,22,02,249,,1*46
$GNRMC,005828.000,A,4910.427220,N,12304.398666,W,0.03,330.82,061224,,,D,V*1D
$GNVTG,330.82,T,,M,0.03,N,0.05,K,D*2A
$PAIRLOG,Full*51
$GNGGA,005829.000,4910.427172,N,12304.398588,W,2,29,0.48,5.248,M,-16.816,M,,*46
$GNGLL,4910.427172,N,12304.398588,W,005829.000,A,D*5C
$GNGSA,A,3,17,19,22,14,24,13,15,02,06,30,,,0.84,0.48,0.69,1*02
$GNGSA,A,3,83,82,72,65,80,75,,,,,,,0.84,0.48,0.69,2*00
$GNGSA,A,3,25,02,10,08,03,24,,,,,,,0.84,0.48,0.69,3*05
$GNGSA,A,3,36,30,27,45,29,21,42,,,,,,0.84,0.48,0.69,4*07
$GPGSV,3,1,11,17,70,079,33,19,67,189,33,22,65,072,33,14,43,086,30,1*69
$GPGSV,3,2,11,24,41,301,29,13,23,211,25,15,20,248,22,02,17,039,19,1*67
$GPGSV,3,3,11,06,15,156,27,30,10,144,21,42,,,,1*67
$GLGSV,3,1,09,83,57,076,22,74,54,317,,84,29,168,,82,26,031,26,1*7C
$GLGSV,3,2,09,72,20,274,22,65,17,332,30,80,15,106,29,75,06,298,27,1*70
$GLGSV,3,3,09,71,01,231,,1*46
$GAGSV,2,1,06,25,78,051,31,02,43,277,26,10,36,084,26,08,34,285,23,7*76
$GAGSV,2,2,06,03,27,226,25,24,26,085,21,7*7E
$GBGSV,2,1,08,36,88,279,36,30,60,141,34,27,40,058,32,45,35,298,29,1*75
$GBGSV,2,2,08,29,19,195,27,21,11,295,24,42,05,341,20,28,03,035,12,1*75
$GNRMC,005829.000,A,4910.427172,N,12304.398588,W,0.03,330.82,061224,,,D,V*1B
$GNVTG,330.82,T,,M,0.03,N,0.05,K,D*2A
$PAIRLOG,Full*51
$GNGGA,005830.000,4910.427262,N,12304.398606,W,2,29,0.48,5.312,M,-16.816,M,,*47
$GNGLL,4910.427262,N,12304.398606,W,005830.000,A,D*53
$GNGSA,A,3,17,19,22,14,24,13,15,02,06,30,,,0.84,0.48,0.69,1*02
$GNGSA,A,3,83,82,72,65,80,75,,,,,,,0.84,0.48,0.69,2*00
$GNGSA,A,3,25,02,10,08,03,24,,,,,,,0.84,0.48,0.69,3*05
$GNGSA,A,3,36,30,27,45,29,21,42,,,,,,0.84,0.48,0.69,4*07
$GPGSV,3,1,11,17,70,079,33,19,67,189,32,22,65,072,33,14,43,086,29,1*60
$GPGSV,3,2,11,24,41,301,29,13,23,211,25,15,20,248,22,02,17,039,19,1*67
$GPGSV,3,3,11,06,15,156,27,30,10,144,21,42,,,,1*67
$GLGSV,3,1,09,83,57,076,22,74,54,317,,84,29,168,,82,26,031,25,1*7F
$GLGSV,3,2,09,72,20,274,22,65,17,332,30,80,15,106,29,75,06,298,27,1*70
$GLGSV,3,3,09,71,01,231,,1*46
$GAGSV,2,1,06,25,78,051,31,02,43,277,25,10,36,084,26,08,34,285,22,7*74
$GAGSV,2,2,06,03,27,226,25,24,26,085,21,7*7E
$GBGSV,2,1,08,36,88,279,36,30,60,141,34,27,40,058,32,45,35,298,29,1*75
$GBGSV,2,2,08,29,19,195,27,21,11,295,24,42,05,341,20,28,03,035,12,1*75
$GNRMC,005830.000,A,4910.427262,N,12304.398606,W,0.03,330.82,061224,,,D,V*14
$GNVTG,330.82,T,,M,0.03,N,0.06,K,D*29
$PAIRLOG,Full*51
$GNGGA,005831.000,4910.427304,N,12304.398630,W,2,29,0.48,5.292,M,-16.816,M,,*4B
