$GNGGA,005801.000,4910.426620,N,12304.399506,W,2,27,0.51,9.430,M,-16.816,M,,*49
$GNGLL,4910.426620,N,12304.399506,W,005801.000,A,D*50
$GNGSA,A,3,17,19,22,14,24,13,15,02,06,30,,,0.88,0.51,0.72,1*0C
$GNGSA,A,3,73,72,80,,,,,,,,,,0.88,0.51,0.72,2*0A
$GNGSA,A,3,25,02,10,08,12,03,24,,,,,,0.88,0.51,0.72,3*08
$GNGSA,A,3,36,30,27,45,29,21,42,,,,,,0.88,0.51,0.72,4*09
$GPGSV,4,1,13,17,70,079,30,19,66,189,30,22,65,071,29,14,42,086,27,1*62
$GPGSV,4,2,13,24,41,301,27,46,33,188,27,13,22,211,23,15,21,248,22,1*6A
$GPGSV,4,3,13,02,17,038,22,06,16,156,22,12,12,273,,30,10,144,23,1*69
$GPGSV,4,4,13,21,04,026,18,1*5C
$GLGSV,2,1,07,73,68,074,25,83,57,077,,74,54,317,,84,28,168,,1*75
$GLGSV,2,2,07,82,26,032,,72,21,274,18,80,15,106,19,1*4D
$GAGSV,3,1,10,25,78,050,27,02,43,277,22,10,36,084,20,08,34,286,19,7*7E
$GAGSV,3,2,10,11,33,119,19,12,29,056,17,03,28,226,20,24,26,085,19,7*75
$GAGSV,3,3,10,07,09,333,14,36,08,162,18,7*7B
$GBGSV,3,1,11,36,87,282,39,30,60,141,37,27,40,058,34,46,37,118,,1*7C
$GBGSV,3,2,11,45,34,298,31,57,24,056,,29,19,195,29,21,11,296,28,1*76
$GBGSV,3,3,11,42,05,342,25,28,03,035,16,22,02,249,17,1*44
$GNRMC,005801.000,A,4910.426620,N,12304.399506,W,0.02,342.49,061224,,,D,V*14
$GNVTG,342.49,T,,M,0.02,N,0.04,K,D*28
$GNGGA,005802.000,4910.426602,N,12304.399692,W,2,27,0.51,9.500,M,-16.817,M,,*47
$GNGLL,4910.426602,N,12304.399692,W,005802.000,A,D*5D
$GNGSA,A,3,17,19,22,14,24,13,15,02,06,30,,,0.88,0.51,0.72,1*0C
$GNGSA,A,3,73,72,80,,,,,,,,,,0.88,0.51,0.72,2*0A
$GNGSA,A,3,25,02,10,08,12,03,24,,,,,,0.88,0.51,0.72,3*08
$GNGSA,A,3,36,30,27,45,29,21,42,,,,,,0.88,0.51,0.72,4*09
$GPGSV,4,1,13,17,70,079,31,19,66,189,30,22,65,071,29,14,42,086,27,1*63
$GPGSV,4,2,13,24,41,301,28,46,33,188,27,13,22,211,24,15,20,247,25,1*6B
$GPGSV,4,3,13,02,17,038,23,06,16,156,22,12,12,273,,30,10,144,25,1*6E
$GPGSV,4,4,13,21,04,026,18,1*5C
$GLGSV,2,1,07,73,68,074,26,83,57,077,,74,54,317,,84,28,168,,1*76
$GLGSV,2,2,07,82,26,032,,72,21,274,18,80,15,106,19,1*4D
$GAGSV,3,1,10,25,78,050,28,02,43,277,23,10,36,084,20,08,34,286,19,7*70
$GAGSV,3,2,10,11,33,119,20,12,29,056,17,03,28,226,20,24,26,085,19,7*7F
$GAGSV,3,3,10,07,09,333,14,36,08,162,18,7*7B
$GBGSV,3,1,11,36,87,282,39,30,60,141,37,27,40,058,34,46,37,118,,1*7C
$GBGSV,3,2,11,45,34,298,31,57,24,056,,29,19,195,29,21,11,296,28,1*76
$GBGSV,3,3,11,42,05,342,25,28,03,035,16,22,02,249,17,1*44
$GNRMC,005802.000,A,4910.426602,N,12304.399692,W,0.02,342.49,061224,,,D,V*19
$GNVTG,342.49,T,,M,0.02,N,0.04,K,D*28
$GNGGA,005803.000,4910.426650,N,12304.399824,W,2,27,0.51,9.467,M,-16.816,M,,*43
$GNGLL,4910.426650,N,12304.399824,W,005803.000,A,D*58
$GNGSA,A,3,17,19,22,14,24,13,15,02,06,30,,,0.88,0.51,0.72,1*0C
$GNGSA,A,3,73,72,80,,,,,,,,,,0.88,0.51,0.72,2*0A
$GNGSA,A,3,25,02,10,08,12,03,24,,,,,,0.88,0.51,0.72,3*08
$GNGSA,A,3,36,30,27,45,29,21,42,,,,,,0.88,0.51,0.72,4*09
$GPGSV,4,1,13,17,70,079,31,19,66,189,31,22,65,071,29,14,42,086,27,1*62
$GPGSV,4,2,13,24,41,301,28,46,33,188,28,13,22,211,25,15,20,247,24,1*64
$GPGSV,4,3,13,02,17,038,24,06,16,156,20,12,12,273,,30,10,144,24,1*6A
$GPGSV,4,4,13,21,04,026,19,1*5D
$GLGSV,2,1,07,73,68,074,26,83,57,077,,74,54,317,,84,28,168,,1*76
$GLGSV,2,2,07,82,26,032,,72,21,274,19,80,15,106,19,1*4C
$GAGSV,3,1,10,25,78,050,28,02,43,277,23,10,36,084,20,08,34,286,19,7*70
$GAGSV,3,2,10,11,33,119,20,12,29,056,17,03,28,226,20,24,26,085,19,7*7F
$GAGSV,3,3,10,07,09,333,14,36,08,162,18,7*7B
$GBGSV,3,1,11,36,87,282,39,30,60,141,37,27,40,058,34,46,37,118,,1*7C
$GBGSV,3,2,11,45,34,298,31,57,24,056,,29,19,195,29,21,11,296,29,1*77
$GBGSV,3,3,11,42,05,342,26,28,03,035,16,22,02,249,18,1*48
$GNRMC,005803.000,A,4910.426650,N,12304.399824,W,0.02,342.49,061224,,,D,V*1C
$GNVTG,342.49,T,,M,0.02,N,0.04,K,D*28
$GNGGA,005804.000,4910.426626,N,12304.399902,W,2,27,0.51,9.379,M,-16.816,M,,*48
$GNGLL,4910.426626,N,12304.399902,W,005804.000,A,D*5B
$GNGSA,A,3,17,19,22,14,24,13,15,02,06,30,,,0.88,0.51,0.72,1*0C
$GNGSA,A,3,73,72,80,,,,,,,,,,0.88,0.51,0.72,2*0A
$GNGSA,A,3,25,02,10,08,12,03,24,,,,,,0.88,0.51,0.72,3*08
$GNGSA,A,3,36,30,27,45,29,21,42,,,,,,0.88,0.51,0.72,4*09
$GPGSV,4,1,13,17,69,077,31,19,66,189,31,22,65,071,30,14,42,086,28,1*63
$GPGSV,4,2,13,24,41,301,28,46,33,188,28,13,22,211,24,15,20,247,24,1*65
$GPGSV,4,3,13,02,17,038,24,06,16,156,21,12,12,273,,30,10,144,24,1*6B
$GPGSV,4,4,13,21,04,026,19,1*5D
$GLGSV,2,1,07,73,68,074,26,83,57,077,,74,54,317,,84,28,168,,1*76
$GLGSV,2,2,07,82,26,032,,72,21,274,19,80,15,106,19,1*4C
$GAGSV,3,1,10,25,78,050,28,02,43,277,24,10,36,084,20,08,34,286,19,7*77
$GAGSV,3,2,10,11,33,119,20,12,29,056,17,03,28,226,20,24,26,085,19,7*7F
$GAGSV,3,3,10,07,09,333,14,36,08,162,18,7*7B
$GBGSV,3,1,11,36,87,282,40,30,60,141,37,27,40,058,35,46,37,118,,1*73
$GBGSV,3,2,11,45,34,298,31,57,24,056,,29,19,195,29,21,11,296,29,1*77
$GBGSV,3,3,11,42,05,342,25,28,03,035,16,22,02,249,18,1*4B
$GNRMC,005804.000,A,4910.426626,N,12304.399902,W,0.02,342.49,061224,,,D,V*1F
$GNVTG,342.49,T,,M,0.02,N,0.03,K,D*2F
$GNGGA,005805.000,4910.426536,N,12304.400004,W,2,27,0.51,9.268,M,-16.816,M,,*42
$GNGLL,4910.426536,N,12304.400004,W,005805.000,A,D*50
$GNGSA,A,3,17,19,22,14,24,13,15,02,06,30,,,0.88,0.51,0.72,1*0C
$GNGSA,A,3,73,72,80,,,,,,,,,,0.88,0.51,0.72,2*0A
$GNGSA,A,3,25,02,10,08,12,03,24,,,,,,0.88,0.51,0.72,3*08
$GNGSA,A,3,36,30,27,45,29,21,42,,,,,,0.88,0.51,0.72,4*09
$GPGSV,4,1,13,17,69,077,31,19,66,189,31,22,65,071,30,14,42,086,26,1*6D
$GPGSV,4,2,13,24,41,301,28,46,33,188,28,13,22,211,24,15,20,247,24,1*65
$GPGSV,4,3,13,02,17,038,22,06,16,156,20,12,12,273,,30,10,144,23,1*6B
$GPGSV,4,4,13,21,04,026,19,1*5D
$GLGSV,2,1,07,73,68,074,26,83,57,077,,74,54,317,,84,28,168,,1*76
$GLGSV,2,2,07,82,26,032,,72,21,274,19,80,15,106,19,1*4C
$GAGSV,3,1,10,25,78,050,28,02,43,277,24,10,36,084,20,08,34,286,19,7*77
$GAGSV,3,2,10,11,33,119,20,12,29,056,17,03,28,226,20,24,26,085,19,7*7F
$GAGSV,3,3,10,07,09,333,14,36,08,162,18,7*7B
$GBGSV,3,1,11,36,87,282,40,30,60,141,37,27,40,058,35,46,37,118,,1*73
$GBGSV,3,2,11,45,34,298,31,57,24,056,,29,19,195,29,21,11,296,29,1*77
$GBGSV,3,3,11,42,05,342,25,28,03,035,16,22,02,249,18,1*4B
$GNRMC,005805.000,A,4910.426536,N,12304.400004,W,0.02,342.49,061224,,,D,V*14
$GNVTG,342.49,T,,M,0.02,N,0.03,K,D*2F
$GNGGA,005806.000,4910.426512,N,12304.399926,W,2,27,0.51,9.214,M,-16.816,M,,*42
$GNGLL,4910.426512,N,12304.399926,W,005806.000,A,D*5B
$GNGSA,A,3,17,19,22,14,24,13,15,02,06,30,,,0.88,0.51,0.72,1*0C
$GNGSA,A,3,73,72,80,,,,,,,,,,0.88,0.51,0.72,2*0A
$GNGSA,A,3,25,02,10,08,12,03,24,,,,,,0.88,0.51,0.72,3*08
$GNGSA,A,3,36,30,27,45,29,21,42,,,,,,0.88,0.51,0.72,4*09
$GPGSV,4,1,13,17,69,077,31,19,68,188,31,22,65,071,30,14,42,086,27,1*63
$GPGSV,4,2,13,24,41,301,28,46,33,188,28,13,22,211,24,15,20,247,24,1*65
$GPGSV,4,3,13,02,17,038,22,06,16,156,22,12,12,273,,30,10,144,24,1*6E
$GPGSV,4,4,13,21,04,026,19,1*5D
$GLGSV,2,1,07,73,68,074,26,83,57,077,,74,54,317,,84,28,168,,1*76
$GLGSV,2,2,07,82,26,032,,72,21,274,19,80,15,106,19,1*4C
$GAGSV,3,1,10,25,78,050,28,02,43,277,23,10,36,084,20,08,34,286,19,7*70
$GAGSV,3,2,10,11,33,119,20,12,29,056,17,03,28,226,20,24,26,085,19,7*7F
$GAGSV,3,3,10,07,09,333,15,36,08,162,19,7*7B
$GBGSV,3,1,11,36,87,282,40,30,60,141,37,27,40,058,35,46,37,118,,1*73
$GBGSV,3,2,11,45,34,298,31,57,24,056,,29,19,195,29,21,11,296,29,1*77
$GBGSV,3,3,11,42,05,342,25,28,03,035,16,22,02,249,18,1*4B
$GNRMC,005806.000,A,4910.426512,N,12304.399926,W,0.02,342.49,061224,,,D,V*1F
$GNVTG,342.49,T,,M,0.02,N,0.04,K,D*28
$GNGGA,005807.000,4910.426500,N,12304.399836,W,2,27,0.51,9.146,M,-16.816,M,,*44
$GNGLL,4910.426500,N,12304.399836,W,005807.000,A,D*59
$GNGSA,A,3,17,19,22,14,24,13,15,02,06,30,,,0.88,0.51,0.72,1*0C
$GNGSA,A,3,73,72,80,,,,,,,,,,0.88,0.51,0.72,2*0A
$GNGSA,A,3,25,02,10,08,12,03,24,,,,,,0.88,0.51,0.72,3*08
$GNGSA,A,3,36,30,27,45,29,21,42,,,,,,0.88,0.51,0.72,4*09
$GPGSV,4,1,13,17,69,077,31,19,68,188,31,22,65,071,30,14,42,086,27,1*63
$GPGSV,4,2,13,24,41,301,28,46,33,188,28,13,22,211,23,15,20,247,24,1*62
$GPGSV,4,3,13,02,17,038,23,06,16,156,20,12,12,273,,30,10,144,23,1*6A
$GPGSV,4,4,13,21,04,026,18,1*5C
$GLGSV,2,1,07,73,68,074,26,83,57,077,,74,54,317,,84,28,168,,1*76
$GLGSV,2,2,07,82,26,032,,72,21,274,19,80,15,106,19,1*4C
$GAGSV,3,1,10,25,78,050,28,02,43,277,23,10,36,084,21,08,34,286,19,7*71
$GAGSV,3,2,10,11,33,119,20,12,29,056,17,03,28,226,20,24,26,085,19,7*7F
$GAGSV,3,3,10,07,09,333,15,36,08,162,19,7*7B
$GBGSV,3,1,11,36,87,282,40,30,60,141,37,27,40,058,35,46,37,118,,1*73
$GBGSV,3,2,11,45,34,298,32,57,24,056,,29,19,195,29,21,11,296,29,1*74
$GBGSV,3,3,11,42,05,342,25,28,03,035,16,22,02,249,18,1*4B
$GNRMC,005807.000,A,4910.426500,N,12304.399836,W,0.03,342.49,061224,,,D,V*1C
$GNVTG,342.49,T,,M,0.03,N,0.05,K,D*28
$GNGGA,005808.000,4910.426428,N,12304.399908,W,2,27,0.51,9.084,M,-16.816,M,,*43
$GNGLL,4910.426428,N,12304.399908,W,005808.000,A,D*51
$GNGSA,A,3,17,19,22,14,24,13,15,02,06,30,,,0.88,0.51,0.72,1*0C
$GNGSA,A,3,73,72,80,,,,,,,,,,0.88,0.51,0.72,2*0A
$GNGSA,A,3,25,02,10,08,12,03,24,,,,,,0.88,0.51,0.72,3*08
$GNGSA,A,3,36,30,27,45,29,21,42,,,,,,0.88,0.51,0.72,4*09
$GPGSV,4,1,13,17,69,077,31,19,68,188,31,22,65,071,30,14,42,086,26,1*62
$GPGSV,4,2,13,24,41,301,28,46,33,188,28,13,22,211,24,15,20,247,22,1*63
$GPGSV,4,3,13,02,17,038,22,06,16,156,20,12,12,273,,30,10,144,23,1*6B
$GPGSV,4,4,13,21,03,026,18,1*5B
$GLGSV,2,1,07,73,68,074,26,83,57,077,,74,54,317,,84,28,168,,1*76
$GLGSV,2,2,07,82,26,032,,72,21,274,19,80,15,106,19,1*4C
$GAGSV,3,1,10,25,78,050,28,02,43,277,23,10,36,084,21,08,34,286,19,7*71
$GAGSV,3,2,10,11,33,119,20,12,29,056,17,03,28,226,19,24,26,085,19,7*75
$GAGSV,3,3,10,07,09,333,14,36,08,162,19,7*7A
$GBGSV,3,1,11,36,87,282,40,30,60,141,37,27,40,058,35,46,37,118,,1*73
$GBGSV,3,2,11,45,34,298,32,57,24,056,,29,19,195,29,21,11,296,29,1*74
$GBGSV,3,3,11,42,05,342,27,28,03,035,16,22,02,249,18,1*49
$GNRMC,005808.000,A,4910.426428,N,12304.399908,W,0.02,342.49,061224,,,D,V*15
$GNVTG,342.49,T,,M,0.02,N,0.04,K,D*28
$GNGGA,005809.000,4910.426416,N,12304.399968,W,2,27,0.51,9.043,M,-16.816,M,,*42
$GNGLL,4910.426416,N,12304.399968,W,005809.000,A,D*5B
$GNGSA,A,3,17,19,22,14,24,13,15,02,06,30,,,0.88,0.51,0.72,1*0C
$GNGSA,A,3,73,72,80,,,,,,,,,,0.88,0.51,0.72,2*0A
$GNGSA,A,3,25,02,10,08,12,03,24,,,,,,0.88,0.51,0.72,3*08
$GNGSA,A,3,36,30,27,45,29,21,42,,,,,,0.88,0.51,0.72,4*09
$GPGSV,4,1,13,17,69,077,31,19,68,188,30,22,64,073,30,14,42,086,27,1*61
$GPGSV,4,2,13,24,41,301,28,46,33,188,28,13,22,211,24,15,20,247,24,1*65
$GPGSV,4,3,13,02,17,038,22,06,16,156,20,12,12,273,,30,10,144,24,1*6C
$GPGSV,4,4,13,21,03,026,18,1*5B
$GLGSV,2,1,06,73,68,074,26,83,57,077,,84,28,168,,82,26,032,,1*7F
$GLGSV,2,2,06,72,21,274,19,80,15,106,19,1*72
$GAGSV,3,1,10,25,78,050,28,02,43,277,23,10,36,084,21,08,34,286,19,7*71
$GAGSV,3,2,10,11,33,119,20,12,29,056,17,03,28,226,19,24,26,085,19,7*75
$GAGSV,3,3,10,07,09,333,15,36,08,162,19,7*7B
$GBGSV,3,1,11,36,87,282,40,30,60,141,37,27,40,058,35,46,37,118,,1*73
$GBGSV,3,2,11,45,34,298,32,57,24,056,,29,19,195,29,21,11,296,29,1*74
$GBGSV,3,3,11,42,05,342,27,28,03,035,16,22,02,249,18,1*49
$GNRMC,005809.000,A,4910.426416,N,12304.399968,W,0.02,342.49,061224,,,D,V*1F
$GNVTG,342.49,T,,M,0.02,N,0.04,K,D*28
$GNGGA,005810.000,4910.426464,N,12304.399980,W,2,27,0.51,8.979,M,-16.816,M,,*48
$GNGLL,4910.426464,N,12304.399980,W,005810.000,A,D*50
$GNGSA,A,3,17,19,22,14,24,13,15,02,06,30,,,0.88,0.51,0.72,1*0C
$GNGSA,A,3,73,72,80,,,,,,,,,,0.88,0.51,0.72,2*0A
$GNGSA,A,3,25,02,10,08,12,03,24,,,,,,0.88,0.51,0.72,3*08
$GNGSA,A,3,36,30,27,45,29,21,42,,,,,,0.88,0.51,0.72,4*09
$GPGSV,4,1,13,17,69,077,31,19,68,188,30,22,64,073,30,14,42,086,27,1*61
$GPGSV,4,2,13,24,41,301,28,46,33,188,28,13,22,211,24,15,20,247,23,1*62
$GPGSV,4,3,13,02,17,038,22,06,16,156,20,12,12,273,,30,10,144,23,1*6B
$GPGSV,4,4,13,21,03,026,18,1*5B
$GLGSV,2,1,07,73,68,074,26,83,57,077,,74,54,317,,84,28,168,,1*76
$GLGSV,2,2,07,82,26,032,,72,21,274,19,80,15,106,19,1*4C
$GAGSV,3,1,10,25,78,050,28,02,43,277,23,10,36,084,21,08,34,286,19,7*71
$GAGSV,3,2,10,11,33,119,20,12,29,056,17,03,28,226,19,24,26,085,19,7*75
$GAGSV,3,3,10,07,09,333,15,36,08,162,19,7*7B
$GBGSV,3,1,11,36,87,282,40,30,60,141,37,27,40,058,35,46,37,118,,1*73
$GBGSV,3,2,11,45,34,298,32,57,24,056,,29,19,195,29,21,11,296,29,1*74
$GBGSV,3,3,11,42,05,342,26,28,03,035,16,22,02,249,18,1*48
$GNRMC,005810.000,A,4910.426464,N,12304.399980,W,0.02,342.49,061224,,,D,V*14
$GNVTG,342.49,T,,M,0.02,N,0.03,K,D*2F
$GNGGA,005811.000,4910.426536,N,12304.399950,W,2,27,0.51,8.936,M,-16.816,M,,*49
$GNGLL,4910.426536,N,12304.399950,W,005811.000,A,D*5A
$GNGSA,A,3,17,19,22,14,24,13,15,02,06,30,,,0.88,0.51,0.72,1*0C
$GNGSA,A,3,73,72,80,,,,,,,,,,0.88,0.51,0.72,2*0A
$GNGSA,A,3,25,02,10,08,12,03,24,,,,,,0.88,0.51,0.72,3*08
$GNGSA,A,3,36,30,27,45,29,21,42,,,,,,0.88,0.51,0.72,4*09
$GPGSV,4,1,13,17,69,077,31,19,68,188,30,22,64,073,30,14,42,086,27,1*61
$GPGSV,4,2,13,24,42,300,28,46,33,188,28,13,22,211,24,15,20,247,24,1*67
$GPGSV,4,3,13,02,17,038,22,06,16,156,20,12,12,273,,30,10,144,23,1*6B
$GPGSV,4,4,13,21,03,026,18,1*5B
$GLGSV,2,1,07,73,68,074,26,83,57,077,,74,54,317,,84,28,168,,1*76
$GLGSV,2,2,07,82,26,032,,72,21,274,19,80,15,106,19,1*4C
$GAGSV,3,1,10,25,78,050,28,02,43,277,23,10,36,084,21,08,34,286,19,7*71
$GAGSV,3,2,10,11,33,119,20,12,29,056,17,03,28,226,19,24,26,085,19,7*75
$GAGSV,3,3,10,07,09,333,16,36,08,162,19,7*78
$GBGSV,3,1,11,36,87,282,40,30,60,141,37,27,40,058,35,46,37,118,,1*73
$GBGSV,3,2,11,45,34,298,32,57,24,056,,29,19,195,29,21,11,296,29,1*74
$GBGSV,3,3,11,42,05,342,26,28,03,035,16,22,02,249,18,1*48
$GNRMC,005811.000,A,4910.426536,N,12304.399950,W,0.02,342.49,061224,,,D,V*1E
$GNVTG,342.49,T,,M,0.02,N,0.03,K,D*2F
$GNGGA,005812.000,4910.426644,N,12304.399866,W,2,27,0.51,8.953,M,-16.816,M,,*4B
$GNGLL,4910.426644,N,12304.399866,W,005812.000,A,D*5B
$GNGSA,A,3,17,19,22,14,24,13,15,02,06,30,,,0.88,0.51,0.72,1*0C
$GNGSA,A,3,73,72,80,,,,,,,,,,0.88,0.51,0.72,2*0A
$GNGSA,A,3,25,02,10,08,12,03,24,,,,,,0.88,0.51,0.72,3*08
$GNGSA,A,3,36,30,27,45,29,21,42,,,,,,0.88,0.51,0.72,4*09
$GPGSV,4,1,13,17,69,077,31,19,68,188,30,22,64,073,30,14,42,086,27,1*61
$GPGSV,4,2,13,24,42,300,28,46,33,188,28,13,22,211,23,15,20,247,24,1*60
$GPGSV,4,3,13,02,17,038,22,06,16,156,20,12,12,273,,30,10,144,24,1*6C
$GPGSV,4,4,13,21,03,026,18,1*5B
$GLGSV,2,1,07,73,68,074,26,83,57,077,,74,54,317,,84,28,168,,1*76
$GLGSV,2,2,07,82,26,032,,72,21,274,19,80,15,106,19,1*4C
$GAGSV,3,1,10,25,78,050,28,02,43,277,23,10,36,084,21,08,34,286,19,7*71
$GAGSV,3,2,10,11,33,119,20,12,29,056,17,03,28,226,19,24,26,085,19,7*75
$GAGSV,3,3,10,07,09,333,16,36,08,162,19,7*78
$GBGSV,3,1,11,36,87,282,40,30,60,141,37,27,40,058,35,46,37,118,,1*73
$GBGSV,3,2,11,45,34,298,32,57,24,056,,29,19,195,29,21,11,296,29,1*74
$GBGSV,3,3,11,42,05,342,26,28,03,035,16,22,02,249,18,1*48
$GNRMC,005812.000,A,4910.426644,N,12304.399866,W,0.02,342.49,061224,,,D,V*1F
$GNVTG,342.49,T,,M,0.02,N,0.03,K,D*2F
$GNGGA,005813.000,4910.426680,N,12304.399788,W,2,27,0.51,8.947,M,-16.816,M,,*48
$GNGLL,4910.426680,N,12304.399788,W,005813.000,A,D*5D
$GNGSA,A,3,17,19,22,14,24,13,15,02,06,30,,,0.88,0.51,0.72,1*0C
$GNGSA,A,3,73,72,80,,,,,,,,,,0.88,0.51,0.72,2*0A
$GNGSA,A,3,25,02,10,08,12,03,24,,,,,,0.88,0.51,0.72,3*08
$GNGSA,A,3,36,30,27,45,29,21,42,,,,,,0.88,0.51,0.72,4*09
$GPGSV,4,1,13,17,69,077,31,19,68,188,30,22,64,073,30,14,42,086,27,1*61
$GPGSV,4,2,13,24,42,300,29,46,33,188,28,13,22,211,23,15,20,247,23,1*66
$GPGSV,4,3,13,02,17,038,22,06,16,156,20,12,12,273,,30,10,144,24,1*6C
$GPGSV,4,4,13,21,03,026,18,1*5B
$GLGSV,2,1,07,73,68,074,26,83,57,077,,74,54,317,,84,28,168,,1*76
$GLGSV,2,2,07,82,26,032,,72,21,274,19,80,15,106,20,1*46
$GAGSV,3,1,10,25,78,050,27,02,43,277,23,10,36,084,21,08,34,286,19,7*7E
$GAGSV,3,2,10,11,33,119,20,12,29,056,17,03,28,226,19,24,26,085,19,7*75
$GAGSV,3,3,10,07,09,333,16,36,08,162,19,7*78
$GBGSV,3,1,11,36,87,282,40,30,60,141,37,27,40,058,35,46,37,118,,1*73
$GBGSV,3,2,11,45,34,298,32,57,24,056,,29,19,195,29,21,11,296,29,1*74
$GBGSV,3,3,11,42,05,342,26,28,03,035,16,22,02,249,18,1*48
$GNRMC,005813.000,A,4910.426680,N,12304.399788,W,0.02,342.49,061224,,,D,V*19
$GNVTG,342.49,T,,M,0.02,N,0.04,K,D*28
$GNGGA,005814.000,4910.426734,N,12304.399782,W,2,27,0.51,8.968,M,-16.816,M,,*46
$GNGLL,4910.426734,N,12304.399782,W,005814.000,A,D*5E
$GNGSA,A,3,17,19,22,14,24,13,15,02,06,30,,,0.88,0.51,0.72,1*0C
$GNGSA,A,3,73,72,80,,,,,,,,,,0.88,0.51,0.72,2*0A
$GNGSA,A,3,25,02,10,08,12,03,24,,,,,,0.88,0.51,0.72,3*08
$GNGSA,A,3,36,30,27,45,29,21,42,,,,,,0.88,0.51,0.72,4*09
$GPGSV,4,1,13,17,69,077,31,19,68,188,30,22,64,073,30,14,42,086,27,1*61
$GPGSV,4,2,13,24,42,300,29,46,33,188,28,13,22,211,22,15,20,247,23,1*67
$GPGSV,4,3,13,02,17,038,23,06,16,156,20,12,12,273,,30,10,144,24,1*6D
$GPGSV,4,4,13,21,03,026,18,1*5B
$GLGSV,2,1,07,73,68,074,25,83,57,077,,74,54,317,,84,28,168,,1*75
$GLGSV,2,2,07,82,26,032,,72,21,274,19,80,15,106,20,1*46
$GAGSV,3,1,10,25,78,050,27,02,43,277,23,10,36,084,21,08,34,286,19,7*7E
$GAGSV,3,2,10,11,33,119,19,12,29,056,17,03,28,226,19,24,26,085,19,7*7F
$GAGSV,3,3,10,07,09,333,16,36,08,162,19,7*78
$GBGSV,3,1,11,36,87,282,40,30,60,141,37,27,40,058,35,46,37,118,,1*73
$GBGSV,3,2,11,45,34,298,32,57,24,056,,29,19,195,29,21,11,296,29,1*74
$GBGSV,3,3,11,42,05,342,26,28,03,035,16,22,02,249,18,1*48
$GNRMC,005814.000,A,4910.426734,N,12304.399782,W,0.02,342.49,061224,,,D,V*1A
$GNVTG,342.49,T,,M,0.02,N,0.04,K,D*28
$GNGGA,005815.000,4910.426716,N,12304.399800,W,2,27,0.51,8.933,M,-16.816,M,,*4C
$GNGLL,4910.426716,N,12304.399800,W,005815.000,A,D*5A
$GNGSA,A,3,17,19,22,14,24,13,15,02,06,30,,,0.88,0.51,0.72,1*0C
$GNGSA,A,3,73,72,80,,,,,,,,,,0.88,0.51,0.72,2*0A
$GNGSA,A,3,25,02,10,08,12,03,24,,,,,,0.88,0.51,0.72,3*08
$GNGSA,A,3,36,30,27,45,29,21,42,,,,,,0.88,0.51,0.72,4*09
$GPGSV,4,1,13,17,69,077,31,19,68,188,30,22,64,073,30,14,42,086,26,1*60
$GPGSV,4,2,13,24,42,300,28,46,33,188,28,13,22,211,22,15,20,247,23,1*66
$GPGSV,4,3,13,02,17,038,23,06,16,156,20,12,12,273,,30,10,144,23,1*6A
$GPGSV,4,4,13,21,03,026,18,1*5B
$GLGSV,2,1,07,73,68,074,25,83,57,077,,74,54,317,,84,28,168,,1*75
$GLGSV,2,2,07,82,26,032,,72,21,274,19,80,15,106,20,1*46
$GAGSV,3,1,10,25,78,050,27,02,43,277,23,10,36,084,21,08,34,286,19,7*7E
$GAGSV,3,2,10,11,33,119,19,12,29,056,17,03,28,226,19,24,26,085,19,7*7F
$GAGSV,3,3,10,07,09,333,16,36,08,162,19,7*78
$GBGSV,3,1,11,36,87,282,40,30,60,141,37,27,40,058,35,46,37,118,,1*73
$GBGSV,3,2,11,45,34,298,32,57,24,056,,29,19,195,29,21,11,296,29,1*74
$GBGSV,3,3,11,42,05,342,26,28,03,035,16,22,02,249,17,1*47
$GNRMC,005815.000,A,4910.426716,N,12304.399800,W,0.02,342.49,061224,,,D,V*1E
$GNVTG,342.49,T,,M,0.02,N,0.04,K,D*28
$GNGGA,005816.000,4910.426758,N,12304.399818,W,2,27,0.51,8.913,M,-16.816,M,,*4E
$GNGLL,4910.426758,N,12304.399818,W,005816.000,A,D*5A
$GNGSA,A,3,17,19,22,14,24,13,15,02,06,30,,,0.88,0.51,0.72,1*0C
$GNGSA,A,3,73,72,80,,,,,,,,,,0.88,0.51,0.72,2*0A
$GNGSA,A,3,25,02,10,08,12,03,24,,,,,,0.88,0.51,0.72,3*08
$GNGSA,A,3,36,30,27,45,29,21,42,,,,,,0.88,0.51,0.72,4*09
$GPGSV,4,1,13,17,69,077,31,19,68,188,30,22,64,073,30,14,42,086,26,1*60
$GPGSV,4,2,13,24,42,300,28,46,33,188,28,13,22,211,22,15,20,247,24,1*61
$GPGSV,4,3,13,02,17,038,23,06,16,156,20,12,12,273,,30,10,144,23,1*6A
$GPGSV,4,4,13,21,03,026,18,1*5B
$GLGSV,2,1,06,73,68,074,25,83,57,077,,84,28,168,,82,26,032,,1*7C
$GLGSV,2,2,06,72,21,274,19,80,15,106,20,1*78
$GAGSV,3,1,10,25,78,050,27,02,43,277,23,10,36,084,21,08,34,286,19,7*7E
$GAGSV,3,2,10,11,33,119,19,12,29,056,17,03,28,226,19,24,26,085,19,7*7F
$GAGSV,3,3,10,07,09,333,16,36,08,162,19,7*78
$GBGSV,3,1,11,36,87,282,40,30,60,141,37,27,40,058,35,46,37,118,,1*73
$GBGSV,3,2,11,45,34,298,32,57,24,056,,29,19,195,29,21,11,296,29,1*74
$GBGSV,3,3,11,42,05,342,26,28,03,035,15,22,02,249,16,1*45
$GNRMC,005816.000,A,4910.426758,N,12304.399818,W,0.02,342.49,061224,,,D,V*1E
$GNVTG,342.49,T,,M,0.02,N,0.04,K,D*28
$GNGGA,005817.000,4910.426782,N,12304.399884,W,2,27,0.51,8.847,M,-16.816,M,,*4D
$GNGLL,4910.426782,N,12304.399884,W,005817.000,A,D*59
$GNGSA,A,3,17,19,22,14,24,13,15,02,06,30,,,0.88,0.51,0.72,1*0C
$GNGSA,A,3,73,72,80,,,,,,,,,,0.88,0.51,0.72,2*0A
$GNGSA,A,3,25,02,10,08,12,03,24,,,,,,0.88,0.51,0.72,3*08
$GNGSA,A,3,36,30,27,45,29,21,42,,,,,,0.88,0.51,0.72,4*09
$GPGSV,4,1,13,17,69,077,31,19,68,188,30,22,64,073,30,14,42,086,26,1*60
$GPGSV,4,2,13,24,42,300,28,46,33,188,28,13,22,211,23,15,20,247,23,1*67
$GPGSV,4,3,13,02,17,038,22,06,16,156,20,12,12,273,,30,09,144,23,1*63
$GPGSV,4,4,13,21,03,026,18,1*5B
$GLGSV,2,1,06,73,68,074,24,83,57,077,,84,28,168,,82,26,032,,1*7D
$GLGSV,2,2,06,72,21,274,19,80,15,106,21,1*79
$GAGSV,3,1,10,25,78,050,27,02,43,277,23,10,36,084,21,08,34,286,19,7*7E
$GAGSV,3,2,10,11,33,119,19,12,29,056,17,03,28,226,19,24,26,085,19,7*7F
$GAGSV,3,3,10,07,09,333,17,36,08,162,19,7*79
$GBGSV,3,1,11,36,87,282,40,30,60,141,37,27,40,058,35,46,37,118,,1*73
$GBGSV,3,2,11,45,34,298,32,57,24,056,,29,19,195,29,21,11,296,29,1*74
$GBGSV,3,3,11,42,05,342,26,28,03,035,15,22,02,249,16,1*45
$GNRMC,005817.000,A,4910.426782,N,12304.399884,W,0.02,342.49,061224,,,D,V*1D
$GNVTG,342.49,T,,M,0.02,N,0.03,K,D*2F
$GNGGA,005818.000,4910.426842,N,12304.399992,W,2,27,0.51,8.927,M,-16.816,M,,*40
$GNGLL,4910.426842,N,12304.399992,W,005818.000,A,D*53
$GNGSA,A,3,17,19,22,14,24,13,15,02,06,30,,,0.88,0.51,0.72,1*0C
$GNGSA,A,3,73,72,80,,,,,,,,,,0.88,0.51,0.72,2*0A
$GNGSA,A,3,25,02,10,08,12,03,24,,,,,,0.88,0.51,0.72,3*08
$GNGSA,A,3,36,30,27,45,29,21,42,,,,,,0.88,0.51,0.72,4*09
$GPGSV,4,1,13,17,69,077,31,19,68,188,30,22,64,073,30,14,42,086,26,1*60
$GPGSV,4,2,13,24,42,300,28,46,33,188,28,13,22,211,22,15,20,247,24,1*61
$GPGSV,4,3,13,02,17,038,23,06,16,156,20,12,12,273,,30,09,144,24,1*65
$GPGSV,4,4,13,21,03,026,17,1*54
$GLGSV,2,1,07,73,68,074,24,83,57,077,,74,54,317,,84,28,168,,1*74
$GLGSV,2,2,07,82,26,032,,72,21,274,19,80,15,106,21,1*47
$GAGSV,3,1,10,25,78,050,27,02,43,277,23,10,36,084,21,08,34,286,19,7*7E
$GAGSV,3,2,10,11,33,119,19,12,29,056,17,03,28,226,19,24,26,085,19,7*7F
$GAGSV,3,3,10,07,09,333,17,36,08,162,19,7*79
$GBGSV,3,1,11,36,87,282,40,30,60,141,37,27,40,058,35,46,37,118,,1*73
$GBGSV,3,2,11,45,34,298,33,57,24,056,,29,19,195,29,21,11,296,29,1*75
$GBGSV,3,3,11,42,05,342,26,28,03,035,15,22,02,249,16,1*45
$GNRMC,005818.000,A,4910.426842,N,12304.399992,W,0.01,342.49,061224,,,D,V*14
$GNVTG,342.49,T,,M,0.01,N,0.02,K,D*2D
$GNGGA,005819.000,4910.426914,N,12304.400040,W,2,27,0.51,8.923,M,-16.816,M,,*46
$GNGLL,4910.426914,N,12304.400040,W,005819.000,A,D*51
$GNGSA,A,3,17,19,22,14,24,13,15,02,06,30,,,0.88,0.51,0.72,1*0C
$GNGSA,A,3,73,72,80,,,,,,,,,,0.88,0.51,0.72,2*0A
$GNGSA,A,3,25,02,10,08,12,03,24,,,,,,0.88,0.51,0.72,3*08
$GNGSA,A,3,36,30,27,45,29,21,42,,,,,,0.88,0.51,0.72,4*09
$GPGSV,4,1,13,17,69,077,31,19,68,188,30,22,64,073,30,14,42,086,26,1*60
$GPGSV,4,2,13,24,42,300,28,46,33,188,28,13,22,211,23,15,20,247,22,1*66
$GPGSV,4,3,13,02,17,038,23,06,16,156,20,12,12,273,,30,09,144,23,1*62
$GPGSV,4,4,13,21,03,026,17,1*54
$GLGSV,2,1,07,73,68,074,24,83,57,077,,74,54,317,,84,28,168,,1*74
$GLGSV,2,2,07,82,26,032,,72,21,274,19,80,15,106,22,1*44
$GAGSV,3,1,10,25,78,050,26,02,43,277,23,10,36,084,21,08,34,286,19,7*7F
$GAGSV,3,2,10,11,33,119,19,12,29,056,17,03,28,226,19,24,26,085,18,7*7E
$GAGSV,3,3,10,07,09,333,16,36,08,162,19,7*78
$GBGSV,3,1,11,36,87,282,40,30,60,141,37,27,40,058,35,46,37,118,,1*73
$GBGSV,3,2,11,45,34,298,33,57,24,056,,29,19,195,30,21,11,296,29,1*7D
$GBGSV,3,3,11,42,05,342,26,28,03,035,15,22,02,249,16,1*45
$GNRMC,005819.000,A,4910.426914,N,12304.400040,W,0.01,342.49,061224,,,D,V*16
$GNVTG,342.49,T,,M,0.01,N,0.02,K,D*2D
$GNGGA,005820.000,4910.426986,N,12304.400112,W,2,27,0.51,8.824,M,-16.816,M,,*47
$GNGLL,4910.426986,N,12304.400112,W,005820.000,A,D*56
$GNGSA,A,3,17,19,22,14,24,13,15,02,06,30,,,0.88,0.51,0.72,1*0C
$GNGSA,A,3,73,72,80,,,,,,,,,,0.88,0.51,0.72,2*0A
$GNGSA,A,3,25,02,10,08,12,03,24,,,,,,0.88,0.51,0.72,3*08
$GNGSA,A,3,36,30,27,45,29,21,42,,,,,,0.88,0.51,0.72,4*09
$GPGSV,4,1,13,17,69,077,31,19,68,188,30,22,64,073,29,14,42,086,26,1*68
$GPGSV,4,2,13,24,42,300,28,46,33,188,28,13,22,211,23,15,20,247,23,1*67
$GPGSV,4,3,13,02,17,038,22,06,16,156,20,12,12,273,,30,09,144,24,1*64
$GPGSV,4,4,13,21,03,026,16,1*55
$GLGSV,2,1,07,73,68,074,24,83,57,077,,74,54,317,,84,28,168,,1*74
$GLGSV,2,2,07,82,26,032,,72,21,274,20,80,15,106,22,1*4E
$GAGSV,3,1,10,25,78,050,26,02,43,277,23,10,36,084,21,08,34,286,19,7*7F
$GAGSV,3,2,10,11,33,119,19,12,29,056,17,03,28,226,19,24,26,085,18,7*7E
$GAGSV,3,3,10,07,09,333,16,36,08,162,19,7*78
$GBGSV,3,1,11,36,87,282,40,30,60,141,37,27,40,058,35,46,37,118,,1*73
$GBGSV,3,2,11,45,34,298,33,57,24,056,,29,19,195,31,21,11,296,29,1*7C
$GBGSV,3,3,11,42,05,342,26,28,03,035,14,22,02,249,16,1*44
$GNRMC,005820.000,A,4910.426986,N,12304.400112,W,0.02,342.49,061224,,,D,V*12
$GNVTG,342.49,T,,M,0.02,N,0.03,K,D*2F
$GNGGA,005821.000,4910.427070,N,12304.400124,W,2,27,0.51,8.766,M,-16.816,M,,*4B
$GNGLL,4910.427070,N,12304.400124,W,005821.000,A,D*53
$GNGSA,A,3,17,19,22,14,24,13,15,02,06,30,,,0.88,0.51,0.72,1*0C
$GNGSA,A,3,73,72,80,,,,,,,,,,0.88,0.51,0.72,2*0A
$GNGSA,A,3,25,02,10,08,12,03,24,,,,,,0.88,0.51,0.72,3*08
$GNGSA,A,3,36,30,27,45,29,21,42,,,,,,0.88,0.51,0.72,4*09
$GPGSV,4,1,13,17,69,077,31,19,68,188,30,22,64,073,29,14,42,086,26,1*68
$GPGSV,4,2,13,24,42,300,28,46,33,188,28,13,22,211,23,15,20,247,23,1*67
$GPGSV,4,3,13,02,17,038,22,06,16,156,20,12,12,273,,30,09,144,23,1*63
$GPGSV,4,4,13,21,03,026,16,1*55
$GLGSV,2,1,06,73,68,074,24,83,57,077,,84,28,168,,82,26,032,,1*7D
$GLGSV,2,2,06,72,21,274,20,80,15,106,22,1*70
$GAGSV,3,1,10,25,78,050,26,02,43,277,23,10,36,084,21,08,34,286,19,7*7F
$GAGSV,3,2,10,11,33,119,19,12,29,056,17,03,28,226,19,24,26,085,18,7*7E
$GAGSV,3,3,10,07,09,333,16,36,08,162,19,7*78
$GBGSV,3,1,11,36,87,282,40,30,60,141,37,27,40,058,35,46,37,118,,1*73
$GBGSV,3,2,11,45,34,298,33,57,24,056,,29,19,195,31,21,11,296,29,1*7C
$GBGSV,3,3,11,42,05,342,26,28,03,035,16,22,02,249,16,1*46
$GNRMC,005821.000,A,4910.427070,N,12304.400124,W,0.02,342.49,061224,,,D,V*17
$GNVTG,342.49,T,,M,0.02,N,0.04,K,D*28
$GNGGA,005822.000,4910.427124,N,12304.400082,W,2,27,0.51,8.733,M,-16.816,M,,*45
$GNGLL,4910.427124,N,12304.400082,W,005822.000,A,D*5D
$GNGSA,A,3,17,19,22,14,24,13,15,02,06,30,,,0.88,0.51,0.72,1*0C
$GNGSA,A,3,73,72,80,,,,,,,,,,0.88,0.51,0.72,2*0A
$GNGSA,A,3,25,02,10,08,12,03,24,,,,,,0.88,0.51,0.72,3*08
$GNGSA,A,3,36,30,27,45,29,21,42,,,,,,0.88,0.51,0.72,4*09
$GPGSV,4,1,13,17,69,077,30,19,68,188,28,22,64,073,25,14,42,086,23,1*69
$GPGSV,4,2,13,24,42,300,27,46,33,188,27,13,22,211,20,15,20,247,21,1*66
$GPGSV,4,3,13,02,17,038,21,06,16,156,19,12,12,273,,30,09,144,22,1*6B
$GPGSV,4,4,13,21,03,026,16,1*55
$GLGSV,2,1,07,73,68,074,24,83,57,077,,74,54,317,,84,28,168,,1*74
$GLGSV,2,2,07,82,26,032,,72,21,274,20,80,15,106,22,1*4E
$GAGSV,3,1,10,25,78,050,25,02,43,277,22,10,36,084,20,08,34,286,18,7*7D
$GAGSV,3,2,10,11,33,119,19,12,29,056,17,03,28,226,19,24,26,085,18,7*7E
$GAGSV,3,3,10,07,09,333,15,36,08,162,18,7*7A
$GBGSV,3,1,11,36,87,282,39,30,60,141,37,27,40,058,35,46,37,118,,1*7D
$GBGSV,3,2,11,45,34,298,32,57,24,056,,29,19,195,31,21,11,296,29,1*7D
$GBGSV,3,3,11,42,05,342,25,28,03,035,15,22,02,249,16,1*46
$GNRMC,005822.000,A,4910.427124,N,12304.400082,W,0.02,342.49,061224,,,D,V*19
$GNVTG,342.49,T,,M,0.02,N,0.04,K,D*28
$GNGGA,005823.000,4910.427160,N,12304.400040,W,2,27,0.51,8.602,M,-16.817,M,,*48
$GNGLL,4910.427160,N,12304.400040,W,005823.000,A,D*52
$GNGSA,A,3,17,19,22,14,24,13,15,02,06,30,,,0.88,0.51,0.72,1*0C
$GNGSA,A,3,73,72,80,,,,,,,,,,0.88,0.51,0.72,2*0A
$GNGSA,A,3,25,02,10,08,12,03,24,,,,,,0.88,0.51,0.72,3*08
$GNGSA,A,3,36,30,27,45,29,21,42,,,,,,0.88,0.51,0.72,4*09
$GPGSV,4,1,13,17,69,077,29,19,68,188,25,22,64,073,24,14,42,086,22,1*6C
$GPGSV,4,2,13,24,42,300,25,46,33,188,26,13,22,211,20,15,20,247,20,1*64
$GPGSV,4,3,13,02,17,038,21,06,16,156,18,12,12,273,,30,09,144,20,1*68
$GPGSV,4,4,13,21,03,026,16,1*55
$GLGSV,2,1,07,73,68,074,24,83,57,077,,74,54,317,,84,28,168,,1*74
$GLGSV,2,2,07,82,26,032,,72,21,274,21,80,15,106,22,1*4F
$GAGSV,3,1,10,25,78,050,23,02,43,277,21,10,36,084,19,08,34,286,17,7*7D
$GAGSV,3,2,10,11,33,119,17,12,29,056,16,03,28,226,18,24,26,085,17,7*7F
$GAGSV,3,3,10,07,09,333,15,36,08,162,18,7*7A
$GBGSV,3,1,11,36,87,282,39,30,60,141,37,27,40,058,34,46,37,118,,1*7C
$GBGSV,3,2,11,45,34,298,32,57,24,056,,29,19,195,30,21,11,296,28,1*7D
$GBGSV,3,3,11,42,05,342,25,28,03,035,15,22,02,249,16,1*46
$GNRMC,005823.000,A,4910.427160,N,12304.400040,W,0.02,342.49,061224,,,D,V*16
$GNVTG,342.49,T,,M,0.02,N,0.04,K,D*28
$GNGGA,005824.000,4910.427154,N,12304.399986,W,2,27,0.51,8.500,M,-16.816,M,,*4C
$GNGLL,4910.427154,N,12304.399986,W,005824.000,A,D*56
$GNGSA,A,3,17,19,22,14,24,13,15,02,06,30,,,0.88,0.51,0.72,1*0C
$GNGSA,A,3,73,72,80,,,,,,,,,,0.88,0.51,0.72,2*0A
$GNGSA,A,3,25,02,10,08,12,03,24,,,,,,0.88,0.51,0.72,3*08
$GNGSA,A,3,36,30,27,45,29,21,42,,,,,,0.88,0.51,0.72,4*09
$GPGSV,4,1,13,17,69,077,29,19,68,188,27,22,64,073,24,14,42,086,23,1*6F
$GPGSV,4,2,13,24,42,300,25,46,33,188,26,13,22,211,20,15,20,247,23,1*67
$GPGSV,4,3,13,02,17,038,21,06,16,156,17,12,12,273,,30,09,144,20,1*67
$GPGSV,4,4,13,21,03,026,16,1*55
$GLGSV,2,1,07,73,68,074,25,83,57,077,,74,54,317,,84,28,168,,1*75
$GLGSV,2,2,07,82,26,032,,72,21,274,21,80,15,106,22,1*4F
$GAGSV,3,1,10,25,78,050,23,02,43,277,20,10,36,084,19,08,34,286,17,7*7C
$GAGSV,3,2,10,11,33,119,16,12,29,056,15,03,28,226,18,24,26,085,17,7*7D
$GAGSV,3,3,10,07,09,333,15,36,08,162,18,7*7A
$GBGSV,3,1,11,36,87,282,39,30,60,141,37,27,40,058,34,46,37,118,,1*7C
$GBGSV,3,2,11,45,34,298,32,57,24,056,,29,19,195,30,21,11,296,28,1*7D
$GBGSV,3,3,11,42,05,342,25,28,03,035,12,22,02,249,15,1*42
$GNRMC,005824.000,A,4910.427154,N,12304.399986,W,0.02,342.49,061224,,,D,V*12
$GNVTG,342.49,T,,M,0.02,N,0.04,K,D*28
$GNGGA,005825.000,4910.427142,N,12304.399896,W,2,27,0.51,8.399,M,-16.816,M,,*4C
$GNGLL,4910.427142,N,12304.399896,W,005825.000,A,D*50
$GNGSA,A,3,17,19,22,14,24,13,15,02,06,30,,,0.88,0.51,0.72,1*0C
$GNGSA,A,3,73,72,80,,,,,,,,,,0.88,0.51,0.72,2*0A
$GNGSA,A,3,25,02,10,08,12,03,24,,,,,,0.88,0.51,0.72,3*08
$GNGSA,A,3,36,30,27,45,29,21,42,,,,,,0.88,0.51,0.72,4*09
$GPGSV,4,1,13,17,69,077,30,19,68,188,29,22,64,073,29,14,42,086,26,1*61
$GPGSV,4,2,13,24,42,300,28,46,33,188,26,13,22,211,21,15,20,247,24,1*6C
$GPGSV,4,3,13,02,17,038,20,06,16,156,17,12,12,273,,30,09,144,20,1*66
$GPGSV,4,4,13,21,03,026,16,1*55
$GLGSV,2,1,06,73,68,074,25,83,57,077,,84,28,168,,82,26,032,,1*7C
$GLGSV,2,2,06,72,21,274,21,80,15,106,22,1*71
$GAGSV,3,1,10,25,78,050,24,02,43,277,20,10,36,084,19,08,34,286,17,7*7B
$GAGSV,3,2,10,11,33,119,17,12,29,056,14,03,28,226,18,24,26,085,17,7*7D
$GAGSV,3,3,10,07,09,333,15,36,08,162,18,7*7A
$GBGSV,3,1,11,36,87,282,39,30,60,141,37,27,40,058,34,46,37,118,,1*7C
$GBGSV,3,2,11,45,34,298,32,57,24,056,,29,19,195,30,21,11,296,28,1*7D
$GBGSV,3,3,11,42,05,342,25,28,03,035,09,22,02,249,15,1*48
$GNRMC,005825.000,A,4910.427142,N,12304.399896,W,0.02,342.49,061224,,,D,V*14
$GNVTG,342.49,T,,M,0.02,N,0.04,K,D*28
$GNGGA,005826.000,4910.427250,N,12304.399854,W,2,27,0.51,8.042,M,-16.816,M,,*44
$GNGLL,4910.427250,N,12304.399854,W,005826.000,A,D*5D
$GNGSA,A,3,17,19,22,14,24,13,15,02,06,30,,,0.88,0.51,0.72,1*0C
$GNGSA,A,3,73,72,80,,,,,,,,,,0.88,0.51,0.72,2*0A
$GNGSA,A,3,25,02,10,08,12,03,24,,,,,,0.88,0.51,0.72,3*08
$GNGSA,A,3,36,30,27,45,29,21,42,,,,,,0.88,0.51,0.72,4*09
$GPGSV,4,1,13,17,69,077,31,19,68,188,32,22,64,073,30,14,42,086,28,1*6C
$GPGSV,4,2,13,24,42,300,30,46,33,188,27,13,22,211,22,15,20,247,25,1*66
$GPGSV,4,3,13,02,17,038,24,06,16,156,20,12,12,273,,30,09,144,25,1*63
$GPGSV,4,4,13,21,03,026,17,1*54
$GLGSV,2,1,07,73,68,074,26,83,57,077,,74,54,317,,84,28,168,,1*76
$GLGSV,2,2,07,82,26,032,,72,21,274,21,80,15,106,22,1*4F
$GAGSV,3,1,10,25,78,050,25,02,43,277,22,10,36,084,20,08,34,286,18,7*7D
$GAGSV,3,2,10,11,33,119,17,12,29,056,15,03,28,226,19,24,26,085,18,7*72
$GAGSV,3,3,10,07,09,333,16,36,08,162,18,7*79
$GBGSV,3,1,11,36,87,282,39,30,60,141,37,27,40,058,34,46,37,118,,1*7C
$GBGSV,3,2,11,45,34,298,32,57,24,056,,29,19,195,30,21,11,296,28,1*7D
$GBGSV,3,3,11,42,05,342,25,28,03,035,13,22,02,249,16,1*40
$GNRMC,005826.000,A,4910.427250,N,12304.399854,W,0.02,342.49,061224,,,D,V*19
$GNVTG,342.49,T,,M,0.02,N,0.03,K,D*2F
$GNGGA,005827.000,4910.427334,N,12304.399860,W,2,27,0.51,7.736,M,-16.817,M,,*4B
$GNGLL,4910.427334,N,12304.399860,W,005827.000,A,D*58
$GNGSA,A,3,17,19,22,14,24,13,15,02,06,30,,,0.88,0.51,0.72,1*0C
$GNGSA,A,3,73,72,80,,,,,,,,,,0.88,0.51,0.72,2*0A
$GNGSA,A,3,25,02,10,08,12,03,24,,,,,,0.88,0.51,0.72,3*08
$GNGSA,A,3,36,30,27,45,29,21,42,,,,,,0.88,0.51,0.72,4*09
$GPGSV,4,1,13,17,69,077,32,19,68,188,32,22,64,073,30,14,42,086,28,1*6F
$GPGSV,4,2,13,24,42,300,30,46,33,188,27,13,22,211,25,15,20,247,25,1*61
$GPGSV,4,3,13,02,17,038,24,06,16,156,21,12,12,273,,30,09,144,23,1*64
$GPGSV,4,4,13,21,03,026,17,1*54
$GLGSV,2,1,07,73,68,074,26,83,57,077,,74,54,317,,84,28,168,,1*76
$GLGSV,2,2,07,82,26,032,,72,21,274,21,80,15,106,23,1*4E
$GAGSV,3,1,10,25,78,050,26,02,43,277,23,10,36,084,20,08,34,286,19,7*7E
$GAGSV,3,2,10,11,33,119,18,12,29,056,16,03,28,226,20,24,26,085,19,7*75
$GAGSV,3,3,10,07,09,333,17,36,08,162,19,7*79
$GBGSV,3,1,11,36,87,282,39,30,60,141,37,27,40,058,34,46,37,118,,1*7C
$GBGSV,3,2,11,45,34,298,32,57,24,056,,29,19,195,31,21,11,296,28,1*7C
$GBGSV,3,3,11,42,05,342,25,28,03,035,12,22,02,249,15,1*42
$GNRMC,005827.000,A,4910.427334,N,12304.399860,W,0.02,342.49,061224,,,D,V*1C
$GNVTG,342.49,T,,M,0.02,N,0.04,K,D*28
$PAIR010,0,1,2343,435525*3C
$GNGGA,005828.000,4910.427352,N,12304.399800,W,2,27,0.51,7.678,M,-16.816,M,,*48
$GNGLL,4910.427352,N,12304.399800,W,005828.000,A,D*51
$GNGSA,A,3,17,19,22,14,24,13,15,02,06,30,,,0.88,0.51,0.72,1*0C
$GNGSA,A,3,73,72,80,,,,,,,,,,0.88,0.51,0.72,2*0A
$GNGSA,A,3,25,02,10,08,12,03,24,,,,,,0.88,0.51,0.72,3*08
$GNGSA,A,3,36,30,27,45,29,21,42,,,,,,0.88,0.51,0.72,4*09
$GPGSV,4,1,13,17,69,077,31,19,68,188,26,22,64,073,27,14,42,086,25,1*62
$GPGSV,4,2,13,24,42,300,27,46,33,188,27,13,22,211,21,15,20,247,23,1*65
$GPGSV,4,3,13,02,17,038,21,06,16,156,19,12,12,273,,30,09,144,21,1*68
$GPGSV,4,4,13,21,03,026,17,1*54
$GLGSV,2,1,07,73,68,074,26,83,57,077,,74,54,317,,84,28,168,,1*76
$GLGSV,2,2,07,82,26,032,,72,21,274,21,80,15,106,23,1*4E
$GAGSV,3,1,10,25,78,050,25,02,44,278,22,10,36,084,20,08,34,286,19,7*74
$GAGSV,3,2,10,11,33,119,18,12,29,056,16,03,28,226,19,24,26,085,19,7*7F
$GAGSV,3,3,10,07,09,333,17,36,08,162,19,7*79
$GBGSV,3,1,11,36,87,282,39,30,60,141,37,27,40,058,34,46,37,118,,1*7C
$GBGSV,3,2,11,45,34,298,32,57,24,056,,29,19,195,31,21,11,296,28,1*7C
$GBGSV,3,3,11,42,05,342,25,28,03,035,13,22,02,249,15,1*43
$GNRMC,005828.000,A,4910.427352,N,12304.399800,W,0.02,342.49,061224,,,D,V*15
$GNVTG,342.49,T,,M,0.02,N,0.04,K,D*28
$GNGGA,005829.000,4910.427328,N,12304.399782,W,2,27,0.51,7.660,M,-16.816,M,,*48
$GNGLL,4910.427328,N,12304.399782,W,005829.000,A,D*58
$GNGSA,A,3,17,19,22,14,24,13,15,02,06,30,,,0.88,0.51,0.72,1*0C
$GNGSA,A,3,73,72,80,,,,,,,,,,0.88,0.51,0.72,2*0A
$GNGSA,A,3,25,02,10,08,12,03,24,,,,,,0.88,0.51,0.72,3*08
$GNGSA,A,3,36,30,27,45,29,21,42,,,,,,0.88,0.51,0.72,4*09
$GPGSV,4,1,13,17,69,077,30,19,68,188,28,22,64,073,26,14,42,086,26,1*6F
$GPGSV,4,2,13,24,42,300,27,46,33,188,27,13,22,211,21,15,20,247,22,1*64
$GPGSV,4,3,13,02,17,038,20,06,16,156,17,12,12,273,,30,09,144,20,1*66
$GPGSV,4,4,13,21,03,026,16,1*55
$GLGSV,2,1,07,73,68,074,25,83,57,077,,74,54,317,,84,28,168,,1*75
$GLGSV,2,2,07,82,26,032,,72,21,274,21,80,15,106,23,1*4E
$GAGSV,3,1,10,25,78,050,24,02,44,278,21,10,36,084,20,08,34,286,18,7*77
$GAGSV,3,2,10,11,33,119,18,12,29,056,15,03,27,225,19,24,26,085,18,7*71
$GAGSV,3,3,10,07,09,333,16,36,08,162,19,7*78
$GBGSV,3,1,11,36,87,282,39,30,60,141,37,27,40,058,34,46,37,118,,1*7C
$GBGSV,3,2,11,45,34,298,32,57,24,056,,29,19,195,31,21,11,296,28,1*7C
$GBGSV,3,3,11,42,05,342,25,28,03,035,13,22,02,249,15,1*43
$GNRMC,005829.000,A,4910.427328,N,12304.399782,W,0.02,342.49,061224,,,D,V*1C
$GNVTG,342.49,T,,M,0.02,N,0.04,K,D*28
$GNGGA,005830.000,4910.427148,N,12304.399764,W,2,27,0.51,7.423,M,-16.816,M,,*49
$GNGLL,4910.427148,N,12304.399764,W,005830.000,A,D*5C
$GNGSA,A,3,17,19,22,14,24,13,15,02,06,30,,,0.88,0.51,0.72,1*0C
$GNGSA,A,3,73,72,80,,,,,,,,,,0.88,0.51,0.72,2*0A
$GNGSA,A,3,25,02,10,08,12,03,24,,,,,,0.88,0.51,0.72,3*08
$GNGSA,A,3,36,30,27,45,29,21,42,,,,,,0.88,0.51,0.72,4*09
$GPGSV,4,1,13,17,69,077,30,19,68,188,28,22,64,073,27,14,42,086,25,1*6D
$GPGSV,4,2,13,24,42,300,27,46,33,188,27,13,22,211,20,15,20,247,23,1*64
$GPGSV,4,3,13,02,17,038,21,06,16,156,17,12,12,273,,30,09,144,21,1*66
$GPGSV,4,4,13,21,03,026,18,1*5B
$GLGSV,2,1,07,73,68,074,25,83,57,077,,74,54,317,,84,28,168,,1*75
$GLGSV,2,2,07,82,26,032,,72,21,274,21,80,15,106,24,1*49
$GAGSV,3,1,10,25,78,050,24,02,44,278,21,10,36,084,20,08,34,286,18,7*77
$GAGSV,3,2,10,11,33,119,18,12,29,056,15,03,27,225,19,24,26,085,18,7*71
$GAGSV,3,3,10,07,09,333,16,36,08,162,18,7*79
$GBGSV,3,1,11,36,87,282,39,30,60,141,37,27,40,058,34,46,37,118,,1*7C
$GBGSV,3,2,11,45,34,298,32,57,24,056,,29,19,195,31,21,11,296,28,1*7C
$GBGSV,3,3,11,42,05,342,24,28,03,035,13,22,02,249,15,1*42
$GNRMC,005830.000,A,4910.427148,N,12304.399764,W,0.02,342.49,061224,,,D,V*18
$GNVTG,342.49,T,,M,0.02,N,0.04,K,D*28
$GNGGA,005831.000,4910.427130,N,12304.399740,W,2,27,0.51,7.387,M,-16.817,M,,*49
