1,05,43,158,28,08,24,312,24,7*46
$GAGSV,2,2,06,24,50,059,30,25,70,205,30,7*7D
$GAGSV,1,1,00,1*75
$GBGSV,2,1,06,11,,,20,19,,,20,20,43,287,26,23,66,065,29,1*7E
$GBGSV,2,2,06,32,36,209,25,38,22,316,24,1*71
$GBGSV,1,1,00,5*72
$GQGSV,1,1,00,1*65
$GQGSV,1,1,00,8*6C
$GNGGA,183422.000,4910.425682,N,12304.400109,W,1,22,0.78,8.744,M,-16.816,M,,*40
$GNRMC,183422.000,A,4910.425682,N,12304.400109,W,0.013,120.86,170125,,,A,V*22
$GNGLL,4910.425682,N,12304.400109,W,183422.000,A,A*50
$GNVTG,120.86,T,,M,0.013,N,0.024,K,A*2A
$GNGSA,A,3,05,07,08,09,13,14,20,27,30,,,,1.42,0.78,1.18,1*01
$GNGSA,A,3,65,72,75,76,,,,,,,,,1.42,0.78,1.18,2*07
$GNGSA,A,3,03,05,08,24,25,,,,,,,,1.42,0.78,1.18,3*0C
$GNGSA,A,3,20,23,32,38,,,,,,,,,1.42,0.78,1.18,4*0D
$GNGSA,A,3,,,,,,,,,,,,,1.42,0.78,1.18,5*05
$GPGSV,3,1,10,05,22,287,26,07,64,087,33,08,38,071,33,09,19,156,24,1*61
$GPGSV,3,2,10,13,27,310,27,14,45,224,30,20,13,254,22,27,17,039,28,1*67
$GPGSV,3,3,10,30,75,299,35,46,33,187,30,1*6F
$GPGSV,1,1,00,8*6D
$GLGSV,2,1,05,65,59,277,33,72,34,187,29,73,03,063,17,75,68,290,36,1*72
$GLGSV,2,2,05,76,13,251,29,1*43
$GAGSV,2,1,06,02,,,22,03,69,265,30,05,43,158,25,08,24,312,23,7*4C
$GAGSV,2,2,06,24,50,059,29,25,70,205,30,7*75
$GAGSV,1,1,00,1*75
$GBGSV,2,1,06,11,,,18,19,,,20,20,43,287,24,23,66,065,28,1*76
$GBGSV,2,2,06,32,36,209,25,38,22,316,24,1*71
$GBGSV,1,1,00,5*72
$GQGSV,1,1,00,1*65
$GQGSV,1,1,00,8*6C
$GNGGA,183423.000,4910.425682,N,12304.400093,W,1,22,0.78,8.738,M,-16.816,M,,*48
$GNRMC,183423.000,A,4910.425682,N,12304.400093,W,0.011,120.86,170125,,,A,V*23
$GNGLL,4910.425682,N,12304.400093,W,183423.000,A,A*53
$GNVTG,120.86,T,,M,0.011,N,0.021,K,A*2D
$GNGSA,A,3,05,07,08,09,13,14,20,27,30,,,,1.42,0.78,1.18,1*01
$GNGSA,A,3,65,72,75,76,,,,,,,,,1.42,0.78,1.18,2*07
$GNGSA,A,3,03,05,08,24,25,,,,,,,,1.42,0.78,1.18,3*0C
$GNGSA,A,3,20,23,32,38,,,,,,,,,1.42,0.78,1.18,4*0D
$GNGSA,A,3,,,,,,,,,,,,,1.42,0.78,1.18,5*05
$GPGSV,3,1,10,05,22,287,27,07,64,087,33,08,38,071,33,09,19,156,25,1*61
$GPGSV,3,2,10,13,27,310,26,14,45,224,31,20,13,254,22,27,17,039,28,1*67
$GPGSV,3,3,10,30,75,299,36,46,33,187,30,1*6C
$GPGSV,1,1,00,8*6D
$GLGSV,2,1,05,65,59,277,33,72,34,187,29,73,03,063,17,75,68,290,36,1*72
$GLGSV,2,2,05,76,13,251,30,1*4B
$GAGSV,2,1,06,02,,,22,03,69,265,30,05,43,158,29,08,24,312,24,7*47
$GAGSV,2,2,06,24,50,059,30,25,70,205,30,7*7D
$GAGSV,1,1,00,1*75
$GBGSV,2,1,06,11,,,19,19,,,20,20,43,287,26,23,66,065,27,1*7A
$GBGSV,2,2,06,32,36,209,25,38,22,316,24,1*71
$GBGSV,1,1,00,5*72
$GQGSV,1,1,00,1*65
$GQGSV,1,1,00,8*6C
$GNGGA,183424.000,4910.425682,N,12304.400078,W,1,22,0.78,8.735,M,-16.817,M,,*46
$GNRMC,183424.000,A,4910.425682,N,12304.400078,W,0.006,120.86,170125,,,A,V*27
$GNGLL,4910.425682,N,12304.400078,W,183424.000,A,A*51
$GNVTG,120.86,T,,M,0.006,N,0.010,K,A*29
$GNGSA,A,3,05,07,08,09,13,14,20,27,30,,,,1.42,0.78,1.18,1*01
$GNGSA,A,3,65,72,75,76,,,,,,,,,1.42,0.78,1.18,2*07
$GNGSA,A,3,03,05,08,24,25,,,,,,,,1.42,0.78,1.18,3*0C
$GNGSA,A,3,20,23,32,38,,,,,,,,,1.42,0.78,1.18,4*0D
$GNGSA,A,3,,,,,,,,,,,,,1.42,0.78,1.18,5*05
$GPGSV,3,1,10,05,22,287,26,07,64,087,33,08,38,071,33,09,19,156,25,1*60
$GPGSV,3,2,10,13,27,310,27,14,45,224,31,20,13,254,22,27,17,039,27,1*69
$GPGSV,3,3,10,30,75,299,35,46,33,187,30,1*6F
$GPGSV,1,1,00,8*6D
$GLGSV,2,1,05,65,59,277,34,72,34,187,29,73,03,063,17,75,68,290,37,1*74
$GLGSV,2,2,05,76,13,251,31,1*4A
$GAGSV,2,1,06,02,,,23,03,69,265,30,05,43,158,25,08,24,312,22,7*4C
$GAGSV,2,2,06,24,50,059,30,25,70,205,31,7*7C
$GAGSV,1,1,00,1*75
$GBGSV,2,1,06,11,,,18,19,,,20,20,43,287,25,23,66,065,27,1*78
$GBGSV,2,2,06,32,36,209,23,38,22,316,22,1*71
$GBGSV,1,1,00,5*72
$GQGSV,1,1,00,1*65
$GQGSV,1,1,00,8*6C
$GNGGA,183425.000,4910.425681,N,12304.400062,W,1,21,0.79,8.731,M,-16.816,M,,*48
$GNRMC,183425.000,A,4910.425681,N,12304.400062,W,0.010,120.86,170125,,,A,V*29
$GNGLL,4910.425681,N,12304.400062,W,183425.000,A,A*58
$GNVTG,120.86,T,,M,0.010,N,0.019,K,A*27
$GNGSA,A,3,05,07,08,09,13,14,20,27,30,,,,1.43,0.79,1.19,1*00
$GNGSA,A,3,65,72,75,76,,,,,,,,,1.43,0.79,1.19,2*06
$GNGSA,A,3,03,05,08,24,25,,,,,,,,1.43,0.79,1.19,3*0D
$GNGSA,A,3,23,32,38,,,,,,,,,,1.43,0.79,1.19,4*0E
$GNGSA,A,3,,,,,,,,,,,,,1.43,0.79,1.19,5*04
$GPGSV,3,1,10,05,22,287,25,07,64,087,33,08,38,071,32,09,19,156,25,1*62
$GPGSV,3,2,10,13,27,310,27,14,45,224,29,20,13,254,23,27,17,039,27,1*61
$GPGSV,3,3,10,30,75,299,35,46,33,187,30,1*6F
$GPGSV,1,1,00,8*6D
$GLGSV,2,1,05,65,59,277,35,72,34,187,31,73,03,063,17,75,68,290,37,1*7C
$GLGSV,2,2,05,76,13,251,31,1*4A
$GAGSV,2,1,06,02,,,22,03,70,265,30,05,43,158,27,08,24,312,22,7*47
$GAGSV,2,2,06,24,50,059,30,25,70,205,30,7*7D
$GAGSV,1,1,00,1*75
$GBGSV,2,1,05,11,,,17,19,,,20,23,66,065,29,32,36,209,23,1*7B
$GBGSV,2,2,05,38,22,316,23,1*4D
$GBGSV,1,1,00,5*72
$GQGSV,1,1,00,1*65
$GQGSV,1,1,00,8*6C
$GNGGA,183426.000,4910.425680,N,12304.400037,W,1,20,0.79,8.724,M,-16.816,M,,*4F
$GNRMC,183426.000,A,4910.425680,N,12304.400037,W,0.022,120.86,170125,,,A,V*2A
$GNGLL,4910.425680,N,12304.400037,W,183426.000,A,A*5A
$GNVTG,120.86,T,,M,0.022,N,0.041,K,A*2B
$GNGSA,A,3,05,07,08,09,13,14,20,27,30,,,,1.43,0.79,1.19,1*00
$GNGSA,A,3,65,72,75,76,,,,,,,,,1.43,0.79,1.19,2*06
$GNGSA,A,3,03,05,08,24,25,,,,,,,,1.43,0.79,1.19,3*0D
$GNGSA,A,3,32,38,,,,,,,,,,,1.43,0.79,1.19,4*0F
$GNGSA,A,3,,,,,,,,,,,,,1.43,0.79,1.19,5*04
$GPGSV,3,1,10,05,22,287,28,07,64,087,35,08,38,071,34,09,19,156,25,1*6F
$GPGSV,3,2,10,13,27,310,29,14,45,224,32,20,13,254,24,27,17,039,29,1*6C
$GPGSV,3,3,10,30,75,299,37,46,33,187,27,1*6B
$GPGSV,1,1,00,8*6D
$GLGSV,2,1,05,65,59,277,34,72,34,187,31,73,03,063,17,75,68,290,38,1*72
$GLGSV,2,2,05,76,13,251,31,1*4A
$GAGSV,2,1,06,02,,,25,03,70,265,32,05,43,158,28,08,24,312,21,7*4E
$GAGSV,2,2,06,24,50,059,31,25,70,205,33,7*7F
$GAGSV,1,1,00,1*75
$GBGSV,1,1,04,11,,,17,19,,,20,32,36,209,24,38,22,316,23,1*79
$GBGSV,1,1,00,5*72
$GQGSV,1,1,00,1*65
$GQGSV,1,1,00,8*6C
$GNGGA,183427.000,4910.425678,N,12304.400017,W,1,21,0.79,8.719,M,-16.817,M,,*45
$GNRMC,183427.000,A,4910.425678,N,12304.400017,W,0.010,120.86,170125,,,A,V*2F
$GNGLL,4910.425678,N,12304.400017,W,183427.000,A,A*5E
$GNVTG,120.86,T,,M,0.010,N,0.019,K,A*27
$GNGSA,A,3,05,07,08,09,13,14,20,27,30,,,,1.43,0.79,1.19,1*00
$GNGSA,A,3,65,72,75,76,,,,,,,,,1.43,0.79,1.19,2*06
$GNGSA,A,3,03,05,08,24,25,,,,,,,,1.43,0.79,1.19,3*0D
$GNGSA,A,3,23,32,38,,,,,,,,,,1.43,0.79,1.19,4*0E
$GNGSA,A,3,,,,,,,,,,,,,1.43,0.79,1.19,5*04
$GPGSV,3,1,10,05,22,287,27,07,64,087,34,08,38,071,33,09,19,156,26,1*65
$GPGSV,3,2,10,13,27,310,28,14,45,224,30,20,13,254,23,27,17,039,28,1*69
$GPGSV,3,3,10,30,75,299,36,46,33,187,28,1*65
$GPGSV,1,1,00,8*6D
$GLGSV,2,1,05,65,59,277,33,72,34,187,31,73,03,063,17,75,68,290,36,1*7B
$GLGSV,2,2,05,76,13,251,30,1*4B
$GAGSV,2,1,06,02,,,22,03,70,265,31,05,43,158,28,08,24,312,23,7*48
$GAGSV,2,2,06,24,50,059,29,25,70,205,32,7*77
$GAGSV,1,1,00,1*75
$GBGSV,2,1,05,11,,,18,19,,,20,23,66,065,29,32,36,209,23,1*74
$GBGSV,2,2,05,38,22,316,23,1*4D
$GBGSV,1,1,00,5*72
$GQGSV,1,1,00,1*65
$GQGSV,1,1,00,8*6C
$GNGGA,183428.000,4910.425678,N,12304.400004,W,1,22,0.72,8.714,M,-16.816,M,,*4C
$GNRMC,183428.000,A,4910.425678,N,12304.400004,W,0.002,120.86,170125,,,A,V*21
$GNGLL,4910.425678,N,12304.400004,W,183428.000,A,A*53
$GNVTG,120.86,T,,M,0.002,N,0.004,K,A*28
$GNGSA,A,3,05,07,08,09,13,14,20,27,30,,,,1.33,0.72,1.12,1*07
$GNGSA,A,3,65,72,75,76,,,,,,,,,1.33,0.72,1.12,2*01
$GNGSA,A,3,03,05,08,24,25,,,,,,,,1.33,0.72,1.12,3*0A
$GNGSA,A,3,20,23,32,38,,,,,,,,,1.33,0.72,1.12,4*0B
$GNGSA,A,3,,,,,,,,,,,,,1.33,0.72,1.12,5*03
$GPGSV,3,1,10,05,22,287,26,07,64,087,34,08,38,071,33,09,19,156,26,1*64
$GPGSV,3,2,10,13,27,310,28,14,45,224,31,20,13,254,23,27,17,039,27,1*67
$GPGSV,3,3,10,30,75,299,36,46,33,187,29,1*64
$GPGSV,1,1,00,8*6D
$GLGSV,2,1,05,65,59,277,34,72,34,187,30,73,03,063,17,75,68,290,37,1*7C
$GLGSV,2,2,05,76,13,251,31,1*4A
$GAGSV,2,1,06,02,,,23,03,70,265,32,05,43,158,29,08,24,312,22,7*4A
$GAGSV,2,2,06,24,50,059,30,25,70,205,31,7*7C
$GAGSV,1,1,00,1*75
$GBGSV,2,1,05,11,,,17,20,43,287,29,23,66,065,29,32,36,209,24,1*45
$GBGSV,2,2,05,38,22,316,24,1*4A
$GBGSV,1,1,00,5*72
$GQGSV,1,1,00,1*65
$GQGSV,1,1,00,8*6C
$GNGGA,183429.000,4910.425679,N,12304.399987,W,1,23,0.79,8.709,M,-16.816,M,,*4F
$GNRMC,183429.000,A,4910.425679,N,12304.399987,W,0.018,120.86,170125,,,A,V*2F
$GNGLL,4910.425679,N,12304.399987,W,183429.000,A,A*56
$GNVTG,120.86,T,,M,0.018,N,0.032,K,A*26
$GNGSA,A,3,05,07,08,09,13,14,20,27,30,,,,1.43,0.79,1.19,1*00
$GNGSA,A,3,65,72,75,76,,,,,,,,,1.43,0.79,1.19,2*06
$GNGSA,A,3,03,05,08,24,25,,,,,,,,1.43,0.79,1.19,3*0D
$GNGSA,A,3,20,23,32,37,38,,,,,,,,1.43,0.79,1.19,4*08
$GNGSA,A,3,,,,,,,,,,,,,1.43,0.79,1.19,5*04
$GPGSV,3,1,10,05,22,287,26,07,64,087,33,08,38,071,34,09,19,156,26,1*64
$GPGSV,3,2,10,13,27,310,28,14,45,224,32,20,13,254,23,27,17,039,27,1*64
$GPGSV,3,3,10,30,75,299,36,46,33,187,29,1*64
$GPGSV,1,1,00,8*6D
$GLGSV,2,1,05,65,59,277,34,72,34,187,30,73,03,063,17,75,68,290,37,1*7C
$GLGSV,2,2,05,76,13,251,30,1*4B
$GAGSV,2,1,06,02,,,22,03,70,265,32,05,43,158,27,08,24,312,23,7*44
$GAGSV,2,2,06,24,50,059,30,25,70,205,32,7*7F
$GAGSV,1,1,00,1*75
$GBGSV,2,1,06,11,,,18,20,43,287,28,23,66,065,30,32,36,209,24,1*40
$GBGSV,2,2,06,37,56,263,28,38,22,316,24,1*73
$GBGSV,1,1,00,5*72
$GQGSV,1,1,00,1*65
$GQGSV,1,1,00,8*6C
$GNGGA,183430.000,4910.425679,N,12304.399973,W,1,23,0.79,8.705,M,-16.816,M,,*40
$GNRMC,183430.000,A,4910.425679,N,12304.399973,W,0.009,120.86,170125,,,A,V*2C
$GNGLL,4910.425679,N,12304.399973,W,183430.000,A,A*55
$GNVTG,120.86,T,,M,0.009,N,0.017,K,A*21
$GNGSA,A,3,05,07,08,09,13,14,20,27,30,,,,1.43,0.79,1.19,1*00
$GNGSA,A,3,65,72,75,76,,,,,,,,,1.43,0.79,1.19,2*06
$GNGSA,A,3,03,05,08,24,25,,,,,,,,1.43,0.79,1.19,3*0D
$GNGSA,A,3,20,23,32,37,38,,,,,,,,1.43,0.79,1.19,4*08
$GNGSA,A,3,,,,,,,,,,,,,1.43,0.79,1.19,5*04
$GPGSV,3,1,10,05,22,287,26,07,64,087,33,08,38,071,33,09,19,156,25,1*60
$GPGSV,3,2,10,13,27,310,27,14,45,224,30,20,13,254,22,27,17,039,27,1*68
$GPGSV,3,3,10,30,75,299,36,46,33,187,29,1*64
$GPGSV,1,1,00,8*6D
$GLGSV,2,1,05,65,59,277,34,72,34,187,30,73,03,063,17,75,68,290,37,1*7C
$GLGSV,2,2,05,76,13,251,30,1*4B
$GAGSV,2,1,06,02,,,22,03,70,265,30,05,43,158,25,08,24,312,23,7*44
$GAGSV,2,2,06,24,50,059,29,25,70,205,32,7*77
$GAGSV,1,1,00,1*75
$GBGSV,2,1,07,11,,,19,19,,,20,20,43,287,29,23,66,065,30,1*72
$GBGSV,2,2,07,32,36,209,25,37,56,263,29,38,22,316,25,1*4A
$GBGSV,1,1,00,5*72
$GQGSV,1,1,00,1*65
$GQGSV,1,1,00,8*6C
$GNGGA,183431.000,4910.425679,N,12304.399960,W,1,23,0.72,8.701,M,-16.816,M,,*4C
$GNRMC,183431.000,A,4910.425679,N,12304.399960,W,0.015,120.86,170125,,,A,V*22
$GNGLL,4910.425679,N,12304.399960,W,183431.000,A,A*56
$GNVTG,120.86,T,,M,0.015,N,0.028,K,A*20
$GNGSA,A,3,05,07,08,09,13,14,20,27,30,,,,1.33,0.72,1.12,1*07
$GNGSA,A,3,65,72,75,76,,,,,,,,,1.33,0.72,1.12,2*01
$GNGSA,A,3,03,05,08,24,25,,,,,,,,1.33,0.72,1.12,3*0A
$GNGSA,A,3,20,23,32,37,38,,,,,,,,1.33,0.72,1.12,4*0F
$GNGSA,A,3,,,,,,,,,,,,,1.33,0.72,1.12,5*03
$GPGSV,3,1,10,05,22,287,25,07,64,087,32,08,38,071,32,09,19,156,25,1*63
$GPGSV,3,2,10,13,27,310,27,14,45,224,30,20,13,254,22,27,17,039,27,1*68
$GPGSV,3,3,10,30,75,299,35,46,33,187,28,1*66
$GPGSV,1,1,00,8*6D
$GLGSV,2,1,05,65,59,277,33,72,34,187,30,73,03,063,18,75,68,291,36,1*74
$GLGSV,2,2,05,76,13,251,30,1*4B
$GAGSV,2,1,06,02,,,22,03,70,265,30,05,43,158,27,08,24,312,21,7*44
$GAGSV,2,2,06,24,50,059,29,25,70,205,31,7*74
$GAGSV,1,1,00,1*75
$GBGSV,2,1,07,11,,,17,19,,,21,20,43,287,29,23,66,065,30,1*7D
$GBGSV,2,2,07,32,36,209,24,37,56,263,29,38,22,316,24,1*4A
$GBGSV,1,1,00,5*72
$GQGSV,1,1,00,1*65
$GQGSV,1,1,00,8*6C
$PAIR010,0,1,2349,498889*3A
$GNGGA,183432.000,4910.425680,N,12304.399950,W,1,20,0.71,8.699,M,-16.816,M,,*4A
$GNRMC,183432.000,A,4910.425680,N,12304.399950,W,0.002,120.86,170125,,,A,V*22
$GNGLL,4910.425680,N,12304.399950,W,183432.000,A,A*50
$GNVTG,120.86,T,,M,0.002,N,0.004,K,A*28
$GNGSA,A,3,05,07,08,09,13,14,20,27,30,,,,1.32,0.71,1.11,1*06
$GNGSA,A,3,65,72,75,76,,,,,,,,,1.32,0.71,1.11,2*00
$GNGSA,A,3,03,05,08,24,25,,,,,,,,1.32,0.71,1.11,3*0B
$GNGSA,A,3,23,38,,,,,,,,,,,1.32,0.71,1.11,4*09
$GNGSA,A,3,,,,,,,,,,,,,1.32,0.71,1.11,5*02
$GPGSV,3,1,10,05,22,287,26,07,64,087,32,08,38,071,33,09,19,156,25,1*61
$GPGSV,3,2,10,13,27,310,28,14,45,224,30,20,13,254,22,27,17,039,28,1*68
$GPGSV,3,3,10,30,75,299,36,46,33,187,28,1*65
$GPGSV,1,1,00,8*6D
$GLGSV,2,1,05,65,59,277,35,72,34,187,31,73,03,063,17,75,68,291,37,1*7D
$GLGSV,2,2,05,76,13,251,30,1*4B
$GAGSV,2,1,06,02,,,22,03,70,265,31,05,43,158,28,08,24,312,22,7*49
$GAGSV,2,2,06,24,50,059,29,25,70,205,31,7*74
$GAGSV,1,1,00,1*75
$GBGSV,1,1,04,11,,,17,19,,,19,23,66,065,30,38,22,316,25,1*7D
$GBGSV,1,1,00,5*72
$GQGSV,1,1,00,1*65
$GQGSV,1,1,00,8*6C
$GNGGA,183433.000,4910.425682,N,12304.399941,W,1,23,0.72,8.698,M,-16.816,M,,*48
$GNRMC,183433.000,A,4910.425682,N,12304.399941,W,0.002,120.86,170125,,,A,V*21
$GNGLL,4910.425682,N,12304.399941,W,183433.000,A,A*53
$GNVTG,120.86,T,,M,0.002,N,0.004,K,A*28
$GNGSA,A,3,05,07,08,09,13,14,20,27,30,,,,1.33,0.72,1.12,1*07
$GNGSA,A,3,65,72,75,76,,,,,,,,,1.33,0.72,1.12,2*01
$GNGSA,A,3,03,05,08,24,25,,,,,,,,1.33,0.72,1.12,3*0A
$GNGSA,A,3,20,23,32,37,38,,,,,,,,1.33,0.72,1.12,4*0F
$GNGSA,A,3,,,,,,,,,,,,,1.33,0.72,1.12,5*03
$GPGSV,3,1,10,05,22,287,26,07,63,087,34,08,38,071,33,09,19,156,26,1*63
$GPGSV,3,2,10,13,27,310,29,14,45,224,32,20,13,254,22,27,17,039,27,1*64
$GPGSV,3,3,10,30,75,299,37,46,33,187,28,1*64
$GPGSV,1,1,00,8*6D
$GLGSV,2,1,05,65,59,277,35,72,34,187,31,73,03,063,17,75,68,291,37,1*7D
$GLGSV,2,2,05,76,13,251,32,1*49
$GAGSV,2,1,06,02,,,22,03,70,265,31,05,43,158,27,08,24,312,25,7*41
$GAGSV,2,2,06,24,50,059,29,25,70,205,32,7*77
$GAGSV,1,1,00,1*75
$GBGSV,2,1,07,11,,,19,19,,,21,20,43,286,29,23,66,065,29,1*7A
$GBGSV,2,2,07,32,36,209,25,37,56,263,28,38,22,316,24,1*4A
$GBGSV,1,1,00,5*72
$GQGSV,1,1,00,1*65
$GQGSV,1,1,00,8*6C
$GNGGA,183434.000,4910.425682,N,12304.399932,W,1,22,0.83,8.694,M,-16.817,M,,*49
$GNRMC,183434.000,A,4910.425682,N,12304.399932,W,0.006,120.86,170125,,,A,V*26
$GNGLL,4910.425682,N,12304.399932,W,183434.000,A,A*50
$GNVTG,120.86,T,,M,0.006,N,0.011,K,A*28
$GNGSA,A,3,05,07,08,09,13,14,20,27,30,,,,1.49,0.83,1.24,1*01
$GNGSA,A,3,65,72,75,76,,,,,,,,,1.49,0.83,1.24,2*07
$GNGSA,A,3,03,05,08,24,25,,,,,,,,1.49,0.83,1.24,3*0C
$GNGSA,A,3,20,23,32,38,,,,,,,,,1.49,0.83,1.24,4*0D
$GNGSA,A,3,,,,,,,,,,,,,1.49,0.83,1.24,5*05
$GPGSV,3,1,10,05,22,287,26,07,63,087,33,08,38,071,33,09,19,156,25,1*67
$GPGSV,3,2,10,13,27,310,29,14,45,224,32,20,13,254,22,27,17,039,28,1*6B
$GPGSV,3,3,10,30,75,299,37,46,33,187,28,1*64
$GPGSV,1,1,00,8*6D
$GLGSV,2,1,05,65,59,277,34,72,34,187,31,73,03,063,17,75,68,291,38,1*73
$GLGSV,2,2,05,76,13,251,31,1*4A
$GAGSV,2,1,06,02,,,23,03,70,265,32,05,43,158,27,08,24,312,23,7*45
$GAGSV,2,2,06,24,50,059,29,25,70,205,33,7*76
$GAGSV,1,1,00,1*75
$GBGSV,2,1,06,11,,,18,19,,,19,20,43,286,28,23,66,065,30,1*78
$GBGSV,2,2,06,32,36,209,25,38,22,316,25,1*70
$GBGSV,1,1,00,5*72
$GQGSV,1,1,00,1*65
$GQGSV,1,1,00,8*6C
$GNGGA,183435.000,4910.425681,N,12304.399922,W,1,21,0.82,8.686,M,-16.816,M,,*4A
$GNRMC,183435.000,A,4910.425681,N,12304.399922,W,0.007,120.86,170125,,,A,V*24
$GNGLL,4910.425681,N,12304.399922,W,183435.000,A,A*53
$GNVTG,120.86,T,,M,0.007,N,0.013,K,A*2B
$GNGSA,A,3,05,07,08,09,13,14,20,27,30,,,,1.48,0.82,1.23,1*06
$GNGSA,A,3,65,72,75,76,,,,,,,,,1.48,0.82,1.23,2*00
$GNGSA,A,3,03,05,08,24,25,,,,,,,,1.48,0.82,1.23,3*0B
$GNGSA,A,3,23,32,38,,,,,,,,,,1.48,0.82,1.23,4*08
$GNGSA,A,3,,,,,,,,,,,,,1.48,0.82,1.23,5*02
$GPGSV,3,1,10,05,22,287,26,07,63,087,33,08,38,071,33,09,19,156,25,1*67
$GPGSV,3,2,10,13,27,310,28,14,45,224,30,20,13,254,22,27,17,039,29,1*69
$GPGSV,3,3,10,30,75,299,37,46,33,187,29,1*65
$GPGSV,1,1,00,8*6D
$GLGSV,2,1,05,65,59,277,34,72,34,187,30,73,03,063,17,75,68,291,37,1*7D
$GLGSV,2,2,05,76,13,251,30,1*4B
$GAGSV,2,1,06,02,,,22,03,70,265,32,05,43,158,28,08,24,312,22,7*4A
$GAGSV,2,2,06,24,50,059,29,25,70,205,31,7*74
$GAGSV,1,1,00,1*75
$GBGSV,2,1,05,11,,,19,19,,,20,23,66,065,30,32,36,209,23,1*7D
$GBGSV,2,2,05,38,22,316,24,1*4A
$GBGSV,1,1,00,5*72
$GQGSV,1,1,00,1*65
$GQGSV,1,1,00,8*6C
$GNGGA,183436.000,4910.425682,N,12304.399915,W,1,22,0.71,8.679,M,-16.816,M,,*41
$GNRMC,183436.000,A,4910.425682,N,12304.399915,W,0.004,120.86,170125,,,A,V*23
$GNGLL,4910.425682,N,12304.399915,W,183436.000,A,A*57
$GNVTG,120.86,T,,M,0.004,N,0.008,K,A*22
$GNGSA,A,3,05,07,08,09,13,14,20,27,30,,,,1.32,0.71,1.11,1*06
$GNGSA,A,3,65,72,75,76,,,,,,,,,1.32,0.71,1.11,2*00
$GNGSA,A,3,03,05,08,24,25,,,,,,,,1.32,0.71,1.11,3*0B
$GNGSA,A,3,20,23,32,38,,,,,,,,,1.32,0.71,1.11,4*0A
$GNGSA,A,3,,,,,,,,,,,,,1.32,0.71,1.11,5*02
$GPGSV,3,1,10,05,22,287,26,07,63,087,33,08,38,071,33,09,19,156,25,1*67
$GPGSV,3,2,10,13,27,310,28,14,45,224,31,20,13,254,19,27,17,039,29,1*60
$GPGSV,3,3,10,30,75,299,36,46,33,187,28,1*65
$GPGSV,1,1,00,8*6D
$GLGSV,2,1,05,65,59,277,34,72,34,187,30,73,03,063,17,75,68,291,37,1*7D
$GLGSV,2,2,05,76,13,251,31,1*4A
$GAGSV,2,1,06,02,,,22,03,70,265,30,05,43,158,28,08,24,312,24,7*4E
$GAGSV,2,2,06,24,50,059,29,25,70,205,33,7*76
$GAGSV,1,1,00,1*75
$GBGSV,2,1,06,11,,,17,19,,,21,20,43,286,27,23,66,065,30,1*73
$GBGSV,2,2,06,32,36,209,24,38,22,316,24,1*70
$GBGSV,1,1,00,5*72
$GQGSV,1,1,00,1*65
$GQGSV,1,1,00,8*6C
$GNGGA,183437.000,4910.425681,N,12304.399908,W,1,23,0.89,8.676,M,-16.817,M,,*47
$GNRMC,183437.000,A,4910.425681,N,12304.399908,W,0.003,120.86,170125,,,A,V*2A
$GNGLL,4910.425681,N,12304.399908,W,183437.000,A,A*59
$GNVTG,120.86,T,,M,0.003,N,0.005,K,A*28
$GNGSA,A,3,05,07,08,09,13,14,20,27,30,,,,1.61,0.89,1.34,1*00
$GNGSA,A,3,65,72,75,76,,,,,,,,,1.61,0.89,1.34,2*06
$GNGSA,A,3,03,05,08,24,25,,,,,,,,1.61,0.89,1.34,3*0D
$GNGSA,A,3,20,23,32,37,38,,,,,,,,1.61,0.89,1.34,4*08
$GNGSA,A,3,,,,,,,,,,,,,1.61,0.89,1.34,5*04
$GPGSV,3,1,10,05,22,287,26,07,63,087,33,08,38,071,34,09,19,156,25,1*60
$GPGSV,3,2,10,13,27,310,29,14,45,224,31,20,13,254,22,27,17,039,28,1*68
$GPGSV,3,3,10,30,75,299,37,46,33,187,28,1*64
$GPGSV,1,1,00,8*6D
$GLGSV,2,1,05,65,59,276,34,72,34,187,31,73,03,063,17,75,68,291,38,1*72
$GLGSV,2,2,05,76,13,251,30,1*4B
$GAGSV,2,1,06,02,,,22,03,70,265,29,05,43,158,27,08,24,312,23,7*4E
$GAGSV,2,2,06,24,50,059,30,25,70,205,32,7*7F
$GAGSV,1,1,00,1*75
$GBGSV,2,1,07,11,,,19,19,,,21,20,43,286,28,23,66,065,29,1*7B
$GBGSV,2,2,07,32,36,209,23,37,56,263,28,38,22,316,24,1*4C
$GBGSV,1,1,00,5*72
$GQGSV,1,1,00,1*65
$GQGSV,1,1,00,8*6C
$GNGGA,183438.000,4910.425680,N,12304.399902,W,1,22,0.89,8.671,M,-16.816,M,,*44
$GNRMC,183438.000,A,4910.425680,N,12304.399902,W,0.002,120.86,170125,,,A,V*2F
$GNGLL,4910.425680,N,12304.399902,W,183438.000,A,A*5D
$GNVTG,120.86,T,,M,0.002,N,0.004,K,A*28
$GNGSA,A,3,05,07,08,09,13,14,20,27,30,,,,1.61,0.89,1.34,1*00
$GNGSA,A,3,65,72,75,76,,,,,,,,,1.61,0.89,1.34,2*06
$GNGSA,A,3,03,05,08,24,25,,,,,,,,1.61,0.89,1.34,3*0D
$GNGSA,A,3,20,23,37,38,,,,,,,,,1.61,0.89,1.34,4*09
$GNGSA,A,3,,,,,,,,,,,,,1.61,0.89,1.34,5*04
$GPGSV,3,1,10,05,22,287,25,07,63,087,33,08,38,071,33,09,19,156,25,1*64
$GPGSV,3,2,10,13,27,310,29,14,45,224,30,20,13,254,20,27,17,039,28,1*6B
$GPGSV,3,3,10,30,75,299,37,46,33,187,28,1*64
$GPGSV,1,1,00,8*6D
$GLGSV,2,1,05,65,59,276,35,72,34,187,30,73,03,063,17,75,68,291,38,1*72
$GLGSV,2,2,05,76,13,251,30,1*4B
$GAGSV,2,1,06,02,,,21,03,70,265,32,05,43,158,26,08,24,312,23,7*46
$GAGSV,2,2,06,24,50,059,29,25,70,205,32,7*77
$GAGSV,1,1,00,1*75
$GBGSV,2,1,06,11,,,17,19,,,20,20,43,286,27,23,66,065,30,1*72
$GBGSV,2,2,06,37,56,263,29,38,22,316,24,1*72
$GBGSV,1,1,00,5*72
$GQGSV,1,1,00,1*65
$GQGSV,1,1,00,8*6C
$GNGGA,183439.000,4910.425680,N,12304.399897,W,1,22,0.89,8.668,M,-16.816,M,,*40
$GNRMC,183439.000,A,4910.425680,N,12304.399897,W,0.005,120.86,170125,,,A,V*24
$GNGLL,4910.425680,N,12304.399897,W,183439.000,A,A*51
$GNVTG,120.86,T,,M,0.005,N,0.010,K,A*2A
$GNGSA,A,3,05,07,08,09,13,14,20,27,30,,,,1.61,0.89,1.34,1*00
$GNGSA,A,3,65,72,75,76,,,,,,,,,1.61,0.89,1.34,2*06
$GNGSA,A,3,03,05,08,24,25,,,,,,,,1.61,0.89,1.34,3*0D
$GNGSA,A,3,20,23,37,38,,,,,,,,,1.61,0.89,1.34,4*09
$GNGSA,A,3,,,,,,,,,,,,,1.61,0.89,1.34,5*04
$GPGSV,3,1,10,05,22,287,25,07,63,087,33,08,38,071,33,09,19,156,25,1*64
$GPGSV,3,2,10,13,27,310,28,14,45,224,30,20,13,254,20,27,17,039,28,1*6A
$GPGSV,3,3,10,30,75,299,36,46,33,187,28,1*65
$GPGSV,1,1,00,8*6D
$GLGSV,2,1,05,65,59,276,33,72,34,187,30,73,03,063,17,75,68,291,37,1*7B
$GLGSV,2,2,05,76,13,251,30,1*4B
$GAGSV,2,1,06,02,,,21,03,70,265,30,05,43,158,28,08,24,312,23,7*4A
$GAGSV,2,2,06,24,50,059,29,25,70,205,31,7*74
$GAGSV,1,1,00,1*75
$GBGSV,2,1,06,11,,,17,19,,,20,20,43,286,27,23,66,065,29,1*7A
$GBGSV,2,2,06,37,56,264,28,38,22,316,24,1*74
$GBGSV,1,1,00,5*72
$GQGSV,1,1,00,1*65
$GQGSV,1,1,00,8*6C
$GNGGA,183440.000,4910.425680,N,12304.399890,W,1,21,0.71,8.662,M,-16.816,M,,*47
$GNRMC,183440.000,A,4910.425680,N,12304.399890,W,0.012,120.86,170125,,,A,V*2B
$GNGLL,4910.425680,N,12304.399890,W,183440.000,A,A*58
$GNVTG,120.86,T,,M,0.012,N,0.022,K,A*2D
$GNGSA,A,3,05,07,08,09,13,14,20,27,30,,,,1.23,0.71,1.01,1*07
$GNGSA,A,3,65,72,75,76,,,,,,,,,1.23,0.71,1.01,2*01
$GNGSA,A,3,03,05,08,24,25,,,,,,,,1.23,0.71,1.01,3*0A
$GNGSA,A,3,20,23,38,,,,,,,,,,1.23,0.71,1.01,4*0A
$GNGSA,A,3,,,,,,,,,,,,,1.23,0.71,1.01,5*03
$GPGSV,3,1,10,05,22,287,25,07,63,087,32,08,38,071,33,09,19,156,24,1*64
$GPGSV,3,2,10,13,27,310,28,14,45,224,31,20,13,254,20,27,17,039,29,1*6A
$GPGSV,3,3,10,30,75,299,36,46,33,187,28,1*65
$GPGSV,1,1,00,8*6D
$GLGSV,2,1,05,65,59,276,34,72,34,187,30,73,03,063,18,75,68,291,37,1*73
$GLGSV,2,2,05,76,13,251,32,1*49
$GAGSV,2,1,06,02,,,21,03,70,265,31,05,43,158,27,08,24,312,22,7*45
$GAGSV,2,2,06,24,50,059,30,25,70,205,30,7*7D
$GAGSV,1,1,00,1*75
$GBGSV,2,1,06,11,,,18,19,,,19,20,43,286,28,23,66,065,29,1*70
$GBGSV,2,2,06,34,,,22,38,22,316,23,1*49
$GBGSV,1,1,00,5*72
$GQGSV,1,1,00,1*65
$GQGSV,1,1,00,8*6C
$GNGGA,183441.000,4910.425680,N,12304.399886,W,1,21,0.71,8.661,M,-16.816,M,,*42
$GNRMC,183441.000,A,4910.425680,N,12304.399886,W,0.005,120.86,170125,,,A,V*2B
$GNGLL,4910.425680,N,12304.399886,W,183441.000,A,A*5E
$GNVTG,120.86,T,,M,0.005,N,0.009,K,A*22
$GNGSA,A,3,05,07,08,09,13,14,20,27,30,,,,1.23,0.71,1.01,1*07
$GNGSA,A,3,65,72,75,76,,,,,,,,,1.23,0.71,1.01,2*01
$GNGSA,A,3,03,05,08,24,25,,,,,,,,1.23,0.71,1.01,3*0A
$GNGSA,A,3,20,23,38,,,,,,,,,,1.23,0.71,1.01,4*0A
$GNGSA,A,3,,,,,,,,,,,,,1.23,0.71,1.01,5*03
$GPGSV,3,1,10,05,22,287,25,07,63,087,33,08,38,071,32,09,19,156,25,1*65
$GPGSV,3,2,10,13,27,310,27,14,45,224,31,20,13,254,20,27,17,039,28,1*64
$GPGSV,3,3,10,30,75,299,36,46,33,187,28,1*65
$GPGSV,1,1,00,8*6D
$GLGSV,2,1,05,65,59,276,34,72,34,187,30,73,03,063,18,75,68,291,37,1*73
$GLGSV,2,2,05,76,13,251,30,1*4B
$GAGSV,2,1,06,02,,,23,03,70,265,32,05,43,158,26,08,24,312,23,7*44
$GAGSV,2,2,06,24,50,059,29,25,70,205,30,7*75
$GAGSV,1,1,00,1*75
$GBGSV,2,1,06,11,,,17,19,,,19,20,43,286,27,23,66,065,30,1*78
$GBGSV,2,2,06,34,,,20,38,22,316,24,1*4C
$GBGSV,1,1,00,5*72
$GQGSV,1,1,00,1*65
$GQGSV,1,1,00,8*6C
$GNGGA,183442.000,4910.425681,N,12304.399882,W,1,21,0.71,8.660,M,-16.816,M,,*45
$GNRMC,183442.000,A,4910.425681,N,12304.399882,W,0.005,120.86,170125,,,A,V*2D
$GNGLL,4910.425681,N,12304.399882,W,183442.000,A,A*58
$GNVTG,120.86,T,,M,0.005,N,0.008,K,A*23
$GNGSA,A,3,05,07,08,09,13,14,20,27,30,,,,1.23,0.71,1.01,1*07
$GNGSA,A,3,65,72,75,76,,,,,,,,,1.23,0.71,1.01,2*01
$GNGSA,A,3,03,05,08,24,25,,,,,,,,1.23,0.71,1.01,3*0A
$GNGSA,A,3,20,23,38,,,,,,,,,,1.23,0.71,1.01,4*0A
$GNGSA,A,3,,,,,,,,,,,,,1.23,0.71,1.01,5*03
$GPGSV,3,1,10,05,22,287,25,07,63,087,33,08,38,071,33,09,19,156,25,1*64
$GPGSV,3,2,10,13,27,310,29,14,45,224,30,20,13,254,21,27,17,039,28,1*6A
$GPGSV,3,3,10,30,75,299,36,46,33,187,28,1*65
$GPGSV,1,1,00,8*6D
$GLGSV,2,1,05,65,59,276,35,72,34,187,30,73,03,063,17,75,68,291,38,1*72
$GLGSV,2,2,05,76,13,251,30,1*4B
$GAGSV,2,1,06,02,,,21,03,70,265,30,05,43,158,26,08,24,312,22,7*45
$GAGSV,2,2,06,24,50,059,28,25,70,205,30,7*74
$GAGSV,1,1,00,1*75
$GBGSV,2,1,05,19,,,20,20,43,286,27,23,66,065,29,34,,,22,1*78
$GBGSV,2,2,05,38,22,316,25,1*4B
$GBGSV,1,1,00,5*72
$GQGSV,1,1,00,1*65
$GQGSV,1,1,00,8*6C
$GNGGA,183443.000,4910.425681,N,12304.399877,W,1,21,0.71,8.659,M,-16.816,M,,*44
$GNRMC,183443.000,A,4910.425681,N,12304.399877,W,0.006,120.86,170125,,,A,V*25
$GNGLL,4910.425681,N,12304.399877,W,183443.000,A,A*53
$GNVTG,120.86,T,,M,0.006,N,0.011,K,A*28
$GNGSA,A,3,05,07,08,09,13,14,20,27,30,,,,1.23,0.71,1.01,1*07
$GNGSA,A,3,65,72,75,76,,,,,,,,,1.23,0.71,1.01,2*01
$GNGSA,A,3,03,05,08,24,25,,,,,,,,1.23,0.71,1.01,3*0A
$GNGSA,A,3,20,23,38,,,,,,,,,,1.23,0.71,1.01,4*0A
$GNGSA,A,3,,,,,,,,,,,,,1.23,0.71,1.01,5*03
$GPGSV,3,1,10,05,22,287,26,07,63,087,33,08,38,071,32,09,19,156,24,1*67
$GPGSV,3,2,10,13,27,310,27,14,45,224,31,20,13,254,21,27,17,039,28,1*65
$GPGSV,3,3,10,30,75,299,37,46,33,187,28,1*64
$GPGSV,1,1,00,8*6D
$GLGSV,2,1,05,65,59,276,33,72,34,187,29,73,03,063,20,75,68,291,37,1*77
$GLGSV,2,2,05,76,14,251,29,1*44
$GAGSV,2,1,06,02,,,21,03,70,265,32,05,43,158,26,08,24,312,23,7*46
$GAGSV,2,2,06,24,50,059,29,25,70,205,31,7*74
$GAGSV,1,1,00,1*75
$GBGSV,2,1,05,19,,,19,20,43,286,27,23,66,065,29,34,,,21,1*71
$GBGSV,2,2,05,38,22,316,24,1*4A
$GBGSV,1,1,00,5*72
$GQGSV,1,1,00,1*65
$GQGSV,1,1,00,8*6C
$GNGGA,183444.000,4910.425682,N,12304.399871,W,1,21,0.71,8.660,M,-16.816,M,,*4C
$GNRMC,183444.000,A,4910.425682,N,12304.399871,W,0.003,120.86,170125,,,A,V*22
$GNGLL,4910.425682,N,12304.399871,W,183444.000,A,A*51
$GNVTG,120.86,T,,M,0.003,N,0.006,K,A*2B
$GNGSA,A,3,05,07,08,09,13,14,20,27,30,,,,1.23,0.71,1.01,1*07
$GNGSA,A,3,65,72,75,76,,,,,,,,,1.23,0.71,1.01,2*01
$GNGSA,A,3,03,05,08,24,25,,,,,,,,1.23,0.71,1.01,3*0A
$GNGSA,A,3,20,23,38,,,,,,,,,,1.23,0.71,1.01,4*0A
$GNGSA,A,3,,,,,,,,,,,,,1.23,0.71,1.01,5*03
$GPGSV,3,1,10,05,22,287,25,07,63,087,34,08,38,071,32,09,19,156,24,1*63
$GPGSV,3,2,10,13,27,310,28,14,45,224,31,20,13,254,22,27,17,039,28,1*69
$GPGSV,3,3,10,30,75,299,37,46,33,187,28,1*64
$GPGSV,1,1,00,8*6D
$GLGSV,2,1,05,65,59,276,35,72,34,187,30,73,03,063,18,75,68,291,37,1*72
$GLGSV,2,2,05,76,14,251,30,1*4C
$GAGSV,2,1,06,02,,,22,03,70,265,32,05,43,158,25,08,24,312,24,7*41
$GAGSV,2,2,06,24,50,059,28,25,70,205,31,7*75
$GAGSV,1,1,00,1*75
$GBGSV,2,1,05,19,,,19,20,43,286,28,23,66,065,31,34,,,23,1*75
$GBGSV,2,2,05,38,22,316,25,1*4B
$GBGSV,1,1,00,5*72
$GQGSV,1,1,00,1*65
$GQGSV,1,1,00,8*6C
$GNGGA,183445.000,4910.425681,N,12304.399866,W,1,21,0.71,8.661,M,-16.816,M,,*49
$GNRMC,183445.000,A,4910.425681,N,12304.399866,W,0.007,120.86,170125,,,A,V*22
$GNGLL,4910.425681,N,12304.399866,W,183445.000,A,A*55
$GNVTG,120.86,T,,M,0.007,N,0.012,K,A*2A
$GNGSA,A,3,05,07,08,09,13,14,20,27,30,,,,1.23,0.71,1.01,1*07
$GNGSA,A,3,65,72,75,76,,,,,,,,,1.23,0.71,1.01,2*01
$GNGSA,A,3,03,05,08,24,25,,,,,,,,1.23,0.71,1.01,3*0A
$GNGSA,A,3,20,23,38,,,,,,,,,,1.23,0.71,1.01,4*0A
$GNGSA,A,3,,,,,,,,,,,,,1.23,0.71,1.01,5*03
$GPGSV,3,1,10,05,22,287,26,07,63,087,33,08,38,071,32,09,19,156,24,1*67
$GPGSV,3,2,10,13,27,310,28,14,45,224,31,20,13,254,22,27,17,039,27,1*66
$GPGSV,3,3,10,30,75,299,36,46,33,187,28,1*65
$GPGSV,1,1,00,8*6D
$GLGSV,2,1,05,65,59,276,34,72,34,187,30,73,03,063,17,75,68,291,37,1*7C
$GLGSV,2,2,05,76,14,251,30,1*4C
$GAGSV,2,1,06,02,,,22,03,70,265,32,05,43,158,26,08,24,312,22,7*44
$GAGSV,2,2,06,24,50,059,30,25,70,205,32,7*7F
$GAGSV,1,1,00,1*75
$GBGSV,2,1,05,19,,,19,20,43,286,29,23,66,065,30,34,,,22,1*74
$GBGSV,2,2,05,38,22,316,24,1*4A
$GBGSV,1,1,00,5*72
$GQGSV,1,1,00,1*65
$GQGSV,1,1,00,8*6C
$GNGGA,183446.000,4910.425683,N,12304.399864,W,1,23,0.71,8.662,M,-16.817,M,,*4A
$GNRMC,183446.000,A,4910.425683,N,12304.399864,W,0.012,120.86,170125,,,A,V*25
$GNGLL,4910.425683,N,12304.399864,W,183446.000,A,A*56
$GNVTG,120.86,T,,M,0.012,N,0.022,K,A*2D
$GNGSA,A,3,05,07,08,09,13,14,20,27,30,,,,1.23,0.71,1.01,1*07
$GNGSA,A,3,65,72,75,76,,,,,,,,,1.23,0.71,1.01,2*01
$GNGSA,A,3,03,05,08,24,25,,,,,,,,1.23,0.71,1.01,3*0A
$GNGSA,A,3,20,23,32,37,38,,,,,,,,1.23,0.71,1.01,4*0F
$GNGSA,A,3,,,,,,,,,,,,,1.23,0.71,1.01,5*03
$GPGSV,3,1,10,05,22,287,25,07,63,087,34,08,38,071,33,09,19,156,24,1*62
$GPGSV,3,2,10,13,27,310,28,14,45,224,31,20,13,254,22,27,17,039,28,1*69
$GPGSV,3,3,10,30,75,299,37,46,33,187,28,1*64
$GPGSV,1,1,00,8*6D
$GLGSV,2,1,05,65,59,276,36,72,34,187,29,73,03,063,17,75,68,291,38,1*79
$GLGSV,2,2,05,76,14,251,30,1*4C
$GAGSV,2,1,06,02,,,23,03,70,265,31,05,43,158,25,08,24,312,22,7*45
$GAGSV,2,2,06,24,50,059,29,25,70,205,31,7*74
$GAGSV,1,1,00,1*75
$GBGSV,2,1,07,19,,,19,20,43,286,29,23,66,065,31,32,36,209,25,1*48
$GBGSV,2,2,07,34,,,24,37,56,264,30,38,22,316,25,1*7C
$GBGSV,1,1,00,5*72
$GQGSV,1,1,00,1*65
$GQGSV,1,1,00,8*6C
$GNGGA,183447.000,4910.425685,N,12304.399861,W,1,23,0.71,8.663,M,-16.816,M,,*48
$GNRMC,183447.000,A,4910.425685,N,12304.399861,W,0.008,120.86,170125,,,A,V*2C
$GNGLL,4910.425685,N,12304.399861,W,183447.000,A,A*54
$GNVTG,120.86,T,,M,0.008,N,0.014,K,A*23
$GNGSA,A,3,05,07,08,09,13,14,20,27,30,,,,1.23,0.71,1.01,1*07
$GNGSA,A,3,65,72,75,76,,,,,,,,,1.23,0.71,1.01,2*01
$GNGSA,A,3,03,05,08,24,25,,,,,,,,1.23,0.71,1.01,3*0A
$GNGSA,A,3,20,23,32,37,38,,,,,,,,1.23,0.71,1.01,4*0F
$GNGSA,A,3,,,,,,,,,,,,,1.23,0.71,1.01,5*03
$GPGSV,3,1,10,05,22,287,27,07,63,087,35,08,38,071,33,09,19,156,24,1*61
$GPGSV,3,2,10,13,27,310,28,14,45,224,32,20,13,254,22,27,17,039,28,1*6A
$GPGSV,3,3,10,30,75,299,38,46,33,187,29,1*6A
$GPGSV,1,1,00,8*6D
$GLGSV,2,1,05,65,59,276,33,72,34,187,29,73,03,063,17,75,68,291,38,1*7C
$GLGSV,2,2,05,76,14,251,30,1*4C
$GAGSV,2,1,06,02,,,23,03,70,265,32,05,43,158,28,08,24,312,24,7*4D
$GAGSV,2,2,06,24,50,059,30,25,70,205,33,7*7E
$GAGSV,1,1,00,1*75
$GBGSV,2,1,07,19,,,21,20,43,286,29,23,66,065,31,32,36,209,25,1*43
$GBGSV,2,2,07,34,,,23,37,56,264,30,38,22,316,25,1*7B
$GBGSV,1,1,00,5*72
$GQGSV,1,1,00,1*65
$GQGSV,1,1,00,8*6C
$GNGGA,183448.000,4910.425685,N,12304.399858,W,1,23,0.86,8.664,M,-16.816,M,,*42
$GNRMC,183448.000,A,4910.425685,N,12304.399858,W,0.008,120.86,170125,,,A,V*29
$GNGLL,4910.425685,N,12304.399858,W,183448.000,A,A*51
$GNVTG,120.86,T,,M,0.008,N,0.016,K,A*21
$GNGSA,A,3,05,07,08,09,13,14,20,27,30,,,,1.52,0.86,1.26,1*0C
$GNGSA,A,3,65,72,75,76,,,,,,,,,1.52,0.86,1.26,2*0A
$GNGSA,A,3,03,05,08,24,25,,,,,,,,1.52,0.86,1.26,3*01
$GNGSA,A,3,20,23,32,37,38,,,,,,,,1.52,0.86,1.26,4*04
$GNGSA,A,3,,,,,,,,,,,,,1.52,0.86,1.26,5*08
$GPGSV,3,1,10,05,22,287,25,07,63,087,34,08,38,071,31,09,19,156,24,1*60
$GPGSV,3,2,10,13,27,310,28,14,45,224,32,20,13,254,23,27,17,039,28,1*6B
$GPGSV,3,3,10,30,75,299,37,46,33,187,29,1*65
$GPGSV,1,1,00,8*6D
$GLGSV,2,1,05,65,59,276,35,72,34,187,29,73,03,063,17,75,68,291,38,1*7A
$GLGSV,2,2,05,76,14,251,30,1*4C
$GAGSV,2,1,06,02,,,21,03,70,265,31,05,43,158,27,08,24,312,22,7*45
$GAGSV,2,2,06,24,50,059,29,25,70,205,32,7*77
$GAGSV,1,1,00,1*75
$GBGSV,2,1,07,19,,,19,20,43,286,28,23,66,065,30,32,36,209,23,1*4E
$GBGSV,2,2,07,34,,,22,37,56,264,28,38,22,316,23,1*75
$GBGSV,1,1,00,5*72
$GQGSV,1,1,00,1*65
$GQGSV,1,1,00,8*6C
$GNGGA,183449.000,4910.425685,N,12304.399851,W,1,23,0.71,8.665,M,-16.816,M,,*43
$GNRMC,183449.000,A,4910.425685,N,12304.399851,W,0.007,120.86,170125,,,A,V*2E
$GNGLL,4910.425685,N,12304.399851,W,183449.000,A,A*59
$GNVTG,120.86,T,,M,0.007,N,0.012,K,A*2A
$GNGSA,A,3,05,07,08,09,13,14,20,27,30,,,,1.23,0.71,1.01,1*07
$GNGSA,A,3,65,72,75,76,,,,,,,,,1.23,0.71,1.01,2*01
$GNGSA,A,3,03,05,08,24,25,,,,,,,,1.23,0.71,1.01,3*0A
$GNGSA,A,3,20,23,32,37,38,,,,,,,,1.23,0.71,1.01,4*0F
$GNGSA,A,3,,,,,,,,,,,,,1.23,0.71,1.01,5*03
$GPGSV,3,1,10,05,22,287,25,07,63,087,34,08,38,071,32,09,19,156,25,1*62
$GPGSV,3,2,10,13,27,310,28,14,45,224,33,20,13,254,22,27,17,039,28,1*6B
$GPGSV,3,3,10,30,75,299,38,46,33,187,28,1*6B
$GPGSV,1,1,00,8*6D
$GLGSV,2,1,05,65,59,276,35,72,34,187,28,73,03,063,16,75,68,291,37,1*75
$GLGSV,2,2,05,76,14,251,30,1*4C
$GAGSV,2,1,06,02,,,22,03,70,265,32,05,43,158,27,08,24,312,24,7*43
$GAGSV,2,2,06,24,50,059,29,25,70,205,32,7*77
$GAGSV,1,1,00,1*75
$GBGSV,2,1,07,19,,,18,20,43,286,30,23,66,065,32,32,36,209,25,1*42
$GBGSV,2,2,07,34,,,23,37,56,264,29,38,22,316,25,1*73
$GBGSV,1,1,00,5*72
$GQGSV,1,1,00,1*65
$GQGSV,1,1,00,8*6C
$GNGGA,183450.000,4910.425683,N,12304.399846,W,1,23,0.71,8.667,M,-16.817,M,,*48
$GNRMC,183450.000,A,4910.425683,N,12304.399846,W,0.009,120.86,170125,,,A,V*28
$GNGLL,4910.425683,N,12304.399846,W,183450.000,A,A*51
$GNVTG,120.86,T,,M,0.009,N,0.017,K,A*21
$GNGSA,A,3,05,07,08,09,13,14,20,27,30,,,,1.23,0.71,1.01,1*07
$GNGSA,A,3,65,72,75,76,,,,,,,,,1.23,0.71,1.01,2*01
$GNGSA,A,3,03,05,08,24,25,,,,,,,,1.23,0.71,1.01,3*0A
$GNGSA,A,3,20,23,32,37,38,,,,,,,,1.23,0.71,1.01,4*0F
$GNGSA,A,3,,,,,,,,,,,,,1.23,0.71,1.01,5*03
$GPGSV,3,1,10,05,22,287,25,07,63,087,34,08,38,071,33,09,19,156,23,1*65
$GPGSV,3,2,10,13,27,310,26,14,45,224,31,20,13,254,22,27,17,039,27,1*68
$GPGSV,3,3,10,30,75,299,36,46,33,187,28,1*65
$GPGSV,1,1,00,8*6D
$GLGSV,2,1,05,65,59,276,34,72,34,187,28,73,03,063,17,75,68,291,37,1*75
$GLGSV,2,2,05,76,14,251,28,1*45
$GAGSV,2,1,06,02,,,21,03,70,265,31,05,43,158,26,08,24,312,23,7*45
$GAGSV,2,2,06,24,50,059,29,25,70,205,32,7*77
$GAGSV,1,1,00,1*75
$GBGSV,2,1,07,19,,,18,20,43,286,27,23,66,065,30,32,36,209,23,1*40
$GBGSV,2,2,07,34,,,23,37,56,264,27,38,22,316,23,1*7B
$GBGSV,1,1,00,5*72
$GQGSV,1,1,00,1*65
$GQGSV,1,1,00,8*6C
$GNGGA,183451.000,4910.425682,N,12304.399844,W,1,23,0.71,8.668,M,-16.816,M,,*44
