$GNRMC,003941.000,A,4910.423230,N,12304.395246,W,0.22,81.75,080125,,,D,V*24
$GNGGA,003941.000,4910.423230,N,12304.395246,W,2,47,0.57,11.145,M,-16.817,M,,*7A
$GNVTG,81.75,T,,M,0.22,N,0.40,K,D*19
$GNGSA,A,3,06,12,19,24,11,17,25,03,32,,,,1.01,0.57,0.83,1*00
$GNGSA,A,3,85,75,86,67,,,,,,,,,1.01,0.57,0.83,2*0B
$GNGSA,A,3,30,02,36,34,27,29,11,07,,,,,1.01,0.57,0.83,3*00
$GNGSA,A,3,44,24,12,35,25,34,26,39,,,,,1.01,0.57,0.83,4*00
$GPGSV,3,1,10,06,60,111,36,12,56,298,36,19,52,061,33,24,46,226,32,1*6E
$GPGSV,3,2,10,11,41,168,33,44,33,171,29,17,22,064,24,25,17,297,27,1*68
$GPGSV,3,3,10,03,10,032,29,32,09,318,27,1*6A
$GPGSV,2,1,05,06,60,111,28,24,46,226,25,11,41,168,26,25,17,297,21,8*65
$GPGSV,2,2,05,32,09,318,14,8*5F
$GLGSV,1,1,04,85,75,056,24,75,62,134,29,86,43,204,20,67,09,325,20,1*7E
$GAGSV,3,1,10,30,69,301,34,02,54,108,30,36,51,073,30,34,46,161,30,7*76
$GAGSV,3,2,10,27,17,294,21,29,13,309,21,11,13,035,18,07,11,258,21,7*7A
$GAGSV,3,3,10,15,04,194,19,25,03,112,15,7*74
$GAGSV,2,1,06,30,69,301,23,02,54,108,26,36,51,073,24,34,46,161,25,1*76
$GAGSV,2,2,06,27,17,294,17,29,13,309,16,1*7D
$GBGSV,3,1,11,44,80,156,32,24,72,203,32,12,58,209,27,35,41,057,29,1*76
$GBGSV,3,2,11,25,37,305,25,34,30,222,27,26,28,150,26,39,10,330,21,1*70
$GBGSV,3,3,11,11,06,222,18,20,02,028,,16,01,334,,1*43
$GBGSV,2,1,07,44,80,156,25,24,72,203,28,35,41,057,22,25,37,305,21,5*74
$GBGSV,2,2,07,34,30,222,21,26,28,150,18,39,10,330,13,5*4A
$GNGLL,4910.423230,N,12304.395246,W,003941.000,A,D*5C
$GNRMC,003942.000,A,4910.423080,N,12304.395252,W,0.21,85.96,080125,,,D,V*21
$GNGGA,003942.000,4910.423080,N,12304.395252,W,2,47,0.57,11.629,M,-16.816,M,,*79
$GNVTG,85.96,T,,M,0.21,N,0.40,K,D*13
$GNGSA,A,3,06,12,19,24,11,17,25,03,32,,,,1.01,0.57,0.83,1*00
$GNGSA,A,3,85,75,86,67,,,,,,,,,1.01,0.57,0.83,2*0B
$GNGSA,A,3,30,02,36,34,27,11,29,07,,,,,1.01,0.57,0.83,3*00
$GNGSA,A,3,44,24,12,35,25,34,26,39,,,,,1.01,0.57,0.83,4*00
$GPGSV,3,1,10,06,60,111,36,12,56,298,36,19,52,061,33,24,46,226,32,1*6E
$GPGSV,3,2,10,11,41,168,33,44,33,171,29,17,22,064,24,25,17,297,27,1*68
$GPGSV,3,3,10,03,10,032,27,32,09,318,27,1*64
$GPGSV,2,1,05,06,60,111,29,24,46,226,26,11,41,168,27,25,17,297,21,8*66
$GPGSV,2,2,05,32,09,318,14,8*5F
$GLGSV,1,1,04,85,75,056,24,75,62,134,29,86,43,204,20,67,09,325,20,1*7E
$GAGSV,3,1,11,30,69,301,34,02,54,108,30,36,51,073,30,34,46,161,30,7*77
$GAGSV,3,2,11,27,17,294,21,11,13,035,18,29,13,309,21,07,11,258,21,7*7B
$GAGSV,3,3,11,15,04,194,19,25,03,112,15,19,02,350,,7*49
$GAGSV,2,1,06,30,69,301,23,02,54,108,27,36,51,073,25,34,46,161,26,1*75
$GAGSV,2,2,06,27,17,294,18,29,13,309,16,1*72
$GBGSV,3,1,11,44,80,156,32,24,72,203,32,12,58,209,27,35,41,057,29,1*76
$GBGSV,3,2,11,25,37,305,25,34,30,222,27,26,28,150,26,39,10,330,21,1*70
$GBGSV,3,3,11,11,06,222,18,20,02,028,,16,01,334,,1*43
$GBGSV,2,1,07,44,80,156,26,24,72,203,28,35,41,057,23,25,37,305,22,5*75
$GBGSV,2,2,07,34,30,222,22,26,28,150,19,39,10,330,13,5*48
$GNGLL,4910.423080,N,12304.395252,W,003942.000,A,D*53
$GNRMC,003943.000,A,4910.422978,N,12304.395264,W,0.20,90.26,080125,,,D,V*24
$GNGGA,003943.000,4910.422978,N,12304.395264,W,2,47,0.57,12.027,M,-16.816,M,,*79
$GNVTG,90.26,T,,M,0.20,N,0.38,K,D*12
$GNGSA,A,3,06,12,19,24,11,17,25,03,32,,,,1.01,0.57,0.83,1*00
$GNGSA,A,3,85,75,86,67,,,,,,,,,1.01,0.57,0.83,2*0B
$GNGSA,A,3,30,02,36,34,27,11,29,07,,,,,1.01,0.57,0.83,3*00
$GNGSA,A,3,44,24,12,35,25,34,26,39,,,,,1.01,0.57,0.83,4*00
$GPGSV,3,1,10,06,60,108,37,12,56,298,37,19,52,061,34,24,46,226,33,1*60
$GPGSV,3,2,10,11,41,168,34,44,33,171,29,17,22,064,25,25,17,297,27,1*6E
$GPGSV,3,3,10,03,10,032,28,32,09,318,27,1*6B
$GPGSV,2,1,05,06,60,108,29,24,46,226,26,11,41,168,27,25,17,297,22,8*6D
$GPGSV,2,2,05,32,09,318,14,8*5F
$GLGSV,1,1,04,85,75,056,24,75,62,134,29,86,43,204,20,67,09,325,20,1*7E
$GAGSV,3,1,11,30,69,301,34,02,54,108,31,36,51,073,31,34,46,161,31,7*76
$GAGSV,3,2,11,27,17,294,21,11,13,035,19,29,13,309,22,07,11,258,21,7*79
$GAGSV,3,3,11,15,04,194,19,25,03,112,15,19,02,350,,7*49
$GAGSV,2,1,06,30,69,301,24,02,54,108,27,36,51,073,25,34,46,161,26,1*72
$GAGSV,2,2,06,27,17,294,18,29,13,309,16,1*72
$GBGSV,3,1,11,44,80,156,33,24,72,203,32,12,58,209,27,35,41,057,29,1*77
$GBGSV,3,2,11,25,37,305,25,34,30,222,27,26,28,150,26,39,10,330,20,1*71
$GBGSV,3,3,11,11,06,222,18,20,02,028,,16,01,334,,1*43
$GBGSV,2,1,07,44,80,156,26,24,72,203,28,35,41,057,23,25,37,305,22,5*75
$GBGSV,2,2,07,34,30,222,22,26,28,150,19,39,10,330,14,5*4F
$GNGLL,4910.422978,N,12304.395264,W,003943.000,A,D*58
$GNRMC,003944.000,A,4910.422858,N,12304.395390,W,0.16,95.92,080125,,,D,V*25
$GNGGA,003944.000,4910.422858,N,12304.395390,W,2,47,0.57,12.603,M,-16.816,M,,*77
$GNVTG,95.92,T,,M,0.16,N,0.29,K,D*1D
$GNGSA,A,3,06,12,19,24,11,17,25,03,32,,,,1.01,0.57,0.83,1*00
$GNGSA,A,3,85,75,86,67,,,,,,,,,1.01,0.57,0.83,2*0B
$GNGSA,A,3,30,02,36,34,27,11,29,07,,,,,1.01,0.57,0.83,3*00
$GNGSA,A,3,44,24,12,35,25,34,26,39,,,,,1.01,0.57,0.83,4*00
$GPGSV,3,1,10,06,60,108,38,12,56,298,38,19,52,061,35,24,46,226,34,1*66
$GPGSV,3,2,10,11,41,168,35,44,33,171,30,17,22,064,26,25,17,297,28,1*6B
$GPGSV,3,3,10,03,10,032,28,32,09,318,28,1*64
$GPGSV,2,1,05,06,60,108,29,24,46,226,26,11,41,168,27,25,17,297,22,8*6D
$GPGSV,2,2,05,32,09,318,14,8*5F
$GLGSV,1,1,04,85,75,056,24,75,62,134,29,86,43,204,20,67,09,325,20,1*7E
$GAGSV,3,1,11,30,69,301,35,02,54,108,32,36,51,073,32,34,46,161,32,7*74
$GAGSV,3,2,11,27,17,294,22,11,13,035,19,29,13,309,23,07,11,258,22,7*78
$GAGSV,3,3,11,15,04,194,19,25,03,112,15,19,02,350,,7*49
$GAGSV,2,1,06,30,69,301,24,02,54,108,27,36,51,073,25,34,46,161,26,1*72
$GAGSV,2,2,06,27,17,294,18,29,13,309,16,1*72
$GBGSV,3,1,09,44,80,156,34,24,72,203,33,12,58,209,28,35,41,057,30,1*7F
$GBGSV,3,2,09,25,37,305,26,34,30,222,28,26,28,150,27,39,10,330,21,1*74
$GBGSV,3,3,09,11,06,222,19,1*43
$GBGSV,2,1,07,44,80,156,26,24,72,203,28,35,41,057,23,25,37,305,22,5*75
$GBGSV,2,2,07,34,30,222,22,26,28,150,19,39,10,330,14,5*4F
$GNGLL,4910.422858,N,12304.395390,W,003944.000,A,D*56
$GNRMC,003945.000,A,4910.422954,N,12304.395216,W,0.12,95.92,080125,,,D,V*22
$GNGGA,003945.000,4910.422954,N,12304.395216,W,2,47,0.57,12.167,M,-16.816,M,,*71
$GNVTG,95.92,T,,M,0.12,N,0.22,K,D*12
$GNGSA,A,3,06,12,19,24,11,17,25,03,32,,,,1.01,0.57,0.83,1*00
$GNGSA,A,3,85,75,86,67,,,,,,,,,1.01,0.57,0.83,2*0B
$GNGSA,A,3,30,02,36,34,27,11,29,07,,,,,1.01,0.57,0.83,3*00
$GNGSA,A,3,44,24,12,35,25,34,26,39,,,,,1.01,0.57,0.83,4*00
$GPGSV,3,1,10,06,60,108,38,12,56,298,38,19,52,061,35,24,46,226,34,1*66
$GPGSV,3,2,10,11,41,168,35,44,33,171,31,17,22,064,26,25,17,297,29,1*6B
$GPGSV,3,3,10,03,10,032,29,32,09,318,28,1*65
$GPGSV,2,1,05,06,60,108,30,24,46,226,27,11,41,168,28,25,17,297,23,8*6A
$GPGSV,2,2,05,32,09,318,14,8*5F
$GLGSV,1,1,04,85,75,056,24,75,62,134,29,86,43,204,20,67,09,325,20,1*7E
$GAGSV,3,1,11,30,69,301,36,02,54,108,33,36,51,073,33,34,46,161,33,7*76
$GAGSV,3,2,11,27,17,294,23,11,13,035,20,29,13,309,24,07,11,258,23,7*75
$GAGSV,3,3,11,15,04,194,19,25,03,112,16,19,02,350,,7*4A
$GAGSV,2,1,06,30,69,301,25,02,54,108,28,36,51,073,26,34,46,161,27,1*7E
$GAGSV,2,2,06,27,17,294,18,29,13,309,17,1*73
$GBGSV,3,1,09,44,80,156,35,24,72,203,34,12,58,209,29,35,41,057,31,1*79
$GBGSV,3,2,09,25,37,305,27,34,30,222,29,26,28,150,28,39,10,330,22,1*78
$GBGSV,3,3,09,11,06,222,20,1*49
$GBGSV,2,1,07,44,80,156,27,24,72,203,29,35,41,057,24,25,37,305,23,5*73
$GBGSV,2,2,07,34,30,222,22,26,28,150,20,39,10,330,15,5*44
$GNGLL,4910.422954,N,12304.395216,W,003945.000,A,D*55
$GNRMC,003946.000,A,4910.422984,N,12304.395234,W,0.12,95.92,080125,,,D,V*2C
$GNGGA,003946.000,4910.422984,N,12304.395234,W,2,47,0.57,12.182,M,-16.816,M,,*74
$GNVTG,95.92,T,,M,0.12,N,0.22,K,D*12
$GNGSA,A,3,06,12,19,24,11,17,25,03,32,,,,1.01,0.57,0.83,1*00
$GNGSA,A,3,85,75,86,67,,,,,,,,,1.01,0.57,0.83,2*0B
$GNGSA,A,3,30,02,36,34,27,11,29,07,,,,,1.01,0.57,0.83,3*00
$GNGSA,A,3,44,24,12,35,25,34,26,39,,,,,1.01,0.57,0.83,4*00
$GPGSV,3,1,10,06,60,108,38,12,56,298,38,19,52,061,35,24,46,226,34,1*66
$GPGSV,3,2,10,11,41,168,35,44,33,171,31,17,22,064,24,25,17,297,29,1*69
$GPGSV,3,3,10,03,10,032,29,32,09,318,29,1*64
$GPGSV,2,1,05,06,60,108,30,24,46,226,27,11,41,168,28,25,17,297,23,8*6A
$GPGSV,2,2,05,32,09,318,15,8*5E
$GLGSV,1,1,04,85,75,056,24,75,62,134,29,86,43,204,21,67,09,325,20,1*7F
$GAGSV,3,1,11,30,69,301,36,02,54,108,33,36,51,073,33,34,46,161,33,7*76
$GAGSV,3,2,11,27,17,294,23,11,13,035,20,29,13,309,24,07,11,258,23,7*75
$GAGSV,3,3,11,15,04,194,19,25,03,112,17,19,02,350,,7*4B
$GAGSV,2,1,06,30,69,301,25,02,54,108,28,36,51,073,26,34,46,161,27,1*7E
$GAGSV,2,2,06,27,17,294,19,29,13,309,17,1*72
$GBGSV,3,1,10,44,80,156,35,24,72,203,34,12,58,209,30,35,41,057,32,1*7A
$GBGSV,3,2,10,25,37,305,28,34,30,222,29,26,28,150,28,39,10,330,23,1*7E
$GBGSV,3,3,10,11,06,222,21,16,01,334,,1*72
$GBGSV,2,1,07,44,80,156,27,24,72,203,29,35,41,057,24,25,37,305,23,5*73
$GBGSV,2,2,07,34,30,222,23,26,28,150,20,39,10,330,15,5*45
$GNGLL,4910.422984,N,12304.395234,W,003946.000,A,D*5B
$GNRMC,003947.000,A,4910.423020,N,12304.395276,W,0.13,95.92,080125,,,D,V*2C
$GNGGA,003947.000,4910.423020,N,12304.395276,W,2,47,0.57,12.214,M,-16.816,M,,*79
$GNVTG,95.92,T,,M,0.13,N,0.24,K,D*15
$GNGSA,A,3,06,12,19,24,11,17,25,03,32,,,,1.01,0.57,0.83,1*00
$GNGSA,A,3,85,75,86,67,,,,,,,,,1.01,0.57,0.83,2*0B
$GNGSA,A,3,30,02,36,34,27,11,29,07,,,,,1.01,0.57,0.83,3*00
$GNGSA,A,3,44,24,12,35,25,34,26,39,,,,,1.01,0.57,0.83,4*00
$GPGSV,3,1,10,06,60,108,38,12,56,298,38,19,52,061,36,24,46,226,35,1*64
$GPGSV,3,2,10,11,41,168,36,44,33,171,32,17,22,064,27,25,17,297,29,1*6A
$GPGSV,3,3,10,03,10,032,29,32,09,318,29,1*64
$GPGSV,2,1,05,06,60,108,30,24,46,226,28,11,41,168,28,25,17,297,23,8*65
$GPGSV,2,2,05,32,09,318,15,8*5E
$GLGSV,1,1,04,85,75,056,24,75,62,134,29,86,43,204,21,67,09,325,19,1*75
$GAGSV,3,1,11,30,69,301,36,02,54,108,33,36,51,073,33,34,46,161,33,7*76
$GAGSV,3,2,11,27,17,294,24,11,13,035,20,29,13,309,24,07,11,258,23,7*72
$GAGSV,3,3,11,15,04,194,19,25,03,112,17,19,02,350,,7*4B
$GAGSV,2,1,06,30,69,301,25,02,54,108,28,36,51,073,27,34,46,161,27,1*7F
$GAGSV,2,2,06,27,17,294,19,29,13,309,17,1*72
$GBGSV,3,1,09,44,80,156,36,24,72,203,35,12,58,209,30,35,41,057,32,1*70
$GBGSV,3,2,09,25,37,305,28,34,30,222,29,26,28,150,28,39,10,330,23,1*76
$GBGSV,3,3,09,11,06,222,21,1*48
$GBGSV,2,1,07,44,80,156,28,24,72,203,29,35,41,057,24,25,37,305,23,5*7C
$GBGSV,2,2,07,34,30,222,23,26,28,150,20,39,10,330,15,5*45
$GNGLL,4910.423020,N,12304.395276,W,003947.000,A,D*5A
$GNRMC,003948.000,A,4910.423050,N,12304.395264,W,0.12,95.92,080125,,,D,V*26
$GNGGA,003948.000,4910.423050,N,12304.395264,W,2,47,0.57,12.137,M,-16.816,M,,*70
$GNVTG,95.92,T,,M,0.12,N,0.22,K,D*12
$GNGSA,A,3,06,12,19,24,11,17,25,03,32,,,,1.01,0.57,0.83,1*00
$GNGSA,A,3,85,75,86,67,,,,,,,,,1.01,0.57,0.83,2*0B
$GNGSA,A,3,30,02,36,34,27,11,29,07,,,,,1.01,0.57,0.83,3*00
$GNGSA,A,3,44,24,12,35,25,34,26,39,,,,,1.01,0.57,0.83,4*00
$GPGSV,3,1,10,06,60,108,38,12,56,298,39,19,52,061,36,24,46,226,35,1*65
$GPGSV,3,2,10,11,42,168,36,44,33,171,33,17,22,064,25,25,17,297,29,1*6A
$GPGSV,3,3,10,03,10,032,29,32,09,318,29,1*64
$GPGSV,2,1,05,06,60,108,30,24,46,226,28,11,42,168,28,25,17,297,24,8*61
$GPGSV,2,2,05,32,09,318,14,8*5F
$GLGSV,1,1,04,85,75,056,24,75,62,134,29,86,43,204,20,67,09,325,19,1*74
$GAGSV,3,1,11,30,69,301,36,02,54,108,33,36,51,073,34,34,46,161,34,7*76
$GAGSV,3,2,11,27,17,294,24,11,13,035,21,29,13,309,24,07,11,258,24,7*74
$GAGSV,3,3,11,15,04,194,20,25,03,112,17,19,02,350,,7*41
$GAGSV,2,1,06,30,69,301,25,02,54,108,28,36,51,073,27,34,46,161,27,1*7F
$GAGSV,2,2,06,27,17,294,19,29,13,309,18,1*7D
$GBGSV,3,1,09,44,80,156,36,24,72,203,35,12,58,209,31,35,41,057,32,1*71
$GBGSV,3,2,09,25,37,305,28,34,30,222,30,26,28,150,28,39,10,330,23,1*7E
$GBGSV,3,3,09,11,06,222,22,1*4B
$GBGSV,2,1,07,44,80,156,28,24,72,203,29,35,41,057,24,25,37,305,23,5*7C
$GBGSV,2,2,07,34,30,222,23,26,28,150,20,39,10,330,15,5*45
$GNGLL,4910.423050,N,12304.395264,W,003948.000,A,D*51
$GNRMC,003949.000,A,4910.423098,N,12304.395312,W,0.12,95.92,080125,,,D,V*23
$GNGGA,003949.000,4910.423098,N,12304.395312,W,2,46,0.57,12.118,M,-16.816,M,,*79
$GNVTG,95.92,T,,M,0.12,N,0.23,K,D*13
$GNGSA,A,3,06,12,19,24,11,17,25,03,32,,,,1.01,0.57,0.83,1*00
$GNGSA,A,3,85,75,86,67,,,,,,,,,1.01,0.57,0.83,2*0B
$GNGSA,A,3,30,02,36,34,27,11,29,07,,,,,1.01,0.57,0.83,3*00
$GNGSA,A,3,44,24,12,35,25,34,26,39,,,,,1.01,0.57,0.83,4*00
$GPGSV,3,1,10,06,60,108,38,12,57,298,38,19,52,061,35,24,46,226,34,1*67
$GPGSV,3,2,10,11,42,168,35,44,33,171,32,17,22,064,25,25,17,297,29,1*68
$GPGSV,3,3,10,03,10,032,29,32,09,318,28,1*65
$GPGSV,1,1,04,06,60,108,30,24,46,226,28,11,42,168,28,25,17,297,24,8*63
$GLGSV,1,1,04,85,75,056,24,75,62,134,29,86,43,204,20,67,09,325,19,1*74
$GAGSV,3,1,11,30,69,301,36,02,54,108,33,36,51,073,34,34,46,161,34,7*76
$GAGSV,3,2,11,27,17,294,24,11,13,035,21,29,13,309,24,07,11,258,24,7*74
$GAGSV,3,3,11,15,04,194,20,25,03,112,17,19,02,350,,7*41
$GAGSV,2,1,06,30,69,301,25,02,54,108,28,36,51,073,27,34,46,161,27,1*7F
$GAGSV,2,2,06,27,17,294,19,29,13,309,18,1*7D
$GBGSV,3,1,09,44,80,156,36,24,72,203,35,12,58,209,31,35,41,057,32,1*71
$GBGSV,3,2,09,25,37,305,28,34,30,222,30,26,28,150,28,39,10,330,23,1*7E
$GBGSV,3,3,09,11,06,222,22,1*4B
$GBGSV,2,1,07,44,80,156,28,24,72,203,30,35,41,057,24,25,37,305,23,5*74
$GBGSV,2,2,07,34,30,222,23,26,28,150,20,39,10,330,15,5*45
$GNGLL,4910.423098,N,12304.395312,W,003949.000,A,D*54
$GNRMC,003950.000,A,4910.423146,N,12304.395306,W,0.13,95.92,080125,,,D,V*2D
$GNGGA,003950.000,4910.423146,N,12304.395306,W,2,46,0.57,12.037,M,-16.817,M,,*7B
$GNVTG,95.92,T,,M,0.13,N,0.23,K,D*12
$GNGSA,A,3,06,12,19,24,11,17,25,03,32,,,,1.01,0.57,0.83,1*00
$GNGSA,A,3,85,75,86,67,,,,,,,,,1.01,0.57,0.83,2*0B
$GNGSA,A,3,30,02,36,34,27,11,29,07,,,,,1.01,0.57,0.83,3*00
$GNGSA,A,3,44,24,12,35,25,34,26,39,,,,,1.01,0.57,0.83,4*00
$GPGSV,3,1,10,06,60,108,38,12,57,298,38,19,52,061,35,24,46,226,34,1*67
$GPGSV,3,2,10,11,42,168,35,44,33,171,32,17,22,064,25,25,17,297,29,1*68
$GPGSV,3,3,10,03,10,032,29,32,09,318,28,1*65
$GPGSV,1,1,04,06,60,108,30,24,46,226,28,11,42,168,28,25,17,297,24,8*63
$GLGSV,1,1,04,85,75,056,24,75,62,134,29,86,43,204,20,67,09,325,19,1*74
$GAGSV,3,1,11,30,69,301,36,02,54,108,33,36,51,073,34,34,46,161,34,7*76
$GAGSV,3,2,11,27,17,294,24,11,13,035,21,29,13,309,24,07,11,258,24,7*74
$GAGSV,3,3,11,15,04,194,20,25,03,112,17,19,02,350,,7*41
$GAGSV,2,1,06,30,69,301,25,02,54,108,28,36,51,073,27,34,46,161,27,1*7F
$GAGSV,2,2,06,27,17,294,19,29,13,309,18,1*7D
$GBGSV,3,1,09,44,80,156,36,24,72,203,35,12,58,209,31,35,41,057,32,1*71
$GBGSV,3,2,09,25,37,305,28,34,30,222,30,26,28,150,28,39,10,330,23,1*7E
$GBGSV,3,3,09,11,06,222,22,1*4B
$GBGSV,2,1,07,44,80,156,28,24,72,203,30,35,41,057,24,25,37,305,23,5*74
$GBGSV,2,2,07,34,30,222,23,26,28,150,20,39,10,330,15,5*45
$GNGLL,4910.423146,N,12304.395306,W,003950.000,A,D*5B
$GNRMC,003951.000,A,4910.423176,N,12304.395306,W,0.12,95.92,080125,,,D,V*2E
$GNGGA,003951.000,4910.423176,N,12304.395306,W,2,46,0.57,11.947,M,-16.817,M,,*74
$GNVTG,95.92,T,,M,0.12,N,0.23,K,D*13
$GNGSA,A,3,06,12,19,24,11,17,25,03,32,,,,1.01,0.57,0.83,1*00
$GNGSA,A,3,85,75,86,67,,,,,,,,,1.01,0.57,0.83,2*0B
$GNGSA,A,3,30,02,36,34,27,11,29,07,,,,,1.01,0.57,0.83,3*00
$GNGSA,A,3,44,24,12,35,25,34,26,39,,,,,1.01,0.57,0.83,4*00
$GPGSV,3,1,10,06,60,108,38,12,57,298,38,19,52,061,35,24,46,226,34,1*67
$GPGSV,3,2,10,11,42,168,36,44,33,171,32,17,22,064,26,25,17,297,29,1*68
$GPGSV,3,3,10,03,10,032,29,32,09,318,28,1*65
$GPGSV,1,1,04,06,60,108,30,24,46,226,28,11,42,168,28,25,17,297,24,8*63
$GLGSV,2,1,05,85,75,056,24,75,62,134,29,86,43,204,20,84,21,035,,1*7B
$GLGSV,2,2,05,67,09,325,19,1*49
$GAGSV,3,1,10,30,69,301,36,02,54,108,33,36,51,073,34,34,46,161,34,7*77
$GAGSV,3,2,10,27,17,294,24,11,13,035,21,29,13,309,24,07,11,258,24,7*75
$GAGSV,3,3,10,15,04,194,20,25,03,112,17,7*7C
$GAGSV,2,1,06,30,69,301,25,02,54,108,28,36,51,073,27,34,46,161,27,1*7F
$GAGSV,2,2,06,27,17,294,19,29,13,309,18,1*7D
$GBGSV,3,1,09,44,80,156,36,24,72,203,35,12,58,209,31,35,41,057,32,1*71
$GBGSV,3,2,09,25,37,305,28,34,30,222,29,26,28,150,28,39,10,330,23,1*76
$GBGSV,3,3,09,11,06,222,22,1*4B
$GBGSV,2,1,07,44,80,156,28,24,72,203,30,35,41,057,24,25,37,305,23,5*74
$GBGSV,2,2,07,34,30,222,23,26,28,150,20,39,10,330,15,5*45
$GNGLL,4910.423176,N,12304.395306,W,003951.000,A,D*59
$GNRMC,003952.000,A,4910.423254,N,12304.395378,W,0.12,95.92,080125,,,D,V*27
$GNGGA,003952.000,4910.423254,N,12304.395378,W,2,46,0.57,12.116,M,-16.816,M,,*73
$GNVTG,95.92,T,,M,0.12,N,0.23,K,D*13
$GNGSA,A,3,06,12,19,24,11,17,25,03,32,,,,1.01,0.57,0.83,1*00
$GNGSA,A,3,85,75,86,67,,,,,,,,,1.01,0.57,0.83,2*0B
$GNGSA,A,3,30,02,36,34,27,11,29,07,,,,,1.01,0.57,0.83,3*00
$GNGSA,A,3,44,24,12,35,25,34,26,39,,,,,1.01,0.57,0.83,4*00
$GPGSV,3,1,10,06,60,108,38,12,57,298,38,19,52,061,35,24,46,226,34,1*67
$GPGSV,3,2,10,11,42,168,36,44,33,171,32,17,22,064,25,25,17,297,29,1*6B
$GPGSV,3,3,10,03,10,032,29,32,09,318,29,1*64
$GPGSV,1,1,04,06,60,108,31,24,46,226,28,11,42,168,28,25,17,297,24,8*62
$GLGSV,1,1,04,85,75,056,24,75,62,134,30,86,43,204,20,67,09,325,19,1*7C
$GAGSV,3,1,11,30,69,301,36,02,54,108,33,36,51,073,34,34,46,161,34,7*76
$GAGSV,3,2,11,27,17,294,24,11,13,035,21,29,13,309,24,07,11,258,25,7*75
$GAGSV,3,3,11,15,04,194,20,25,03,112,17,19,02,350,,7*41
$GAGSV,2,1,06,30,69,301,25,02,54,108,28,36,51,073,27,34,46,161,27,1*7F
$GAGSV,2,2,06,27,17,294,19,29,13,309,18,1*7D
$GBGSV,3,1,09,44,80,156,36,24,72,203,36,12,58,209,32,35,41,057,33,1*70
$GBGSV,3,2,09,25,37,305,28,34,30,222,30,26,28,150,29,39,10,330,24,1*78
$GBGSV,3,3,09,11,06,222,23,1*4A
$GBGSV,2,1,07,44,80,156,28,24,72,203,30,35,41,057,24,25,37,305,23,5*74
$GBGSV,2,2,07,34,30,222,23,26,28,150,21,39,10,330,15,5*44
$GNGLL,4910.423254,N,12304.395378,W,003952.000,A,D*50
$GNRMC,003953.000,A,4910.423320,N,12304.395420,W,0.13,95.92,080125,,,D,V*2F
$GNGGA,003953.000,4910.423320,N,12304.395420,W,2,46,0.57,12.107,M,-16.816,M,,*7A
$GNVTG,95.92,T,,M,0.13,N,0.23,K,D*12
$GNGSA,A,3,06,12,19,24,11,17,25,03,32,,,,1.01,0.57,0.83,1*00
$GNGSA,A,3,85,75,86,67,,,,,,,,,1.01,0.57,0.83,2*0B
$GNGSA,A,3,30,02,36,34,27,11,29,07,,,,,1.01,0.57,0.83,3*00
$GNGSA,A,3,44,24,12,35,25,34,26,39,,,,,1.01,0.57,0.83,4*00
$GPGSV,3,1,10,06,60,108,37,12,57,298,38,19,52,061,35,24,46,226,34,1*68
$GPGSV,3,2,10,11,42,168,36,44,33,171,31,17,22,064,24,25,17,297,28,1*68
$GPGSV,3,3,10,03,10,032,29,32,09,318,29,1*64
$GPGSV,1,1,04,06,60,108,31,24,46,226,28,11,42,168,28,25,17,297,24,8*62
$GLGSV,1,1,04,85,75,056,25,75,62,134,30,86,43,204,21,67,09,325,19,1*7C
$GAGSV,3,1,11,30,69,301,36,02,54,108,32,36,51,073,34,34,46,161,33,7*70
$GAGSV,3,2,11,27,17,294,24,11,13,035,21,29,13,309,24,07,11,258,25,7*75
$GAGSV,3,3,11,15,04,194,20,25,03,112,17,19,02,350,,7*41
$GAGSV,2,1,06,30,69,301,25,02,54,108,28,36,51,073,27,34,46,161,27,1*7F
$GAGSV,2,2,06,27,17,294,19,29,13,309,18,1*7D
$GBGSV,3,1,09,44,80,156,36,24,72,203,36,12,58,209,32,35,41,057,33,1*70
$GBGSV,3,2,09,25,37,305,28,34,30,222,30,26,28,150,29,39,10,330,24,1*78
$GBGSV,3,3,09,11,06,222,23,1*4A
$GBGSV,2,1,07,44,80,156,28,24,72,203,30,35,41,057,24,25,37,305,23,5*74
$GBGSV,2,2,07,34,30,222,23,26,28,150,21,39,10,330,15,5*44
$GNGLL,4910.423320,N,12304.395420,W,003953.000,A,D*59
$GNRMC,003954.000,A,4910.423362,N,12304.395480,W,0.13,95.92,080125,,,D,V*24
$GNGGA,003954.000,4910.423362,N,12304.395480,W,2,46,0.57,12.237,M,-16.816,M,,*71
$GNVTG,95.92,T,,M,0.13,N,0.24,K,D*15
$GNGSA,A,3,06,12,19,24,11,17,25,03,32,,,,1.01,0.57,0.83,1*00
$GNGSA,A,3,85,75,86,67,,,,,,,,,1.01,0.57,0.83,2*0B
$GNGSA,A,3,30,02,36,34,27,11,29,07,,,,,1.01,0.57,0.83,3*00
$GNGSA,A,3,44,24,12,35,25,34,26,39,,,,,1.01,0.57,0.83,4*00
$GPGSV,3,1,10,06,60,108,37,12,57,298,38,19,52,061,35,24,46,226,34,1*68
$GPGSV,3,2,10,11,42,168,36,44,33,171,31,17,21,065,24,25,17,297,28,1*6A
$GPGSV,3,3,10,03,10,032,29,32,09,318,29,1*64
$GPGSV,1,1,04,06,60,108,31,24,46,226,29,11,42,168,28,25,17,297,24,8*63
$GLGSV,1,1,04,85,75,056,25,75,62,134,30,86,43,204,21,67,09,325,20,1*76
$GAGSV,3,1,11,30,69,301,36,02,54,108,32,36,51,073,34,34,46,161,33,7*70
$GAGSV,3,2,11,27,17,294,23,11,13,035,21,29,13,309,24,07,11,258,25,7*72
$GAGSV,3,3,11,15,04,194,20,25,03,112,17,19,02,350,,7*41
$GAGSV,2,1,06,30,69,301,25,02,54,108,29,36,51,073,27,34,46,161,27,1*7E
$GAGSV,2,2,06,27,17,294,19,29,13,309,18,1*7D
$GBGSV,3,1,10,44,80,156,36,24,72,203,36,12,58,209,32,35,41,057,33,1*78
$GBGSV,3,2,10,25,37,305,29,34,30,222,30,26,28,150,29,39,10,330,24,1*71
$GBGSV,3,3,10,11,06,222,23,20,02,028,,1*78
$GBGSV,2,1,07,44,80,156,28,24,72,203,30,35,41,057,24,25,37,305,23,5*74
$GBGSV,2,2,07,34,30,222,23,26,28,150,21,39,10,330,16,5*47
$GNGLL,4910.423362,N,12304.395480,W,003954.000,A,D*52
$GNRMC,003955.000,A,4910.423416,N,12304.395624,W,0.13,95.92,080125,,,D,V*2D
$GNGGA,003955.000,4910.423416,N,12304.395624,W,2,45,0.58,12.187,M,-16.817,M,,*7D
$GNVTG,95.92,T,,M,0.13,N,0.25,K,D*14
$GNGSA,A,3,06,12,19,24,11,17,25,03,32,,,,1.01,0.58,0.83,1*0F
$GNGSA,A,3,85,75,67,,,,,,,,,,1.01,0.58,0.83,2*0A
$GNGSA,A,3,30,02,36,34,27,11,29,07,,,,,1.01,0.58,0.83,3*0F
$GNGSA,A,3,44,24,12,35,25,34,26,39,,,,,1.01,0.58,0.83,4*0F
$GPGSV,3,1,10,06,60,108,37,12,57,298,38,19,52,061,36,24,46,226,35,1*6A
$GPGSV,3,2,10,11,42,168,36,44,33,171,31,17,21,065,24,25,17,297,28,1*6A
$GPGSV,3,3,10,03,10,032,29,32,09,318,29,1*64
$GPGSV,1,1,04,06,60,108,31,24,46,226,29,11,42,168,28,25,17,297,24,8*63
$GLGSV,1,1,04,85,75,056,25,75,62,134,30,86,43,204,,67,09,325,20,1*75
$GAGSV,3,1,11,30,69,301,36,02,54,108,33,36,51,073,34,34,46,161,33,7*71
$GAGSV,3,2,11,27,17,294,24,11,13,035,21,29,13,309,24,07,11,258,25,7*75
$GAGSV,3,3,11,15,04,194,20,25,03,112,17,19,02,350,,7*41
$GAGSV,2,1,06,30,69,301,25,02,54,108,29,36,51,073,27,34,46,161,27,1*7E
$GAGSV,2,2,06,27,17,294,20,29,13,309,18,1*77
$GBGSV,3,1,11,44,80,156,35,24,72,203,35,12,58,209,31,35,41,057,32,1*7B
$GBGSV,3,2,11,25,37,305,28,34,30,222,30,26,28,150,29,39,10,330,24,1*71
$GBGSV,3,3,11,11,06,222,22,20,02,028,,16,01,334,,1*4A
$GBGSV,2,1,07,44,80,156,28,24,72,203,30,35,41,057,24,25,37,305,23,5*74
$GBGSV,2,2,07,34,30,222,23,26,28,150,21,39,10,330,16,5*47
$GNGLL,4910.423416,N,12304.395624,W,003955.000,A,D*5B
$GNRMC,003956.000,A,4910.423548,N,12304.395768,W,0.15,95.92,080125,,,D,V*2B
$GNGGA,003956.000,4910.423548,N,12304.395768,W,2,45,0.58,12.127,M,-16.817,M,,*77
$GNVTG,95.92,T,,M,0.15,N,0.28,K,D*1F
$GNGSA,A,3,06,12,19,24,11,17,25,03,32,,,,1.01,0.58,0.83,1*0F
$GNGSA,A,3,85,75,67,,,,,,,,,,1.01,0.58,0.83,2*0A
$GNGSA,A,3,30,02,36,34,27,11,29,07,,,,,1.01,0.58,0.83,3*0F
$GNGSA,A,3,44,24,12,35,25,34,26,39,,,,,1.01,0.58,0.83,4*0F
$GPGSV,3,1,10,06,60,108,37,12,57,298,37,19,51,062,35,24,46,226,34,1*67
$GPGSV,3,2,10,11,42,168,35,44,33,171,31,17,21,065,24,25,17,297,28,1*69
$GPGSV,3,3,10,03,10,032,29,32,09,318,29,1*64
$GPGSV,1,1,04,06,60,108,30,24,46,226,29,11,42,168,28,25,17,297,24,8*62
$GLGSV,1,1,04,85,75,056,25,75,62,134,30,86,43,204,,67,09,325,20,1*75
$GAGSV,3,1,11,30,69,301,35,02,54,108,32,36,51,073,33,34,46,161,32,7*75
$GAGSV,3,2,11,27,17,294,24,11,13,035,20,29,13,309,24,07,11,258,25,7*74
$GAGSV,3,3,11,15,04,194,19,25,03,112,17,19,02,350,,7*4B
$GAGSV,2,1,06,30,69,301,25,02,54,108,28,36,51,073,27,34,46,161,27,1*7F
$GAGSV,2,2,06,27,17,294,20,29,13,309,18,1*77
$GBGSV,3,1,11,44,80,156,35,24,72,203,35,12,58,209,31,35,41,057,32,1*7B
$GBGSV,3,2,11,25,37,305,28,34,30,222,30,26,28,150,29,39,10,330,24,1*71
$GBGSV,3,3,11,11,06,222,22,20,02,028,,16,01,334,,1*4A
$GBGSV,2,1,07,44,80,156,28,24,72,203,29,35,41,057,24,25,37,305,23,5*7C
$GBGSV,2,2,07,34,30,222,22,26,28,150,21,39,10,330,16,5*46
$GNGLL,4910.423548,N,12304.395768,W,003956.000,A,D*5B
$GNRMC,003957.000,A,4910.423530,N,12304.395936,W,0.16,95.92,080125,,,D,V*23
$GNGGA,003957.000,4910.423530,N,12304.395936,W,2,45,0.58,12.396,M,-16.816,M,,*75
$GNVTG,95.92,T,,M,0.16,N,0.29,K,D*1D
$GNGSA,A,3,06,12,19,24,11,17,25,03,32,,,,1.01,0.58,0.83,1*0F
$GNGSA,A,3,85,75,67,,,,,,,,,,1.01,0.58,0.83,2*0A
$GNGSA,A,3,30,02,36,34,27,11,29,07,,,,,1.01,0.58,0.83,3*0F
$GNGSA,A,3,44,24,12,35,25,34,26,39,,,,,1.01,0.58,0.83,4*0F
$GPGSV,3,1,10,06,60,108,37,12,57,298,38,19,51,062,36,24,46,226,34,1*6B
$GPGSV,3,2,10,11,42,168,35,44,33,171,31,17,21,065,24,25,17,297,28,1*69
$GPGSV,3,3,10,03,10,032,29,32,09,318,29,1*64
$GPGSV,1,1,04,06,60,108,29,24,46,226,28,11,42,168,27,25,17,297,23,8*63
$GLGSV,2,1,05,85,75,056,25,75,62,134,30,86,43,204,,84,21,035,,1*70
$GLGSV,2,2,05,67,09,325,20,1*43
$GAGSV,3,1,10,30,69,301,35,02,54,108,32,36,51,073,33,34,46,161,32,7*74
$GAGSV,3,2,10,27,17,294,24,11,13,035,20,29,13,309,24,07,11,258,25,7*75
$GAGSV,3,3,10,15,04,194,19,25,03,112,17,7*76
$GAGSV,2,1,06,30,69,301,25,02,54,108,27,36,51,073,26,34,46,161,26,1*70
$GAGSV,2,2,06,27,17,294,19,29,13,309,18,1*7D
$GBGSV,3,1,10,44,80,156,36,24,72,203,36,12,58,209,32,35,41,057,33,1*78
$GBGSV,3,2,10,25,37,305,29,34,30,222,31,26,28,150,30,39,10,330,25,1*79
$GBGSV,3,3,10,11,06,222,23,20,02,028,,1*78
$GBGSV,2,1,07,44,80,156,27,24,72,203,28,35,41,057,23,25,37,305,23,5*75
$GBGSV,2,2,07,34,30,222,22,26,28,150,20,39,10,330,15,5*44
$GNGLL,4910.423530,N,12304.395936,W,003957.000,A,D*50
$GNRMC,003958.000,A,4910.423590,N,12304.396008,W,0.16,95.92,080125,,,D,V*21
$GNGGA,003958.000,4910.423590,N,12304.396008,W,2,45,0.58,12.450,M,-16.816,M,,*7A
$GNVTG,95.92,T,,M,0.16,N,0.30,K,D*15
$GNGSA,A,3,06,12,19,24,11,17,25,03,32,,,,1.01,0.58,0.83,1*0F
$GNGSA,A,3,85,75,67,,,,,,,,,,1.01,0.58,0.83,2*0A
$GNGSA,A,3,30,02,36,34,27,11,29,07,,,,,1.01,0.58,0.83,3*0F
$GNGSA,A,3,44,24,12,35,25,34,26,39,,,,,1.01,0.58,0.83,4*0F
$GPGSV,3,1,10,06,60,108,37,12,57,298,38,19,51,062,36,24,46,226,34,1*6B
$GPGSV,3,2,10,11,42,168,35,44,33,171,31,17,21,065,25,25,17,297,28,1*68
$GPGSV,3,3,10,03,10,032,29,32,09,318,29,1*64
$GPGSV,1,1,04,06,60,108,29,24,46,226,28,11,42,168,27,25,17,297,24,8*64
$GLGSV,2,1,05,85,75,056,25,75,62,134,30,86,43,204,,84,21,035,,1*70
$GLGSV,2,2,05,67,09,325,20,1*43
$GAGSV,3,1,11,30,69,301,35,02,54,108,32,36,51,073,33,34,46,161,32,7*75
$GAGSV,3,2,11,27,17,294,24,11,13,035,20,29,13,309,24,07,11,258,25,7*74
$GAGSV,3,3,11,15,04,194,19,25,03,112,15,19,02,350,,7*49
$GAGSV,2,1,06,30,69,301,25,02,54,108,27,36,51,073,26,34,46,161,26,1*70
$GAGSV,2,2,06,27,17,294,19,29,13,309,18,1*7D
$GBGSV,3,1,10,44,80,156,36,24,72,203,36,12,58,209,31,35,41,057,33,1*7B
$GBGSV,3,2,10,25,37,305,29,34,30,222,31,26,28,150,30,39,10,330,25,1*79
$GBGSV,3,3,10,11,06,222,23,20,02,028,,1*78
$GBGSV,2,1,07,44,80,156,27,24,72,203,28,35,41,057,23,25,37,305,23,5*75
$GBGSV,2,2,07,34,30,222,22,26,28,150,20,39,10,330,15,5*44
$GNGLL,4910.423590,N,12304.396008,W,003958.000,A,D*52
$GNRMC,003959.000,A,4910.423692,N,12304.396044,W,0.16,95.92,080125,,,D,V*29
$GNGGA,003959.000,4910.423692,N,12304.396044,W,2,45,0.58,12.364,M,-16.817,M,,*73
$GNVTG,95.92,T,,M,0.16,N,0.30,K,D*15
$GNGSA,A,3,06,12,19,24,11,17,25,03,32,,,,1.01,0.58,0.83,1*0F
$GNGSA,A,3,85,75,67,,,,,,,,,,1.01,0.58,0.83,2*0A
$GNGSA,A,3,30,02,36,34,27,11,29,07,,,,,1.01,0.58,0.83,3*0F
$GNGSA,A,3,44,24,12,35,25,34,26,39,,,,,1.01,0.58,0.83,4*0F
$GPGSV,3,1,10,06,60,108,37,12,57,298,38,19,51,062,36,24,46,226,34,1*6B
$GPGSV,3,2,10,11,42,168,35,44,33,171,31,17,21,065,25,25,17,297,28,1*68
$GPGSV,3,3,10,03,10,032,29,32,09,318,29,1*64
$GPGSV,1,1,04,06,60,108,30,24,46,226,28,11,42,168,27,25,17,297,24,8*6C
$GLGSV,2,1,05,85,75,056,25,75,62,134,30,86,43,204,,84,21,035,,1*70
$GLGSV,2,2,05,67,09,325,20,1*43
$GAGSV,3,1,11,30,69,301,35,02,54,108,32,36,51,073,33,34,46,161,33,7*74
$GAGSV,3,2,11,27,17,294,24,11,13,035,20,29,13,309,24,07,11,258,25,7*74
$GAGSV,3,3,11,15,04,194,19,25,03,112,15,19,02,350,,7*49
$GAGSV,2,1,06,30,69,301,24,02,54,108,27,36,51,073,26,34,46,161,26,1*71
$GAGSV,2,2,06,27,17,294,19,29,13,309,18,1*7D
$GBGSV,3,1,10,44,80,156,36,24,72,203,36,12,58,209,31,35,41,057,33,1*7B
$GBGSV,3,2,10,25,37,305,29,34,30,222,31,26,28,150,30,39,10,330,25,1*79
$GBGSV,3,3,10,11,06,222,23,20,02,028,,1*78
$GBGSV,2,1,07,44,80,156,27,24,72,203,29,35,41,057,23,25,37,305,23,5*74
$GBGSV,2,2,07,34,30,222,22,26,28,150,20,39,10,330,15,5*44
$GNGLL,4910.423692,N,12304.396044,W,003959.000,A,D*5A
$GNRMC,004000.000,A,4910.423830,N,12304.396218,W,0.17,95.92,080125,,,D,V*27
$GNGGA,004000.000,4910.423830,N,12304.396218,W,2,45,0.58,12.310,M,-16.817,M,,*7F
$GNVTG,95.92,T,,M,0.17,N,0.31,K,D*15
$GNGSA,A,3,06,12,19,24,11,17,25,03,32,,,,1.01,0.58,0.83,1*0F
$GNGSA,A,3,85,75,67,,,,,,,,,,1.01,0.58,0.83,2*0A
$GNGSA,A,3,30,02,36,34,27,11,29,07,,,,,1.01,0.58,0.83,3*0F
$GNGSA,A,3,44,24,12,35,25,34,26,39,,,,,1.01,0.58,0.83,4*0F
$GPGSV,3,1,10,06,60,108,37,12,57,298,38,19,51,062,36,24,46,226,35,1*6A
$GPGSV,3,2,10,11,42,168,36,44,33,171,32,17,21,065,25,25,17,297,28,1*68
$GPGSV,3,3,10,03,10,032,29,32,09,318,29,1*64
$GPGSV,1,1,04,06,60,108,30,24,46,226,28,11,42,168,27,25,17,297,24,8*6C
$GLGSV,2,1,05,85,75,056,25,75,62,134,30,86,43,204,,84,21,035,,1*70
$GLGSV,2,2,05,67,09,325,20,1*43
$GAGSV,3,1,11,30,69,301,36,02,54,108,32,36,51,073,33,34,46,161,33,7*77
$GAGSV,3,2,11,27,17,294,24,11,13,035,20,29,13,309,25,07,11,258,25,7*75
$GAGSV,3,3,11,15,04,194,19,25,03,112,15,19,02,350,,7*49
$GAGSV,2,1,06,30,69,301,24,02,54,108,27,36,51,073,26,34,46,161,27,1*70
$GAGSV,2,2,06,27,17,294,19,29,13,309,18,1*7D
$GBGSV,3,1,10,44,80,156,36,24,72,203,36,12,58,209,31,35,41,057,33,1*7B
$GBGSV,3,2,10,25,37,305,29,34,30,222,31,26,28,150,30,39,10,330,25,1*79
$GBGSV,3,3,10,11,06,222,23,20,02,028,,1*78
$GBGSV,2,1,07,44,80,156,27,24,72,203,29,35,41,057,23,25,37,305,23,5*74
$GBGSV,2,2,07,34,30,222,22,26,28,150,20,39,10,330,15,5*44
$GNGLL,4910.423830,N,12304.396218,W,004000.000,A,D*55
$GNRMC,004001.000,A,4910.423980,N,12304.396362,W,0.17,95.92,080125,,,D,V*20
$GNGGA,004001.000,4910.423980,N,12304.396362,W,2,46,0.57,12.315,M,-16.816,M,,*70
$GNVTG,95.92,T,,M,0.17,N,0.32,K,D*16
$GNGSA,A,3,06,12,19,24,11,17,25,03,32,,,,1.01,0.57,0.83,1*00
$GNGSA,A,3,85,75,86,67,,,,,,,,,1.01,0.57,0.83,2*0B
$GNGSA,A,3,30,02,36,34,27,11,29,07,,,,,1.01,0.57,0.83,3*00
$GNGSA,A,3,44,24,12,35,25,34,26,39,,,,,1.01,0.57,0.83,4*00
$GPGSV,3,1,10,06,60,108,37,12,57,298,38,19,51,062,36,24,45,224,35,1*6B
$GPGSV,3,2,10,11,42,168,36,44,33,171,32,17,21,065,25,25,17,297,29,1*69
$GPGSV,3,3,10,03,10,032,29,32,09,318,29,1*64
$GPGSV,1,1,04,06,60,108,30,24,45,224,28,11,42,168,27,25,17,297,24,8*6D
$GLGSV,1,1,04,85,75,056,25,75,62,134,30,86,43,204,22,67,09,325,20,1*75
$GAGSV,3,1,11,30,69,301,36,02,54,108,32,36,51,073,33,34,46,161,33,7*77
$GAGSV,3,2,11,27,17,294,24,11,13,035,20,29,13,309,26,07,11,258,25,7*76
$GAGSV,3,3,11,15,04,194,19,25,03,112,15,19,02,350,,7*49
$GAGSV,2,1,06,30,69,301,24,02,54,108,27,36,51,073,26,34,46,161,27,1*70
$GAGSV,2,2,06,27,17,294,19,29,13,309,18,1*7D
$GBGSV,3,1,10,44,80,156,36,24,72,203,36,12,58,209,31,35,41,057,33,1*7B
$GBGSV,3,2,10,25,37,305,29,34,30,222,31,26,28,150,30,39,10,330,25,1*79
$GBGSV,3,3,10,11,06,222,23,20,02,028,,1*78
$GBGSV,2,1,07,44,80,156,26,24,72,203,29,35,41,057,23,25,37,305,23,5*75
$GBGSV,2,2,07,34,30,222,22,26,28,150,20,39,10,330,15,5*44
$GNGLL,4910.423980,N,12304.396362,W,004001.000,A,D*52
$GNRMC,004002.000,A,4910.424118,N,12304.396416,W,0.18,95.92,080125,,,D,V*26
$GNGGA,004002.000,4910.424118,N,12304.396416,W,2,46,0.57,12.311,M,-16.816,M,,*7D
$GNVTG,95.92,T,,M,0.18,N,0.33,K,D*18
$GNGSA,A,3,06,12,19,24,11,17,25,03,32,,,,1.01,0.57,0.83,1*00
$GNGSA,A,3,85,75,86,67,,,,,,,,,1.01,0.57,0.83,2*0B
$GNGSA,A,3,30,02,36,34,27,11,29,07,,,,,1.01,0.57,0.83,3*00
$GNGSA,A,3,44,24,12,35,25,34,26,39,,,,,1.01,0.57,0.83,4*00
$GPGSV,3,1,10,06,60,108,38,12,57,298,38,19,51,062,37,24,45,224,35,1*65
$GPGSV,3,2,10,11,42,168,36,44,33,171,32,17,21,065,25,25,18,298,29,1*69
$GPGSV,3,3,10,03,10,032,29,32,09,318,29,1*64
$GPGSV,1,1,04,06,60,108,30,24,45,224,28,11,42,168,27,25,18,298,24,8*6D
$GLGSV,2,1,05,85,75,056,25,75,62,134,30,86,43,204,20,84,21,035,,1*72
$GLGSV,2,2,05,67,09,325,20,1*43
$GAGSV,3,1,11,30,69,301,36,02,54,108,33,36,51,073,34,34,46,161,34,7*76
$GAGSV,3,2,11,27,17,294,24,11,13,035,21,29,13,309,26,07,11,258,25,7*77
$GAGSV,3,3,11,15,04,194,20,25,03,112,14,19,02,350,,7*42
$GAGSV,2,1,06,30,69,301,24,02,54,108,27,36,51,073,26,34,46,161,27,1*70
$GAGSV,2,2,06,27,17,294,19,29,13,309,18,1*7D
$GBGSV,3,1,10,44,80,156,36,24,72,203,36,12,58,209,31,35,41,057,33,1*7B
$GBGSV,3,2,10,25,37,305,29,34,30,222,31,26,28,150,30,39,10,330,25,1*79
$GBGSV,3,3,10,11,06,222,23,20,02,028,,1*78
$GBGSV,2,1,07,44,80,156,26,24,72,203,29,35,41,057,23,25,37,305,23,5*75
$GBGSV,2,2,07,34,30,222,22,26,28,150,20,39,10,330,15,5*44
$GNGLL,4910.424118,N,12304.396416,W,004002.000,A,D*5B
$GNRMC,004003.000,A,4910.424238,N,12304.396440,W,0.18,95.92,080125,,,D,V*25
$GNGGA,004003.000,4910.424238,N,12304.396440,W,2,46,0.57,12.348,M,-16.816,M,,*72
$GNVTG,95.92,T,,M,0.18,N,0.33,K,D*18
$GNGSA,A,3,06,12,19,24,11,17,25,03,32,,,,1.01,0.57,0.83,1*00
$GNGSA,A,3,85,75,86,67,,,,,,,,,1.01,0.57,0.83,2*0B
$GNGSA,A,3,30,02,36,34,27,11,29,07,,,,,1.01,0.57,0.83,3*00
$GNGSA,A,3,44,24,12,35,25,34,26,39,,,,,1.01,0.57,0.83,4*00
$GPGSV,3,1,10,06,60,108,38,12,57,298,39,19,51,062,37,24,45,224,35,1*64
$GPGSV,3,2,10,11,42,168,36,44,33,171,32,17,21,065,26,25,18,298,29,1*6A
$GPGSV,3,3,10,03,10,032,29,32,09,318,29,1*64
$GPGSV,1,1,04,06,60,108,30,24,45,224,28,11,42,168,27,25,18,298,23,8*6A
$GLGSV,2,1,05,85,75,056,24,75,62,134,30,86,43,204,23,84,21,035,,1*70
$GLGSV,2,2,05,67,09,325,20,1*43
$GAGSV,3,1,11,30,69,301,36,02,54,108,33,36,51,073,34,34,46,161,34,7*76
$GAGSV,3,2,11,27,17,294,25,11,13,035,21,29,13,309,26,07,11,258,25,7*76
$GAGSV,3,3,11,15,04,194,20,25,03,112,14,19,02,350,,7*42
$GAGSV,2,1,06,30,69,301,24,02,54,108,27,36,51,073,26,34,46,161,27,1*70
$GAGSV,2,2,06,27,17,294,19,29,13,309,18,1*7D
$GBGSV,3,1,10,44,80,156,35,24,72,203,36,12,58,209,31,35,41,057,33,1*78
$GBGSV,3,2,10,25,37,305,29,34,30,222,31,26,28,150,30,39,10,330,24,1*78
$GBGSV,3,3,10,11,06,222,23,20,02,028,,1*78
$GBGSV,2,1,07,44,80,156,26,24,72,203,29,35,41,057,23,25,37,305,23,5*75
$GBGSV,2,2,07,34,30,222,22,26,28,150,20,39,10,330,15,5*44
$GNGLL,4910.424238,N,12304.396440,W,004003.000,A,D*58
$GNRMC,004004.000,A,4910.424358,N,12304.396578,W,0.18,95.92,080125,,,D,V*2F
$GNGGA,004004.000,4910.424358,N,12304.396578,W,2,46,0.57,12.559,M,-16.817,M,,*7F
$GNVTG,95.92,T,,M,0.18,N,0.33,K,D*18
$GNGSA,A,3,06,12,19,24,11,17,25,03,32,,,,1.01,0.57,0.83,1*00
$GNGSA,A,3,85,75,86,67,,,,,,,,,1.01,0.57,0.83,2*0B
$GNGSA,A,3,30,02,36,34,27,11,29,07,,,,,1.01,0.57,0.83,3*00
$GNGSA,A,3,44,24,12,35,25,34,26,39,,,,,1.01,0.57,0.83,4*00
$GPGSV,3,1,10,06,60,108,38,12,57,298,39,19,51,062,37,24,45,224,35,1*64
$GPGSV,3,2,10,11,42,168,37,44,33,171,32,17,21,065,26,25,18,298,29,1*6B
$GPGSV,3,3,10,03,10,032,29,32,09,318,29,1*64
$GPGSV,1,1,04,06,60,108,30,24,45,224,28,11,42,168,27,25,18,298,23,8*6A
$GLGSV,2,1,05,85,75,056,24,75,62,134,30,86,43,204,21,84,21,035,,1*72
$GLGSV,2,2,05,67,09,325,20,1*43
$GAGSV,3,1,11,30,69,301,36,02,54,108,33,36,51,073,34,34,46,161,34,7*76
$GAGSV,3,2,11,27,17,294,25,11,13,035,21,29,13,309,26,07,11,258,25,7*76
$GAGSV,3,3,11,15,04,194,20,25,03,112,14,19,02,350,,7*42
$GAGSV,2,1,06,30,69,301,24,02,54,108,27,36,51,073,26,34,46,161,26,1*71
$GAGSV,2,2,06,27,17,294,19,29,13,309,18,1*7D
$GBGSV,3,1,11,44,80,156,36,24,72,203,36,12,58,209,31,35,41,057,34,1*7D
$GBGSV,3,2,11,25,37,305,29,34,30,222,31,26,28,150,30,39,10,330,25,1*78
$GBGSV,3,3,11,11,06,222,23,20,02,028,,16,01,334,,1*4B
$GBGSV,2,1,07,44,80,156,26,24,72,203,29,35,41,057,23,25,37,305,23,5*75
$GBGSV,2,2,07,34,30,222,22,26,28,150,20,39,10,330,14,5*45
$GNGLL,4910.424358,N,12304.396578,W,004004.000,A,D*52
$GNRMC,004005.000,A,4910.424496,N,12304.396692,W,0.18,95.92,080125,,,D,V*2C
$GNGGA,004005.000,4910.424496,N,12304.396692,W,2,45,0.58,12.914,M,-16.817,M,,*75
$GNVTG,95.92,T,,M,0.18,N,0.33,K,D*18
$GNGSA,A,3,06,12,19,24,11,17,25,03,32,,,,1.01,0.58,0.83,1*0F
$GNGSA,A,3,85,75,67,,,,,,,,,,1.01,0.58,0.83,2*0A
$GNGSA,A,3,30,02,36,34,27,11,29,07,,,,,1.01,0.58,0.83,3*0F
$GNGSA,A,3,44,24,12,35,25,34,26,39,,,,,1.01,0.58,0.83,4*0F
$GPGSV,3,1,10,06,60,108,38,12,57,298,39,19,51,062,37,24,45,224,35,1*64
$GPGSV,3,2,10,11,42,168,37,44,33,171,32,17,21,065,26,25,18,298,29,1*6B
$GPGSV,3,3,10,03,10,032,29,32,09,318,29,1*64
$GPGSV,1,1,04,06,60,108,30,24,45,224,28,11,42,168,27,25,18,298,23,8*6A
$GLGSV,1,1,04,85,75,056,23,75,62,134,30,86,43,204,,67,09,325,19,1*79
$GAGSV,3,1,11,30,69,301,36,02,54,108,33,36,51,073,34,34,46,161,34,7*76
$GAGSV,3,2,11,27,17,294,25,11,13,035,21,29,13,309,26,07,11,258,26,7*75
$GAGSV,3,3,11,15,04,194,20,25,03,112,15,19,02,350,,7*43
$GAGSV,2,1,06,30,69,301,24,02,54,108,27,36,51,073,26,34,46,161,26,1*71
$GAGSV,2,2,06,27,17,294,20,29,13,309,18,1*77
$GBGSV,3,1,10,44,80,156,36,24,72,203,36,12,58,209,31,35,41,057,34,1*7C
$GBGSV,3,2,10,25,37,305,29,34,30,222,31,26,28,150,30,39,10,330,25,1*79
$GBGSV,3,3,10,11,06,222,23,20,02,028,,1*78
$GBGSV,2,1,07,44,80,156,26,24,72,203,29,35,41,057,23,25,37,305,23,5*75
$GBGSV,2,2,07,34,30,222,22,26,28,150,20,39,10,330,15,5*44
$GNGLL,4910.424496,N,12304.396692,W,004005.000,A,D*51
$GNRMC,004006.000,A,4910.424616,N,12304.396752,W,0.18,333.91,080125,,,D,V*14
$GNGGA,004006.000,4910.424616,N,12304.396752,W,2,45,0.58,12.992,M,-16.816,M,,*7E
$GNVTG,333.91,T,,M,0.18,N,0.33,K,D*24
$GNGSA,A,3,06,12,19,24,11,17,25,03,32,,,,1.01,0.58,0.83,1*0F
$GNGSA,A,3,85,75,67,,,,,,,,,,1.01,0.58,0.83,2*0A
$GNGSA,A,3,30,02,36,34,27,11,29,07,,,,,1.01,0.58,0.83,3*0F
$GNGSA,A,3,44,24,12,35,25,34,26,39,,,,,1.01,0.58,0.83,4*0F
$GPGSV,3,1,10,06,60,108,38,12,57,298,39,19,51,062,37,24,45,224,35,1*64
$GPGSV,3,2,10,11,42,168,37,44,33,171,32,17,21,065,26,25,18,298,29,1*6B
$GPGSV,3,3,10,03,10,032,29,32,09,318,29,1*64
$GPGSV,1,1,04,06,60,108,30,24,45,224,28,11,42,168,27,25,18,298,23,8*6A
$GLGSV,1,1,04,85,75,056,23,75,62,134,30,86,43,204,,67,09,325,19,1*79
$GAGSV,3,1,11,30,69,301,36,02,54,108,33,36,51,073,34,34,46,161,34,7*76
$GAGSV,3,2,11,27,17,294,25,11,13,035,21,29,13,309,26,07,11,258,26,7*75
$GAGSV,3,3,11,15,04,194,20,25,03,112,17,19,02,350,,7*41
$GAGSV,2,1,06,30,69,301,24,02,54,108,27,36,51,073,26,34,46,161,26,1*71
$GAGSV,2,2,06,27,17,294,20,29,13,309,18,1*77
$GBGSV,3,1,11,44,80,156,36,24,72,203,36,12,58,209,31,35,41,057,34,1*7D
$GBGSV,3,2,11,25,37,305,29,34,30,222,30,26,28,150,30,39,10,330,25,1*79
$GBGSV,3,3,11,11,06,222,23,20,02,028,,16,01,334,,1*4B
$GBGSV,2,1,07,44,80,156,26,24,72,203,29,35,41,057,23,25,37,305,23,5*75
$GBGSV,2,2,07,34,30,222,22,26,28,150,20,39,10,330,15,5*44
$GNGLL,4910.424616,N,12304.396752,W,004006.000,A,D*55
$GNRMC,004007.000,A,4910.424700,N,12304.396800,W,0.18,335.64,080125,,,D,V*17
$GNGGA,004007.000,4910.424700,N,12304.396800,W,2,45,0.58,13.038,M,-16.816,M,,*79
$GNVTG,335.64,T,,M,0.18,N,0.34,K,D*2F
$GNGSA,A,3,06,12,19,24,11,17,25,03,32,,,,1.01,0.58,0.83,1*0F
$GNGSA,A,3,85,75,67,,,,,,,,,,1.01,0.58,0.83,2*0A
$GNGSA,A,3,30,02,36,34,27,11,29,07,,,,,1.01,0.58,0.83,3*0F
$GNGSA,A,3,44,24,12,35,25,34,26,39,,,,,1.01,0.58,0.83,4*0F
$GPGSV,3,1,10,06,60,108,36,12,57,298,38,19,51,062,36,24,45,224,34,1*6B
$GPGSV,3,2,10,11,42,168,36,44,33,171,31,17,21,065,25,25,18,298,27,1*64
$GPGSV,3,3,10,03,10,032,28,32,09,318,28,1*64
$GPGSV,1,1,04,06,60,108,30,24,45,224,28,11,42,168,27,25,18,298,23,8*6A
$GLGSV,1,1,04,85,75,056,23,75,62,134,30,86,43,204,,67,09,325,19,1*79
$GAGSV,3,1,11,30,69,301,34,02,54,108,32,36,51,073,33,34,46,161,33,7*75
$GAGSV,3,2,11,27,17,294,24,11,13,035,20,29,13,309,24,07,11,258,25,7*74
$GAGSV,3,3,11,15,04,194,19,25,03,112,17,19,02,350,,7*4B
$GAGSV,2,1,06,30,69,301,24,02,54,108,27,36,51,073,26,34,46,161,26,1*71
$GAGSV,2,2,06,27,17,294,20,29,13,309,18,1*77
$GBGSV,3,1,10,44,80,156,35,24,72,203,35,12,58,209,30,35,41,057,33,1*7A
$GBGSV,3,2,10,25,37,305,28,34,30,222,29,26,28,150,29,39,10,330,24,1*78
$GBGSV,3,3,10,11,06,222,22,16,01,334,,1*71
$GBGSV,2,1,07,44,80,156,26,24,72,203,29,35,41,057,23,25,37,305,23,5*75
$GBGSV,2,2,07,34,30,222,22,26,28,150,20,39,10,330,15,5*44
$GNGLL,4910.424700,N,12304.396800,W,004007.000,A,D*5A
$GNRMC,004008.000,A,4910.424718,N,12304.396896,W,0.18,335.64,080125,,,D,V*1E
$GNGGA,004008.000,4910.424718,N,12304.396896,W,2,46,0.57,13.110,M,-16.816,M,,*77
$GNVTG,335.64,T,,M,0.18,N,0.33,K,D*28
$GNGSA,A,3,06,12,19,24,11,17,25,03,32,,,,1.01,0.57,0.83,1*00
$GNGSA,A,3,85,75,86,67,,,,,,,,,1.01,0.57,0.83,2*0B
$GNGSA,A,3,30,02,36,34,27,11,29,07,,,,,1.01,0.57,0.83,3*00
$GNGSA,A,3,44,24,12,35,25,34,26,39,,,,,1.01,0.57,0.83,4*00
$GPGSV,3,1,10,06,60,108,36,12,57,298,38,19,51,062,36,24,45,224,34,1*6B
$GPGSV,3,2,10,11,42,168,36,44,33,171,31,17,21,065,25,25,18,298,26,1*65
$GPGSV,3,3,10,03,10,032,28,32,09,318,28,1*64
$GPGSV,1,1,04,06,60,108,30,24,45,224,28,11,42,168,27,25,18,298,23,8*6A
$GLGSV,1,1,04,85,75,056,23,75,62,134,30,86,43,204,17,67,09,325,19,1*7F
$GAGSV,3,1,11,30,69,301,34,02,54,108,32,36,51,073,33,34,46,161,33,7*75
$GAGSV,3,2,11,27,17,294,23,11,13,035,20,29,13,309,23,07,11,258,24,7*75
$GAGSV,3,3,11,15,04,194,19,25,03,112,16,19,02,350,,7*4A
$GAGSV,2,1,06,30,69,301,24,02,54,108,27,36,51,073,25,34,46,161,26,1*72
$GAGSV,2,2,06,27,17,294,20,29,13,309,18,1*77
$GBGSV,3,1,09,44,80,156,27,24,72,203,28,12,58,209,23,35,41,057,26,1*7B
$GBGSV,3,2,09,25,37,305,26,34,30,222,20,26,28,150,22,39,10,330,17,1*7C
$GBGSV,3,3,09,11,06,222,20,1*49
$GBGSV,2,1,07,44,80,156,26,24,72,203,28,35,41,057,23,25,37,305,23,5*74
$GBGSV,2,2,07,34,30,222,21,26,28,150,20,39,10,330,15,5*47
$GNGLL,4910.424718,N,12304.396896,W,004008.000,A,D*53
$GNRMC,004009.000,A,4910.424706,N,12304.396926,W,0.17,335.64,080125,,,D,V*15
$GNGGA,004009.000,4910.424706,N,12304.396926,W,2,46,0.57,12.915,M,-16.817,M,,*7E
$GNVTG,335.64,T,,M,0.17,N,0.32,K,D*26
$GNGSA,A,3,06,12,19,24,11,17,25,03,32,,,,1.01,0.57,0.83,1*00
$GNGSA,A,3,85,75,86,67,,,,,,,,,1.01,0.57,0.83,2*0B
$GNGSA,A,3,30,02,36,34,27,11,29,07,,,,,1.01,0.57,0.83,3*00
$GNGSA,A,3,44,24,12,35,25,34,26,39,,,,,1.01,0.57,0.83,4*00
$GPGSV,3,1,10,06,60,108,36,12,57,298,38,19,51,062,36,24,45,224,34,1*6B
$GPGSV,3,2,10,11,42,168,36,44,33,171,31,17,21,065,26,25,18,298,26,1*66
$GPGSV,3,3,10,03,10,032,27,32,09,317,28,1*64
$GPGSV,1,1,04,06,60,108,29,24,45,224,28,11,42,168,27,25,18,298,23,8*62
$GLGSV,2,1,05,85,75,056,23,75,62,134,29,86,43,204,19,84,21,035,,1*76
$GLGSV,2,2,05,67,09,325,19,1*49
$GAGSV,3,1,11,30,69,301,34,02,54,108,32,36,51,073,33,34,46,161,33,7*75
$GAGSV,3,2,11,27,17,294,23,11,13,035,20,29,13,309,23,07,11,258,24,7*75
$GAGSV,3,3,11,15,04,194,19,25,03,112,16,19,02,350,,7*4A
$GAGSV,2,1,06,30,69,301,23,02,54,108,26,36,51,073,25,34,46,161,26,1*74
$GAGSV,2,2,06,27,17,294,19,29,13,309,17,1*72
$GBGSV,3,1,10,44,80,156,28,24,72,203,29,12,58,209,24,35,41,057,26,1*7A
$GBGSV,3,2,10,25,37,305,25,34,30,222,21,26,28,150,23,39,10,330,17,1*77
$GBGSV,3,3,10,11,06,222,19,20,02,028,,1*71
$GBGSV,2,1,07,44,80,156,26,24,72,203,28,35,41,057,23,25,37,305,22,5*75
$GBGSV,2,2,07,34,30,222,21,26,28,150,20,39,10,330,15,5*47
$GNGLL,4910.424706,N,12304.396926,W,004009.000,A,D*57
$GNRMC,004010.000,A,4910.424718,N,12304.396920,W,0.16,335.64,080125,,,D,V*15
$GNGGA,004010.000,4910.424718,N,12304.396920,W,2,46,0.57,12.636,M,-16.816,M,,*70
$GNVTG,335.64,T,,M,0.16,N,0.30,K,D*25
$GNGSA,A,3,06,12,19,24,11,17,25,03,32,,,,1.01,0.57,0.83,1*00
$GNGSA,A,3,85,75,86,67,,,,,,,,,1.01,0.57,0.83,2*0B
$GNGSA,A,3,30,02,36,34,27,11,29,07,,,,,1.01,0.57,0.83,3*00
$GNGSA,A,3,44,24,12,35,25,34,26,39,,,,,1.01,0.57,0.83,4*00
$GPGSV,3,1,10,06,60,108,36,12,57,298,38,19,51,062,36,24,45,224,34,1*6B
$GPGSV,3,2,10,11,42,168,36,44,33,171,31,17,21,065,27,25,18,298,27,1*66
$GPGSV,3,3,10,03,10,032,27,32,09,317,28,1*64
$GPGSV,1,1,04,06,60,108,29,24,45,224,28,11,42,168,27,25,18,298,23,8*62
$GLGSV,2,1,05,85,75,056,23,75,62,134,29,86,43,204,18,84,21,035,,1*77
$GLGSV,2,2,05,67,09,325,19,1*49
$GAGSV,3,1,11,30,69,301,34,02,54,108,32,36,51,073,33,34,46,161,33,7*75
$GAGSV,3,2,11,27,17,294,23,11,13,035,20,29,13,309,24,07,11,258,24,7*72
$GAGSV,3,3,11,15,04,194,19,25,03,112,15,19,02,350,,7*49
$GAGSV,2,1,06,30,69,301,23,02,54,108,26,36,51,073,25,34,46,161,26,1*74
$GAGSV,2,2,06,27,17,294,19,29,13,309,17,1*72
$GBGSV,3,1,10,44,80,156,28,24,72,203,29,12,58,209,24,35,41,057,26,1*7A
$GBGSV,3,2,10,25,37,305,25,34,30,222,22,26,28,150,23,39,10,330,17,1*74
$GBGSV,3,3,10,11,06,222,18,20,02,028,,1*70
$GBGSV,2,1,07,44,80,156,26,24,72,203,28,35,41,057,22,25,37,305,22,5*74
$GBGSV,2,2,07,34,30,222,21,26,28,150,19,39,10,330,15,5*4D
$GNGLL,4910.424718,N,12304.396920,W,004010.000,A,D*56
$GNRMC,004011.000,A,4910.424694,N,12304.396902,W,0.15,335.64,080125,,,D,V*12
