$GNGGA,003548.000,4910.426332,N,12304.401486,W,2,33,0.45,0.744,M,-16.817,M,,*4E
$GNGLL,4910.426332,N,12304.401486,W,003548.000,A,D*5F
$GNGSA,A,3,22,17,14,19,13,24,15,02,30,21,,,0.84,0.45,0.71,1*03
$GNGSA,A,3,79,88,80,78,71,69,,,,,,,0.84,0.45,0.71,2*09
$GNGSA,A,3,21,04,06,09,31,26,19,15,,,,,0.84,0.45,0.71,3*0A
$GNGSA,A,3,26,35,24,29,45,44,33,14,42,,,,0.84,0.45,0.71,4*02
$GPGSV,4,1,14,22,76,052,28,17,74,121,31,14,54,077,29,19,53,192,31,1*64
$GPGSV,4,2,14,13,34,218,28,46,33,188,28,24,30,306,26,15,28,259,26,1*6A
$GPGSV,4,3,14,02,23,049,24,30,22,140,24,21,12,033,20,06,04,161,18,1*61
$GPGSV,4,4,14,10,02,343,,12,01,266,,1*66
$GLGSV,2,1,07,79,71,036,39,88,40,047,38,80,36,302,36,78,27,095,23,1*79
$GLGSV,2,2,07,70,27,296,,71,13,344,31,69,11,232,30,1*4A
$GAGSV,2,1,08,21,46,075,26,04,40,247,24,06,38,282,26,09,28,308,24,7*77
$GAGSV,2,2,08,31,24,268,23,26,19,135,22,19,12,191,17,15,12,027,19,7*77
$GBGSV,3,1,12,26,88,071,33,35,52,145,30,24,37,294,29,29,36,056,29,1*77
$GBGSV,3,2,12,45,30,111,25,44,18,188,20,33,15,292,24,14,13,266,16,1*73
$GBGSV,3,3,12,41,07,338,20,42,06,242,14,13,02,317,17,08,01,307,,1*72
$GNRMC,003548.000,A,4910.426332,N,12304.401486,W,0.03,156.72,041224,,,D,V*17
$GNVTG,156.72,T,,M,0.03,N,0.05,K,D*27
$PAIRLOG,Full*51
$GNGGA,003549.000,4910.426314,N,12304.401444,W,2,33,0.45,0.798,M,-16.816,M,,*45
$GNGLL,4910.426314,N,12304.401444,W,003549.000,A,D*54
$GNGSA,A,3,22,17,14,19,13,24,15,02,30,21,,,0.84,0.45,0.71,1*03
$GNGSA,A,3,79,88,80,78,71,69,,,,,,,0.84,0.45,0.71,2*09
$GNGSA,A,3,21,04,06,09,31,26,19,15,,,,,0.84,0.45,0.71,3*0A
$GNGSA,A,3,26,35,24,29,45,44,33,14,42,,,,0.84,0.45,0.71,4*02
$GPGSV,4,1,14,22,76,052,28,17,74,121,31,14,54,077,29,19,53,192,30,1*65
$GPGSV,4,2,14,13,34,218,28,46,33,188,28,24,30,306,25,15,28,259,26,1*69
$GPGSV,4,3,14,02,23,049,23,30,22,140,24,21,12,033,20,06,04,161,18,1*66
$GPGSV,4,4,14,10,02,343,,12,01,266,,1*66
$GLGSV,2,1,07,79,71,036,39,88,40,047,38,80,36,302,36,78,27,095,23,1*79
$GLGSV,2,2,07,70,27,296,,71,13,344,31,69,11,232,30,1*4A
$GAGSV,2,1,08,21,46,075,26,04,40,247,25,06,38,282,26,09,28,308,24,7*76
$GAGSV,2,2,08,31,24,268,23,26,19,135,22,19,12,191,17,15,12,027,19,7*77
$GBGSV,3,1,12,26,88,071,33,35,52,145,30,24,37,294,29,29,36,056,29,1*77
$GBGSV,3,2,12,45,30,111,25,44,18,188,20,33,15,292,24,14,13,266,16,1*73
$GBGSV,3,3,12,41,07,338,20,42,06,242,16,13,02,317,17,08,01,307,,1*70
$GNRMC,003549.000,A,4910.426314,N,12304.401444,W,0.03,156.72,041224,,,D,V*1C
$GNVTG,156.72,T,,M,0.03,N,0.06,K,D*24
$PAIRLOG,Full*51
$GNGGA,003550.000,4910.426410,N,12304.401414,W,2,33,0.45,0.912,M,-16.816,M,,*47
$GNGLL,4910.426410,N,12304.401414,W,003550.000,A,D*5A
$GNGSA,A,3,22,17,14,19,13,24,15,02,30,21,,,0.84,0.45,0.71,1*03
$GNGSA,A,3,79,88,80,78,71,69,,,,,,,0.84,0.45,0.71,2*09
$GNGSA,A,3,21,04,06,09,31,26,19,15,,,,,0.84,0.45,0.71,3*0A
$GNGSA,A,3,26,35,24,29,45,44,33,14,42,,,,0.84,0.45,0.71,4*02
$GPGSV,4,1,14,22,76,052,28,17,74,121,31,14,54,077,29,19,53,192,30,1*65
$GPGSV,4,2,14,13,34,218,28,46,33,188,28,24,30,306,25,15,28,259,26,1*69
$GPGSV,4,3,14,02,23,049,22,30,22,140,24,21,12,033,21,06,04,161,18,1*66
$GPGSV,4,4,14,10,02,343,,12,01,266,,1*66
$GLGSV,2,1,07,79,71,036,40,88,40,047,38,80,36,302,36,78,27,095,23,1*77
$GLGSV,2,2,07,70,27,296,,71,13,344,31,69,11,232,30,1*4A
$GAGSV,2,1,08,21,46,075,26,04,40,247,25,06,38,282,26,09,28,308,24,7*76
$GAGSV,2,2,08,31,24,268,23,26,19,135,22,19,12,191,17,15,12,027,19,7*77
$GBGSV,3,1,12,26,88,071,33,35,52,145,30,24,37,294,29,29,36,056,29,1*77
$GBGSV,3,2,12,45,30,111,25,44,18,188,20,33,15,292,24,14,13,266,16,1*73
$GBGSV,3,3,12,41,07,338,20,42,06,242,15,13,02,317,18,08,01,307,,1*7C
$GNRMC,003550.000,A,4910.426410,N,12304.401414,W,0.03,156.72,041224,,,D,V*12
$GNVTG,156.72,T,,M,0.03,N,0.06,K,D*24
$PAIRLOG,Full*51
$GNGGA,003551.000,4910.426482,N,12304.401414,W,2,33,0.45,1.010,M,-16.816,M,,*47
$GNGLL,4910.426482,N,12304.401414,W,003551.000,A,D*50
$GNGSA,A,3,22,17,14,19,13,24,15,02,30,21,,,0.84,0.45,0.71,1*03
$GNGSA,A,3,79,88,80,78,71,69,,,,,,,0.84,0.45,0.71,2*09
$GNGSA,A,3,21,04,06,09,31,26,19,15,,,,,0.84,0.45,0.71,3*0A
$GNGSA,A,3,26,35,24,29,45,44,33,14,42,,,,0.84,0.45,0.71,4*02
$GPGSV,4,1,14,22,76,052,27,17,74,121,30,14,54,077,29,19,53,192,29,1*63
$GPGSV,4,2,14,13,34,218,27,46,33,188,28,24,30,306,25,15,28,259,26,1*66
$GPGSV,4,3,14,02,23,049,21,30,22,140,24,21,12,033,21,06,04,161,17,1*6A
$GPGSV,4,4,14,10,02,343,,12,01,266,,1*66
$GLGSV,2,1,07,79,71,036,40,88,40,047,38,80,36,302,36,78,27,095,22,1*76
$GLGSV,2,2,07,70,27,296,,71,13,344,31,69,11,232,30,1*4A
$GAGSV,2,1,08,21,46,075,26,04,40,247,25,06,38,282,26,09,28,308,24,7*76
$GAGSV,2,2,08,31,24,268,23,26,19,135,22,19,12,191,17,15,12,027,19,7*77
$GBGSV,3,1,12,26,88,071,32,35,52,145,30,24,37,294,29,29,36,056,29,1*76
$GBGSV,3,2,12,45,30,111,25,44,18,188,19,33,15,292,23,14,13,266,16,1*7E
$GBGSV,3,3,12,41,07,338,20,42,06,242,13,13,02,317,18,08,01,307,,1*7A
$GNRMC,003551.000,A,4910.426482,N,12304.401414,W,0.03,156.72,041224,,,D,V*18
$GNVTG,156.72,T,,M,0.03,N,0.06,K,D*24
$PAIRLOG,Full*51
$GNGGA,003552.000,4910.426554,N,12304.401324,W,2,33,0.45,1.172,M,-16.816,M,,*4F
$GNGLL,4910.426554,N,12304.401324,W,003552.000,A,D*5D
$GNGSA,A,3,22,17,14,19,13,24,15,02,30,21,,,0.84,0.45,0.71,1*03
$GNGSA,A,3,79,88,80,78,71,69,,,,,,,0.84,0.45,0.71,2*09
$GNGSA,A,3,21,04,06,09,31,26,19,15,,,,,0.84,0.45,0.71,3*0A
$GNGSA,A,3,26,35,24,29,45,44,33,14,42,,,,0.84,0.45,0.71,4*02
$GPGSV,4,1,14,22,76,052,27,17,74,121,30,14,54,077,29,19,53,192,29,1*63
$GPGSV,4,2,14,13,34,218,27,46,33,188,28,24,30,306,25,15,28,259,24,1*64
$GPGSV,4,3,14,02,23,049,20,30,22,140,24,21,12,033,21,06,04,161,17,1*6B
$GPGSV,4,4,14,10,02,343,,12,01,266,,1*66
$GLGSV,2,1,07,79,71,036,40,88,40,047,38,80,36,302,36,78,27,095,21,1*75
$GLGSV,2,2,07,70,27,296,,71,13,344,31,69,11,232,30,1*4A
$GAGSV,2,1,08,21,46,075,26,04,40,247,25,06,38,282,25,09,28,308,23,7*72
$GAGSV,2,2,08,31,24,268,23,26,19,135,22,19,12,191,17,15,12,027,19,7*77
$GBGSV,3,1,12,26,88,071,32,35,52,145,30,24,37,294,29,29,36,056,29,1*76
$GBGSV,3,2,12,45,30,111,25,44,18,188,19,33,15,292,23,14,13,266,16,1*7E
$GBGSV,3,3,12,41,07,338,20,42,06,242,13,13,02,317,18,08,01,307,,1*7A
$GNRMC,003552.000,A,4910.426554,N,12304.401324,W,0.02,156.72,041224,,,D,V*14
$GNVTG,156.72,T,,M,0.02,N,0.04,K,D*27
$PAIRLOG,Full*51
$GNGGA,003553.000,4910.426590,N,12304.401324,W,2,33,0.45,1.305,M,-16.816,M,,*44
$GNGLL,4910.426590,N,12304.401324,W,003553.000,A,D*54
$GNGSA,A,3,22,17,14,19,13,24,15,02,30,21,,,0.84,0.45,0.71,1*03
$GNGSA,A,3,79,88,80,78,71,69,,,,,,,0.84,0.45,0.71,2*09
$GNGSA,A,3,21,04,06,09,31,26,15,19,,,,,0.84,0.45,0.71,3*0A
$GNGSA,A,3,26,35,24,29,45,44,33,14,42,,,,0.84,0.45,0.71,4*02
$GPGSV,4,1,14,22,76,052,28,17,74,121,30,14,54,077,29,19,53,192,29,1*6C
$GPGSV,4,2,14,13,34,218,27,46,33,188,28,24,30,306,26,15,28,259,25,1*66
$GPGSV,4,3,14,02,23,049,20,30,22,140,25,21,12,033,20,06,04,161,17,1*6B
$GPGSV,4,4,14,10,02,343,,12,01,266,,1*66
$GLGSV,2,1,06,79,71,036,40,88,40,047,38,80,36,302,36,78,27,095,21,1*74
$GLGSV,2,2,06,71,13,344,31,69,11,232,30,1*74
$GAGSV,2,1,08,21,46,075,26,04,40,247,25,06,38,282,25,09,28,308,22,7*73
$GAGSV,2,2,08,31,24,268,23,26,19,135,22,15,12,027,19,19,12,191,17,7*77
$GBGSV,3,1,12,26,88,071,31,35,52,145,29,24,37,294,29,29,36,056,29,1*7D
$GBGSV,3,2,12,45,30,111,24,44,18,188,19,33,15,292,22,14,13,266,16,1*7E
$GBGSV,3,3,12,41,07,338,20,42,06,242,15,13,02,317,18,08,01,307,,1*7C
$GNRMC,003553.000,A,4910.426590,N,12304.401324,W,0.02,156.72,041224,,,D,V*1D
$GNVTG,156.72,T,,M,0.02,N,0.03,K,D*20
$PAIRLOG,Full*51
$GNGGA,003554.000,4910.426584,N,12304.401336,W,2,33,0.45,1.436,M,-16.816,M,,*42
$GNGLL,4910.426584,N,12304.401336,W,003554.000,A,D*55
$GNGSA,A,3,22,17,14,19,13,24,15,02,30,21,,,0.84,0.45,0.71,1*03
$GNGSA,A,3,79,88,80,78,71,69,,,,,,,0.84,0.45,0.71,2*09
$GNGSA,A,3,21,04,06,09,31,26,19,15,,,,,0.84,0.45,0.71,3*0A
$GNGSA,A,3,26,35,24,29,45,44,33,14,42,,,,0.84,0.45,0.71,4*02
$GPGSV,4,1,14,22,76,052,28,17,74,121,30,14,54,077,29,19,53,192,29,1*6C
$GPGSV,4,2,14,13,34,218,27,46,33,188,28,24,30,306,26,15,28,259,25,1*66
$GPGSV,4,3,14,02,23,049,20,30,22,140,25,21,12,033,20,06,04,161,17,1*6B
$GPGSV,4,4,14,10,02,343,,12,01,266,,1*66
$GLGSV,2,1,07,79,71,036,40,88,40,047,38,80,36,302,37,78,27,095,20,1*75
$GLGSV,2,2,07,70,27,296,,71,13,344,31,69,11,232,30,1*4A
$GAGSV,2,1,08,21,46,075,26,04,40,247,25,06,38,282,25,09,28,308,22,7*73
$GAGSV,2,2,08,31,24,268,23,26,19,135,22,19,12,191,16,15,12,027,19,7*76
$GBGSV,3,1,12,26,88,071,31,35,52,145,30,24,37,294,29,29,36,056,29,1*75
$GBGSV,3,2,12,45,30,111,24,44,18,188,19,33,15,292,22,14,13,266,16,1*7E
$GBGSV,3,3,12,41,07,338,19,42,06,242,14,13,02,317,17,08,01,307,,1*78
$GNRMC,003554.000,A,4910.426584,N,12304.401336,W,0.02,156.72,041224,,,D,V*1C
$GNVTG,156.72,T,,M,0.02,N,0.03,K,D*20
$PAIRLOG,Full*51
$GNGGA,003555.000,4910.426626,N,12304.401324,W,2,33,0.45,1.487,M,-16.816,M,,*41
$GNGLL,4910.426626,N,12304.401324,W,003555.000,A,D*5C
$GNGSA,A,3,22,17,14,19,13,24,15,02,30,21,,,0.84,0.45,0.71,1*03
$GNGSA,A,3,79,88,80,78,71,69,,,,,,,0.84,0.45,0.71,2*09
$GNGSA,A,3,21,04,06,09,31,26,19,15,,,,,0.84,0.45,0.71,3*0A
$GNGSA,A,3,26,35,24,29,45,44,33,14,42,,,,0.84,0.45,0.71,4*02
$GPGSV,4,1,14,22,76,052,28,17,74,121,30,14,54,077,30,19,53,192,29,1*64
$GPGSV,4,2,14,13,34,218,27,46,33,188,28,24,30,306,26,15,28,259,25,1*66
$GPGSV,4,3,14,02,23,049,21,30,22,140,25,21,12,033,20,06,04,161,17,1*6A
$GPGSV,4,4,14,10,02,343,,12,01,266,,1*66
$GLGSV,2,1,07,79,71,036,40,88,40,047,38,80,36,302,37,78,27,095,20,1*75
$GLGSV,2,2,07,70,27,296,,71,13,344,31,69,11,232,30,1*4A
$GAGSV,2,1,08,21,46,075,26,04,40,247,25,06,38,282,25,09,28,308,23,7*72
$GAGSV,2,2,08,31,24,268,23,26,19,135,22,19,12,191,16,15,12,027,20,7*7C
$GBGSV,3,1,12,26,88,071,31,35,52,145,30,24,37,294,28,29,36,056,29,1*74
$GBGSV,3,2,12,45,30,111,24,44,18,188,18,33,15,292,22,14,13,266,16,1*7F
$GBGSV,3,3,12,41,07,338,19,42,06,242,13,13,02,317,17,08,01,307,,1*7F
$GNRMC,003555.000,A,4910.426626,N,12304.401324,W,0.01,156.72,041224,,,D,V*16
$GNVTG,156.72,T,,M,0.01,N,0.03,K,D*23
$PAIRLOG,Full*51
$GNGGA,003556.000,4910.426692,N,12304.401216,W,2,33,0.45,1.554,M,-16.817,M,,*43
$GNGLL,4910.426692,N,12304.401216,W,003556.000,A,D*50
$GNGSA,A,3,22,17,14,19,13,24,15,02,30,21,,,0.84,0.45,0.71,1*03
$GNGSA,A,3,79,88,80,78,71,69,,,,,,,0.84,0.45,0.71,2*09
$GNGSA,A,3,21,04,06,09,31,26,19,15,,,,,0.84,0.45,0.71,3*0A
$GNGSA,A,3,26,35,24,29,45,44,33,14,42,,,,0.84,0.45,0.71,4*02
$GPGSV,4,1,14,22,76,052,28,17,74,121,30,14,54,077,30,19,53,192,29,1*64
$GPGSV,4,2,14,13,34,218,27,46,33,188,28,24,30,306,26,15,28,259,25,1*66
$GPGSV,4,3,14,02,23,049,21,30,22,140,25,21,12,033,20,06,04,161,17,1*6A
$GPGSV,4,4,14,10,02,343,,12,01,266,,1*66
$GLGSV,2,1,07,79,71,036,40,88,40,047,38,80,36,302,37,78,27,095,20,1*75
$GLGSV,2,2,07,70,27,296,,71,13,344,30,69,11,232,30,1*4B
$GAGSV,2,1,08,21,46,075,25,04,40,247,25,06,38,282,25,09,28,308,22,7*70
$GAGSV,2,2,08,31,24,268,23,26,19,135,22,19,12,191,16,15,12,027,20,7*7C
$GBGSV,3,1,12,26,88,071,31,35,52,145,30,24,37,294,28,29,36,056,29,1*74
$GBGSV,3,2,12,45,30,111,24,44,18,188,18,33,15,292,22,14,13,266,16,1*7F
$GBGSV,3,3,12,41,07,338,19,42,06,242,13,13,02,317,17,08,01,307,,1*7F
$GNRMC,003556.000,A,4910.426692,N,12304.401216,W,0.02,156.72,041224,,,D,V*19
$GNVTG,156.72,T,,M,0.02,N,0.03,K,D*20
$PAIRLOG,Full*51
$GNGGA,003557.000,4910.426692,N,12304.401192,W,2,33,0.45,1.520,M,-16.816,M,,*4F
$GNGLL,4910.426692,N,12304.401192,W,003557.000,A,D*5E
$GNGSA,A,3,22,17,14,19,13,24,15,02,30,21,,,0.84,0.45,0.71,1*03
$GNGSA,A,3,79,88,80,78,71,69,,,,,,,0.84,0.45,0.71,2*09
$GNGSA,A,3,21,04,06,09,31,26,19,15,,,,,0.84,0.45,0.71,3*0A
$GNGSA,A,3,26,35,24,29,45,44,33,14,42,,,,0.84,0.45,0.71,4*02
$GPGSV,4,1,14,22,76,052,28,17,74,121,30,14,54,077,30,19,53,192,29,1*64
$GPGSV,4,2,14,13,34,218,27,46,33,188,28,24,30,306,27,15,28,259,25,1*67
$GPGSV,4,3,14,02,23,049,21,30,22,140,26,21,12,033,21,06,04,161,17,1*68
$GPGSV,4,4,14,10,02,343,,12,01,266,,1*66
$GLGSV,2,1,07,79,71,036,40,88,40,047,38,80,36,302,36,78,27,095,20,1*74
$GLGSV,2,2,07,70,27,296,,71,13,344,30,69,11,232,30,1*4B
$GAGSV,2,1,08,21,46,075,25,04,40,247,25,06,38,282,25,09,28,308,22,7*70
$GAGSV,2,2,08,31,24,268,23,26,19,135,22,19,12,191,16,15,12,027,21,7*7D
$GBGSV,3,1,12,26,88,071,30,35,52,145,29,24,37,294,27,29,36,056,28,1*73
$GBGSV,3,2,12,45,30,111,23,44,18,188,18,33,15,292,22,14,13,266,16,1*78
$GBGSV,3,3,12,41,07,338,18,42,06,242,14,13,02,317,17,08,01,307,,1*79
$GNRMC,003557.000,A,4910.426692,N,12304.401192,W,0.02,156.72,041224,,,D,V*17
$GNVTG,156.72,T,,M,0.02,N,0.04,K,D*27
$PAIRLOG,Full*51
$GNGGA,003558.000,4910.426692,N,12304.401198,W,2,33,0.45,1.382,M,-16.817,M,,*45
$GNGLL,4910.426692,N,12304.401198,W,003558.000,A,D*5B
$GNGSA,A,3,22,17,14,19,13,24,15,02,30,21,,,0.84,0.45,0.71,1*03
$GNGSA,A,3,79,88,80,78,71,69,,,,,,,0.84,0.45,0.71,2*09
$GNGSA,A,3,21,04,06,09,31,26,19,15,,,,,0.84,0.45,0.71,3*0A
$GNGSA,A,3,26,35,24,29,45,44,33,14,42,,,,0.84,0.45,0.71,4*02
$GPGSV,4,1,14,22,76,052,28,17,74,120,31,14,54,077,30,19,53,192,29,1*64
$GPGSV,4,2,14,13,34,218,27,46,33,188,28,24,30,306,27,15,28,259,26,1*64
$GPGSV,4,3,14,02,23,049,21,30,22,140,25,21,12,033,21,06,04,161,17,1*6B
$GPGSV,4,4,14,10,02,343,,12,01,266,,1*66
$GLGSV,2,1,07,79,71,036,40,88,40,047,38,80,36,302,36,78,27,095,20,1*74
$GLGSV,2,2,07,70,27,296,,71,13,344,30,69,11,232,30,1*4B
$GAGSV,2,1,08,21,46,075,25,04,40,247,25,06,38,282,25,09,28,308,22,7*70
$GAGSV,2,2,08,31,24,268,24,26,19,135,22,19,12,191,17,15,12,027,21,7*7B
$GBGSV,3,1,12,26,88,071,30,35,52,145,29,24,37,294,27,29,36,056,28,1*73
$GBGSV,3,2,12,45,30,111,23,44,18,188,18,33,15,292,22,14,13,266,16,1*78
$GBGSV,3,3,12,41,07,338,18,42,06,242,14,13,02,317,16,08,01,307,,1*78
$GNRMC,003558.000,A,4910.426692,N,12304.401198,W,0.02,156.72,041224,,,D,V*12
$GNVTG,156.72,T,,M,0.02,N,0.03,K,D*20
$PAIRLOG,Full*51
$GNGGA,003559.000,4910.426722,N,12304.401252,W,2,33,0.45,1.242,M,-16.816,M,,*47
$GNGLL,4910.426722,N,12304.401252,W,003559.000,A,D*55
$GNGSA,A,3,22,17,14,19,13,24,15,02,30,21,,,0.84,0.45,0.71,1*03
$GNGSA,A,3,79,88,80,78,71,69,,,,,,,0.84,0.45,0.71,2*09
$GNGSA,A,3,21,04,06,09,31,26,15,19,,,,,0.84,0.45,0.71,3*0A
$GNGSA,A,3,26,35,24,29,45,44,33,14,42,,,,0.84,0.45,0.71,4*02
$GPGSV,4,1,14,22,76,052,28,17,74,120,31,14,54,077,30,19,53,192,29,1*64
$GPGSV,4,2,14,13,34,218,27,46,33,188,28,24,30,306,27,15,28,259,26,1*64
$GPGSV,4,3,14,02,23,049,20,30,22,140,25,21,12,033,22,06,04,161,17,1*69
$GPGSV,4,4,14,10,02,343,,12,01,266,,1*66
$GLGSV,2,1,06,79,71,036,39,88,40,047,38,80,36,302,36,78,27,095,20,1*7B
$GLGSV,2,2,06,71,13,344,30,69,11,232,30,1*75
$GAGSV,2,1,08,21,46,075,25,04,40,247,25,06,38,282,25,09,28,308,22,7*70
$GAGSV,2,2,08,31,24,268,24,26,19,135,22,15,12,027,21,19,12,191,17,7*7B
$GBGSV,3,1,12,26,88,071,31,35,52,145,29,24,37,294,27,29,36,056,28,1*72
$GBGSV,3,2,12,45,30,111,23,44,18,188,18,33,15,292,22,14,13,266,16,1*78
$GBGSV,3,3,12,41,07,338,18,42,06,242,13,13,02,317,16,08,01,307,,1*7F
$GNRMC,003559.000,A,4910.426722,N,12304.401252,W,0.01,156.72,041224,,,D,V*1F
$GNVTG,156.72,T,,M,0.01,N,0.03,K,D*23
$PAIRLOG,Full*51
$GNGGA,003600.000,4910.426788,N,12304.401174,W,2,33,0.45,1.173,M,-16.816,M,,*4E
$GNGLL,4910.426788,N,12304.401174,W,003600.000,A,D*5D
$GNGSA,A,3,22,17,14,19,13,24,15,02,30,21,,,0.84,0.45,0.71,1*03
$GNGSA,A,3,79,88,80,78,71,69,,,,,,,0.84,0.45,0.71,2*09
$GNGSA,A,3,21,04,06,09,31,26,19,15,,,,,0.84,0.45,0.71,3*0A
$GNGSA,A,3,26,35,24,29,45,44,33,14,42,,,,0.84,0.45,0.71,4*02
$GPGSV,4,1,14,22,76,052,27,17,74,120,30,14,54,077,30,19,53,192,29,1*6A
$GPGSV,4,2,14,13,34,218,27,46,33,188,28,24,30,306,27,15,28,259,26,1*64
$GPGSV,4,3,14,02,23,049,19,30,22,140,25,21,12,033,22,06,04,161,17,1*63
$GPGSV,4,4,14,10,02,343,,12,01,266,,1*66
$GLGSV,2,1,07,79,71,036,39,88,40,047,38,80,36,302,36,78,27,095,19,1*70
$GLGSV,2,2,07,70,27,296,,71,13,344,30,69,11,232,31,1*4A
$GAGSV,2,1,08,21,46,075,25,04,40,247,24,06,38,282,25,09,28,308,22,7*71
$GAGSV,2,2,08,31,24,268,24,26,19,135,22,19,12,191,17,15,12,027,21,7*7B
$GBGSV,3,1,12,26,88,071,31,35,52,145,29,24,37,294,27,29,36,056,28,1*72
$GBGSV,3,2,12,45,30,111,23,44,18,188,18,33,15,292,22,14,13,266,16,1*78
$GBGSV,3,3,12,41,07,338,18,42,06,242,14,13,02,317,16,08,01,307,,1*78
$GNRMC,003600.000,A,4910.426788,N,12304.401174,W,0.01,156.72,041224,,,D,V*17
$GNVTG,156.72,T,,M,0.01,N,0.03,K,D*23
$PAIRLOG,Full*51
$GNGGA,003601.000,4910.426686,N,12304.401228,W,2,33,0.45,1.022,M,-16.816,M,,*4F
$GNGLL,4910.426686,N,12304.401228,W,003601.000,A,D*59
$GNGSA,A,3,22,17,14,19,13,24,15,02,30,21,,,0.84,0.45,0.71,1*03
$GNGSA,A,3,79,88,80,78,71,69,,,,,,,0.84,0.45,0.71,2*09
$GNGSA,A,3,21,04,06,09,31,26,19,15,,,,,0.84,0.45,0.71,3*0A
$GNGSA,A,3,26,35,24,29,45,44,33,14,42,,,,0.84,0.45,0.71,4*02
$GPGSV,4,1,14,22,76,052,27,17,74,120,30,14,54,077,30,19,53,192,29,1*6A
$GPGSV,4,2,14,13,34,218,27,46,33,188,28,24,30,306,27,15,28,259,25,1*67
$GPGSV,4,3,14,02,23,049,20,30,22,140,25,21,12,033,22,06,04,161,17,1*69
$GPGSV,4,4,14,10,02,343,,12,01,266,,1*66
$GLGSV,2,1,07,79,71,036,39,88,40,047,38,80,36,302,36,78,27,095,19,1*70
$GLGSV,2,2,07,70,27,296,,71,13,344,30,69,11,232,31,1*4A
$GAGSV,2,1,08,21,46,075,24,04,40,247,24,06,38,282,24,09,28,308,22,7*71
$GAGSV,2,2,08,31,24,268,24,26,19,135,21,19,12,191,17,15,12,027,21,7*78
$GBGSV,3,1,12,26,88,071,31,35,52,145,29,24,37,294,27,29,36,056,28,1*72
$GBGSV,3,2,12,45,30,111,23,44,18,188,18,33,15,292,21,14,13,266,16,1*7B
$GBGSV,3,3,12,41,07,338,18,42,06,242,13,13,02,317,16,08,01,307,,1*7F
$GNRMC,003601.000,A,4910.426686,N,12304.401228,W,0.02,156.72,041224,,,D,V*10
$GNVTG,156.72,T,,M,0.02,N,0.03,K,D*20
$PAIRLOG,Full*51
$GNGGA,003602.000,4910.426608,N,12304.401240,W,2,33,0.45,0.861,M,-16.817,M,,*4B
$GNGLL,4910.426608,N,12304.401240,W,003602.000,A,D*52
$GNGSA,A,3,22,17,14,19,13,24,15,02,30,21,,,0.84,0.45,0.71,1*03
$GNGSA,A,3,79,88,80,78,71,69,,,,,,,0.84,0.45,0.71,2*09
$GNGSA,A,3,21,04,06,09,31,26,19,15,,,,,0.84,0.45,0.71,3*0A
$GNGSA,A,3,26,35,24,29,45,44,33,14,42,,,,0.84,0.45,0.71,4*02
$GPGSV,4,1,14,22,76,052,28,17,74,120,31,14,54,077,31,19,53,192,29,1*65
$GPGSV,4,2,14,13,34,218,28,46,33,188,28,24,30,306,27,15,28,259,26,1*6B
$GPGSV,4,3,14,02,23,049,22,30,22,140,25,21,12,033,22,06,04,161,17,1*6B
$GPGSV,4,4,14,10,02,343,,12,01,266,,1*66
$GLGSV,2,1,07,79,71,036,39,88,40,047,38,80,36,302,36,78,27,095,19,1*70
$GLGSV,2,2,07,70,27,296,,71,13,344,30,69,11,232,31,1*4A
$GAGSV,2,1,08,21,46,075,24,04,40,247,24,06,38,282,24,09,28,308,22,7*71
$GAGSV,2,2,08,31,24,268,24,26,19,135,21,19,12,191,17,15,12,027,21,7*78
$GBGSV,3,1,12,26,88,071,31,35,52,145,29,24,37,294,27,29,36,056,28,1*72
$GBGSV,3,2,12,45,30,111,23,44,18,188,18,33,15,292,21,14,13,266,16,1*7B
$GBGSV,3,3,12,41,07,338,18,42,06,242,13,13,02,317,16,08,01,307,,1*7F
$GNRMC,003602.000,A,4910.426608,N,12304.401240,W,0.02,156.72,041224,,,D,V*1B
$GNVTG,156.72,T,,M,0.02,N,0.04,K,D*27
$PAIRLOG,Full*51
$GNGGA,003603.000,4910.426524,N,12304.401300,W,2,33,0.45,0.711,M,-16.817,M,,*4A
$GNGLL,4910.426524,N,12304.401300,W,003603.000,A,D*5B
$GNGSA,A,3,22,17,14,19,13,24,15,02,30,21,,,0.84,0.45,0.71,1*03
$GNGSA,A,3,79,88,80,78,71,69,,,,,,,0.84,0.45,0.71,2*09
$GNGSA,A,3,21,04,06,09,31,26,19,15,,,,,0.84,0.45,0.71,3*0A
$GNGSA,A,3,26,35,24,29,45,44,33,14,42,,,,0.84,0.45,0.71,4*02
$GPGSV,4,1,14,22,76,052,28,17,74,120,31,14,54,077,31,19,53,192,29,1*65
$GPGSV,4,2,14,13,34,218,28,46,33,188,28,24,30,306,27,15,28,259,25,1*68
$GPGSV,4,3,14,02,23,049,21,30,22,140,25,21,12,033,23,06,04,161,17,1*69
$GPGSV,4,4,14,10,02,343,,12,01,266,,1*66
$GLGSV,2,1,07,79,71,036,39,88,40,047,38,80,36,302,36,78,27,095,19,1*70
$GLGSV,2,2,07,70,27,296,,71,13,344,30,69,11,232,31,1*4A
$GAGSV,2,1,08,21,46,075,24,04,40,247,24,06,38,282,24,09,28,308,22,7*71
$GAGSV,2,2,08,31,24,268,24,26,19,135,21,19,12,191,17,15,12,027,21,7*78
$GBGSV,3,1,12,26,88,071,31,35,52,145,29,24,37,294,27,29,36,056,28,1*72
$GBGSV,3,2,12,45,30,111,23,44,18,188,18,33,15,292,21,14,13,266,16,1*7B
$GBGSV,3,3,12,41,07,338,18,42,06,242,15,13,02,317,16,08,01,307,,1*79
$GNRMC,003603.000,A,4910.426524,N,12304.401300,W,0.02,156.72,041224,,,D,V*12
$GNVTG,156.72,T,,M,0.02,N,0.04,K,D*27
$PAIRLOG,Full*51
$GNGGA,003604.000,4910.426458,N,12304.401300,W,2,33,0.45,0.572,M,-16.817,M,,*40
$GNGLL,4910.426458,N,12304.401300,W,003604.000,A,D*56
$GNGSA,A,3,22,17,14,19,13,24,15,02,30,21,,,0.84,0.45,0.71,1*03
$GNGSA,A,3,79,88,80,78,71,69,,,,,,,0.84,0.45,0.71,2*09
$GNGSA,A,3,21,04,06,09,31,26,19,15,,,,,0.84,0.45,0.71,3*0A
$GNGSA,A,3,26,35,24,29,45,44,33,14,42,,,,0.84,0.45,0.71,4*02
$GPGSV,4,1,14,22,76,052,28,17,74,120,31,14,54,077,31,19,53,192,29,1*65
$GPGSV,4,2,14,13,34,218,28,46,33,188,28,24,30,306,27,15,28,259,26,1*6B
$GPGSV,4,3,14,02,23,049,22,30,22,140,25,21,12,033,23,06,04,161,17,1*6A
$GPGSV,4,4,14,10,02,343,,12,01,266,,1*66
$GLGSV,2,1,07,79,71,036,39,88,40,047,38,80,36,302,36,78,27,095,18,1*71
$GLGSV,2,2,07,70,27,296,,71,13,344,30,69,11,232,31,1*4A
$GAGSV,2,1,08,21,46,075,24,04,40,247,24,06,38,282,25,09,28,308,22,7*70
$GAGSV,2,2,08,31,24,268,24,26,19,135,21,19,12,191,17,15,12,027,21,7*78
$GBGSV,3,1,12,26,88,071,31,35,52,145,29,24,37,294,27,29,36,056,28,1*72
$GBGSV,3,2,12,45,30,111,24,44,18,188,18,33,15,292,21,14,13,266,16,1*7C
$GBGSV,3,3,12,41,07,338,18,42,06,242,15,13,02,317,16,08,01,307,,1*79
$GNRMC,003604.000,A,4910.426458,N,12304.401300,W,0.03,156.72,041224,,,D,V*1E
$GNVTG,156.72,T,,M,0.03,N,0.05,K,D*27
$PAIRLOG,Full*51
$GNGGA,003605.000,4910.426428,N,12304.401336,W,2,33,0.45,0.469,M,-16.816,M,,*49
$GNGLL,4910.426428,N,12304.401336,W,003605.000,A,D*55
$GNGSA,A,3,22,17,14,19,13,24,15,02,30,21,,,0.84,0.45,0.71,1*03
$GNGSA,A,3,79,88,80,78,71,69,,,,,,,0.84,0.45,0.71,2*09
$GNGSA,A,3,21,04,06,09,31,26,19,15,,,,,0.84,0.45,0.71,3*0A
$GNGSA,A,3,26,35,24,29,45,44,33,14,42,,,,0.84,0.45,0.71,4*02
$GPGSV,4,1,14,22,76,052,28,17,74,120,31,14,54,077,31,19,53,192,29,1*65
$GPGSV,4,2,14,13,34,218,28,46,33,188,28,24,30,306,28,15,28,259,27,1*65
$GPGSV,4,3,14,02,23,049,22,30,22,140,25,21,12,033,23,06,04,161,17,1*6A
$GPGSV,4,4,14,10,02,343,,12,01,266,,1*66
$GLGSV,2,1,07,79,71,036,39,88,40,047,38,80,36,302,36,78,27,095,17,1*7E
$GLGSV,2,2,07,70,27,296,,71,13,344,30,69,11,232,31,1*4A
$GAGSV,2,1,08,21,46,075,24,04,40,247,24,06,38,282,25,09,28,308,22,7*70
$GAGSV,2,2,08,31,24,268,24,26,19,135,21,19,12,191,17,15,12,027,21,7*78
$GBGSV,3,1,12,26,88,071,31,35,52,145,29,24,37,294,27,29,36,056,28,1*72
$GBGSV,3,2,12,45,30,111,24,44,18,188,18,33,15,292,21,14,13,266,16,1*7C
$GBGSV,3,3,12,41,07,338,18,42,06,242,13,13,02,317,16,08,01,307,,1*7F
$GNRMC,003605.000,A,4910.426428,N,12304.401336,W,0.02,156.72,041224,,,D,V*1C
$GNVTG,156.72,T,,M,0.02,N,0.04,K,D*27
$PAIRLOG,Full*51
$GNGGA,003606.000,4910.426410,N,12304.401378,W,2,33,0.45,0.303,M,-16.816,M,,*40
$GNGLL,4910.426410,N,12304.401378,W,003606.000,A,D*57
$GNGSA,A,3,22,17,14,19,13,24,15,02,30,21,,,0.84,0.45,0.71,1*03
$GNGSA,A,3,79,88,80,78,71,69,,,,,,,0.84,0.45,0.71,2*09
$GNGSA,A,3,21,04,06,09,31,26,19,15,,,,,0.84,0.45,0.71,3*0A
$GNGSA,A,3,26,35,24,29,45,44,33,14,42,,,,0.84,0.45,0.71,4*02
$GPGSV,4,1,14,22,76,052,29,17,74,120,31,14,54,077,31,19,53,192,29,1*64
$GPGSV,4,2,14,13,34,218,29,46,33,188,28,24,30,306,29,15,28,259,26,1*64
$GPGSV,4,3,14,02,23,049,22,30,22,140,25,21,12,033,24,06,04,161,17,1*6D
$GPGSV,4,4,14,10,02,343,,12,01,266,,1*66
$GLGSV,2,1,07,79,71,036,39,88,40,047,38,80,36,302,36,78,27,095,17,1*7E
$GLGSV,2,2,07,70,27,296,,71,13,344,30,69,11,232,31,1*4A
$GAGSV,2,1,08,21,46,075,24,04,40,247,25,06,38,282,25,09,28,308,23,7*70
$GAGSV,2,2,08,31,24,268,24,26,19,135,21,19,12,191,17,15,12,027,21,7*78
$GBGSV,3,1,12,26,88,071,31,35,52,145,29,24,37,294,27,29,36,056,28,1*72
$GBGSV,3,2,12,45,30,111,24,44,18,188,18,33,15,292,21,14,13,266,16,1*7C
$GBGSV,3,3,12,41,07,338,18,42,06,242,15,13,02,317,16,08,01,307,,1*79
$GNRMC,003606.000,A,4910.426410,N,12304.401378,W,0.02,156.72,041224,,,D,V*1E
$GNVTG,156.72,T,,M,0.02,N,0.03,K,D*20
$PAIRLOG,Full*51
$GNGGA,003607.000,4910.426380,N,12304.401300,W,2,33,0.45,0.134,M,-16.816,M,,*46
$GNGLL,4910.426380,N,12304.401300,W,003607.000,A,D*57
$GNGSA,A,3,22,17,14,19,13,24,15,02,30,21,,,0.84,0.45,0.71,1*03
$GNGSA,A,3,79,88,80,78,71,69,,,,,,,0.84,0.45,0.71,2*09
$GNGSA,A,3,21,04,06,09,31,26,19,15,,,,,0.84,0.45,0.71,3*0A
$GNGSA,A,3,26,35,24,29,45,44,33,14,42,,,,0.84,0.45,0.71,4*02
$GPGSV,4,1,14,22,76,052,29,17,74,120,31,14,54,077,32,19,53,192,29,1*67
$GPGSV,4,2,14,13,34,218,29,46,33,188,29,24,30,306,29,15,28,259,27,1*64
$GPGSV,4,3,14,02,23,049,23,30,22,140,26,21,12,033,24,06,04,161,17,1*6F
$GPGSV,4,4,14,10,02,343,,12,01,266,,1*66
$GLGSV,2,1,07,79,71,036,39,88,40,047,38,80,36,302,36,78,27,095,17,1*7E
$GLGSV,2,2,07,70,27,296,,71,13,344,30,69,11,232,31,1*4A
$GAGSV,2,1,08,21,46,075,24,04,40,247,25,06,38,282,25,09,28,308,23,7*70
$GAGSV,2,2,08,31,24,268,24,26,19,135,22,19,12,191,18,15,12,027,21,7*74
$GBGSV,3,1,12,26,88,071,30,35,52,145,29,24,37,294,26,29,36,056,28,1*72
$GBGSV,3,2,12,45,30,111,23,44,18,188,18,33,15,292,21,14,13,266,16,1*7B
$GBGSV,3,3,12,41,07,338,18,42,06,242,12,13,02,317,16,08,01,307,,1*7E
$GNRMC,003607.000,A,4910.426380,N,12304.401300,W,0.02,156.72,041224,,,D,V*1E
$GNVTG,156.72,T,,M,0.02,N,0.04,K,D*27
$PAIRLOG,Full*51
$GNGGA,003608.000,4910.426380,N,12304.401246,W,2,33,0.45,0.114,M,-16.816,M,,*48
$GNGLL,4910.426380,N,12304.401246,W,003608.000,A,D*5B
$GNGSA,A,3,22,17,14,19,13,24,15,02,30,21,,,0.84,0.45,0.71,1*03
$GNGSA,A,3,79,88,80,78,71,69,,,,,,,0.84,0.45,0.71,2*09
$GNGSA,A,3,21,04,06,09,31,26,19,15,,,,,0.84,0.45,0.71,3*0A
$GNGSA,A,3,26,35,24,29,45,44,33,14,42,,,,0.84,0.45,0.71,4*02
$GPGSV,4,1,14,22,76,052,29,17,74,120,31,14,54,077,32,19,53,192,29,1*67
$GPGSV,4,2,14,13,34,218,29,46,33,188,29,24,30,306,29,15,28,259,27,1*64
$GPGSV,4,3,14,02,23,049,23,30,22,140,26,21,12,033,24,06,04,161,17,1*6F
$GPGSV,4,4,14,10,02,343,,12,01,266,,1*66
$GLGSV,2,1,07,79,71,036,39,88,40,047,38,80,36,302,36,78,27,095,17,1*7E
$GLGSV,2,2,07,70,27,296,,71,13,344,30,69,11,232,31,1*4A
$GAGSV,2,1,08,21,46,075,24,04,40,247,26,06,38,282,25,09,28,308,23,7*73
$GAGSV,2,2,08,31,24,268,24,26,19,135,22,19,12,191,18,15,12,027,20,7*75
$GBGSV,3,1,12,26,88,071,30,35,52,145,29,24,37,294,27,29,36,056,28,1*73
$GBGSV,3,2,12,45,30,111,23,44,18,188,18,33,15,292,21,14,13,266,16,1*7B
$GBGSV,3,3,12,41,07,338,18,42,06,242,13,13,02,317,16,08,01,307,,1*7F
$GNRMC,003608.000,A,4910.426380,N,12304.401246,W,0.02,156.72,041224,,,D,V*12
$GNVTG,156.72,T,,M,0.02,N,0.04,K,D*27
$PAIRLOG,Full*51
$GNGGA,003609.000,4910.426380,N,12304.401210,W,2,33,0.45,0.059,M,-16.816,M,,*42
$GNGLL,4910.426380,N,12304.401210,W,003609.000,A,D*59
$GNGSA,A,3,22,17,14,19,13,24,15,02,30,21,,,0.84,0.45,0.71,1*03
$GNGSA,A,3,79,88,80,78,71,69,,,,,,,0.84,0.45,0.71,2*09
$GNGSA,A,3,21,04,06,09,31,26,19,15,,,,,0.84,0.45,0.71,3*0A
$GNGSA,A,3,26,35,24,29,45,44,33,14,42,,,,0.84,0.45,0.71,4*02
$GPGSV,4,1,14,22,76,052,29,17,74,120,31,14,54,077,32,19,53,192,29,1*67
$GPGSV,4,2,14,13,34,218,29,46,33,188,29,24,30,306,29,15,28,259,27,1*64
$GPGSV,4,3,14,02,23,049,23,30,22,140,26,21,12,033,24,06,04,161,17,1*6F
$GPGSV,4,4,14,10,02,343,,12,01,266,,1*66
$GLGSV,2,1,07,79,71,036,39,88,40,047,38,80,36,302,36,78,27,095,17,1*7E
$GLGSV,2,2,07,70,27,296,,71,13,344,30,69,11,232,30,1*4B
$GAGSV,2,1,08,21,46,075,24,04,40,247,26,06,38,282,25,09,28,308,23,7*73
$GAGSV,2,2,08,31,24,268,24,26,19,135,22,19,12,191,18,15,12,027,20,7*75
$GBGSV,3,1,12,26,88,071,30,35,52,145,29,24,37,294,27,29,36,056,28,1*73
$GBGSV,3,2,12,45,30,111,23,44,18,188,18,33,15,292,21,14,13,266,16,1*7B
$GBGSV,3,3,12,41,07,338,18,42,06,242,14,13,02,317,16,08,01,307,,1*78
$GNRMC,003609.000,A,4910.426380,N,12304.401210,W,0.02,156.72,041224,,,D,V*10
$GNVTG,156.72,T,,M,0.02,N,0.04,K,D*27
$PAIRLOG,Full*51
$GNGGA,003610.000,4910.426422,N,12304.401126,W,2,33,0.45,0.029,M,-16.816,M,,*44
$GNGLL,4910.426422,N,12304.401126,W,003610.000,A,D*58
$GNGSA,A,3,22,17,14,19,13,24,15,02,30,21,,,0.84,0.45,0.71,1*03
$GNGSA,A,3,79,88,80,78,71,69,,,,,,,0.84,0.45,0.71,2*09
$GNGSA,A,3,21,04,06,09,31,26,19,15,,,,,0.84,0.45,0.71,3*0A
$GNGSA,A,3,26,35,24,29,45,44,33,14,42,,,,0.84,0.45,0.71,4*02
$GPGSV,4,1,14,22,76,052,29,17,74,120,31,14,54,077,32,19,53,192,29,1*67
$GPGSV,4,2,14,13,34,218,29,46,33,188,28,24,30,306,29,15,28,259,26,1*64
$GPGSV,4,3,14,02,23,049,22,30,22,140,26,21,12,033,24,06,04,161,17,1*6E
$GPGSV,4,4,14,10,02,343,,12,01,266,,1*66
$GLGSV,2,1,07,79,71,036,39,88,40,047,38,80,36,302,36,78,27,095,16,1*7F
$GLGSV,2,2,07,70,27,296,,71,13,344,30,69,11,232,30,1*4B
$GAGSV,2,1,08,21,46,075,24,04,40,247,26,06,38,282,25,09,28,308,22,7*72
$GAGSV,2,2,08,31,24,268,24,26,19,135,22,19,12,191,18,15,12,027,20,7*75
$GBGSV,3,1,12,26,88,071,30,35,52,145,29,24,37,294,27,29,36,056,29,1*72
$GBGSV,3,2,12,45,30,111,24,44,18,188,18,33,15,292,22,14,13,266,16,1*7F
$GBGSV,3,3,12,41,07,338,18,42,06,242,15,13,02,317,16,08,01,307,,1*79
$GNRMC,003610.000,A,4910.426422,N,12304.401126,W,0.02,156.72,041224,,,D,V*11
$GNVTG,156.72,T,,M,0.02,N,0.04,K,D*27
$PAIRLOG,Full*51
$GNGGA,003611.000,4910.426482,N,12304.401060,W,2,33,0.45,-0.003,M,-16.816,M,,*69
$GNGLL,4910.426482,N,12304.401060,W,003611.000,A,D*50
$GNGSA,A,3,22,17,14,19,13,24,15,02,30,21,,,0.84,0.45,0.71,1*03
$GNGSA,A,3,79,88,80,78,71,69,,,,,,,0.84,0.45,0.71,2*09
$GNGSA,A,3,21,04,06,09,31,26,19,15,,,,,0.84,0.45,0.71,3*0A
$GNGSA,A,3,26,35,24,29,45,44,33,14,42,,,,0.84,0.45,0.71,4*02
$GPGSV,4,1,14,22,76,052,29,17,74,120,31,14,54,077,32,19,53,192,29,1*67
$GPGSV,4,2,14,13,34,218,29,46,33,188,28,24,30,306,29,15,28,259,26,1*64
$GPGSV,4,3,14,02,23,049,22,30,22,140,26,21,12,033,24,06,04,161,17,1*6E
$GPGSV,4,4,14,10,02,343,,12,01,266,,1*66
$GLGSV,2,1,07,79,71,036,39,88,40,047,38,80,36,302,36,78,27,095,15,1*7C
$GLGSV,2,2,07,70,27,296,,71,13,344,30,69,11,232,30,1*4B
$GAGSV,2,1,08,21,46,075,24,04,40,247,26,06,38,282,25,09,28,308,22,7*72
$GAGSV,2,2,08,31,24,268,24,26,19,135,22,19,12,191,18,15,12,027,20,7*75
$GBGSV,3,1,12,26,88,071,31,35,52,145,29,24,37,294,27,29,36,056,29,1*73
$GBGSV,3,2,12,45,30,111,24,44,18,188,18,33,15,292,22,14,13,266,16,1*7F
$GBGSV,3,3,12,41,07,338,18,42,06,242,15,13,02,317,16,08,01,307,,1*79
$GNRMC,003611.000,A,4910.426482,N,12304.401060,W,0.02,156.72,041224,,,D,V*19
$GNVTG,156.72,T,,M,0.02,N,0.03,K,D*20
$PAIRLOG,Full*51
$GNGGA,003612.000,4910.426548,N,12304.401036,W,2,33,0.45,-0.026,M,-16.816,M,,*69
$GNGLL,4910.426548,N,12304.401036,W,003612.000,A,D*57
$GNGSA,A,3,22,17,14,19,13,24,15,02,30,21,,,0.84,0.45,0.71,1*03
$GNGSA,A,3,79,88,80,78,71,69,,,,,,,0.84,0.45,0.71,2*09
$GNGSA,A,3,21,04,06,09,31,26,19,15,,,,,0.84,0.45,0.71,3*0A
$GNGSA,A,3,26,35,24,29,45,44,33,14,42,,,,0.84,0.45,0.71,4*02
$GPGSV,4,1,14,22,76,052,29,17,74,120,31,14,54,077,32,19,53,192,29,1*67
$GPGSV,4,2,14,13,34,218,29,46,33,188,28,24,30,306,29,15,28,259,26,1*64
$GPGSV,4,3,14,02,23,049,21,30,22,140,25,21,12,033,24,06,04,161,17,1*6E
$GPGSV,4,4,14,10,02,343,,12,01,266,,1*66
$GLGSV,2,1,07,79,71,036,39,88,40,047,38,80,36,302,36,78,27,095,12,1*7B
$GLGSV,2,2,07,70,27,296,,71,13,344,29,69,11,232,30,1*43
$GAGSV,2,1,08,21,46,075,23,04,40,247,26,06,38,282,25,09,28,308,22,7*75
$GAGSV,2,2,08,31,24,268,24,26,19,135,22,19,12,191,18,15,12,027,20,7*75
$GBGSV,3,1,12,26,88,071,31,35,52,145,29,24,37,294,26,29,36,056,28,1*73
$GBGSV,3,2,12,45,30,111,24,44,18,188,18,33,15,292,22,14,13,266,16,1*7F
$GBGSV,3,3,12,41,07,338,18,42,06,242,12,13,02,317,16,08,01,307,,1*7E
$GNRMC,003612.000,A,4910.426548,N,12304.401036,W,0.02,156.72,041224,,,D,V*1E
$GNVTG,156.72,T,,M,0.02,N,0.03,K,D*20
$PAIRLOG,Full*51
$GNGGA,003613.000,4910.426584,N,12304.401000,W,2,33,0.45,-0.012,M,-16.817,M,,*6B
$GNGLL,4910.426584,N,12304.401000,W,003613.000,A,D*53
$GNGSA,A,3,22,17,14,19,13,24,15,02,30,21,,,0.84,0.45,0.71,1*03
$GNGSA,A,3,79,88,80,78,71,69,,,,,,,0.84,0.45,0.71,2*09
$GNGSA,A,3,21,04,06,09,31,26,19,15,,,,,0.84,0.45,0.71,3*0A
$GNGSA,A,3,26,35,24,29,45,44,33,14,42,,,,0.84,0.45,0.71,4*02
$GPGSV,4,1,14,22,76,052,29,17,74,120,31,14,54,077,32,19,53,192,29,1*67
$GPGSV,4,2,14,13,34,218,29,46,33,188,28,24,30,306,29,15,28,259,26,1*64
$GPGSV,4,3,14,02,23,048,21,30,22,140,25,21,12,033,24,06,04,161,17,1*6F
$GPGSV,4,4,14,10,02,343,,12,01,266,,1*66
$GLGSV,2,1,07,79,71,036,39,88,39,046,38,80,36,302,35,78,27,096,15,1*73
$GLGSV,2,2,07,70,27,296,,71,13,344,29,69,11,232,30,1*43
$GAGSV,2,1,08,21,46,075,23,04,40,247,26,06,38,282,25,09,28,308,22,7*75
$GAGSV,2,2,08,31,24,268,24,26,20,134,22,19,12,191,18,15,12,027,19,7*74
$GBGSV,3,1,12,26,88,075,31,35,52,145,29,24,37,294,26,29,36,056,28,1*77
$GBGSV,3,2,12,45,30,111,24,44,19,188,18,33,15,291,22,14,13,266,16,1*7D
$GBGSV,3,3,12,41,07,338,18,42,06,241,13,13,02,317,16,08,01,307,,1*7C
$GNRMC,003613.000,A,4910.426584,N,12304.401000,W,0.01,156.72,041224,,,D,V*19
$GNVTG,156.72,T,,M,0.01,N,0.02,K,D*22
$PAIRLOG,Full*51
$GNGGA,003614.000,4910.426602,N,12304.401036,W,2,33,0.45,0.046,M,-16.817,M,,*48
$GNGLL,4910.426602,N,12304.401036,W,003614.000,A,D*5C
$GNGSA,A,3,22,17,14,19,13,24,15,02,30,21,,,0.84,0.45,0.71,1*03
$GNGSA,A,3,79,88,80,78,71,69,,,,,,,0.84,0.45,0.71,2*09
$GNGSA,A,3,21,04,06,09,31,26,19,15,,,,,0.84,0.45,0.71,3*0A
$GNGSA,A,3,26,35,24,29,45,44,33,14,42,,,,0.84,0.45,0.71,4*02
$GPGSV,4,1,14,22,76,052,29,17,74,120,31,14,54,077,32,19,53,192,28,1*66
$GPGSV,4,2,14,13,34,218,29,46,33,188,28,24,30,306,29,15,28,259,26,1*64
$GPGSV,4,3,14,02,23,048,21,30,22,140,24,21,12,033,24,06,04,161,17,1*6E
$GPGSV,4,4,14,10,02,343,,12,01,266,,1*66
$GLGSV,2,1,07,79,71,036,39,88,39,046,38,80,36,302,35,78,27,096,17,1*71
$GLGSV,2,2,07,70,27,296,,71,13,344,29,69,11,232,30,1*43
$GAGSV,2,1,08,21,46,075,23,04,40,247,26,06,38,282,25,09,28,308,22,7*75
$GAGSV,2,2,08,31,24,268,24,26,20,134,22,19,12,191,18,15,12,027,19,7*74
$GBGSV,3,1,12,26,88,075,32,35,52,145,29,24,37,294,27,29,36,056,28,1*75
$GBGSV,3,2,12,45,30,111,24,44,19,188,19,33,15,291,22,14,13,266,16,1*7C
$GBGSV,3,3,12,41,07,338,18,42,06,241,13,13,02,317,16,08,01,307,,1*7C
$GNRMC,003614.000,A,4910.426602,N,12304.401036,W,0.01,156.72,041224,,,D,V*16
$GNVTG,156.72,T,,M,0.01,N,0.03,K,D*23
$PAIRLOG,Full*51
$GNGGA,003615.000,4910.426704,N,12304.401036,W,2,33,0.45,0.094,M,-16.816,M,,*40
$GNGLL,4910.426704,N,12304.401036,W,003615.000,A,D*5A
$GNGSA,A,3,22,17,14,19,13,24,15,02,30,21,,,0.84,0.45,0.71,1*03
$GNGSA,A,3,79,88,80,78,71,69,,,,,,,0.84,0.45,0.71,2*09
$GNGSA,A,3,21,04,06,09,31,26,19,15,,,,,0.84,0.45,0.71,3*0A
$GNGSA,A,3,26,35,24,29,45,44,33,14,42,,,,0.84,0.45,0.71,4*02
$GPGSV,4,1,14,22,76,052,29,17,74,120,31,14,54,077,32,19,53,192,28,1*66
$GPGSV,4,2,14,13,34,218,29,46,33,188,28,24,30,306,28,15,28,259,26,1*65
$GPGSV,4,3,14,02,23,048,21,30,22,140,25,21,12,033,24,06,04,161,17,1*6F
$GPGSV,4,4,14,10,02,343,,12,01,266,,1*66
$GLGSV,2,1,07,79,71,036,39,88,39,046,38,80,36,302,35,78,27,096,15,1*73
$GLGSV,2,2,07,70,27,296,,71,13,344,29,69,11,232,30,1*43
$GAGSV,2,1,08,21,46,075,23,04,40,247,26,06,38,282,25,09,28,308,22,7*75
$GAGSV,2,2,08,31,24,268,24,26,20,134,22,19,12,191,18,15,12,027,19,7*74
$GBGSV,3,1,12,26,88,075,32,35,52,145,29,24,37,294,27,29,36,056,29,1*74
$GBGSV,3,2,12,45,30,111,24,44,19,188,20,33,15,291,23,14,13,266,16,1*77
$GBGSV,3,3,12,41,07,338,18,42,06,241,13,13,02,317,16,08,01,307,,1*7C
$GNRMC,003615.000,A,4910.426704,N,12304.401036,W,0.02,156.72,041224,,,D,V*13
$GNVTG,156.72,T,,M,0.02,N,0.04,K,D*27
$PAIRLOG,Full*51
$GNGGA,003616.000,4910.426746,N,12304.401096,W,2,33,0.45,0.083,M,-16.816,M,,*49
$GNGLL,4910.426746,N,12304.401096,W,003616.000,A,D*55
$GNGSA,A,3,22,17,14,19,13,24,15,02,30,21,,,0.84,0.45,0.71,1*03
$GNGSA,A,3,79,88,80,78,71,69,,,,,,,0.84,0.45,0.71,2*09
$GNGSA,A,3,21,04,06,09,31,26,19,15,,,,,0.84,0.45,0.71,3*0A
$GNGSA,A,3,26,35,24,29,45,44,33,14,42,,,,0.84,0.45,0.71,4*02
$GPGSV,4,1,14,22,76,052,29,17,74,120,31,14,54,077,32,19,53,192,28,1*66
$GPGSV,4,2,14,13,34,218,29,46,33,188,28,24,30,306,28,15,28,259,26,1*65
$GPGSV,4,3,14,02,23,048,21,30,22,140,24,21,12,033,24,06,04,161,17,1*6E
$GPGSV,4,4,14,10,02,343,,12,01,266,,1*66
$GLGSV,2,1,07,79,71,036,39,88,39,046,39,80,36,302,35,78,27,096,14,1*73
$GLGSV,2,2,07,70,27,296,,71,13,344,29,69,11,232,30,1*43
$GAGSV,2,1,08,21,46,075,23,04,40,247,26,06,38,282,25,09,28,308,22,7*75
$GAGSV,2,2,08,31,24,268,24,26,20,134,22,19,12,191,18,15,12,027,19,7*74
$GBGSV,3,1,12,26,88,075,32,35,52,145,30,24,37,294,28,29,36,056,29,1*73
$GBGSV,3,2,12,45,30,111,25,44,19,188,20,33,15,291,23,14,13,266,17,1*77
$GBGSV,3,3,12,41,07,338,18,42,06,241,14,13,02,317,16,08,01,307,,1*7B
$GNRMC,003616.000,A,4910.426746,N,12304.401096,W,0.03,156.72,041224,,,D,V*1D
$GNVTG,156.72,T,,M,0.03,N,0.05,K,D*27
$PAIRLOG,Full*51
$GNGGA,003617.000,4910.426770,N,12304.401096,W,2,33,0.45,0.008,M,-16.816,M,,*4E
$GNGLL,4910.426770,N,12304.401096,W,003617.000,A,D*51
$GNGSA,A,3,22,17,14,19,13,24,15,02,30,21,,,0.84,0.45,0.71,1*03
