$GNGGA,182526.000,4910.426914,N,12304.402620,W,2,31,0.50,7.120,M,-16.817,M,,*48
$GNGLL,4910.426914,N,12304.402620,W,182526.000,A,D*5C
$GNGSA,A,3,04,09,16,07,26,03,06,11,31,20,,,0.84,0.50,0.67,1*05
$GNGSA,A,3,68,78,69,67,79,85,,,,,,,0.84,0.50,0.67,2*06
$GNGSA,A,3,09,06,04,31,05,34,36,21,,,,,0.84,0.50,0.67,3*06
$GNGSA,A,3,32,23,37,20,25,41,38,,,,,,0.84,0.50,0.67,4*03
$GPGSV,4,1,14,04,75,092,36,09,71,302,37,16,48,088,33,07,40,243,34,1*6C
$GPGSV,4,2,14,48,33,182,30,26,29,052,31,03,27,174,30,06,16,271,19,1*63
$GPGSV,4,3,14,11,15,310,26,31,12,062,28,20,08,326,28,30,05,243,18,1*66
$GPGSV,4,4,14,29,02,009,,27,01,116,18,1*6A
$GLGSV,2,1,07,68,81,073,31,78,78,137,18,69,40,318,27,67,32,126,24,1*76
$GLGSV,2,2,07,79,30,201,25,85,13,334,16,84,07,284,,1*4F
$GAGSV,3,1,10,09,78,315,33,06,73,092,34,04,46,102,30,31,44,146,30,7*7B
$GAGSV,3,2,10,05,25,291,26,34,20,301,23,36,16,249,23,24,08,186,21,7*77
$GAGSV,3,3,10,21,06,031,21,15,04,348,19,7*71
$GBGSV,2,1,08,32,73,167,39,23,70,092,38,37,44,206,35,20,43,305,37,1*75
$GBGSV,2,2,08,25,23,051,32,41,19,139,26,38,06,333,26,04,01,262,,1*76
$GNRMC,182526.000,A,4910.426914,N,12304.402620,W,0.01,0.00,051224,,,D,V*10
$GNVTG,0.00,T,,M,0.01,N,0.03,K,D*24
$GNGGA,182527.000,4910.426854,N,12304.402638,W,2,31,0.50,7.016,M,-16.816,M,,*40
$GNGLL,4910.426854,N,12304.402638,W,182527.000,A,D*51
$GNGSA,A,3,04,09,16,07,26,03,06,11,31,20,,,0.84,0.50,0.67,1*05
$GNGSA,A,3,68,78,69,67,79,85,,,,,,,0.84,0.50,0.67,2*06
$GNGSA,A,3,09,06,04,31,05,34,36,21,,,,,0.84,0.50,0.67,3*06
$GNGSA,A,3,32,23,37,20,25,41,38,,,,,,0.84,0.50,0.67,4*03
$GPGSV,4,1,14,04,75,092,36,09,71,302,37,16,48,088,33,07,40,243,34,1*6C
$GPGSV,4,2,14,48,33,182,30,26,29,052,31,03,27,174,30,06,16,271,19,1*63
$GPGSV,4,3,14,11,15,310,27,31,12,062,28,20,08,326,28,30,05,243,18,1*67
$GPGSV,4,4,14,29,02,009,,27,01,116,19,1*6B
$GLGSV,2,1,07,68,81,073,31,78,78,137,17,69,40,318,27,67,32,126,24,1*79
$GLGSV,2,2,07,79,30,201,25,85,13,334,16,84,07,284,,1*4F
$GAGSV,3,1,10,09,78,315,33,06,73,092,33,04,46,102,30,31,44,146,30,7*7C
$GAGSV,3,2,10,05,25,291,26,34,20,301,23,36,16,249,22,24,08,186,21,7*76
$GAGSV,3,3,10,21,06,031,21,15,04,348,19,7*71
$GBGSV,2,1,08,32,73,167,39,23,70,092,38,37,44,206,35,20,43,305,37,1*75
$GBGSV,2,2,08,25,23,051,32,41,19,139,27,38,06,333,26,04,01,262,,1*77
$GNRMC,182527.000,A,4910.426854,N,12304.402638,W,0.01,0.00,051224,,,D,V*1D
$GNVTG,0.00,T,,M,0.01,N,0.02,K,D*25
$GNGGA,182528.000,4910.426830,N,12304.402602,W,2,31,0.50,6.929,M,-16.816,M,,*40
$GNGLL,4910.426830,N,12304.402602,W,182528.000,A,D*55
$GNGSA,A,3,04,09,16,07,26,03,06,11,31,20,,,0.84,0.50,0.67,1*05
$GNGSA,A,3,68,78,69,67,79,85,,,,,,,0.84,0.50,0.67,2*06
$GNGSA,A,3,09,06,04,31,05,34,36,21,,,,,0.84,0.50,0.67,3*06
$GNGSA,A,3,32,23,37,20,25,41,38,,,,,,0.84,0.50,0.67,4*03
$GPGSV,4,1,14,04,75,092,36,09,71,302,37,16,48,088,33,07,40,243,34,1*6C
$GPGSV,4,2,14,48,33,182,30,26,29,052,31,03,27,174,30,06,16,271,17,1*6D
$GPGSV,4,3,14,11,15,310,28,31,12,062,28,20,08,326,28,30,05,243,18,1*68
$GPGSV,4,4,14,29,02,009,,27,01,116,19,1*6B
$GLGSV,2,1,07,68,81,073,31,78,78,137,17,69,40,318,27,67,32,126,24,1*79
$GLGSV,2,2,07,79,30,201,25,85,13,334,16,84,07,284,,1*4F
$GAGSV,3,1,10,09,78,315,33,06,73,092,33,04,46,102,30,31,44,146,30,7*7C
$GAGSV,3,2,10,05,25,291,25,34,20,301,23,36,16,249,22,24,08,186,21,7*75
$GAGSV,3,3,10,21,06,031,21,15,04,348,19,7*71
$GBGSV,2,1,08,32,73,167,39,23,70,092,38,37,44,206,35,20,43,305,37,1*75
$GBGSV,2,2,08,25,23,051,32,41,19,139,27,38,06,333,26,04,01,262,,1*77
$GNRMC,182528.000,A,4910.426830,N,12304.402602,W,0.01,0.00,051224,,,D,V*19
$GNVTG,0.00,T,,M,0.01,N,0.03,K,D*24
$GNGGA,182529.000,4910.426800,N,12304.402572,W,2,31,0.50,6.896,M,-16.816,M,,*43
$GNGLL,4910.426800,N,12304.402572,W,182529.000,A,D*53
$GNGSA,A,3,04,09,16,07,26,03,06,11,31,20,,,0.84,0.50,0.67,1*05
$GNGSA,A,3,68,78,69,67,79,85,,,,,,,0.84,0.50,0.67,2*06
$GNGSA,A,3,09,06,04,31,05,34,36,21,,,,,0.84,0.50,0.67,3*06
$GNGSA,A,3,32,23,37,20,25,41,38,,,,,,0.84,0.50,0.67,4*03
$GPGSV,4,1,14,04,75,092,36,09,71,302,37,16,48,088,33,07,40,243,34,1*6C
$GPGSV,4,2,14,48,33,182,30,26,29,052,31,03,27,174,31,06,16,271,18,1*63
$GPGSV,4,3,14,11,15,310,28,31,12,062,28,20,08,326,28,30,05,243,18,1*68
$GPGSV,4,4,14,29,02,009,,27,01,116,19,1*6B
$GLGSV,2,1,07,68,81,073,31,78,78,137,17,69,40,318,27,67,32,126,24,1*79
$GLGSV,2,2,07,79,30,201,25,85,13,334,16,84,07,284,,1*4F
$GAGSV,3,1,10,09,78,315,33,06,73,092,33,04,46,102,30,31,44,146,30,7*7C
$GAGSV,3,2,10,05,25,291,25,34,20,301,23,36,16,249,22,24,08,186,21,7*75
$GAGSV,3,3,10,21,06,031,21,15,04,348,19,7*71
$GBGSV,2,1,08,32,73,167,39,23,70,092,38,37,44,206,36,20,43,305,37,1*76
$GBGSV,2,2,08,25,23,051,32,41,19,139,27,38,06,333,26,04,01,262,,1*77
$GNRMC,182529.000,A,4910.426800,N,12304.402572,W,0.01,0.00,051224,,,D,V*1F
$GNVTG,0.00,T,,M,0.01,N,0.03,K,D*24
$GNGGA,182530.000,4910.426692,N,12304.402530,W,2,31,0.50,6.868,M,-16.816,M,,*49
$GNGLL,4910.426692,N,12304.402530,W,182530.000,A,D*58
$GNGSA,A,3,04,09,16,07,26,03,06,11,31,20,,,0.84,0.50,0.67,1*05
$GNGSA,A,3,68,78,69,67,79,85,,,,,,,0.84,0.50,0.67,2*06
$GNGSA,A,3,09,06,04,31,05,34,36,21,,,,,0.84,0.50,0.67,3*06
$GNGSA,A,3,32,23,37,20,25,41,38,,,,,,0.84,0.50,0.67,4*03
$GPGSV,4,1,14,04,75,092,36,09,71,302,37,16,48,088,33,07,40,243,34,1*6C
$GPGSV,4,2,14,48,33,182,30,26,29,052,31,03,27,174,31,06,16,271,18,1*63
$GPGSV,4,3,14,11,15,310,28,31,12,062,28,20,08,326,28,30,05,243,18,1*68
$GPGSV,4,4,14,29,02,009,,27,02,116,19,1*68
$GLGSV,2,1,07,68,81,073,31,78,78,137,17,69,40,318,27,67,32,126,24,1*79
$GLGSV,2,2,07,79,30,201,25,85,13,334,15,84,07,284,,1*4C
$GAGSV,3,1,10,09,78,315,33,06,73,092,33,04,46,102,30,31,44,146,30,7*7C
$GAGSV,3,2,10,05,25,291,25,34,20,301,23,36,16,249,22,24,08,186,21,7*75
$GAGSV,3,3,10,21,06,031,21,15,04,348,19,7*71
$GBGSV,2,1,08,32,73,167,39,23,70,092,38,37,44,206,36,20,43,305,37,1*76
$GBGSV,2,2,08,25,23,051,32,41,19,139,27,38,06,333,26,04,01,262,,1*77
$GNRMC,182530.000,A,4910.426692,N,12304.402530,W,0.02,0.00,051224,,,D,V*17
$GNVTG,0.00,T,,M,0.02,N,0.04,K,D*20
$GNGGA,182531.000,4910.426578,N,12304.402476,W,2,31,0.50,6.847,M,-16.816,M,,*41
