$GNRMC,003753.000,A,4910.425288,N,12304.398978,W,0.08,198.02,080125,,,D,V*16
$GNGGA,003753.000,4910.425288,N,12304.398978,W,2,46,0.58,18.208,M,-16.816,M,,*75
$GNVTG,198.02,T,,M,0.08,N,0.15,K,D*28
$GNGSA,A,3,06,12,19,24,11,17,25,03,32,,,,1.02,0.58,0.84,1*0B
$GNGSA,A,3,85,75,67,,,,,,,,,,1.02,0.58,0.84,2*0E
$GNGSA,A,3,30,02,36,34,27,29,11,07,,,,,1.02,0.58,0.84,3*0B
$GNGSA,A,3,44,24,12,35,25,26,34,39,,,,,1.02,0.58,0.84,4*0B
$GPGSV,3,1,10,06,60,111,37,12,56,298,36,19,52,061,35,24,46,226,34,1*6F
$GPGSV,3,2,10,11,41,168,34,44,33,171,31,17,22,064,29,25,17,297,27,1*6B
$GPGSV,3,3,10,03,10,033,26,32,09,318,28,1*6B
$GPGSV,2,1,05,06,60,111,29,24,46,226,26,11,41,168,26,25,17,297,18,8*6D
$GPGSV,2,2,05,32,09,318,17,8*5C
$GLGSV,1,1,04,85,76,060,27,75,63,133,30,86,41,203,19,67,09,326,13,1*79
$GAGSV,3,1,11,30,68,300,35,02,54,108,33,36,52,075,31,34,44,162,31,7*71
$GAGSV,3,2,11,27,16,294,25,29,14,310,23,11,13,035,20,07,11,258,23,7*7A
$GAGSV,3,3,11,15,04,194,20,25,04,112,14,19,02,350,,7*45
$GAGSV,2,1,06,30,68,300,23,02,54,108,26,36,52,075,26,34,44,162,25,1*70
$GAGSV,2,2,06,27,16,294,17,07,11,258,15,1*74
$GBGSV,3,1,11,44,80,161,34,24,73,206,34,12,57,209,29,35,42,058,31,1*72
$GBGSV,3,2,11,25,37,305,29,26,29,150,26,34,29,222,26,39,10,330,25,1*70
$GBGSV,3,3,11,11,06,221,19,20,02,028,14,16,01,334,,1*44
$GBGSV,2,1,07,44,80,161,27,24,73,206,28,35,42,058,23,25,37,305,23,5*79
$GBGSV,2,2,07,26,29,150,18,34,29,222,21,39,10,330,15,5*45
$GNGLL,4910.425288,N,12304.398978,W,003753.000,A,D*5F
$GNRMC,003754.000,A,4910.425312,N,12304.399116,W,0.09,198.02,080125,,,D,V*13
$GNGGA,003754.000,4910.425312,N,12304.399116,W,2,46,0.58,18.148,M,-16.816,M,,*76
$GNVTG,198.02,T,,M,0.09,N,0.17,K,D*2B
$GNGSA,A,3,06,12,19,24,11,17,25,03,32,,,,1.02,0.58,0.84,1*0B
$GNGSA,A,3,85,75,67,,,,,,,,,,1.02,0.58,0.84,2*0E
$GNGSA,A,3,30,02,36,34,27,29,11,07,,,,,1.02,0.58,0.84,3*0B
$GNGSA,A,3,44,24,12,35,25,34,26,39,,,,,1.02,0.58,0.84,4*0B
$GPGSV,3,1,10,06,60,111,37,12,56,298,36,19,52,061,35,24,46,226,34,1*6F
$GPGSV,3,2,10,11,41,168,34,44,33,171,31,17,22,064,29,25,17,297,27,1*6B
$GPGSV,3,3,10,03,10,033,25,32,09,318,28,1*68
$GPGSV,2,1,05,06,60,111,29,24,46,226,27,11,41,168,26,25,17,297,18,8*6C
$GPGSV,2,2,05,32,09,318,17,8*5C
$GLGSV,2,1,05,85,76,060,27,75,63,133,30,86,41,203,19,84,22,035,,1*7C
$GLGSV,2,2,05,67,09,326,14,1*47
$GAGSV,3,1,11,30,68,300,35,02,54,108,33,36,52,075,31,34,44,162,31,7*71
$GAGSV,3,2,11,27,16,294,24,29,14,310,22,11,13,035,20,07,11,258,23,7*7A
$GAGSV,3,3,11,15,04,194,20,25,04,112,14,19,02,350,,7*45
$GAGSV,2,1,06,30,68,300,23,02,54,108,26,36,52,075,26,34,44,162,25,1*70
$GAGSV,2,2,06,27,16,294,17,07,11,258,16,1*77
$GBGSV,3,1,11,44,80,161,34,24,73,206,34,12,57,209,29,35,42,058,31,1*72
$GBGSV,3,2,11,25,37,305,29,34,29,222,27,26,29,150,26,39,10,330,25,1*71
$GBGSV,3,3,11,11,06,221,19,20,02,028,14,16,01,334,,1*44
$GBGSV,2,1,07,44,80,161,27,24,73,206,28,35,42,058,23,25,37,305,23,5*79
$GBGSV,2,2,07,26,29,150,18,34,29,222,21,39,10,330,16,5*46
$GNGLL,4910.425312,N,12304.399116,W,003754.000,A,D*5B
$GNRMC,003755.000,A,4910.425348,N,12304.399194,W,0.09,198.02,080125,,,D,V*17
$GNGGA,003755.000,4910.425348,N,12304.399194,W,2,46,0.58,18.302,M,-16.816,M,,*7E
$GNVTG,198.02,T,,M,0.09,N,0.17,K,D*2B
$GNGSA,A,3,06,12,19,24,11,17,25,03,32,,,,1.02,0.58,0.84,1*0B
$GNGSA,A,3,85,75,67,,,,,,,,,,1.02,0.58,0.84,2*0E
$GNGSA,A,3,30,02,36,34,27,29,11,07,,,,,1.02,0.58,0.84,3*0B
$GNGSA,A,3,44,24,12,35,25,34,26,39,,,,,1.02,0.58,0.84,4*0B
$GPGSV,3,1,10,06,60,111,37,12,56,298,37,19,52,061,35,24,46,226,34,1*6E
$GPGSV,3,2,10,11,41,168,34,44,33,171,31,17,22,064,29,25,17,297,27,1*6B
$GPGSV,3,3,10,03,10,033,25,32,09,318,28,1*68
$GPGSV,2,1,05,06,60,111,29,24,46,226,27,11,41,168,26,25,17,297,18,8*6C
$GPGSV,2,2,05,32,09,318,17,8*5C
$GLGSV,2,1,05,85,76,060,27,75,63,133,31,86,41,203,19,84,22,035,,1*7D
$GLGSV,2,2,05,67,09,326,15,1*46
$GAGSV,3,1,11,30,68,300,35,02,54,108,33,36,52,075,31,34,44,162,32,7*72
$GAGSV,3,2,11,27,16,294,24,29,14,310,22,11,13,035,20,07,11,258,23,7*7A
$GAGSV,3,3,11,15,04,194,20,25,04,112,14,19,02,350,,7*45
$GAGSV,2,1,06,30,68,300,24,02,54,108,26,36,52,075,26,34,44,162,25,1*77
$GAGSV,2,2,06,27,16,294,17,07,11,258,16,1*77
$GBGSV,3,1,11,44,80,161,34,24,73,206,34,12,57,209,29,35,42,058,31,1*72
$GBGSV,3,2,11,25,37,305,29,34,29,222,27,26,29,150,26,39,10,330,25,1*71
$GBGSV,3,3,11,11,06,221,19,20,02,028,14,16,01,334,,1*44
$GBGSV,2,1,07,44,80,161,27,24,73,206,28,35,42,058,23,25,37,305,23,5*79
$GBGSV,2,2,07,26,29,150,18,34,29,222,21,39,10,330,16,5*46
$GNGLL,4910.425348,N,12304.399194,W,003755.000,A,D*5F
$GNRMC,003756.000,A,4910.425450,N,12304.399236,W,0.09,198.02,080125,,,D,V*11
$GNGGA,003756.000,4910.425450,N,12304.399236,W,2,46,0.58,18.710,M,-16.817,M,,*7E
$GNVTG,198.02,T,,M,0.09,N,0.17,K,D*2B
$GNGSA,A,3,06,12,19,24,11,17,25,03,32,,,,1.02,0.58,0.84,1*0B
$GNGSA,A,3,85,75,67,,,,,,,,,,1.02,0.58,0.84,2*0E
$GNGSA,A,3,30,02,36,34,27,29,11,07,,,,,1.02,0.58,0.84,3*0B
$GNGSA,A,3,44,24,12,35,25,34,26,39,,,,,1.02,0.58,0.84,4*0B
$GPGSV,3,1,10,06,60,111,37,12,56,298,37,19,52,061,35,24,46,226,34,1*6E
$GPGSV,3,2,10,11,41,168,34,44,33,171,31,17,22,064,28,25,17,297,27,1*6A
$GPGSV,3,3,10,03,10,033,25,32,09,318,28,1*68
$GPGSV,2,1,05,06,60,111,29,24,46,226,26,11,41,168,25,25,17,297,18,8*6E
$GPGSV,2,2,05,32,09,318,17,8*5C
$GLGSV,2,1,05,85,76,060,27,75,63,133,31,86,41,203,19,84,22,035,,1*7D
$GLGSV,2,2,05,67,09,326,16,1*45
$GAGSV,3,1,11,30,68,300,35,02,54,108,33,36,52,075,31,34,44,162,32,7*72
$GAGSV,3,2,11,27,16,294,24,29,14,310,22,11,13,035,20,07,11,258,23,7*7A
$GAGSV,3,3,11,15,04,194,20,25,04,112,14,19,02,350,,7*45
$GAGSV,2,1,06,30,68,300,24,02,54,108,26,36,52,075,26,34,44,162,25,1*77
$GAGSV,2,2,06,27,16,294,17,07,11,258,16,1*77
$GBGSV,3,1,11,44,80,161,34,24,73,206,34,12,57,209,29,35,42,058,31,1*72
$GBGSV,3,2,11,25,37,305,29,34,29,222,27,26,29,150,26,39,10,330,26,1*72
$GBGSV,3,3,11,11,06,221,19,20,02,028,14,16,01,334,,1*44
$GBGSV,2,1,07,44,80,161,27,24,73,206,28,35,42,058,22,25,37,305,23,5*78
$GBGSV,2,2,07,26,29,150,18,34,29,222,21,39,10,330,15,5*45
$GNGLL,4910.425450,N,12304.399236,W,003756.000,A,D*59
$GNRMC,003757.000,A,4910.425402,N,12304.399332,W,0.09,198.02,080125,,,D,V*12
$GNGGA,003757.000,4910.425402,N,12304.399332,W,2,46,0.58,18.790,M,-16.816,M,,*74
$GNVTG,198.02,T,,M,0.09,N,0.16,K,D*2A
$GNGSA,A,3,06,12,19,24,11,17,25,03,32,,,,1.02,0.58,0.84,1*0B
$GNGSA,A,3,85,75,67,,,,,,,,,,1.02,0.58,0.84,2*0E
$GNGSA,A,3,30,02,36,34,27,29,11,07,,,,,1.02,0.58,0.84,3*0B
$GNGSA,A,3,44,24,12,35,25,26,34,39,,,,,1.02,0.58,0.84,4*0B
$GPGSV,3,1,10,06,60,111,37,12,56,298,37,19,52,061,35,24,46,226,34,1*6E
$GPGSV,3,2,10,11,41,168,34,44,33,171,31,17,22,064,28,25,17,297,27,1*6A
$GPGSV,3,3,10,03,10,033,25,32,09,318,28,1*68
$GPGSV,2,1,05,06,60,111,29,24,46,226,26,11,41,168,25,25,17,297,18,8*6E
$GPGSV,2,2,05,32,09,318,17,8*5C
$GLGSV,1,1,04,85,76,060,27,75,63,133,31,86,41,203,19,67,09,326,15,1*7E
$GAGSV,3,1,11,30,68,300,35,02,54,108,33,36,52,075,32,34,44,162,32,7*71
$GAGSV,3,2,11,27,16,294,24,29,14,310,22,11,13,035,20,07,11,258,23,7*7A
$GAGSV,3,3,11,15,04,194,20,25,04,112,14,19,02,350,,7*45
$GAGSV,2,1,06,30,68,300,24,02,54,108,26,36,52,075,26,34,44,162,25,1*77
$GAGSV,2,2,06,27,16,294,17,07,11,258,16,1*77
$GBGSV,3,1,11,44,80,161,34,24,73,206,34,12,57,209,29,35,42,058,31,1*72
$GBGSV,3,2,11,25,37,305,29,26,29,150,26,34,29,222,27,39,10,330,26,1*72
$GBGSV,3,3,11,11,06,221,19,20,02,028,14,16,01,334,,1*44
$GBGSV,2,1,07,44,80,161,27,24,73,206,28,35,42,058,22,25,37,305,23,5*78
$GBGSV,2,2,07,26,29,150,18,34,29,222,21,39,10,330,15,5*45
$GNGLL,4910.425402,N,12304.399332,W,003757.000,A,D*5A
$GNRMC,003758.000,A,4910.425498,N,12304.399356,W,0.08,198.02,080125,,,D,V*1D
$GNGGA,003758.000,4910.425498,N,12304.399356,W,2,46,0.58,18.673,M,-16.816,M,,*76
$GNVTG,198.02,T,,M,0.08,N,0.15,K,D*28
$GNGSA,A,3,06,12,19,24,11,17,25,03,32,,,,1.02,0.58,0.84,1*0B
$GNGSA,A,3,85,75,67,,,,,,,,,,1.02,0.58,0.84,2*0E
$GNGSA,A,3,30,02,36,34,27,29,11,07,,,,,1.02,0.58,0.84,3*0B
$GNGSA,A,3,44,24,12,35,25,26,34,39,,,,,1.02,0.58,0.84,4*0B
$GPGSV,3,1,10,06,60,111,37,12,56,298,37,19,52,061,35,24,46,226,35,1*6F
$GPGSV,3,2,10,11,41,168,34,44,33,171,31,17,22,064,28,25,17,297,27,1*6A
$GPGSV,3,3,10,03,10,033,26,32,09,318,29,1*6A
$GPGSV,2,1,05,06,60,111,29,24,46,226,26,11,41,168,25,25,17,297,18,8*6E
$GPGSV,2,2,05,32,09,318,17,8*5C
$GLGSV,1,1,04,85,76,060,27,75,63,133,31,86,41,203,20,67,09,326,15,1*74
$GAGSV,3,1,11,30,68,300,35,02,54,108,34,36,52,075,32,34,44,162,32,7*76
$GAGSV,3,2,11,27,16,294,24,29,14,310,23,11,13,035,21,07,11,258,23,7*7A
$GAGSV,3,3,11,15,04,194,20,25,04,112,14,19,02,350,,7*45
$GAGSV,2,1,06,30,68,300,24,02,54,108,26,36,52,075,26,34,44,162,25,1*77
$GAGSV,2,2,06,27,16,294,17,07,11,258,16,1*77
$GBGSV,3,1,10,44,80,161,34,24,73,206,34,12,57,209,29,35,42,058,31,1*73
$GBGSV,3,2,10,25,37,305,29,26,29,150,26,34,29,222,27,39,10,330,26,1*73
$GBGSV,3,3,10,11,06,221,19,20,02,028,14,1*77
$GBGSV,2,1,07,44,80,161,27,24,73,206,28,35,42,058,23,25,37,305,23,5*79
$GBGSV,2,2,07,26,29,150,18,34,29,222,21,39,10,330,15,5*45
$GNGLL,4910.425498,N,12304.399356,W,003758.000,A,D*54
$GNRMC,003759.000,A,4910.425678,N,12304.399500,W,0.09,198.02,080125,,,D,V*14
$GNGGA,003759.000,4910.425678,N,12304.399500,W,2,46,0.58,18.912,M,-16.816,M,,*76
$GNVTG,198.02,T,,M,0.09,N,0.16,K,D*2A
$GNGSA,A,3,06,12,19,24,11,17,25,03,32,,,,1.01,0.58,0.83,1*0F
$GNGSA,A,3,85,75,67,,,,,,,,,,1.01,0.58,0.83,2*0A
$GNGSA,A,3,30,02,36,34,27,29,11,07,,,,,1.01,0.58,0.83,3*0F
$GNGSA,A,3,44,24,12,35,25,26,34,39,,,,,1.01,0.58,0.83,4*0F
$GPGSV,3,1,10,06,60,111,37,12,56,298,37,19,52,061,35,24,46,226,35,1*6F
$GPGSV,3,2,10,11,41,168,34,44,33,171,31,17,22,064,28,25,17,297,27,1*6A
$GPGSV,3,3,10,03,10,033,26,32,09,318,29,1*6A
$GPGSV,2,1,05,06,60,111,29,24,46,226,26,11,41,168,25,25,17,297,18,8*6E
$GPGSV,2,2,05,32,09,318,17,8*5C
$GLGSV,1,1,04,85,76,060,27,75,63,133,31,86,41,203,20,67,09,326,15,1*74
$GAGSV,3,1,11,30,68,300,35,02,54,108,34,36,52,075,32,34,44,162,32,7*76
$GAGSV,3,2,11,27,16,294,24,29,14,310,23,11,13,035,20,07,11,258,24,7*7C
$GAGSV,3,3,11,15,04,194,21,25,03,112,14,19,02,350,,7*43
$GAGSV,2,1,06,30,68,300,24,02,54,108,26,36,52,075,26,34,44,162,25,1*77
$GAGSV,2,2,06,27,16,294,18,07,11,258,16,1*78
$GBGSV,3,1,10,44,80,161,34,24,73,206,34,12,57,209,29,35,42,058,31,1*73
$GBGSV,3,2,10,25,37,305,29,26,29,150,26,34,29,222,27,39,10,330,26,1*73
$GBGSV,3,3,10,11,06,221,19,20,02,028,15,1*76
$GBGSV,2,1,07,44,80,161,27,24,73,206,28,35,42,058,23,25,37,305,22,5*78
$GBGSV,2,2,07,26,29,150,18,34,29,222,21,39,10,330,15,5*45
$GNGLL,4910.425678,N,12304.399500,W,003759.000,A,D*5C
$GNRMC,003800.000,A,4910.425714,N,12304.399626,W,0.09,198.02,080125,,,D,V*1B
$GNGGA,003800.000,4910.425714,N,12304.399626,W,2,46,0.58,18.638,M,-16.816,M,,*7E
$GNVTG,198.02,T,,M,0.09,N,0.17,K,D*2B
$GNGSA,A,3,06,12,19,24,11,17,25,03,32,,,,1.01,0.58,0.83,1*0F
$GNGSA,A,3,85,75,67,,,,,,,,,,1.01,0.58,0.83,2*0A
$GNGSA,A,3,30,02,36,34,27,29,11,07,,,,,1.01,0.58,0.83,3*0F
$GNGSA,A,3,44,24,12,35,25,34,26,39,,,,,1.01,0.58,0.83,4*0F
$GPGSV,3,1,10,06,60,111,37,12,56,298,38,19,52,061,36,24,46,226,35,1*63
$GPGSV,3,2,10,11,41,168,35,44,33,171,31,17,22,064,28,25,17,297,27,1*6B
$GPGSV,3,3,10,03,10,033,27,32,09,318,29,1*6B
$GPGSV,2,1,05,06,60,111,29,24,46,226,25,11,41,168,24,25,17,297,18,8*6C
$GPGSV,2,2,05,32,09,318,17,8*5C
$GLGSV,2,1,05,85,76,060,27,75,63,133,31,86,41,203,20,84,22,035,,1*77
$GLGSV,2,2,05,67,09,326,15,1*46
$GAGSV,3,1,11,30,68,300,35,02,54,108,34,36,52,075,32,34,44,162,32,7*76
$GAGSV,3,2,11,27,16,294,24,29,14,310,23,11,13,035,21,07,11,258,24,7*7D
$GAGSV,3,3,11,15,04,194,21,25,03,112,14,19,02,350,,7*43
$GAGSV,2,1,06,30,68,300,23,02,54,108,25,36,52,075,26,34,44,162,24,1*72
$GAGSV,2,2,06,27,16,294,18,07,11,258,15,1*7B
$GBGSV,3,1,10,44,80,161,34,24,73,206,34,12,57,209,29,35,42,058,31,1*73
$GBGSV,3,2,10,25,37,305,29,34,29,222,27,26,29,150,26,39,10,330,26,1*73
$GBGSV,3,3,10,11,06,221,19,20,02,028,16,1*75
$GBGSV,2,1,07,44,80,161,26,24,73,206,27,35,42,058,23,25,37,305,21,5*75
$GBGSV,2,2,07,26,29,150,18,34,29,222,21,39,10,330,15,5*45
$GNGLL,4910.425714,N,12304.399626,W,003800.000,A,D*53
$GNRMC,003801.000,A,4910.425804,N,12304.399638,W,0.10,198.02,080125,,,D,V*13
$GNGGA,003801.000,4910.425804,N,12304.399638,W,2,46,0.58,18.678,M,-16.816,M,,*7A
$GNVTG,198.02,T,,M,0.10,N,0.18,K,D*2C
$GNGSA,A,3,06,12,19,24,11,17,25,03,32,,,,1.01,0.58,0.83,1*0F
$GNGSA,A,3,85,75,67,,,,,,,,,,1.01,0.58,0.83,2*0A
$GNGSA,A,3,30,02,36,34,27,29,11,07,,,,,1.01,0.58,0.83,3*0F
$GNGSA,A,3,44,24,12,35,25,26,34,39,,,,,1.01,0.58,0.83,4*0F
$GPGSV,3,1,10,06,60,111,37,12,56,298,38,19,52,061,36,24,46,226,35,1*63
$GPGSV,3,2,10,11,41,168,35,44,33,171,31,17,22,064,28,25,17,297,28,1*64
$GPGSV,3,3,10,03,10,033,27,32,09,318,29,1*6B
$GPGSV,2,1,05,06,60,111,29,24,46,226,25,11,41,168,24,25,17,297,18,8*6C
$GPGSV,2,2,05,32,09,318,17,8*5C
$GLGSV,1,1,04,85,76,060,27,75,63,133,30,86,41,203,20,67,09,326,15,1*75
$GAGSV,3,1,11,30,68,300,36,02,54,108,34,36,52,075,32,34,44,162,32,7*75
$GAGSV,3,2,11,27,17,294,25,29,14,310,23,11,13,035,21,07,11,258,24,7*7D
$GAGSV,3,3,11,15,04,194,21,25,03,112,14,19,02,350,,7*43
$GAGSV,2,1,06,30,68,300,23,02,54,108,25,36,52,075,25,34,44,162,24,1*71
$GAGSV,2,2,06,27,17,294,18,07,11,258,15,1*7A
$GBGSV,3,1,11,44,80,161,34,24,73,206,34,12,57,209,29,35,42,058,31,1*72
$GBGSV,3,2,11,25,37,305,29,26,29,150,26,34,29,222,27,39,10,330,26,1*72
$GBGSV,3,3,11,11,06,221,19,20,02,028,16,16,01,334,,1*46
$GBGSV,2,1,07,44,80,161,26,24,73,206,27,35,42,058,23,25,37,305,21,5*75
$GBGSV,2,2,07,26,29,150,18,34,29,222,21,39,10,330,15,5*45
$GNGLL,4910.425804,N,12304.399638,W,003801.000,A,D*53
$GNRMC,003802.000,A,4910.425882,N,12304.399650,W,0.10,198.02,080125,,,D,V*10
$GNGGA,003802.000,4910.425882,N,12304.399650,W,2,46,0.58,18.915,M,-16.816,M,,*7D
$GNVTG,198.02,T,,M,0.10,N,0.18,K,D*2C
$GNGSA,A,3,06,12,19,24,11,17,25,03,32,,,,1.01,0.58,0.83,1*0F
$GNGSA,A,3,85,75,67,,,,,,,,,,1.01,0.58,0.83,2*0A
$GNGSA,A,3,30,02,36,34,27,29,11,07,,,,,1.01,0.58,0.83,3*0F
$GNGSA,A,3,44,24,12,35,25,26,34,39,,,,,1.01,0.58,0.83,4*0F
$GPGSV,3,1,10,06,60,111,37,12,56,298,38,19,52,061,36,24,46,226,35,1*63
$GPGSV,3,2,10,11,41,168,35,44,33,171,31,17,22,064,27,25,17,297,28,1*6B
$GPGSV,3,3,10,03,10,033,27,32,09,318,29,1*6B
$GPGSV,2,1,05,06,60,111,29,24,46,226,26,11,41,168,24,25,17,297,18,8*6F
$GPGSV,2,2,05,32,09,318,17,8*5C
$GLGSV,1,1,04,85,76,060,27,75,63,133,30,86,41,203,20,67,09,326,15,1*75
$GAGSV,3,1,11,30,68,300,36,02,54,108,34,36,52,075,32,34,44,162,32,7*75
$GAGSV,3,2,11,27,17,294,25,29,14,310,23,11,13,035,21,07,11,258,24,7*7D
$GAGSV,3,3,11,15,04,194,21,25,03,112,14,19,02,350,,7*43
$GAGSV,2,1,06,30,68,300,23,02,54,108,26,36,52,075,25,34,44,162,24,1*72
$GAGSV,2,2,06,27,17,294,18,07,11,258,15,1*7A
$GBGSV,3,1,10,44,80,161,34,24,73,206,34,12,57,209,29,35,42,058,31,1*73
$GBGSV,3,2,10,25,37,305,29,26,29,150,26,34,29,222,27,39,10,330,26,1*73
$GBGSV,3,3,10,11,06,221,19,20,02,028,15,1*76
$GBGSV,2,1,07,44,80,161,26,24,73,206,28,35,42,058,23,25,37,305,21,5*7A
$GBGSV,2,2,07,26,29,150,18,34,29,222,21,39,10,330,16,5*46
$GNGLL,4910.425882,N,12304.399650,W,003802.000,A,D*50
$GNRMC,003803.000,A,4910.425918,N,12304.399620,W,0.10,198.02,080125,,,D,V*14
$GNGGA,003803.000,4910.425918,N,12304.399620,W,2,46,0.58,18.870,M,-16.816,M,,*7B
$GNVTG,198.02,T,,M,0.10,N,0.19,K,D*2D
$GNGSA,A,3,06,12,19,24,11,17,25,03,32,,,,1.01,0.58,0.83,1*0F
$GNGSA,A,3,85,75,67,,,,,,,,,,1.01,0.58,0.83,2*0A
$GNGSA,A,3,30,02,36,34,27,11,29,07,,,,,1.01,0.58,0.83,3*0F
$GNGSA,A,3,44,24,12,35,25,26,34,39,,,,,1.01,0.58,0.83,4*0F
$GPGSV,3,1,10,06,60,111,37,12,56,298,37,19,52,061,36,24,46,226,35,1*6C
$GPGSV,3,2,10,11,41,168,34,44,33,171,31,17,22,064,27,25,17,297,28,1*6A
$GPGSV,3,3,10,03,10,033,27,32,09,318,29,1*6B
$GPGSV,2,1,05,06,60,111,28,24,46,226,25,11,41,168,24,25,17,297,18,8*6D
$GPGSV,2,2,05,32,09,318,16,8*5D
$GLGSV,1,1,04,85,76,060,27,75,63,133,29,86,41,203,21,67,09,326,15,1*7C
$GAGSV,3,1,11,30,68,300,36,02,54,108,33,36,52,075,32,34,44,162,32,7*72
$GAGSV,3,2,11,27,17,294,25,11,13,035,21,29,13,309,23,07,11,258,24,7*72
$GAGSV,3,3,11,15,04,194,21,25,03,112,15,19,02,350,,7*42
$GAGSV,2,1,06,30,68,300,22,02,54,108,26,36,52,075,24,34,44,162,23,1*75
$GAGSV,2,2,06,27,17,294,18,07,11,258,15,1*7A
$GBGSV,3,1,10,44,80,161,32,24,73,206,33,12,57,209,28,35,42,058,29,1*7A
$GBGSV,3,2,10,25,37,305,28,26,29,150,25,34,29,222,26,39,10,330,24,1*72
$GBGSV,3,3,10,11,06,221,18,20,02,028,15,1*77
$GBGSV,2,1,07,44,80,161,26,24,73,206,27,35,42,058,23,25,37,305,21,5*75
$GBGSV,2,2,07,26,29,150,18,34,29,222,20,39,10,330,16,5*47
$GNGLL,4910.425918,N,12304.399620,W,003803.000,A,D*54
$GNRMC,003804.000,A,4910.425936,N,12304.399728,W,0.10,198.02,080125,,,D,V*16
$GNGGA,003804.000,4910.425936,N,12304.399728,W,2,46,0.58,18.792,M,-16.816,M,,*7A
$GNVTG,198.02,T,,M,0.10,N,0.18,K,D*2C
$GNGSA,A,3,06,12,19,24,11,17,25,03,32,,,,1.01,0.58,0.83,1*0F
$GNGSA,A,3,85,75,67,,,,,,,,,,1.01,0.58,0.83,2*0A
$GNGSA,A,3,30,02,36,34,27,11,29,07,,,,,1.01,0.58,0.83,3*0F
$GNGSA,A,3,44,24,12,35,25,26,34,39,,,,,1.01,0.58,0.83,4*0F
$GPGSV,3,1,10,06,60,111,37,12,56,298,37,19,52,061,36,24,46,226,35,1*6C
$GPGSV,3,2,10,11,41,168,34,44,33,171,31,17,22,064,27,25,17,297,28,1*6A
$GPGSV,3,3,10,03,10,033,27,32,09,318,29,1*6B
$GPGSV,2,1,05,06,60,111,28,24,46,226,25,11,41,168,24,25,17,297,18,8*6D
$GPGSV,2,2,05,32,09,318,16,8*5D
$GLGSV,1,1,04,85,76,060,27,75,63,133,29,86,41,203,20,67,09,326,15,1*7D
$GAGSV,3,1,11,30,69,301,36,02,54,108,33,36,52,075,32,34,44,162,32,7*72
$GAGSV,3,2,11,27,17,294,25,11,13,035,21,29,13,309,24,07,11,258,24,7*75
$GAGSV,3,3,11,15,04,194,21,25,03,112,15,19,02,350,,7*42
$GAGSV,2,1,06,30,69,301,21,02,54,108,25,36,52,075,23,34,44,162,23,1*72
$GAGSV,2,2,06,27,17,294,18,07,11,258,15,1*7A
$GBGSV,3,1,10,44,80,161,32,24,73,206,33,12,57,209,28,35,42,058,29,1*7A
$GBGSV,3,2,10,25,37,305,28,26,29,150,25,34,29,222,26,39,10,330,24,1*72
$GBGSV,3,3,10,11,06,221,18,20,02,028,15,1*77
$GBGSV,2,1,07,44,80,161,25,24,73,206,27,35,42,058,22,25,37,305,20,5*76
$GBGSV,2,2,07,26,29,150,17,34,29,222,19,39,10,330,15,5*41
$GNGLL,4910.425936,N,12304.399728,W,003804.000,A,D*56
$GNRMC,003805.000,A,4910.425876,N,12304.399728,W,0.10,198.02,080125,,,D,V*12
$GNGGA,003805.000,4910.425876,N,12304.399728,W,2,46,0.58,18.622,M,-16.817,M,,*75
$GNVTG,198.02,T,,M,0.10,N,0.18,K,D*2C
$GNGSA,A,3,06,12,19,24,11,17,25,03,32,,,,1.01,0.58,0.83,1*0F
$GNGSA,A,3,85,75,67,,,,,,,,,,1.01,0.58,0.83,2*0A
$GNGSA,A,3,30,02,36,34,27,11,29,07,,,,,1.01,0.58,0.83,3*0F
$GNGSA,A,3,44,24,12,35,25,26,34,39,,,,,1.01,0.58,0.83,4*0F
$GPGSV,3,1,10,06,60,111,37,12,56,298,37,19,52,061,36,24,46,226,35,1*6C
$GPGSV,3,2,10,11,41,168,34,44,33,171,31,17,22,064,27,25,17,297,28,1*6A
$GPGSV,3,3,10,03,10,033,27,32,09,318,29,1*6B
$GPGSV,2,1,05,06,60,111,28,24,46,226,25,11,41,168,23,25,17,297,18,8*6A
$GPGSV,2,2,05,32,09,318,16,8*5D
$GLGSV,1,1,04,85,76,060,27,75,63,133,28,86,41,203,20,67,09,326,15,1*7C
$GAGSV,3,1,11,30,69,301,36,02,54,108,33,36,52,075,32,34,44,162,32,7*72
$GAGSV,3,2,11,27,17,294,25,11,13,035,21,29,13,309,24,07,11,258,24,7*75
$GAGSV,3,3,11,15,04,194,21,25,03,112,15,19,02,350,,7*42
$GAGSV,2,1,06,30,69,301,21,02,54,108,25,36,52,075,24,34,44,162,23,1*75
$GAGSV,2,2,06,27,17,294,18,07,11,258,15,1*7A
$GBGSV,3,1,10,44,80,161,32,24,73,206,34,12,57,209,28,35,42,058,29,1*7D
$GBGSV,3,2,10,25,37,305,28,26,29,150,25,34,29,222,26,39,10,330,24,1*72
$GBGSV,3,3,10,11,06,221,18,20,02,028,15,1*77
$GBGSV,2,1,07,44,80,161,25,24,73,206,27,35,42,058,22,25,37,305,20,5*76
$GBGSV,2,2,07,26,29,150,17,34,29,222,19,39,10,330,15,5*41
$GNGLL,4910.425876,N,12304.399728,W,003805.000,A,D*52
$GNRMC,003806.000,A,4910.426014,N,12304.399740,W,0.10,198.02,080125,,,D,V*10
$GNGGA,003806.000,4910.426014,N,12304.399740,W,2,46,0.58,18.978,M,-16.816,M,,*76
$GNVTG,198.02,T,,M,0.10,N,0.18,K,D*2C
$GNGSA,A,3,06,12,19,24,11,17,25,03,32,,,,1.01,0.58,0.83,1*0F
$GNGSA,A,3,85,75,67,,,,,,,,,,1.01,0.58,0.83,2*0A
$GNGSA,A,3,30,02,36,34,27,11,29,07,,,,,1.01,0.58,0.83,3*0F
$GNGSA,A,3,44,24,12,35,25,26,34,39,,,,,1.01,0.58,0.83,4*0F
$GPGSV,3,1,10,06,60,111,37,12,56,298,37,19,52,061,36,24,46,226,35,1*6C
$GPGSV,3,2,10,11,41,168,34,44,33,171,31,17,22,064,27,25,17,297,28,1*6A
$GPGSV,3,3,10,03,10,033,27,32,09,318,29,1*6B
$GPGSV,2,1,05,06,60,111,29,24,46,226,25,11,41,168,23,25,17,297,18,8*6B
$GPGSV,2,2,05,32,09,318,16,8*5D
$GLGSV,1,1,04,85,76,060,27,75,63,133,29,86,41,203,20,67,09,326,15,1*7D
$GAGSV,3,1,11,30,69,301,36,02,54,108,33,36,52,075,32,34,44,162,32,7*72
$GAGSV,3,2,11,27,17,294,25,11,13,035,21,29,13,309,24,07,11,258,24,7*75
$GAGSV,3,3,11,15,04,194,21,25,03,112,15,19,02,350,,7*42
$GAGSV,2,1,06,30,69,301,22,02,54,108,25,36,52,075,24,34,44,162,24,1*71
$GAGSV,2,2,06,27,17,294,18,07,11,258,15,1*7A
$GBGSV,3,1,10,44,80,161,33,24,73,206,34,12,57,209,29,35,42,058,29,1*7D
$GBGSV,3,2,10,25,37,305,28,26,29,150,25,34,29,222,27,39,10,330,24,1*73
$GBGSV,3,3,10,11,06,221,18,20,02,028,14,1*76
$GBGSV,2,1,07,44,80,161,25,24,73,206,27,35,42,058,22,25,37,305,20,5*76
$GBGSV,2,2,07,26,29,150,18,34,29,222,19,39,10,330,15,5*4E
$GNGLL,4910.426014,N,12304.399740,W,003806.000,A,D*50
$GNRMC,003807.000,A,4910.425996,N,12304.399740,W,0.10,198.02,080125,,,D,V*11
$GNGGA,003807.000,4910.425996,N,12304.399740,W,2,46,0.58,18.640,M,-16.816,M,,*73
$GNVTG,198.02,T,,M,0.10,N,0.18,K,D*2C
$GNGSA,A,3,06,12,19,24,11,17,25,03,32,,,,1.01,0.58,0.83,1*0F
$GNGSA,A,3,85,75,67,,,,,,,,,,1.01,0.58,0.83,2*0A
$GNGSA,A,3,30,02,36,34,27,11,29,07,,,,,1.01,0.58,0.83,3*0F
$GNGSA,A,3,44,24,12,35,25,26,34,39,,,,,1.01,0.58,0.83,4*0F
$GPGSV,3,1,10,06,60,111,37,12,56,298,37,19,52,061,36,24,46,226,35,1*6C
$GPGSV,3,2,10,11,41,168,34,44,33,171,31,17,22,064,27,25,17,297,27,1*65
$GPGSV,3,3,10,03,10,033,27,32,09,318,29,1*6B
$GPGSV,2,1,05,06,60,111,29,24,46,226,25,11,41,168,23,25,17,297,18,8*6B
$GPGSV,2,2,05,32,09,318,16,8*5D
$GLGSV,1,1,04,85,76,060,27,75,63,133,29,86,41,203,20,67,09,326,15,1*7D
$GAGSV,3,1,11,30,69,301,36,02,54,108,33,36,52,075,32,34,44,162,32,7*72
$GAGSV,3,2,11,27,17,294,25,11,13,035,21,29,13,309,24,07,11,258,24,7*75
$GAGSV,3,3,11,15,04,194,21,25,03,112,15,19,02,350,,7*42
$GAGSV,2,1,06,30,69,301,22,02,54,108,25,36,52,075,24,34,44,162,24,1*71
$GAGSV,2,2,06,27,17,294,18,07,11,258,15,1*7A
$GBGSV,3,1,10,44,80,161,33,24,73,206,34,12,57,209,29,35,42,058,29,1*7D
$GBGSV,3,2,10,25,37,305,28,26,29,150,25,34,29,222,27,39,10,330,24,1*73
$GBGSV,3,3,10,11,06,221,18,20,02,028,14,1*76
$GBGSV,2,1,07,44,80,161,25,24,73,206,27,35,42,058,22,25,37,305,21,5*77
$GBGSV,2,2,07,26,29,150,18,34,29,222,19,39,10,330,15,5*4E
$GNGLL,4910.425996,N,12304.399740,W,003807.000,A,D*51
$GNRMC,003808.000,A,4910.426050,N,12304.399884,W,0.10,198.02,080125,,,D,V*19
$GNGGA,003808.000,4910.426050,N,12304.399884,W,2,46,0.58,18.939,M,-16.816,M,,*7A
$GNVTG,198.02,T,,M,0.10,N,0.19,K,D*2D
$GNGSA,A,3,06,12,19,24,11,17,25,03,32,,,,1.01,0.58,0.83,1*0F
$GNGSA,A,3,85,75,67,,,,,,,,,,1.01,0.58,0.83,2*0A
$GNGSA,A,3,30,02,36,34,27,11,29,07,,,,,1.01,0.58,0.83,3*0F
$GNGSA,A,3,44,24,12,35,25,26,34,39,,,,,1.01,0.58,0.83,4*0F
$GPGSV,3,1,10,06,60,111,37,12,56,298,37,19,52,061,36,24,46,226,35,1*6C
$GPGSV,3,2,10,11,41,168,34,44,33,171,31,17,22,064,27,25,17,297,27,1*65
$GPGSV,3,3,10,03,10,033,27,32,09,318,29,1*6B
$GPGSV,2,1,05,06,60,111,29,24,46,226,25,11,41,168,23,25,17,297,18,8*6B
$GPGSV,2,2,05,32,09,318,16,8*5D
$GLGSV,1,1,04,85,76,060,27,75,63,133,29,86,41,203,20,67,09,326,15,1*7D
$GAGSV,3,1,11,30,69,301,36,02,54,108,33,36,52,075,32,34,46,161,32,7*73
$GAGSV,3,2,11,27,17,294,25,11,13,035,21,29,13,309,24,07,11,258,24,7*75
$GAGSV,3,3,11,15,04,194,21,25,03,112,15,19,02,350,,7*42
$GAGSV,2,1,06,30,69,301,22,02,54,108,25,36,52,075,24,34,46,161,24,1*70
$GAGSV,2,2,06,27,17,294,18,07,11,258,14,1*7B
$GBGSV,3,1,10,44,80,161,34,24,73,206,35,12,57,209,29,35,42,058,30,1*73
$GBGSV,3,2,10,25,37,305,29,26,29,150,25,34,29,222,27,39,10,330,25,1*73
$GBGSV,3,3,10,11,06,221,19,20,02,028,14,1*77
$GBGSV,2,1,07,44,80,161,25,24,73,206,27,35,42,058,22,25,37,305,21,5*77
$GBGSV,2,2,07,26,29,150,18,34,29,222,19,39,10,330,15,5*4E
$GNGLL,4910.426050,N,12304.399884,W,003808.000,A,D*59
$GNRMC,003809.000,A,4910.426098,N,12304.399992,W,0.10,198.02,080125,,,D,V*1A
$GNGGA,003809.000,4910.426098,N,12304.399992,W,2,46,0.58,19.405,M,-16.816,M,,*7A
$GNVTG,198.02,T,,M,0.10,N,0.19,K,D*2D
$GNGSA,A,3,06,12,19,24,11,17,25,03,32,,,,1.01,0.58,0.83,1*0F
$GNGSA,A,3,85,75,67,,,,,,,,,,1.01,0.58,0.83,2*0A
$GNGSA,A,3,30,02,36,34,27,11,29,07,,,,,1.01,0.58,0.83,3*0F
$GNGSA,A,3,44,24,12,35,25,34,26,39,,,,,1.01,0.58,0.83,4*0F
$GPGSV,3,1,10,06,60,111,37,12,56,298,37,19,52,061,36,24,46,226,35,1*6C
$GPGSV,3,2,10,11,41,168,34,44,33,171,31,17,22,064,26,25,17,297,27,1*64
$GPGSV,3,3,10,03,10,033,27,32,09,318,29,1*6B
$GPGSV,2,1,05,06,60,111,29,24,46,226,25,11,41,168,23,25,17,297,18,8*6B
$GPGSV,2,2,05,32,09,318,16,8*5D
$GLGSV,2,1,05,85,76,060,28,75,63,133,29,86,41,203,20,84,22,035,,1*71
$GLGSV,2,2,05,67,09,326,15,1*46
$GAGSV,3,1,11,30,69,301,36,02,54,108,33,36,52,075,32,34,46,161,32,7*73
$GAGSV,3,2,11,27,17,294,25,11,13,035,21,29,13,309,24,07,11,258,24,7*75
$GAGSV,3,3,11,15,04,194,21,25,03,112,15,19,02,350,,7*42
$GAGSV,2,1,06,30,69,301,23,02,54,108,25,36,52,075,24,34,46,161,24,1*71
$GAGSV,2,2,06,27,17,294,18,07,11,258,14,1*7B
$GBGSV,3,1,10,44,80,161,34,24,73,206,35,12,57,209,29,35,42,058,30,1*73
$GBGSV,3,2,10,25,37,305,29,34,29,222,27,26,29,150,26,39,10,330,25,1*70
$GBGSV,3,3,10,11,06,221,19,20,02,028,14,1*77
$GBGSV,2,1,07,44,80,161,25,24,73,206,27,35,42,058,22,25,37,305,21,5*77
$GBGSV,2,2,07,26,29,150,18,34,29,222,19,39,10,330,15,5*4E
$GNGLL,4910.426098,N,12304.399992,W,003809.000,A,D*5A
$GNRMC,003810.000,A,4910.426092,N,12304.400130,W,0.10,198.02,080125,,,D,V*1F
$GNGGA,003810.000,4910.426092,N,12304.400130,W,2,46,0.58,19.776,M,-16.816,M,,*78
$GNVTG,198.02,T,,M,0.10,N,0.19,K,D*2D
$GNGSA,A,3,06,12,19,24,11,17,25,03,32,,,,1.01,0.58,0.83,1*0F
$GNGSA,A,3,85,75,67,,,,,,,,,,1.01,0.58,0.83,2*0A
$GNGSA,A,3,30,02,36,34,27,11,29,07,,,,,1.01,0.58,0.83,3*0F
$GNGSA,A,3,44,24,12,35,25,34,26,39,,,,,1.01,0.58,0.83,4*0F
$GPGSV,3,1,10,06,60,111,36,12,56,298,36,19,52,061,36,24,46,226,35,1*6C
$GPGSV,3,2,10,11,41,168,34,44,33,171,30,17,22,064,24,25,17,297,27,1*67
$GPGSV,3,3,10,03,10,033,27,32,09,318,29,1*6B
$GPGSV,2,1,05,06,60,111,29,24,46,226,25,11,41,168,24,25,17,297,18,8*6C
$GPGSV,2,2,05,32,09,318,16,8*5D
$GLGSV,2,1,05,85,76,060,28,75,63,133,29,86,41,203,20,84,22,035,,1*71
$GLGSV,2,2,05,67,09,326,16,1*45
$GAGSV,3,1,11,30,69,301,36,02,54,108,33,36,51,073,32,34,46,161,32,7*76
$GAGSV,3,2,11,27,17,294,24,11,13,035,21,29,13,309,24,07,11,258,24,7*74
$GAGSV,3,3,11,15,04,194,20,25,03,112,15,19,02,350,,7*43
$GAGSV,2,1,06,30,69,301,23,02,54,108,26,36,51,073,25,34,46,161,24,1*76
$GAGSV,2,2,06,27,17,294,18,07,11,258,14,1*7B
$GBGSV,3,1,10,44,80,161,34,24,73,206,36,12,57,209,30,35,42,058,30,1*78
$GBGSV,3,2,10,25,37,305,29,34,29,222,28,26,29,150,27,39,10,330,25,1*7E
$GBGSV,3,3,10,11,06,221,19,20,02,028,14,1*77
$GBGSV,2,1,07,44,80,161,25,24,73,206,27,35,42,058,22,25,37,305,21,5*77
$GBGSV,2,2,07,26,29,150,18,34,29,222,19,39,10,330,15,5*4E
$GNGLL,4910.426092,N,12304.400130,W,003810.000,A,D*5F
$GNRMC,003811.000,A,4910.426020,N,12304.400220,W,0.10,198.02,080125,,,D,V*15
$GNGGA,003811.000,4910.426020,N,12304.400220,W,2,46,0.58,19.670,M,-16.816,M,,*75
$GNVTG,198.02,T,,M,0.10,N,0.19,K,D*2D
$GNGSA,A,3,06,12,19,24,11,17,25,03,32,,,,1.01,0.58,0.83,1*0F
$GNGSA,A,3,85,75,67,,,,,,,,,,1.01,0.58,0.83,2*0A
$GNGSA,A,3,30,02,36,34,27,11,29,07,,,,,1.01,0.58,0.83,3*0F
$GNGSA,A,3,44,24,12,35,25,34,26,39,,,,,1.01,0.58,0.83,4*0F
$GPGSV,3,1,10,06,60,111,36,12,56,298,36,19,52,061,36,24,46,226,35,1*6C
$GPGSV,3,2,10,11,41,168,34,44,33,171,30,17,22,064,26,25,17,297,27,1*65
$GPGSV,3,3,10,03,10,033,27,32,09,318,29,1*6B
$GPGSV,2,1,05,06,60,111,29,24,46,226,25,11,41,168,24,25,17,297,18,8*6C
$GPGSV,2,2,05,32,09,318,16,8*5D
$GLGSV,2,1,05,85,76,060,28,75,63,133,29,86,41,203,20,84,22,035,,1*71
$GLGSV,2,2,05,67,09,326,16,1*45
$GAGSV,3,1,11,30,69,301,36,02,54,108,33,36,51,073,32,34,46,161,32,7*76
$GAGSV,3,2,11,27,17,294,24,11,13,035,21,29,13,309,24,07,11,258,24,7*74
$GAGSV,3,3,11,15,04,194,20,25,03,112,15,19,02,350,,7*43
$GAGSV,2,1,06,30,69,301,22,02,54,108,26,36,51,073,25,34,46,161,24,1*77
$GAGSV,2,2,06,27,17,294,18,07,11,258,15,1*7A
$GBGSV,3,1,10,44,80,161,34,24,73,206,36,12,57,209,30,35,42,058,30,1*78
$GBGSV,3,2,10,25,37,305,29,34,29,222,28,26,29,150,27,39,10,330,26,1*7D
$GBGSV,3,3,10,11,06,221,20,20,02,028,14,1*7D
$GBGSV,2,1,07,44,80,161,25,24,73,206,27,35,42,058,22,25,37,305,21,5*77
$GBGSV,2,2,07,26,29,150,18,34,29,222,19,39,10,330,15,5*4E
$GNGLL,4910.426020,N,12304.400220,W,003811.000,A,D*55
$GNRMC,003812.000,A,4910.425936,N,12304.400304,W,0.10,198.02,080125,,,D,V*1C
$GNGGA,003812.000,4910.425936,N,12304.400304,W,2,46,0.58,19.603,M,-16.816,M,,*78
$GNVTG,198.02,T,,M,0.10,N,0.19,K,D*2D
$GNGSA,A,3,06,12,19,24,11,17,25,03,32,,,,1.01,0.58,0.83,1*0F
$GNGSA,A,3,85,75,67,,,,,,,,,,1.01,0.58,0.83,2*0A
$GNGSA,A,3,30,02,36,34,27,11,29,07,,,,,1.01,0.58,0.83,3*0F
$GNGSA,A,3,44,24,12,35,25,34,26,39,,,,,1.01,0.58,0.83,4*0F
$GPGSV,3,1,10,06,60,111,35,12,56,298,36,19,52,061,35,24,46,226,35,1*6C
$GPGSV,3,2,10,11,41,168,33,44,33,171,30,17,22,064,24,25,17,297,26,1*61
$GPGSV,3,3,10,03,10,033,26,32,09,318,29,1*6A
$GPGSV,2,1,05,06,60,111,29,24,46,226,25,11,41,168,24,25,17,297,18,8*6C
$GPGSV,2,2,05,32,09,318,16,8*5D
$GLGSV,2,1,05,85,76,060,28,75,63,133,29,86,41,203,20,84,22,035,,1*71
$GLGSV,2,2,05,67,09,326,16,1*45
$GAGSV,3,1,11,30,69,301,35,02,54,108,32,36,51,073,31,34,46,161,31,7*74
$GAGSV,3,2,11,27,17,294,24,11,13,035,21,29,13,309,23,07,11,258,23,7*74
$GAGSV,3,3,11,15,04,194,20,25,03,112,15,19,02,350,,7*43
$GAGSV,2,1,06,30,69,301,21,02,54,108,26,36,51,073,25,34,46,161,24,1*74
$GAGSV,2,2,06,27,17,294,18,07,11,258,15,1*7A
$GBGSV,3,1,10,44,80,161,34,24,73,206,36,12,57,209,30,35,42,058,30,1*78
$GBGSV,3,2,10,25,37,305,29,34,29,222,28,26,29,150,27,39,10,330,26,1*7D
$GBGSV,3,3,10,11,06,221,20,20,02,028,14,1*7D
$GBGSV,2,1,07,44,80,161,25,24,73,206,27,35,42,058,22,25,37,305,21,5*77
$GBGSV,2,2,07,26,29,150,18,34,29,222,19,39,10,330,15,5*4E
$GNGLL,4910.425936,N,12304.400304,W,003812.000,A,D*5C
$GNRMC,003813.000,A,4910.425978,N,12304.400358,W,0.10,198.02,080125,,,D,V*1E
$GNGGA,003813.000,4910.425978,N,12304.400358,W,2,46,0.58,19.727,M,-16.817,M,,*7C
$GNVTG,198.02,T,,M,0.10,N,0.19,K,D*2D
$GNGSA,A,3,06,12,19,24,11,17,25,03,32,,,,1.01,0.58,0.83,1*0F
$GNGSA,A,3,85,75,67,,,,,,,,,,1.01,0.58,0.83,2*0A
$GNGSA,A,3,30,02,36,34,27,11,29,07,,,,,1.01,0.58,0.83,3*0F
$GNGSA,A,3,44,24,12,35,25,26,34,39,,,,,1.01,0.58,0.83,4*0F
$GPGSV,3,1,10,06,60,111,34,12,56,298,35,19,52,061,34,24,46,226,34,1*6E
$GPGSV,3,2,10,11,41,168,32,44,33,171,29,17,22,064,23,25,17,297,25,1*6C
$GPGSV,3,3,10,03,10,033,26,32,09,318,28,1*6B
$GPGSV,2,1,05,06,60,111,28,24,46,226,24,11,41,168,23,25,17,297,18,8*6B
$GPGSV,2,2,05,32,09,318,16,8*5D
$GLGSV,1,1,04,85,76,060,28,75,63,133,29,86,41,203,21,67,09,325,16,1*73
$GAGSV,3,1,11,30,69,301,33,02,54,108,31,36,51,073,30,34,46,161,30,7*71
$GAGSV,3,2,11,27,17,294,23,11,13,035,20,29,13,309,22,07,11,258,22,7*72
$GAGSV,3,3,11,15,04,194,19,25,03,112,14,19,02,350,,7*48
$GAGSV,2,1,06,30,69,301,20,02,54,108,25,36,51,073,24,34,46,161,23,1*70
$GAGSV,2,2,06,27,17,294,17,07,11,258,14,1*74
$GBGSV,3,1,11,44,80,161,34,24,73,206,35,12,57,209,30,35,42,058,30,1*7A
$GBGSV,3,2,11,25,37,305,29,26,29,150,27,34,29,222,28,39,10,330,26,1*7C
$GBGSV,3,3,11,11,06,221,20,20,02,028,13,16,01,334,,1*49
$GBGSV,2,1,07,44,80,161,25,24,73,206,26,35,42,058,21,25,37,305,21,5*75
$GBGSV,2,2,07,26,29,150,17,34,29,222,18,39,10,330,14,5*41
$GNGLL,4910.425978,N,12304.400358,W,003813.000,A,D*5E
$GNRMC,003814.000,A,4910.425822,N,12304.400358,W,0.10,198.02,080125,,,D,V*17
$GNGGA,003814.000,4910.425822,N,12304.400358,W,2,46,0.58,19.617,M,-16.816,M,,*76
$GNVTG,198.02,T,,M,0.10,N,0.18,K,D*2C
$GNGSA,A,3,06,12,19,24,11,17,25,03,32,,,,1.01,0.58,0.83,1*0F
$GNGSA,A,3,85,75,67,,,,,,,,,,1.01,0.58,0.83,2*0A
$GNGSA,A,3,30,02,36,34,27,11,29,07,,,,,1.01,0.58,0.83,3*0F
$GNGSA,A,3,44,24,12,35,25,26,34,39,,,,,1.01,0.58,0.83,4*0F
$GPGSV,3,1,10,06,60,111,34,12,56,298,35,19,52,061,34,24,46,226,34,1*6E
$GPGSV,3,2,10,11,41,168,32,44,33,171,29,17,22,064,23,25,17,297,25,1*6C
$GPGSV,3,3,10,03,10,033,26,32,09,318,28,1*6B
$GPGSV,2,1,05,06,60,111,28,24,46,226,24,11,41,168,23,25,17,297,18,8*6B
$GPGSV,2,2,05,32,09,318,16,8*5D
$GLGSV,2,1,05,85,76,060,27,75,63,133,29,86,41,203,21,84,22,035,,1*7F
$GLGSV,2,2,05,67,09,325,16,1*46
$GAGSV,3,1,10,30,69,301,33,02,54,108,31,36,51,073,30,34,46,161,31,7*71
$GAGSV,3,2,10,27,17,294,23,11,13,035,20,29,13,309,22,07,11,258,21,7*70
$GAGSV,3,3,10,15,04,194,19,25,03,112,14,7*75
$GAGSV,2,1,06,30,69,301,20,02,54,108,25,36,51,073,24,34,46,161,23,1*70
$GAGSV,2,2,06,27,17,294,17,07,11,258,15,1*75
$GBGSV,3,1,11,44,80,161,34,24,73,206,35,12,57,209,30,35,42,058,30,1*7A
$GBGSV,3,2,11,25,37,305,29,26,29,150,27,34,29,222,28,39,10,330,26,1*7C
$GBGSV,3,3,11,11,06,221,20,20,02,028,13,16,01,334,,1*49
$GBGSV,2,1,07,44,80,161,25,24,73,206,26,35,42,058,21,25,37,305,21,5*75
$GBGSV,2,2,07,26,29,150,17,34,29,222,18,39,10,330,14,5*41
$GNGLL,4910.425822,N,12304.400358,W,003814.000,A,D*57
$GNRMC,003815.000,A,4910.425762,N,12304.400298,W,0.08,198.02,080125,,,D,V*19
$GNGGA,003815.000,4910.425762,N,12304.400298,W,2,46,0.58,19.694,M,-16.817,M,,*7B
$GNVTG,198.02,T,,M,0.08,N,0.15,K,D*28
$GNGSA,A,3,06,12,19,24,11,17,25,03,32,,,,1.01,0.58,0.83,1*0F
$GNGSA,A,3,85,75,67,,,,,,,,,,1.01,0.58,0.83,2*0A
$GNGSA,A,3,30,02,36,34,27,11,29,07,,,,,1.01,0.58,0.83,3*0F
$GNGSA,A,3,44,24,12,35,25,34,26,39,,,,,1.01,0.58,0.83,4*0F
$GPGSV,3,1,10,06,60,111,35,12,56,298,36,19,52,061,34,24,46,226,34,1*6C
$GPGSV,3,2,10,11,41,168,32,44,33,171,30,17,22,064,23,25,17,297,26,1*67
$GPGSV,3,3,10,03,10,033,26,32,09,318,28,1*6B
$GPGSV,2,1,05,06,60,111,28,24,46,226,24,11,41,168,22,25,17,297,18,8*6A
$GPGSV,2,2,05,32,09,318,16,8*5D
$GLGSV,2,1,05,85,76,060,28,75,63,133,30,86,41,203,21,84,22,035,,1*78
$GLGSV,2,2,05,67,09,325,16,1*46
$GAGSV,3,1,11,30,69,301,34,02,54,108,31,36,51,073,31,34,46,161,31,7*76
$GAGSV,3,2,11,27,17,294,23,11,13,035,21,29,13,309,22,07,11,258,21,7*70
$GAGSV,3,3,11,15,04,194,19,25,03,112,14,19,02,350,,7*48
$GAGSV,2,1,06,30,69,301,20,02,54,108,24,36,51,073,24,34,46,161,23,1*71
$GAGSV,2,2,06,27,17,294,17,07,11,258,15,1*75
$GBGSV,3,1,11,44,80,161,34,24,73,206,35,12,57,209,30,35,42,058,30,1*7A
$GBGSV,3,2,11,25,37,305,29,34,29,222,28,26,29,150,26,39,10,330,26,1*7D
$GBGSV,3,3,11,11,06,221,20,20,02,028,13,16,01,334,,1*49
$GBGSV,2,1,07,44,80,161,25,24,73,206,25,35,42,058,21,25,37,305,21,5*76
$GBGSV,2,2,07,26,29,150,17,34,29,222,18,39,10,330,14,5*41
$GNGLL,4910.425762,N,12304.400298,W,003815.000,A,D*50
$GNRMC,003816.000,A,4910.425732,N,12304.400196,W,0.06,198.02,080125,,,D,V*1C
$GNGGA,003816.000,4910.425732,N,12304.400196,W,2,46,0.58,19.277,M,-16.816,M,,*78
$GNVTG,198.02,T,,M,0.06,N,0.12,K,D*21
$GNGSA,A,3,06,12,19,24,11,17,25,03,32,,,,1.01,0.58,0.83,1*0F
$GNGSA,A,3,85,75,67,,,,,,,,,,1.01,0.58,0.83,2*0A
$GNGSA,A,3,30,02,36,34,27,11,29,07,,,,,1.01,0.58,0.83,3*0F
$GNGSA,A,3,44,24,12,35,25,26,34,39,,,,,1.01,0.58,0.83,4*0F
$GPGSV,3,1,10,06,60,111,35,12,56,298,36,19,52,061,35,24,46,226,34,1*6D
$GPGSV,3,2,10,11,41,168,33,44,33,171,30,17,22,064,24,25,17,297,26,1*61
$GPGSV,3,3,10,03,10,033,26,32,09,318,29,1*6A
$GPGSV,2,1,05,06,60,111,28,24,46,226,24,11,41,168,22,25,17,297,19,8*6B
$GPGSV,2,2,05,32,09,318,16,8*5D
$GLGSV,1,1,04,85,76,060,27,75,63,133,30,86,41,203,21,67,09,325,16,1*74
$GAGSV,3,1,11,30,69,301,34,02,54,108,32,36,51,073,31,34,46,161,31,7*75
$GAGSV,3,2,11,27,17,294,23,11,13,035,21,29,13,309,22,07,11,258,22,7*73
$GAGSV,3,3,11,15,04,194,19,25,03,112,14,19,02,350,,7*48
$GAGSV,2,1,06,30,69,301,21,02,54,108,24,36,51,073,24,34,46,161,23,1*70
$GAGSV,2,2,06,27,17,294,17,07,11,258,16,1*76
$GBGSV,3,1,11,44,80,161,34,24,73,206,35,12,57,209,30,35,42,058,30,1*7A
$GBGSV,3,2,11,25,37,305,29,26,29,150,26,34,29,222,28,39,10,330,26,1*7D
$GBGSV,3,3,11,11,06,221,20,20,02,028,13,16,01,334,,1*49
$GBGSV,2,1,07,44,80,161,25,24,73,206,26,35,42,058,21,25,37,305,21,5*75
$GBGSV,2,2,07,26,29,150,17,34,29,222,18,39,10,330,14,5*41
$GNGLL,4910.425732,N,12304.400196,W,003816.000,A,D*5B
$GNRMC,003817.000,A,4910.425720,N,12304.400262,W,0.05,198.02,080125,,,D,V*15
$GNGGA,003817.000,4910.425720,N,12304.400262,W,2,46,0.58,19.396,M,-16.816,M,,*7C
$GNVTG,198.02,T,,M,0.05,N,0.09,K,D*28
$GNGSA,A,3,06,12,19,24,11,17,25,03,32,,,,1.01,0.58,0.83,1*0F
$GNGSA,A,3,85,75,67,,,,,,,,,,1.01,0.58,0.83,2*0A
$GNGSA,A,3,30,02,36,34,27,11,29,07,,,,,1.01,0.58,0.83,3*0F
$GNGSA,A,3,44,24,12,35,25,26,34,39,,,,,1.01,0.58,0.83,4*0F
$GPGSV,3,1,10,06,60,111,35,12,56,298,36,19,52,061,35,24,46,226,34,1*6D
$GPGSV,3,2,10,11,41,168,33,44,33,171,30,17,22,064,24,25,17,297,27,1*60
$GPGSV,3,3,10,03,10,033,26,32,09,318,29,1*6A
$GPGSV,2,1,05,06,60,111,28,24,46,226,25,11,41,168,23,25,17,297,19,8*6B
$GPGSV,2,2,05,32,09,318,16,8*5D
$GLGSV,1,1,04,85,76,060,28,75,63,133,30,86,41,203,21,67,09,325,16,1*7B
$GAGSV,3,1,11,30,69,301,34,02,54,108,32,36,51,073,32,34,46,161,31,7*76
$GAGSV,3,2,11,27,17,294,24,11,13,035,21,29,13,309,22,07,11,258,22,7*74
$GAGSV,3,3,11,15,04,194,19,25,03,112,14,19,02,350,,7*48
$GAGSV,2,1,06,30,69,301,22,02,54,108,25,36,51,073,24,34,46,161,23,1*72
$GAGSV,2,2,06,27,17,294,17,07,11,258,15,1*75
$GBGSV,3,1,11,44,80,161,34,24,73,206,35,12,57,209,30,35,42,058,30,1*7A
$GBGSV,3,2,11,25,37,305,29,26,29,150,26,34,29,222,28,39,10,330,26,1*7D
$GBGSV,3,3,11,11,06,221,20,20,02,028,13,16,01,334,,1*49
$GBGSV,2,1,07,44,80,161,25,24,73,206,27,35,42,058,22,25,37,305,21,5*77
$GBGSV,2,2,07,26,29,150,17,34,29,222,19,39,10,330,14,5*40
$GNGLL,4910.425720,N,12304.400262,W,003817.000,A,D*51
$GNRMC,003818.000,A,4910.425582,N,12304.400274,W,0.03,198.02,080125,,,D,V*11
$GNGGA,003818.000,4910.425582,N,12304.400274,W,2,46,0.58,18.843,M,-16.816,M,,*7C
$GNVTG,198.02,T,,M,0.03,N,0.06,K,D*21
$GNGSA,A,3,06,12,19,24,11,17,25,03,32,,,,1.01,0.58,0.83,1*0F
$GNGSA,A,3,85,75,67,,,,,,,,,,1.01,0.58,0.83,2*0A
$GNGSA,A,3,30,02,36,34,27,11,29,07,,,,,1.01,0.58,0.83,3*0F
$GNGSA,A,3,44,24,12,35,25,34,26,39,,,,,1.01,0.58,0.83,4*0F
$GPGSV,3,1,10,06,60,111,36,12,56,298,37,19,52,061,36,24,46,226,35,1*6D
$GPGSV,3,2,10,11,41,168,34,44,33,171,31,17,22,064,25,25,17,297,29,1*69
$GPGSV,3,3,10,03,10,033,27,32,09,318,30,1*63
$GPGSV,2,1,05,06,60,111,28,24,46,226,25,11,41,168,23,25,17,297,19,8*6B
$GPGSV,2,2,05,32,09,318,16,8*5D
$GLGSV,2,1,05,85,76,060,27,75,63,133,29,86,41,203,21,84,22,035,,1*7F
$GLGSV,2,2,05,67,09,325,16,1*46
$GAGSV,3,1,11,30,69,301,35,02,54,108,33,36,51,073,33,34,46,161,32,7*74
$GAGSV,3,2,11,27,17,294,25,11,13,035,21,29,13,309,23,07,11,258,23,7*75
$GAGSV,3,3,11,15,04,194,19,25,03,112,15,19,02,350,,7*49
$GAGSV,2,1,06,30,69,301,22,02,54,108,26,36,51,073,24,34,46,161,24,1*76
$GAGSV,2,2,06,27,17,294,17,07,11,258,15,1*75
$GBGSV,3,1,11,44,80,161,34,24,73,206,35,12,57,209,30,35,42,058,30,1*7A
$GBGSV,3,2,11,25,37,305,29,34,29,222,28,26,29,150,26,39,10,330,26,1*7D
$GBGSV,3,3,11,11,06,221,20,20,02,028,12,16,01,334,,1*48
$GBGSV,2,1,07,44,80,161,26,24,73,206,27,35,42,058,22,25,37,305,21,5*74
$GBGSV,2,2,07,26,29,150,17,34,29,222,19,39,10,330,14,5*40
$GNGLL,4910.425582,N,12304.400274,W,003818.000,A,D*53
$GNRMC,003819.000,A,4910.425564,N,12304.400322,W,0.02,198.02,080125,,,D,V*1B
$GNGGA,003819.000,4910.425564,N,12304.400322,W,2,46,0.58,19.026,M,-16.816,M,,*7D
$GNVTG,198.02,T,,M,0.02,N,0.04,K,D*22
$GNGSA,A,3,06,12,19,24,11,17,25,03,32,,,,1.01,0.58,0.83,1*0F
$GNGSA,A,3,85,75,67,,,,,,,,,,1.01,0.58,0.83,2*0A
$GNGSA,A,3,30,02,36,34,27,11,29,07,,,,,1.01,0.58,0.83,3*0F
$GNGSA,A,3,44,24,12,35,25,34,26,39,,,,,1.01,0.58,0.83,4*0F
$GPGSV,3,1,10,06,60,111,35,12,56,298,37,19,52,061,36,24,46,226,35,1*6E
$GPGSV,3,2,10,11,41,168,34,44,33,171,31,17,22,064,24,25,17,297,26,1*67
$GPGSV,3,3,10,03,10,033,27,32,09,318,29,1*6B
$GPGSV,2,1,05,06,60,111,28,24,46,226,25,11,41,168,23,25,17,297,19,8*6B
$GPGSV,2,2,05,32,09,318,16,8*5D
$GLGSV,2,1,05,85,76,060,27,75,63,133,29,86,41,203,21,84,22,035,,1*7F
$GLGSV,2,2,05,67,09,325,16,1*46
$GAGSV,3,1,11,30,69,301,34,02,54,108,32,36,51,073,32,34,46,161,31,7*76
$GAGSV,3,2,11,27,17,294,24,11,13,035,21,29,13,309,23,07,11,258,23,7*74
$GAGSV,3,3,11,15,04,194,19,25,03,112,15,19,02,350,,7*49
$GAGSV,2,1,06,30,69,301,22,02,54,108,26,36,51,073,24,34,46,161,24,1*76
$GAGSV,2,2,06,27,17,294,17,07,11,258,15,1*75
$GBGSV,3,1,10,44,80,161,34,24,73,206,35,12,57,209,30,35,42,058,30,1*7B
$GBGSV,3,2,10,25,37,305,29,34,29,222,28,26,29,150,26,39,10,330,26,1*7C
$GBGSV,3,3,10,11,06,221,21,20,02,028,12,1*7A
$GBGSV,2,1,07,44,80,161,26,24,73,206,28,35,42,058,22,25,37,305,21,5*7B
$GBGSV,2,2,07,26,29,150,17,34,29,222,19,39,10,330,14,5*40
$GNGLL,4910.425564,N,12304.400322,W,003819.000,A,D*58
$GNRMC,003820.000,A,4910.425552,N,12304.400334,W,0.01,198.02,080125,,,D,V*10
$GNGGA,003820.000,4910.425552,N,12304.400334,W,2,46,0.58,19.172,M,-16.816,M,,*75
$GNVTG,198.02,T,,M,0.01,N,0.03,K,D*26
$GNGSA,A,3,06,12,19,24,11,17,25,03,32,,,,1.01,0.58,0.83,1*0F
$GNGSA,A,3,85,75,67,,,,,,,,,,1.01,0.58,0.83,2*0A
$GNGSA,A,3,30,02,36,34,27,11,29,07,,,,,1.01,0.58,0.83,3*0F
$GNGSA,A,3,44,24,12,35,25,34,26,39,,,,,1.01,0.58,0.83,4*0F
$GPGSV,3,1,10,06,60,111,35,12,56,298,37,19,52,061,36,24,46,226,35,1*6E
$GPGSV,3,2,10,11,41,168,34,44,33,171,31,17,22,064,24,25,17,297,26,1*67
$GPGSV,3,3,10,03,10,033,27,32,09,318,29,1*6B
$GPGSV,2,1,05,06,60,111,29,24,46,226,26,11,41,168,24,25,17,297,19,8*6E
$GPGSV,2,2,05,32,09,318,16,8*5D
$GLGSV,2,1,05,85,76,060,27,75,63,133,29,86,41,203,21,84,22,035,,1*7F
$GLGSV,2,2,05,67,09,325,17,1*47
$GAGSV,3,1,11,30,69,301,34,02,54,108,32,36,51,073,32,34,46,161,31,7*76
$GAGSV,3,2,11,27,17,294,24,11,13,035,21,29,13,309,23,07,11,258,23,7*74
$GAGSV,3,3,11,15,04,194,19,25,03,112,15,19,02,350,,7*49
$GAGSV,2,1,06,30,69,301,22,02,54,108,26,36,51,073,24,34,46,161,24,1*76
$GAGSV,2,2,06,27,17,294,17,07,11,258,15,1*75
$GBGSV,3,1,11,44,80,161,34,24,73,206,35,12,57,209,30,35,42,058,30,1*7A
$GBGSV,3,2,11,25,37,305,29,34,29,222,28,26,29,150,26,39,10,330,26,1*7D
$GBGSV,3,3,11,11,06,221,21,20,02,028,11,16,01,334,,1*4A
$GBGSV,2,1,07,44,80,161,26,24,73,206,28,35,42,058,22,25,37,305,21,5*7B
$GBGSV,2,2,07,26,29,150,17,34,29,222,19,39,10,330,14,5*40
$GNGLL,4910.425552,N,12304.400334,W,003820.000,A,D*50
$GNRMC,003821.000,A,4910.425492,N,12304.400244,W,0.01,198.02,080125,,,D,V*1A
$GNGGA,003821.000,4910.425492,N,12304.400244,W,2,46,0.58,18.919,M,-16.817,M,,*7A
$GNVTG,198.02,T,,M,0.01,N,0.01,K,D*24
$GNGSA,A,3,06,12,19,24,11,17,25,03,32,,,,1.01,0.58,0.83,1*0F
$GNGSA,A,3,85,75,67,,,,,,,,,,1.01,0.58,0.83,2*0A
$GNGSA,A,3,30,02,36,34,27,11,29,07,,,,,1.01,0.58,0.83,3*0F
$GNGSA,A,3,44,24,12,35,25,34,26,39,,,,,1.01,0.58,0.83,4*0F
$GPGSV,3,1,10,06,60,111,35,12,56,298,36,19,52,061,35,24,46,226,35,1*6C
$GPGSV,3,2,10,11,41,168,33,44,33,171,31,17,22,064,24,25,17,297,26,1*60
$GPGSV,3,3,10,03,10,033,26,32,09,318,29,1*6A
$GPGSV,2,1,05,06,60,111,29,24,46,226,26,11,41,168,24,25,17,297,19,8*6E
$GPGSV,2,2,05,32,09,318,16,8*5D
$GLGSV,2,1,05,85,76,060,27,75,62,134,30,86,41,203,21,84,22,035,,1*71
$GLGSV,2,2,05,67,09,325,17,1*47
$GAGSV,3,1,11,30,69,301,34,02,54,108,32,36,51,073,31,34,46,161,31,7*75
$GAGSV,3,2,11,27,17,294,24,11,13,035,20,29,13,309,22,07,11,258,23,7*74
$GAGSV,3,3,11,15,04,194,19,25,03,112,15,19,02,350,,7*49
$GAGSV,2,1,06,30,69,301,22,02,54,108,26,36,51,073,24,34,46,161,24,1*76
$GAGSV,2,2,06,27,17,294,17,07,11,258,15,1*75
$GBGSV,3,1,11,44,80,161,34,24,73,206,35,12,57,209,30,35,42,058,30,1*7A
$GBGSV,3,2,11,25,37,305,29,34,29,222,28,26,29,150,26,39,10,330,26,1*7D
$GBGSV,3,3,11,11,06,221,21,20,02,028,11,16,01,334,,1*4A
$GBGSV,2,1,07,44,80,161,26,24,73,206,28,35,42,058,22,25,37,305,21,5*7B
$GBGSV,2,2,07,26,29,150,17,34,29,222,19,39,10,330,14,5*40
$GNGLL,4910.425492,N,12304.400244,W,003821.000,A,D*5A
$GNRMC,003822.000,A,4910.425528,N,12304.400118,W,0.01,198.02,080125,,,D,V*13
$GNGGA,003822.000,4910.425528,N,12304.400118,W,2,46,0.58,18.956,M,-16.817,M,,*78
$GNVTG,198.02,T,,M,0.01,N,0.01,K,D*24
$GNGSA,A,3,06,12,19,24,11,17,25,03,32,,,,1.01,0.58,0.83,1*0F
$GNGSA,A,3,85,75,67,,,,,,,,,,1.01,0.58,0.83,2*0A
$GNGSA,A,3,30,02,36,34,27,11,29,07,,,,,1.01,0.58,0.83,3*0F
$GNGSA,A,3,44,24,12,35,25,26,34,39,,,,,1.01,0.58,0.83,4*0F
$GPGSV,3,1,10,06,60,111,34,12,56,298,36,19,52,061,35,24,46,226,34,1*6C
$GPGSV,3,2,10,11,41,168,33,44,33,171,30,17,22,064,24,25,17,297,26,1*61
$GPGSV,3,3,10,03,10,033,26,32,09,318,29,1*6A
$GPGSV,2,1,05,06,60,111,30,24,46,226,27,11,41,168,24,25,17,297,20,8*6D
$GPGSV,2,2,05,32,09,318,16,8*5D
$GLGSV,1,1,04,85,76,060,28,75,62,134,30,86,41,203,21,67,09,325,17,1*7C
$GAGSV,3,1,11,30,69,301,34,02,54,108,32,36,51,073,31,34,46,161,31,7*75
$GAGSV,3,2,11,27,17,294,24,11,13,035,20,29,13,309,22,07,11,258,23,7*74
$GAGSV,3,3,11,15,04,194,19,25,03,112,15,19,02,350,,7*49
$GAGSV,2,1,06,30,69,301,23,02,54,108,26,36,51,073,25,34,46,161,25,1*77
$GAGSV,2,2,06,27,17,294,17,07,11,258,16,1*76
$GBGSV,3,1,11,44,80,161,34,24,73,206,35,12,57,209,29,35,42,058,30,1*72
$GBGSV,3,2,11,25,37,305,29,26,29,150,26,34,29,222,28,39,10,330,26,1*7D
$GBGSV,3,3,11,11,06,221,21,20,02,028,11,16,01,334,,1*4A
$GBGSV,2,1,07,44,80,161,26,24,73,206,29,35,42,058,23,25,37,305,22,5*78
$GBGSV,2,2,07,26,29,150,17,34,29,222,19,39,10,330,14,5*40
$GNGLL,4910.425528,N,12304.400118,W,003822.000,A,D*53
$GNRMC,003823.000,A,4910.425552,N,12304.400064,W,0.01,198.02,080125,,,D,V*15
