$GNGGA,003753.000,4910.425762,N,12304.397922,W,2,30,0.55,3.816,M,-16.817,M,,*46
$GNGLL,4910.425762,N,12304.397922,W,003753.000,A,D*5E
$GNGSA,A,3,06,12,19,24,11,17,25,03,32,,,,0.97,0.55,0.80,1*0F
$GNGSA,A,3,85,75,76,84,67,,,,,,,,0.97,0.55,0.80,2*07
$GNGSA,A,3,30,02,36,34,27,11,29,07,,,,,0.97,0.55,0.80,3*0F
$GNGSA,A,3,44,24,12,35,25,26,34,39,,,,,0.97,0.55,0.80,4*0F
$GPGSV,3,1,09,06,60,110,33,12,56,298,35,19,52,061,31,24,46,225,32,1*60
$GPGSV,3,2,09,11,41,168,28,17,22,064,26,25,17,297,26,03,10,033,21,1*64
$GPGSV,3,3,09,32,09,318,25,1*58
$GLGSV,3,1,09,85,76,060,33,75,63,133,35,76,51,319,33,86,41,203,,1*7D
$GLGSV,3,2,09,84,22,035,19,74,11,136,,67,09,326,20,68,,,21,1*45
$GLGSV,3,3,09,77,,,23,1*70
$GAGSV,3,1,11,30,68,300,33,02,54,108,29,36,52,075,29,34,44,162,29,7*7C
$GAGSV,3,2,11,27,16,294,21,11,14,035,19,29,14,310,20,07,11,258,22,7*71
$GAGSV,3,3,11,25,04,112,12,15,04,193,,19,02,351,,7*47
$GBGSV,3,1,11,44,80,161,36,24,73,206,36,12,57,209,30,35,42,058,33,1*78
$GBGSV,3,2,11,25,37,305,31,26,29,150,29,34,29,222,29,39,10,330,26,1*7A
$GBGSV,3,3,11,11,06,222,21,20,02,028,,16,01,334,,1*49
$GNRMC,003753.000,A,4910.425762,N,12304.397922,W,0.16,68.45,080125,,,D,V*25
$GNVTG,68.45,T,,M,0.16,N,0.30,K,D*1D
$PAIRLOG,Full*51
$GNGGA,003754.000,4910.425852,N,12304.397832,W,2,28,0.57,4.035,M,-16.816,M,,*49
$GNGLL,4910.425852,N,12304.397832,W,003754.000,A,D*55
$GNGSA,A,3,06,12,19,24,11,17,25,03,32,,,,0.98,0.57,0.80,1*02
$GNGSA,A,3,85,75,76,84,67,,,,,,,,0.98,0.57,0.80,2*0A
$GNGSA,A,3,30,02,36,34,27,11,29,07,,,,,0.98,0.57,0.80,3*02
$GNGSA,A,3,44,24,12,25,26,34,,,,,,,0.98,0.57,0.80,4*0E
$GPGSV,3,1,10,06,60,110,33,12,56,298,34,19,52,061,31,24,46,225,32,1*69
$GPGSV,3,2,10,11,41,168,27,17,22,064,26,25,17,297,26,03,10,033,20,1*62
$GPGSV,3,3,10,32,09,318,24,47,,,,1*52
$GLGSV,2,1,07,85,76,060,33,75,63,133,34,76,51,319,33,86,41,203,,1*73
$GLGSV,2,2,07,84,22,035,19,74,11,136,,67,09,326,20,1*47
$GAGSV,3,1,11,30,68,300,32,02,54,108,28,36,52,075,28,34,44,162,28,7*7C
$GAGSV,3,2,11,27,16,294,21,11,14,035,19,29,14,310,20,07,11,258,22,7*71
$GAGSV,3,3,11,15,04,193,,25,04,112,12,19,02,351,,7*47
$GBGSV,3,1,11,44,80,161,36,24,73,206,36,12,57,209,30,35,42,058,,1*78
$GBGSV,3,2,11,25,37,305,31,26,29,150,29,34,29,222,29,39,10,330,,1*7E
$GBGSV,3,3,11,11,06,222,,20,02,028,,16,01,334,,1*4A
$GNRMC,003754.000,A,4910.425852,N,12304.397832,W,0.17,68.45,080125,,,D,V*2F
$GNVTG,68.45,T,,M,0.17,N,0.31,K,D*1D
$PAIRLOG,Full*51
$GNGGA,003755.000,4910.425828,N,12304.398000,W,2,28,0.57,4.075,M,-16.816,M,,*47
$GNGLL,4910.425828,N,12304.398000,W,003755.000,A,D*5F
$GNGSA,A,3,06,12,19,24,11,17,25,03,32,,,,0.98,0.57,0.80,1*02
$GNGSA,A,3,85,75,76,84,67,,,,,,,,0.98,0.57,0.80,2*0A
$GNGSA,A,3,30,02,36,34,27,29,11,07,,,,,0.98,0.57,0.80,3*02
$GNGSA,A,3,44,24,12,25,26,34,,,,,,,0.98,0.57,0.80,4*0E
$GPGSV,3,1,10,06,60,110,34,12,56,298,34,19,52,061,31,24,46,225,32,1*6E
$GPGSV,3,2,10,11,41,168,27,17,22,064,26,25,17,297,26,03,10,033,20,1*62
$GPGSV,3,3,10,32,09,318,24,47,,,,1*52
$GLGSV,3,1,09,85,76,060,33,75,63,133,34,76,51,319,33,86,41,203,,1*7C
$GLGSV,3,2,09,84,22,035,19,74,11,136,,68,09,011,,67,09,326,20,1*7F
$GLGSV,3,3,09,77,07,318,,1*4C
$GAGSV,3,1,11,30,68,300,32,02,54,108,28,36,52,075,28,34,44,162,28,7*7C
$GAGSV,3,2,11,27,16,294,21,29,14,310,20,11,13,035,19,07,11,258,22,7*76
$GAGSV,3,3,11,15,04,193,,25,04,112,12,19,02,351,,7*47
$GBGSV,3,1,11,44,80,161,36,24,73,206,35,12,57,209,30,35,42,058,,1*7B
$GBGSV,3,2,11,25,37,305,31,26,29,150,29,34,29,222,29,39,10,330,,1*7E
$GBGSV,3,3,11,11,06,222,,20,02,028,,16,01,334,,1*4A
$GNRMC,003755.000,A,4910.425828,N,12304.398000,W,0.17,68.45,080125,,,D,V*25
$GNVTG,68.45,T,,M,0.17,N,0.31,K,D*1D
$PAIRLOG,Full*51
$GNGGA,003756.000,4910.425822,N,12304.398186,W,2,28,0.57,4.351,M,-16.816,M,,*44
$GNGLL,4910.425822,N,12304.398186,W,003756.000,A,D*59
$GNGSA,A,3,06,12,19,24,11,17,25,03,32,,,,0.98,0.57,0.80,1*02
$GNGSA,A,3,85,75,76,84,67,,,,,,,,0.98,0.57,0.80,2*0A
$GNGSA,A,3,30,02,36,34,27,29,11,07,,,,,0.98,0.57,0.80,3*02
$GNGSA,A,3,44,24,12,25,34,26,,,,,,,0.98,0.57,0.80,4*0E
$GPGSV,3,1,10,06,60,110,35,12,56,298,35,19,52,061,31,24,46,225,32,1*6E
$GPGSV,3,2,10,11,41,168,27,17,22,064,26,25,17,297,26,03,10,033,21,1*63
$GPGSV,3,3,10,32,09,318,24,47,,,,1*52
$GLGSV,3,1,09,85,76,060,32,75,63,133,34,76,51,319,33,86,41,203,,1*7D
$GLGSV,3,2,09,84,22,035,18,74,11,136,,68,09,011,,67,09,326,20,1*7E
$GLGSV,3,3,09,77,07,318,,1*4C
$GAGSV,3,1,09,30,68,300,33,02,54,108,29,36,52,075,28,34,44,162,28,7*75
$GAGSV,3,2,09,27,16,294,22,29,14,310,20,11,13,035,19,07,11,258,22,7*7C
$GAGSV,3,3,09,25,04,112,13,7*49
$GBGSV,2,1,06,44,80,161,36,24,73,206,35,12,57,209,30,25,37,305,31,1*76
$GBGSV,2,2,06,34,29,222,29,26,29,150,29,1*75
$GNRMC,003756.000,A,4910.425822,N,12304.398186,W,0.16,68.45,080125,,,D,V*22
$GNVTG,68.45,T,,M,0.16,N,0.30,K,D*1D
$PAIRLOG,Full*51
$GNGGA,003757.000,4910.425900,N,12304.398378,W,2,28,0.57,4.584,M,-16.816,M,,*49
$GNGLL,4910.425900,N,12304.398378,W,003757.000,A,D*5A
$GNGSA,A,3,06,12,19,24,11,17,25,03,32,,,,0.98,0.57,0.80,1*02
$GNGSA,A,3,85,75,76,84,67,,,,,,,,0.98,0.57,0.80,2*0A
$GNGSA,A,3,30,02,36,34,27,29,11,07,,,,,0.98,0.57,0.80,3*02
$GNGSA,A,3,44,24,12,25,34,26,,,,,,,0.98,0.57,0.80,4*0E
$GPGSV,3,1,10,06,60,110,35,12,56,298,36,19,52,061,32,24,46,225,33,1*6F
$GPGSV,3,2,10,11,41,168,28,17,22,064,26,25,17,297,26,03,10,033,21,1*6C
$GPGSV,3,3,10,32,09,318,25,47,,,,1*53
$GLGSV,3,1,09,85,76,060,32,75,63,133,34,76,51,319,33,86,41,203,,1*7D
$GLGSV,3,2,09,84,22,035,18,74,11,136,,68,09,011,,67,09,326,20,1*7E
$GLGSV,3,3,09,77,07,318,,1*4C
$GAGSV,3,1,09,30,68,300,34,02,54,108,29,36,52,075,29,34,44,162,29,7*72
$GAGSV,3,2,09,27,16,294,22,29,14,310,20,11,13,035,19,07,11,258,23,7*7D
$GAGSV,3,3,09,25,04,112,13,7*49
$GBGSV,2,1,06,44,80,161,36,24,73,206,35,12,57,209,30,25,37,305,31,1*76
$GBGSV,2,2,06,34,29,222,29,26,29,150,29,1*75
$GNRMC,003757.000,A,4910.425900,N,12304.398378,W,0.15,68.45,080125,,,D,V*22
$GNVTG,68.45,T,,M,0.15,N,0.28,K,D*17
$PAIRLOG,Full*51
$GNGGA,003758.000,4910.425942,N,12304.398552,W,2,28,0.57,4.958,M,-16.816,M,,*43
$GNGLL,4910.425942,N,12304.398552,W,003758.000,A,D*5D
$GNGSA,A,3,06,12,19,24,11,17,25,03,32,,,,0.98,0.57,0.80,1*02
$GNGSA,A,3,85,75,76,84,67,,,,,,,,0.98,0.57,0.80,2*0A
$GNGSA,A,3,30,02,36,34,27,29,11,07,,,,,0.98,0.57,0.80,3*02
$GNGSA,A,3,44,24,12,25,34,26,,,,,,,0.98,0.57,0.80,4*0E
$GPGSV,3,1,10,06,60,110,35,12,56,298,36,19,52,061,32,24,46,225,33,1*6F
$GPGSV,3,2,10,11,41,168,28,17,22,064,26,25,17,297,26,03,10,033,21,1*6C
$GPGSV,3,3,10,32,09,318,25,47,,,,1*53
$GLGSV,3,1,09,85,76,060,32,75,63,133,34,76,51,319,33,86,41,203,,1*7D
$GLGSV,3,2,09,84,22,035,18,74,11,136,,68,09,011,,67,09,326,20,1*7E
$GLGSV,3,3,09,77,07,318,21,1*4F
$GAGSV,3,1,09,30,68,300,34,02,54,108,30,36,52,075,29,34,44,162,29,7*7A
$GAGSV,3,2,09,27,16,294,22,29,14,310,21,11,13,035,19,07,11,258,23,7*7C
$GAGSV,3,3,09,25,04,112,14,7*4E
$GBGSV,2,1,06,44,80,161,36,24,73,206,35,12,57,209,29,25,37,305,30,1*7F
$GBGSV,2,2,06,34,29,222,29,26,29,150,28,1*74
$GNRMC,003758.000,A,4910.425942,N,12304.398552,W,0.14,68.45,080125,,,D,V*24
$GNVTG,68.45,T,,M,0.14,N,0.26,K,D*18
$PAIRLOG,Full*51
$GNGGA,003759.000,4910.425954,N,12304.398738,W,2,29,0.55,5.365,M,-16.816,M,,*4D
$GNGLL,4910.425954,N,12304.398738,W,003759.000,A,D*55
$GNGSA,A,3,06,12,19,24,11,17,25,03,32,,,,0.97,0.55,0.80,1*0F
$GNGSA,A,3,85,75,76,84,67,,,,,,,,0.97,0.55,0.80,2*07
$GNGSA,A,3,30,02,36,34,27,29,11,07,,,,,0.97,0.55,0.80,3*0F
$GNGSA,A,3,44,24,12,35,25,26,34,,,,,,0.97,0.55,0.80,4*05
$GPGSV,3,1,10,06,60,110,35,12,56,298,36,19,52,061,32,24,46,225,33,1*6F
$GPGSV,3,2,10,11,41,168,29,17,22,064,26,25,17,297,26,03,10,033,22,1*6E
$GPGSV,3,3,10,32,09,318,25,47,,,,1*53
$GLGSV,3,1,09,85,76,060,32,75,63,133,34,76,51,319,33,86,41,203,,1*7D
$GLGSV,3,2,09,84,22,035,18,74,11,136,,68,09,011,,67,09,326,21,1*7F
$GLGSV,3,3,09,77,07,318,21,1*4F
$GAGSV,3,1,11,30,68,300,34,02,54,108,30,36,52,075,29,34,44,162,29,7*73
$GAGSV,3,2,11,27,16,294,22,29,14,310,21,11,13,035,19,07,11,258,23,7*75
$GAGSV,3,3,11,15,04,194,,25,04,112,14,19,02,351,,7*46
$GBGSV,3,1,11,44,80,161,36,24,73,206,35,12,57,209,29,35,42,058,30,1*70
$GBGSV,3,2,11,25,37,305,30,26,29,150,28,34,29,222,28,39,10,330,,1*7F
$GBGSV,3,3,11,11,06,222,,20,02,028,,16,01,334,,1*4A
$GNRMC,003759.000,A,4910.425954,N,12304.398738,W,0.14,68.45,080125,,,D,V*2C
$GNVTG,68.45,T,,M,0.14,N,0.26,K,D*18
$PAIRLOG,Full*51
$GNGGA,003800.000,4910.425936,N,12304.398864,W,2,30,0.55,5.689,M,-16.817,M,,*42
$GNGLL,4910.425936,N,12304.398864,W,003800.000,A,D*54
$GNGSA,A,3,06,12,19,24,11,17,25,03,32,,,,0.97,0.55,0.80,1*0F
$GNGSA,A,3,85,75,76,84,67,,,,,,,,0.97,0.55,0.80,2*07
$GNGSA,A,3,30,02,36,34,27,29,11,07,,,,,0.97,0.55,0.80,3*0F
$GNGSA,A,3,44,24,12,35,25,26,34,39,,,,,0.97,0.55,0.80,4*0F
$GPGSV,3,1,09,06,60,110,35,12,56,298,35,19,52,061,31,24,46,225,33,1*67
$GPGSV,3,2,09,11,41,168,29,17,22,064,26,25,17,297,25,03,10,033,22,1*65
$GPGSV,3,3,09,32,09,318,25,1*58
$GLGSV,3,1,09,85,76,060,33,75,63,133,34,76,51,319,33,86,41,203,,1*7C
$GLGSV,3,2,09,84,22,035,18,74,11,136,,67,09,326,21,68,,,23,1*47
$GLGSV,3,3,09,77,,,20,1*73
$GAGSV,3,1,11,30,68,300,33,02,54,108,30,36,52,075,29,34,44,162,29,7*74
$GAGSV,3,2,11,27,16,294,22,29,14,310,21,11,13,035,19,07,11,258,23,7*75
$GAGSV,3,3,11,25,04,112,14,15,04,194,,19,02,351,,7*46
$GBGSV,3,1,11,44,80,161,36,24,73,206,35,12,57,209,29,35,42,058,32,1*72
$GBGSV,3,2,11,25,37,305,30,26,29,150,28,34,29,222,28,39,10,330,26,1*7B
$GBGSV,3,3,11,11,06,222,,20,02,028,,16,01,334,,1*4A
$GNRMC,003800.000,A,4910.425936,N,12304.398864,W,0.14,68.45,080125,,,D,V*2D
$GNVTG,68.45,T,,M,0.14,N,0.25,K,D*1B
$PAIRLOG,Full*51
$GNGGA,003801.000,4910.425834,N,12304.399056,W,2,28,0.57,5.853,M,-16.816,M,,*4B
$GNGLL,4910.425834,N,12304.399056,W,003801.000,A,D*5E
$GNGSA,A,3,06,12,19,24,11,17,25,03,32,,,,0.98,0.57,0.80,1*02
$GNGSA,A,3,85,75,76,84,67,,,,,,,,0.98,0.57,0.80,2*0A
$GNGSA,A,3,30,02,36,34,27,29,11,07,,,,,0.98,0.57,0.80,3*02
$GNGSA,A,3,44,24,12,25,34,26,,,,,,,0.98,0.57,0.80,4*0E
$GPGSV,3,1,10,06,60,110,35,12,56,298,35,19,52,061,31,24,46,225,33,1*6F
$GPGSV,3,2,10,11,41,168,29,17,22,064,26,25,17,297,25,03,10,033,22,1*6D
$GPGSV,3,3,10,32,09,318,25,35,,,,1*56
$GLGSV,2,1,07,85,76,060,33,75,63,133,35,76,51,319,33,86,41,203,,1*72
$GLGSV,2,2,07,84,22,035,18,74,11,136,,67,09,326,21,1*47
$GAGSV,3,1,09,30,68,300,33,02,54,108,30,36,52,075,29,34,44,162,29,7*7D
$GAGSV,3,2,09,27,16,294,22,29,14,310,21,11,13,035,19,07,11,258,23,7*7C
$GAGSV,3,3,09,25,04,112,14,7*4E
$GBGSV,2,1,06,44,80,161,36,24,73,206,36,12,57,209,29,25,37,305,31,1*7D
$GBGSV,2,2,06,34,29,222,29,26,29,150,28,1*74
$GNRMC,003801.000,A,4910.425834,N,12304.399056,W,0.13,68.45,080125,,,D,V*20
$GNVTG,68.45,T,,M,0.13,N,0.24,K,D*1D
$PAIRLOG,Full*51
$GNGGA,003802.000,4910.425756,N,12304.399158,W,2,28,0.57,5.964,M,-16.816,M,,*49
$GNGLL,4910.425756,N,12304.399158,W,003802.000,A,D*59
$GNGSA,A,3,06,12,19,24,11,17,25,03,32,,,,0.98,0.57,0.80,1*02
$GNGSA,A,3,85,75,76,84,67,,,,,,,,0.98,0.57,0.80,2*0A
$GNGSA,A,3,30,02,36,34,27,29,11,07,,,,,0.98,0.57,0.80,3*02
$GNGSA,A,3,44,24,12,25,34,26,,,,,,,0.98,0.57,0.80,4*0E
$GPGSV,3,1,10,06,60,110,35,12,56,298,35,19,52,061,31,24,46,225,33,1*6F
$GPGSV,3,2,10,11,41,168,29,17,22,064,26,25,17,297,25,03,10,033,22,1*6D
$GPGSV,3,3,10,32,09,318,25,35,,,,1*56
$GLGSV,3,1,09,85,76,060,34,75,63,133,36,76,51,319,34,86,41,203,,1*7E
$GLGSV,3,2,09,84,22,035,19,74,11,136,,68,09,011,23,67,09,326,22,1*7C
$GLGSV,3,3,09,77,07,318,,1*4C
$GAGSV,3,1,09,30,68,300,33,02,54,108,30,36,52,075,29,34,44,162,29,7*7D
$GAGSV,3,2,09,27,16,294,22,29,14,310,21,11,13,035,19,07,11,258,23,7*7C
$GAGSV,3,3,09,25,04,112,14,7*4E
$GBGSV,2,1,06,44,80,161,36,24,73,206,36,12,57,209,29,25,37,305,31,1*7D
$GBGSV,2,2,06,34,29,222,29,26,29,150,29,1*75
$GNRMC,003802.000,A,4910.425756,N,12304.399158,W,0.12,68.45,080125,,,D,V*26
$GNVTG,68.45,T,,M,0.12,N,0.22,K,D*1A
$PAIRLOG,Full*51
$PAIR010,0,1,2348,261500*37
$GNGGA,003803.000,4910.425708,N,12304.399044,W,2,28,0.57,6.058,M,-16.816,M,,*4A
$GNGLL,4910.425708,N,12304.399044,W,003803.000,A,D*5F
$GNGSA,A,3,06,12,19,24,11,17,25,03,32,,,,0.98,0.57,0.80,1*02
$GNGSA,A,3,85,75,76,84,67,,,,,,,,0.98,0.57,0.80,2*0A
$GNGSA,A,3,30,02,36,34,27,29,11,07,,,,,0.98,0.57,0.80,3*02
$GNGSA,A,3,44,24,12,25,26,34,,,,,,,0.98,0.57,0.80,4*0E
$GPGSV,3,1,10,06,60,110,34,12,56,298,34,19,52,061,30,24,46,225,32,1*6F
$GPGSV,3,2,10,11,41,168,28,17,22,064,26,25,17,297,24,03,10,033,21,1*6E
$GPGSV,3,3,10,32,09,318,24,35,,,,1*57
$GLGSV,3,1,09,85,76,060,34,75,63,133,35,76,51,319,34,86,41,203,,1*7D
$GLGSV,3,2,09,84,22,035,19,74,11,136,,68,09,011,25,67,09,326,22,1*7A
$GLGSV,3,3,09,77,07,318,22,1*4C
$GAGSV,3,1,11,30,68,300,32,02,54,108,29,36,52,075,28,34,44,162,28,7*7D
$GAGSV,3,2,11,27,16,294,21,29,14,310,21,11,13,035,19,07,11,258,22,7*77
$GAGSV,3,3,11,15,04,194,,25,04,112,14,19,02,350,,7*47
$GBGSV,3,1,11,44,80,161,35,24,73,206,35,12,57,209,29,35,42,058,,1*70
$GBGSV,3,2,11,25,37,305,30,26,29,150,28,34,29,222,28,39,10,330,,1*7F
$GBGSV,3,3,11,11,06,222,,20,02,028,,16,01,334,,1*4A
$GNRMC,003803.000,A,4910.425708,N,12304.399044,W,0.10,68.45,080125,,,D,V*22
$GNVTG,68.45,T,,M,0.10,N,0.19,K,D*10
$PAIRLOG,Full*51
$GNGGA,003804.000,4910.425714,N,12304.398960,W,2,29,0.55,6.454,M,-16.816,M,,*45
$GNGLL,4910.425714,N,12304.398960,W,003804.000,A,D*5B
$GNGSA,A,3,06,12,19,24,11,17,25,03,32,,,,0.97,0.55,0.80,1*0F
$GNGSA,A,3,85,75,76,84,67,,,,,,,,0.97,0.55,0.80,2*07
$GNGSA,A,3,30,02,36,34,27,29,11,07,,,,,0.97,0.55,0.80,3*0F
$GNGSA,A,3,44,24,12,35,25,26,34,,,,,,0.97,0.55,0.80,4*05
$GPGSV,3,1,10,06,60,110,34,12,56,298,34,19,52,061,30,24,46,225,32,1*6F
$GPGSV,3,2,10,11,41,168,28,17,22,064,25,25,17,297,23,03,10,033,20,1*6B
$GPGSV,3,3,10,32,09,318,23,35,,,,1*50
$GLGSV,3,1,09,85,76,060,34,75,63,133,35,76,51,319,34,86,41,203,,1*7D
$GLGSV,3,2,09,84,22,035,19,74,11,136,,68,09,011,24,67,09,326,23,1*7A
$GLGSV,3,3,09,77,07,318,22,1*4C
$GAGSV,3,1,11,30,68,300,32,02,54,108,29,36,52,075,28,34,44,162,28,7*7D
$GAGSV,3,2,11,27,16,294,21,29,14,310,20,11,13,035,19,07,11,258,21,7*75
$GAGSV,3,3,11,15,04,194,,25,04,112,14,19,02,350,,7*47
$GBGSV,3,1,11,44,80,161,35,24,73,206,35,12,57,209,29,35,42,058,32,1*71
$GBGSV,3,2,11,25,37,305,29,26,29,150,29,34,29,222,29,39,10,330,,1*77
$GBGSV,3,3,11,11,06,222,,20,02,028,,16,01,334,,1*4A
$GNRMC,003804.000,A,4910.425714,N,12304.398960,W,0.09,68.45,080125,,,D,V*2E
$GNVTG,68.45,T,,M,0.09,N,0.16,K,D*17
$PAIRLOG,Full*51
$GNGGA,003805.000,4910.425726,N,12304.398936,W,2,30,0.55,6.591,M,-16.816,M,,*46
$GNGLL,4910.425726,N,12304.398936,W,003805.000,A,D*58
$GNGSA,A,3,06,12,19,24,11,17,25,03,32,,,,0.97,0.55,0.80,1*0F
$GNGSA,A,3,85,75,76,84,67,,,,,,,,0.97,0.55,0.80,2*07
$GNGSA,A,3,30,02,36,34,27,29,11,07,,,,,0.97,0.55,0.80,3*0F
$GNGSA,A,3,44,24,12,35,25,34,26,39,,,,,0.97,0.55,0.80,4*0F
$GPGSV,3,1,10,06,60,110,33,12,56,298,33,19,52,061,29,24,46,225,31,1*64
$GPGSV,3,2,10,11,41,168,27,17,22,064,24,25,17,297,22,03,10,033,19,1*6E
$GPGSV,3,3,10,32,09,318,22,35,,,,1*51
$GLGSV,2,1,08,85,76,060,34,75,63,133,35,76,51,319,34,84,22,035,19,1*75
$GLGSV,2,2,08,74,11,136,,67,09,326,23,68,,,26,77,,,23,1*72
$GAGSV,3,1,11,30,68,300,31,02,54,108,28,36,52,075,27,34,44,162,27,7*7F
$GAGSV,3,2,11,27,16,294,20,29,14,310,19,11,13,035,19,07,11,258,20,7*7F
$GAGSV,3,3,11,15,04,194,,25,04,112,14,19,02,350,,7*47
$GBGSV,3,1,11,44,80,161,35,24,73,206,35,12,57,209,29,35,42,058,32,1*71
$GBGSV,3,2,11,25,37,305,29,34,29,222,29,26,29,150,29,39,10,330,25,1*70
$GBGSV,3,3,11,11,06,222,,20,02,028,,16,01,334,,1*4A
$GNRMC,003805.000,A,4910.425726,N,12304.398936,W,0.07,68.45,080125,,,D,V*23
$GNVTG,68.45,T,,M,0.07,N,0.14,K,D*1B
$PAIRLOG,Full*51
$GNGGA,003806.000,4910.425576,N,12304.398828,W,2,30,0.55,6.650,M,-16.816,M,,*42
$GNGLL,4910.425576,N,12304.398828,W,003806.000,A,D*52
$GNGSA,A,3,06,12,19,24,11,17,25,03,32,,,,0.97,0.55,0.80,1*0F
$GNGSA,A,3,85,75,76,84,67,,,,,,,,0.97,0.55,0.80,2*07
$GNGSA,A,3,30,02,36,34,27,29,11,07,,,,,0.97,0.55,0.80,3*0F
$GNGSA,A,3,44,24,12,35,25,26,34,39,,,,,0.97,0.55,0.80,4*0F
$GPGSV,3,1,09,06,60,110,34,12,56,298,33,19,52,061,30,24,46,225,31,1*63
$GPGSV,3,2,09,11,41,168,28,17,22,064,25,25,17,297,22,03,10,033,19,1*68
$GPGSV,3,3,09,32,09,318,22,1*5F
$GLGSV,2,1,07,85,76,060,35,75,63,133,35,76,51,319,34,86,41,203,,1*73
$GLGSV,2,2,07,84,22,035,19,74,11,136,,67,09,326,24,1*43
$GAGSV,3,1,11,30,68,300,31,02,54,108,28,36,52,075,27,34,44,162,27,7*7F
$GAGSV,3,2,11,27,16,294,20,29,14,310,19,11,13,035,19,07,11,258,20,7*7F
$GAGSV,3,3,11,15,04,194,,25,04,112,14,19,02,350,,7*47
$GBGSV,3,1,11,44,80,161,35,24,73,206,35,12,57,209,29,35,42,058,30,1*73
$GBGSV,3,2,11,25,37,305,29,26,29,150,29,34,29,222,29,39,10,330,25,1*70
$GBGSV,3,3,11,11,06,222,,20,02,028,,16,01,334,,1*4A
$GNRMC,003806.000,A,4910.425576,N,12304.398828,W,0.06,68.45,080125,,,D,V*28
$GNVTG,68.45,T,,M,0.06,N,0.11,K,D*1F
$PAIRLOG,Full*51
$GNGGA,003807.000,4910.425456,N,12304.398774,W,2,28,0.57,6.512,M,-16.816,M,,*48
$GNGLL,4910.425456,N,12304.398774,W,003807.000,A,D*56
$GNGSA,A,3,06,12,19,24,11,17,25,03,32,,,,0.98,0.57,0.80,1*02
$GNGSA,A,3,85,75,76,84,67,,,,,,,,0.98,0.57,0.80,2*0A
$GNGSA,A,3,30,02,36,34,27,29,11,07,,,,,0.98,0.57,0.80,3*02
$GNGSA,A,3,44,24,12,25,26,34,,,,,,,0.98,0.57,0.80,4*0E
$GPGSV,3,1,10,06,60,110,35,12,56,298,33,19,52,061,31,24,46,225,32,1*68
$GPGSV,3,2,10,11,41,168,29,17,22,064,25,25,17,297,23,03,10,033,20,1*6A
$GPGSV,3,3,10,32,09,318,23,50,,,,1*53
$GLGSV,2,1,07,85,76,060,35,75,63,133,35,76,51,319,34,86,41,203,,1*73
$GLGSV,2,2,07,84,22,035,19,74,11,136,,67,09,326,24,1*43
$GAGSV,3,1,11,30,68,300,31,02,54,108,28,36,52,075,28,34,44,162,28,7*7F
$GAGSV,3,2,11,27,16,294,21,29,14,310,20,11,13,035,19,07,11,258,21,7*75
$GAGSV,3,3,11,15,04,194,,25,04,112,14,19,02,350,,7*47
$GBGSV,3,1,11,44,80,161,35,24,73,206,35,12,57,209,29,35,42,058,,1*70
$GBGSV,3,2,11,25,37,305,28,26,29,150,29,34,29,222,29,39,10,330,,1*76
$GBGSV,3,3,11,11,06,222,,20,02,028,,16,01,334,,1*4A
$GNRMC,003807.000,A,4910.425456,N,12304.398774,W,0.05,68.45,080125,,,D,V*2F
$GNVTG,68.45,T,,M,0.05,N,0.09,K,D*15
$PAIRLOG,Full*51
$GNGGA,003808.000,4910.425246,N,12304.398792,W,2,28,0.57,6.322,M,-16.817,M,,*4C
$GNGLL,4910.425246,N,12304.398792,W,003808.000,A,D*56
$GNGSA,A,3,06,12,19,24,11,17,25,03,32,,,,0.98,0.57,0.80,1*02
$GNGSA,A,3,85,75,76,84,67,,,,,,,,0.98,0.57,0.80,2*0A
$GNGSA,A,3,30,02,36,34,27,29,11,07,,,,,0.98,0.57,0.80,3*02
$GNGSA,A,3,44,24,12,25,26,34,,,,,,,0.98,0.57,0.80,4*0E
$GPGSV,3,1,10,06,60,110,35,12,56,298,34,19,52,061,31,24,46,225,32,1*6F
$GPGSV,3,2,10,11,41,168,30,17,22,064,25,25,17,297,23,03,10,033,20,1*62
$GPGSV,3,3,10,32,09,318,24,50,,,,1*54
$GLGSV,3,1,09,85,76,060,35,75,63,133,36,76,51,319,34,86,41,203,,1*7F
$GLGSV,3,2,09,84,22,035,19,74,11,136,,68,09,011,,67,09,326,24,1*7B
$GLGSV,3,3,09,77,07,318,,1*4C
$GAGSV,3,1,11,30,68,300,32,02,54,108,28,36,52,075,29,34,44,162,28,7*7D
$GAGSV,3,2,11,27,16,294,21,29,14,310,21,11,13,035,19,07,11,258,21,7*74
$GAGSV,3,3,11,15,04,194,,25,04,112,14,19,02,350,,7*47
$GBGSV,3,1,11,44,80,161,34,24,73,206,34,12,57,209,28,35,42,058,,1*71
$GBGSV,3,2,11,25,37,305,28,26,29,150,29,34,29,222,28,39,10,330,,1*77
$GBGSV,3,3,11,11,06,222,,20,02,028,,16,01,334,,1*4A
$GNRMC,003808.000,A,4910.425246,N,12304.398792,W,0.04,68.45,080125,,,D,V*2E
$GNVTG,68.45,T,,M,0.04,N,0.08,K,D*15
$PAIRLOG,Full*51
$GNGGA,003809.000,4910.425144,N,12304.398816,W,2,28,0.57,5.942,M,-16.817,M,,*40
$GNGLL,4910.425144,N,12304.398816,W,003809.000,A,D*55
$GNGSA,A,3,06,12,19,24,11,17,25,03,32,,,,0.98,0.57,0.80,1*02
$GNGSA,A,3,85,75,76,84,67,,,,,,,,0.98,0.57,0.80,2*0A
$GNGSA,A,3,30,02,36,34,27,29,11,07,,,,,0.98,0.57,0.80,3*02
$GNGSA,A,3,44,24,12,25,34,26,,,,,,,0.98,0.57,0.80,4*0E
$GPGSV,3,1,10,06,60,110,35,12,56,298,35,19,52,061,32,24,46,225,32,1*6D
$GPGSV,3,2,10,11,41,168,30,17,22,064,26,25,17,297,23,03,10,033,20,1*61
$GPGSV,3,3,10,32,09,318,24,50,,,,1*54
$GLGSV,3,1,09,85,76,060,35,75,63,133,36,76,51,319,34,86,41,203,,1*7F
$GLGSV,3,2,09,84,22,035,19,74,11,136,,68,09,011,,67,09,326,27,1*78
$GLGSV,3,3,09,77,07,318,,1*4C
$GAGSV,3,1,09,30,68,300,33,02,54,108,29,36,52,075,30,34,44,162,28,7*7C
$GAGSV,3,2,09,27,16,294,22,29,14,310,21,11,13,035,19,07,11,258,21,7*7E
$GAGSV,3,3,09,25,03,112,14,7*49
$GBGSV,2,1,06,44,80,161,34,24,73,206,33,12,57,209,28,25,37,305,27,1*7C
$GBGSV,2,2,06,34,29,222,27,26,29,150,28,1*7A
$GNRMC,003809.000,A,4910.425144,N,12304.398816,W,0.04,68.45,080125,,,D,V*2D
$GNVTG,68.45,T,,M,0.04,N,0.07,K,D*1A
$PAIRLOG,Full*51
$GNGGA,003810.000,4910.425072,N,12304.399044,W,2,28,0.57,5.750,M,-16.816,M,,*4E
$GNGLL,4910.425072,N,12304.399044,W,003810.000,A,D*57
$GNGSA,A,3,06,12,19,24,11,17,25,03,32,,,,0.98,0.57,0.80,1*02
$GNGSA,A,3,85,75,76,84,67,,,,,,,,0.98,0.57,0.80,2*0A
$GNGSA,A,3,30,02,36,34,27,29,11,07,,,,,0.98,0.57,0.80,3*02
$GNGSA,A,3,44,24,12,25,34,26,,,,,,,0.98,0.57,0.80,4*0E
$GPGSV,3,1,10,06,60,110,36,12,56,298,36,19,52,061,33,24,46,225,33,1*6D
$GPGSV,3,2,10,11,41,168,31,17,22,064,26,25,17,297,24,03,10,033,21,1*66
$GPGSV,3,3,10,32,09,318,25,50,,,,1*55
$GLGSV,3,1,09,85,76,060,35,75,63,133,36,76,51,319,34,86,41,203,,1*7F
$GLGSV,3,2,09,84,22,035,19,74,11,136,,68,09,011,,67,09,326,25,1*7A
$GLGSV,3,3,09,77,07,318,,1*4C
$GAGSV,3,1,09,30,68,300,33,02,54,108,30,36,52,075,31,34,44,162,29,7*74
$GAGSV,3,2,09,27,16,294,23,29,14,310,21,11,13,035,19,07,11,258,22,7*7C
$GAGSV,3,3,09,25,03,112,14,7*49
$GBGSV,2,1,06,44,80,161,33,24,73,206,33,12,57,209,28,25,37,305,26,1*7A
$GBGSV,2,2,06,34,29,222,26,26,29,150,27,1*74
$GNRMC,003810.000,A,4910.425072,N,12304.399044,W,0.04,68.45,080125,,,D,V*2F
$GNVTG,68.45,T,,M,0.04,N,0.08,K,D*15
$PAIRLOG,Full*51
$GNGGA,003811.000,4910.425030,N,12304.399170,W,2,28,0.57,5.583,M,-16.816,M,,*43
$GNGLL,4910.425030,N,12304.399170,W,003811.000,A,D*56
$GNGSA,A,3,06,12,19,24,11,17,25,03,32,,,,0.98,0.57,0.80,1*02
$GNGSA,A,3,85,75,76,84,67,,,,,,,,0.98,0.57,0.80,2*0A
$GNGSA,A,3,30,02,36,34,27,29,11,07,,,,,0.98,0.57,0.80,3*02
$GNGSA,A,3,44,24,12,25,34,26,,,,,,,0.98,0.57,0.80,4*0E
$GPGSV,3,1,10,06,60,110,36,12,56,298,36,19,52,061,33,24,46,225,33,1*6D
$GPGSV,3,2,10,11,41,168,31,17,22,064,26,25,17,297,24,03,10,033,21,1*66
$GPGSV,3,3,10,32,09,318,25,50,,,,1*55
$GLGSV,2,1,08,85,76,060,35,75,63,133,36,76,51,319,35,84,22,035,19,1*76
$GLGSV,2,2,08,74,11,136,,68,09,011,,67,09,326,26,77,07,318,,1*76
$GAGSV,3,1,09,30,68,300,33,02,54,108,30,36,52,075,31,34,44,162,29,7*74
$GAGSV,3,2,09,27,17,294,23,29,14,310,22,11,13,035,19,07,11,258,22,7*7E
$GAGSV,3,3,09,25,03,112,15,7*48
$GBGSV,2,1,06,44,80,161,33,24,73,206,33,12,57,209,28,25,37,305,27,1*7B
$GBGSV,2,2,06,34,29,222,26,26,29,150,27,1*74
$GNRMC,003811.000,A,4910.425030,N,12304.399170,W,0.05,68.45,080125,,,D,V*2F
$GNVTG,68.45,T,,M,0.05,N,0.09,K,D*15
$PAIRLOG,Full*51
$GNGGA,003812.000,4910.424958,N,12304.399212,W,2,28,0.57,5.187,M,-16.816,M,,*41
$GNGLL,4910.424958,N,12304.399212,W,003812.000,A,D*54
$GNGSA,A,3,06,12,19,24,11,17,25,03,32,,,,0.98,0.57,0.80,1*02
$GNGSA,A,3,85,75,76,84,67,,,,,,,,0.98,0.57,0.80,2*0A
$GNGSA,A,3,30,02,36,34,27,29,11,07,,,,,0.98,0.57,0.80,3*02
$GNGSA,A,3,44,24,12,25,34,26,,,,,,,0.98,0.57,0.80,4*0E
$GPGSV,3,1,09,06,60,110,36,12,56,298,35,19,52,061,33,24,46,225,33,1*66
$GPGSV,3,2,09,11,41,168,31,17,22,064,26,25,17,297,24,03,10,033,21,1*6E
$GPGSV,3,3,09,32,09,318,25,1*58
$GLGSV,3,1,09,85,76,060,34,75,63,133,36,76,51,319,35,86,41,203,,1*7F
$GLGSV,3,2,09,84,22,035,19,74,11,136,,68,09,011,,67,09,326,25,1*7A
$GLGSV,3,3,09,77,07,318,,1*4C
$GAGSV,3,1,11,30,68,300,33,02,54,108,30,36,52,075,31,34,44,162,29,7*7D
$GAGSV,3,2,11,27,17,294,23,29,14,310,22,11,13,035,19,07,11,258,22,7*77
$GAGSV,3,3,11,15,04,194,,25,03,112,15,19,02,350,,7*41
$GBGSV,3,1,11,44,80,161,33,24,73,206,33,12,57,209,28,35,42,058,,1*71
$GBGSV,3,2,11,25,37,305,27,34,29,222,27,26,29,150,27,39,10,330,,1*79
$GBGSV,3,3,11,11,06,222,,20,02,028,,16,01,334,,1*4A
$GNRMC,003812.000,A,4910.424958,N,12304.399212,W,0.05,68.45,080125,,,D,V*2D
$GNVTG,68.45,T,,M,0.05,N,0.10,K,D*1D
$PAIRLOG,Full*51
$GNGGA,003813.000,4910.424880,N,12304.399200,W,2,28,0.57,4.859,M,-16.816,M,,*4C
$GNGLL,4910.424880,N,12304.399200,W,003813.000,A,D*52
$GNGSA,A,3,06,12,19,24,11,17,25,03,32,,,,0.98,0.57,0.80,1*02
$GNGSA,A,3,85,75,76,84,67,,,,,,,,0.98,0.57,0.80,2*0A
$GNGSA,A,3,30,02,36,34,27,11,29,07,,,,,0.98,0.57,0.80,3*02
$GNGSA,A,3,44,24,12,25,34,26,,,,,,,0.98,0.57,0.80,4*0E
$GPGSV,3,1,10,06,60,110,36,12,56,298,34,19,52,061,33,24,46,225,32,1*6E
$GPGSV,3,2,10,11,41,168,31,17,22,064,25,25,17,297,24,03,10,033,21,1*65
$GPGSV,3,3,10,32,09,318,25,38,,,,1*5B
$GLGSV,3,1,09,85,76,060,34,75,63,133,36,76,51,319,35,86,41,203,,1*7F
$GLGSV,3,2,09,84,22,035,19,74,11,136,,68,09,011,,67,09,326,25,1*7A
$GLGSV,3,3,09,77,07,318,,1*4C
$GAGSV,3,1,11,30,68,300,32,02,54,108,29,36,52,075,30,34,44,162,28,7*74
$GAGSV,3,2,11,27,17,294,22,11,13,035,19,29,13,309,22,07,11,258,22,7*79
$GAGSV,3,3,11,15,04,194,,25,03,112,16,19,02,350,,7*42
$GBGSV,3,1,11,44,80,161,33,24,73,206,33,12,57,209,28,35,42,058,,1*71
$GBGSV,3,2,11,25,37,305,27,34,29,222,27,26,29,150,26,39,10,330,,1*78
$GBGSV,3,3,11,11,06,222,,20,02,028,,16,01,334,,1*4A
$GNRMC,003813.000,A,4910.424880,N,12304.399200,W,0.06,68.45,080125,,,D,V*28
$GNVTG,68.45,T,,M,0.06,N,0.11,K,D*1F
$PAIRLOG,Full*51
$GNGGA,003814.000,4910.424832,N,12304.399152,W,2,28,0.57,4.544,M,-16.816,M,,*47
$GNGLL,4910.424832,N,12304.399152,W,003814.000,A,D*58
$GNGSA,A,3,06,12,19,24,11,17,25,03,32,,,,0.98,0.57,0.80,1*02
$GNGSA,A,3,85,75,76,84,67,,,,,,,,0.98,0.57,0.80,2*0A
$GNGSA,A,3,30,02,36,34,27,11,29,07,,,,,0.98,0.57,0.80,3*02
$GNGSA,A,3,44,24,12,25,34,26,,,,,,,0.98,0.57,0.80,4*0E
$GPGSV,3,1,10,06,60,110,36,12,56,298,34,19,52,061,33,24,46,225,32,1*6E
$GPGSV,3,2,10,11,41,168,31,17,22,064,25,25,17,297,24,03,10,033,21,1*65
$GPGSV,3,3,10,32,09,318,25,38,,,,1*5B
$GLGSV,3,1,09,85,76,060,34,75,63,133,36,76,51,319,35,86,41,203,,1*7F
$GLGSV,3,2,09,84,22,035,19,74,11,136,,68,09,011,,67,09,326,25,1*7A
$GLGSV,3,3,09,77,07,318,,1*4C
$GAGSV,3,1,09,30,69,301,31,02,54,108,29,36,52,075,30,34,44,162,28,7*7E
$GAGSV,3,2,09,27,17,294,22,11,13,035,19,29,13,309,22,07,11,258,22,7*70
$GAGSV,3,3,09,25,03,112,16,7*4B
$GBGSV,2,1,06,44,80,161,33,24,73,206,33,12,57,209,28,25,37,305,27,1*7B
$GBGSV,2,2,06,34,29,222,27,26,29,150,26,1*74
$GNRMC,003814.000,A,4910.424832,N,12304.399152,W,0.06,68.45,080125,,,D,V*22
$GNVTG,68.45,T,,M,0.06,N,0.10,K,D*1E
$PAIRLOG,Full*51
$GNGGA,003815.000,4910.424790,N,12304.399134,W,2,28,0.57,4.434,M,-16.816,M,,*47
$GNGLL,4910.424790,N,12304.399134,W,003815.000,A,D*5E
$GNGSA,A,3,06,12,19,24,11,17,25,03,32,,,,0.98,0.57,0.80,1*02
$GNGSA,A,3,85,75,76,84,67,,,,,,,,0.98,0.57,0.80,2*0A
$GNGSA,A,3,30,02,36,34,27,11,29,07,,,,,0.98,0.57,0.80,3*02
$GNGSA,A,3,44,24,12,25,34,26,,,,,,,0.98,0.57,0.80,4*0E
$GPGSV,3,1,10,06,60,110,36,12,56,298,34,19,52,061,33,24,46,225,32,1*6E
$GPGSV,3,2,10,11,41,168,31,17,22,064,25,25,17,297,24,03,10,033,21,1*65
$GPGSV,3,3,10,32,09,318,25,38,,,,1*5B
$GLGSV,3,1,09,85,76,060,34,75,63,133,36,76,51,319,34,86,41,203,,1*7E
$GLGSV,3,2,09,84,22,035,19,74,11,136,,68,09,011,24,67,09,326,25,1*7C
$GLGSV,3,3,09,77,07,318,,1*4C
$GAGSV,3,1,09,30,69,301,31,02,54,108,29,36,52,075,30,34,44,162,28,7*7E
$GAGSV,3,2,09,27,17,294,22,11,13,035,19,29,13,309,21,07,11,258,21,7*70
$GAGSV,3,3,09,25,03,112,15,7*48
$GBGSV,2,1,06,44,80,161,34,24,73,206,33,12,57,209,28,25,37,305,27,1*7C
$GBGSV,2,2,06,34,29,222,27,26,29,150,26,1*74
$GNRMC,003815.000,A,4910.424790,N,12304.399134,W,0.05,68.45,080125,,,D,V*27
$GNVTG,68.45,T,,M,0.05,N,0.10,K,D*1D
$PAIRLOG,Full*51
$GNGGA,003816.000,4910.424784,N,12304.399032,W,2,28,0.57,4.415,M,-16.816,M,,*45
$GNGLL,4910.424784,N,12304.399032,W,003816.000,A,D*5F
$GNGSA,A,3,06,12,19,24,11,17,25,03,32,,,,0.98,0.57,0.80,1*02
$GNGSA,A,3,85,75,76,84,67,,,,,,,,0.98,0.57,0.80,2*0A
$GNGSA,A,3,30,02,36,34,27,11,29,07,,,,,0.98,0.57,0.80,3*02
$GNGSA,A,3,44,24,12,25,34,26,,,,,,,0.98,0.57,0.80,4*0E
$GPGSV,3,1,10,06,60,110,36,12,56,298,33,19,52,061,33,24,46,225,31,1*6A
$GPGSV,3,2,10,11,41,168,31,17,22,064,25,25,17,297,24,03,10,033,21,1*65
$GPGSV,3,3,10,32,09,318,25,38,,,,1*5B
$GLGSV,3,1,09,85,76,060,35,75,63,133,36,76,51,319,34,86,41,203,,1*7F
$GLGSV,3,2,09,84,22,035,18,74,11,136,,68,09,011,24,67,09,326,26,1*7E
$GLGSV,3,3,09,77,07,318,,1*4C
$GAGSV,3,1,09,30,69,301,31,02,54,108,29,36,52,075,29,34,44,162,28,7*76
$GAGSV,3,2,09,27,17,294,22,11,13,035,19,29,13,309,20,07,11,258,21,7*71
$GAGSV,3,3,09,25,03,112,14,7*49
$GBGSV,2,1,06,44,80,161,34,24,73,206,32,12,57,209,27,25,37,305,27,1*72
$GBGSV,2,2,06,34,29,222,27,26,29,150,26,1*74
$GNRMC,003816.000,A,4910.424784,N,12304.399032,W,0.05,68.45,080125,,,D,V*26
$GNVTG,68.45,T,,M,0.05,N,0.09,K,D*15
$PAIRLOG,Full*51
$GNGGA,003817.000,4910.424760,N,12304.399026,W,2,29,0.55,4.462,M,-16.816,M,,*48
$GNGLL,4910.424760,N,12304.399026,W,003817.000,A,D*51
$GNGSA,A,3,06,12,19,24,11,17,25,03,32,,,,0.97,0.55,0.80,1*0F
$GNGSA,A,3,85,75,76,84,67,,,,,,,,0.97,0.55,0.80,2*07
$GNGSA,A,3,30,02,36,34,27,11,29,07,,,,,0.97,0.55,0.80,3*0F
$GNGSA,A,3,44,24,12,35,25,34,26,,,,,,0.97,0.55,0.80,4*05
$GPGSV,3,1,10,06,60,110,36,12,56,298,33,19,52,061,33,24,46,225,31,1*6A
$GPGSV,3,2,10,11,41,168,31,17,22,064,25,25,17,297,23,03,10,033,20,1*63
$GPGSV,3,3,10,32,09,318,24,38,,,,1*5A
$GLGSV,3,1,09,85,76,060,34,75,63,133,36,76,51,319,33,86,41,203,,1*79
$GLGSV,3,2,09,84,22,035,18,74,11,136,,68,09,011,24,67,09,326,26,1*7E
$GLGSV,3,3,09,77,07,318,,1*4C
$GAGSV,3,1,11,30,69,301,30,02,54,108,29,36,52,075,29,34,44,162,28,7*7E
$GAGSV,3,2,11,27,17,294,21,11,13,035,19,29,13,309,19,07,11,258,21,7*71
$GAGSV,3,3,11,15,04,194,,25,03,112,15,19,02,350,,7*41
$GBGSV,3,1,11,44,80,161,34,24,73,206,33,12,57,209,27,35,42,058,31,1*7B
$GBGSV,3,2,11,25,37,305,27,34,29,222,28,26,29,150,26,39,10,330,,1*77
$GBGSV,3,3,11,11,06,222,,20,02,028,,16,01,334,,1*4A
$GNRMC,003817.000,A,4910.424760,N,12304.399026,W,0.04,68.45,080125,,,D,V*29
$GNVTG,68.45,T,,M,0.04,N,0.08,K,D*15
$PAIRLOG,Full*51
$GNGGA,003818.000,4910.424706,N,12304.398942,W,2,30,0.55,4.678,M,-16.816,M,,*4C
$GNGLL,4910.424706,N,12304.398942,W,003818.000,A,D*54
$GNGSA,A,3,06,12,19,24,11,17,25,03,32,,,,0.97,0.55,0.79,1*09
$GNGSA,A,3,85,75,76,84,67,,,,,,,,0.97,0.55,0.79,2*01
$GNGSA,A,3,30,02,36,34,27,11,29,07,,,,,0.97,0.55,0.79,3*09
$GNGSA,A,3,44,24,12,35,25,26,34,39,,,,,0.97,0.55,0.79,4*09
$GPGSV,3,1,09,06,60,110,35,12,56,298,32,19,52,061,32,24,46,225,30,1*60
$GPGSV,3,2,09,11,41,168,30,17,22,064,24,25,17,297,22,03,10,033,19,1*60
$GPGSV,3,3,09,32,09,318,23,1*5E
$GLGSV,3,1,09,85,76,060,35,75,63,133,36,76,51,319,33,86,41,203,,1*78
$GLGSV,3,2,09,84,22,035,18,74,11,136,,67,09,326,26,68,,,24,1*47
$GLGSV,3,3,09,77,,,20,1*73
$GAGSV,3,1,11,30,69,301,29,02,54,108,28,36,52,075,28,34,46,161,27,7*78
$GAGSV,3,2,11,27,17,294,21,11,13,035,18,29,13,309,19,07,11,258,20,7*71
$GAGSV,3,3,11,15,04,194,,25,03,112,15,19,02,350,,7*41
$GBGSV,3,1,11,44,80,161,34,24,73,206,33,12,57,209,27,35,42,058,30,1*7A
$GBGSV,3,2,11,25,37,305,27,26,29,150,26,34,29,222,28,39,10,330,27,1*72
$GBGSV,3,3,11,11,06,222,,20,02,028,,16,01,334,,1*4A
$GNRMC,003818.000,A,4910.424706,N,12304.398942,W,0.04,68.45,080125,,,D,V*2C
$GNVTG,68.45,T,,M,0.04,N,0.07,K,D*1A
$PAIRLOG,Full*51
$GNGGA,003819.000,4910.424646,N,12304.398804,W,2,28,0.57,4.898,M,-16.816,M,,*40
$GNGLL,4910.424646,N,12304.398804,W,003819.000,A,D*53
$GNGSA,A,3,06,12,19,24,11,17,25,03,32,,,,0.98,0.57,0.80,1*02
$GNGSA,A,3,85,75,76,84,67,,,,,,,,0.98,0.57,0.80,2*0A
$GNGSA,A,3,30,02,36,34,27,11,29,07,,,,,0.98,0.57,0.80,3*02
$GNGSA,A,3,44,24,12,25,34,26,,,,,,,0.98,0.57,0.80,4*0E
$GPGSV,3,1,10,06,60,110,34,12,56,298,31,19,52,061,31,24,46,225,29,1*61
$GPGSV,3,2,10,11,41,168,29,17,22,064,23,25,17,297,21,03,10,033,19,1*64
$GPGSV,3,3,10,32,09,318,22,45,,,,1*56
$GLGSV,2,1,07,85,76,060,35,75,63,133,36,76,51,319,33,86,41,203,,1*77
$GLGSV,2,2,07,84,22,035,19,74,11,136,,67,09,326,27,1*40
$GAGSV,3,1,11,30,69,301,29,02,54,108,27,36,52,075,27,34,46,161,26,7*79
$GAGSV,3,2,11,27,17,294,20,11,13,035,18,29,13,309,18,07,11,258,20,7*71
$GAGSV,3,3,11,15,04,194,,25,03,112,15,19,02,350,,7*41
$GBGSV,3,1,11,44,80,161,34,24,73,206,33,12,57,209,27,35,42,058,,1*79
$GBGSV,3,2,11,25,37,305,27,34,29,222,28,26,29,150,26,39,10,330,,1*77
$GBGSV,3,3,11,11,06,222,,20,02,028,,16,01,334,,1*4A
$GNRMC,003819.000,A,4910.424646,N,12304.398804,W,0.03,68.45,080125,,,D,V*2C
$GNVTG,68.45,T,,M,0.03,N,0.06,K,D*1C
$PAIRLOG,Full*51
$GNGGA,003820.000,4910.424598,N,12304.398672,W,2,28,0.57,5.009,M,-16.816,M,,*44
$GNGLL,4910.424598,N,12304.398672,W,003820.000,A,D*56
$GNGSA,A,3,06,12,19,24,11,17,25,03,32,,,,0.98,0.57,0.80,1*02
$GNGSA,A,3,85,75,76,84,67,,,,,,,,0.98,0.57,0.80,2*0A
$GNGSA,A,3,30,02,36,34,27,11,29,07,,,,,0.98,0.57,0.80,3*02
$GNGSA,A,3,44,24,12,25,34,26,,,,,,,0.98,0.57,0.80,4*0E
$GPGSV,3,1,10,06,60,110,34,12,56,298,31,19,52,061,31,24,46,225,29,1*61
$GPGSV,3,2,10,11,41,168,29,17,22,064,24,25,17,297,21,03,10,033,19,1*63
$GPGSV,3,3,10,32,09,318,22,45,,,,1*56
$GLGSV,3,1,09,85,76,060,35,75,63,133,36,76,51,319,33,86,41,203,,1*78
$GLGSV,3,2,09,84,22,035,19,74,11,136,,68,09,011,,67,09,326,27,1*78
$GLGSV,3,3,09,77,07,318,,1*4C
$GAGSV,3,1,11,30,69,301,29,02,54,108,27,36,51,073,27,34,46,161,26,7*7C
$GAGSV,3,2,11,27,17,294,20,11,13,035,18,29,13,309,18,07,11,258,20,7*71
$GAGSV,3,3,11,15,04,194,,25,03,112,15,19,02,350,,7*41
$GBGSV,3,1,11,44,80,161,35,24,73,206,34,12,57,209,28,35,42,058,,1*70
$GBGSV,3,2,11,25,37,305,27,34,29,222,28,26,29,150,27,39,10,330,,1*76
$GBGSV,3,3,11,11,06,222,,20,02,028,,16,01,334,,1*4A
$GNRMC,003820.000,A,4910.424598,N,12304.398672,W,0.03,68.45,080125,,,D,V*29
$GNVTG,68.45,T,,M,0.03,N,0.06,K,D*1C
$PAIRLOG,Full*51
$GNGGA,003821.000,4910.424532,N,12304.398540,W,2,28,0.57,4.921,M,-16.817,M,,*44
$GNGLL,4910.424532,N,12304.398540,W,003821.000,A,D*55
$GNGSA,A,3,06,12,19,24,11,17,25,03,32,,,,0.98,0.57,0.80,1*02
$GNGSA,A,3,85,75,76,84,67,,,,,,,,0.98,0.57,0.80,2*0A
$GNGSA,A,3,30,02,36,34,27,11,29,07,,,,,0.98,0.57,0.80,3*02
$GNGSA,A,3,44,24,12,25,34,26,,,,,,,0.98,0.57,0.80,4*0E
$GPGSV,3,1,10,06,60,110,34,12,56,298,32,19,52,061,32,24,46,225,29,1*61
$GPGSV,3,2,10,11,41,168,29,17,22,064,24,25,17,297,21,03,10,033,19,1*63
$GPGSV,3,3,10,32,09,318,23,45,,,,1*57
$GLGSV,3,1,09,85,76,060,34,75,63,133,37,76,51,319,33,86,41,203,,1*78
$GLGSV,3,2,09,84,22,035,19,74,11,136,,68,09,011,,67,09,326,27,1*78
$GLGSV,3,3,09,77,07,318,20,1*4E
$GAGSV,3,1,09,30,69,301,29,02,54,108,27,36,51,073,27,34,46,161,26,7*75
$GAGSV,3,2,09,27,17,294,20,11,13,035,18,29,13,309,19,07,11,258,20,7*79
$GAGSV,3,3,09,25,03,112,15,7*48
$GBGSV,2,1,06,44,80,161,35,24,73,206,34,12,57,209,28,25,37,305,27,1*7A
$GBGSV,2,2,06,34,29,222,28,26,29,150,27,1*7A
$GNRMC,003821.000,A,4910.424532,N,12304.398540,W,0.03,68.45,080125,,,D,V*2A
$GNVTG,68.45,T,,M,0.03,N,0.05,K,D*1F
$PAIRLOG,Full*51
$GNGGA,003822.000,4910.424442,N,12304.398396,W,2,28,0.57,4.741,M,-16.816,M,,*45
$GNGLL,4910.424442,N,12304.398396,W,003822.000,A,D*5D
$GNGSA,A,3,06,12,19,24,11,17,25,03,32,,,,0.98,0.57,0.80,1*02
$GNGSA,A,3,85,75,76,84,67,,,,,,,,0.98,0.57,0.80,2*0A
$GNGSA,A,3,30,02,36,34,27,11,29,07,,,,,0.98,0.57,0.80,3*02
$GNGSA,A,3,44,24,12,25,34,26,,,,,,,0.98,0.57,0.80,4*0E
$GPGSV,3,1,10,06,60,110,34,12,56,298,32,19,52,061,32,24,46,225,29,1*61
$GPGSV,3,2,10,11,41,168,29,17,22,064,22,25,17,297,20,03,10,033,19,1*64
$GPGSV,3,3,10,32,09,318,23,45,,,,1*57
$GLGSV,3,1,09,85,76,060,35,75,63,133,37,76,51,319,33,86,41,203,,1*79
$GLGSV,3,2,09,84,22,035,19,74,11,136,,68,09,011,,67,09,326,27,1*78
$GLGSV,3,3,09,77,07,318,20,1*4E
$GAGSV,3,1,09,30,69,301,29,02,54,108,27,36,51,073,27,34,46,161,26,7*75
$GAGSV,3,2,09,27,17,294,20,11,13,035,18,29,13,309,19,07,11,258,20,7*79
$GAGSV,3,3,09,25,03,112,15,7*48
$GBGSV,2,1,06,44,80,161,35,24,73,206,34,12,57,209,29,25,37,305,28,1*74
$GBGSV,2,2,06,34,29,222,28,26,29,150,27,1*7A
$GNRMC,003822.000,A,4910.424442,N,12304.398396,W,0.02,68.45,080125,,,D,V*23
$GNVTG,68.45,T,,M,0.02,N,0.04,K,D*1F
$PAIRLOG,Full*51
$GNGGA,003823.000,4910.424328,N,12304.398258,W,2,28,0.57,4.614,M,-16.817,M,,*4C
