$GNGGA,182556.000,4910.425036,N,12304.401276,W,2,31,0.50,3.835,M,-16.816,M,,*49
$GNGLL,4910.425036,N,12304.401276,W,182556.000,A,D*55
$GNGSA,A,3,04,09,16,07,26,03,06,11,31,20,,,0.84,0.50,0.67,1*05
$GNGSA,A,3,68,78,69,67,79,85,,,,,,,0.84,0.50,0.67,2*06
$GNGSA,A,3,09,06,04,31,05,34,36,21,,,,,0.84,0.50,0.67,3*06
$GNGSA,A,3,32,23,37,20,25,41,38,,,,,,0.84,0.50,0.67,4*03
$GPGSV,4,1,14,04,75,092,36,09,71,302,37,16,48,087,33,07,40,243,33,1*64
$GPGSV,4,2,14,48,33,182,29,26,29,052,31,03,27,174,30,06,16,271,17,1*65
$GPGSV,4,3,14,11,15,310,27,31,12,062,27,20,08,326,23,30,05,243,20,1*68
$GPGSV,4,4,14,27,02,116,18,29,01,009,,1*6A
$GLGSV,2,1,07,68,81,075,30,78,78,136,16,69,40,318,27,67,31,127,21,1*79
$GLGSV,2,2,07,79,30,201,25,85,13,334,18,84,07,284,,1*41
$GAGSV,3,1,10,09,79,315,33,06,73,093,32,04,46,102,28,31,45,146,29,7*7D
$GAGSV,3,2,10,05,25,291,25,34,20,301,21,36,15,249,21,24,08,186,21,7*77
$GAGSV,3,3,10,21,06,030,19,15,05,347,19,7*75
$GBGSV,2,1,08,32,73,167,39,23,70,091,39,37,45,206,35,20,43,305,37,1*76
$GBGSV,2,2,08,25,22,051,33,41,19,139,28,38,06,333,26,04,01,262,,1*78
$GNRMC,182556.000,A,4910.425036,N,12304.401276,W,0.02,0.00,051224,,,D,V*1A
$GNVTG,0.00,T,,M,0.02,N,0.03,K,D*27
$GNGGA,182557.000,4910.425042,N,12304.401348,W,2,31,0.50,3.692,M,-16.816,M,,*44
$GNGLL,4910.425042,N,12304.401348,W,182557.000,A,D*5B
$GNGSA,A,3,04,09,16,07,26,03,06,11,31,20,,,0.84,0.50,0.67,1*05
$GNGSA,A,3,68,78,69,67,79,85,,,,,,,0.84,0.50,0.67,2*06
$GNGSA,A,3,09,06,04,31,05,34,36,21,,,,,0.84,0.50,0.67,3*06
$GNGSA,A,3,32,23,37,20,25,41,38,,,,,,0.84,0.50,0.67,4*03
$GPGSV,4,1,14,04,75,092,36,09,71,302,37,16,48,087,33,07,40,243,33,1*64
$GPGSV,4,2,14,48,33,182,29,26,29,052,31,03,27,174,30,06,16,271,17,1*65
$GPGSV,4,3,14,11,15,310,27,31,12,062,27,20,08,326,22,30,05,243,20,1*69
$GPGSV,4,4,14,27,02,116,18,29,01,009,,1*6A
$GLGSV,2,1,07,68,81,075,30,78,78,136,17,69,40,318,27,67,31,127,21,1*78
$GLGSV,2,2,07,79,30,201,25,85,13,334,18,84,07,284,,1*41
$GAGSV,3,1,10,09,79,315,33,06,73,093,32,04,46,102,28,31,45,146,29,7*7D
$GAGSV,3,2,10,05,25,291,25,34,20,301,21,36,15,249,21,24,08,186,21,7*77
$GAGSV,3,3,10,21,06,030,19,15,05,347,19,7*75
$GBGSV,2,1,08,32,73,167,39,23,70,091,39,37,45,206,35,20,43,305,37,1*76
$GBGSV,2,2,08,25,22,051,33,41,19,139,28,38,06,333,26,04,01,262,,1*78
$GNRMC,182557.000,A,4910.425042,N,12304.401348,W,0.02,0.00,051224,,,D,V*14
$GNVTG,0.00,T,,M,0.02,N,0.03,K,D*27
$GNGGA,182558.000,4910.425048,N,12304.401366,W,2,31,0.50,3.552,M,-16.816,M,,*42
$GNGLL,4910.425048,N,12304.401366,W,182558.000,A,D*52
$GNGSA,A,3,04,09,16,07,26,03,06,11,31,20,,,0.84,0.50,0.67,1*05
$GNGSA,A,3,68,78,69,67,79,85,,,,,,,0.84,0.50,0.67,2*06
$GNGSA,A,3,09,06,04,31,05,34,36,21,,,,,0.84,0.50,0.67,3*06
$GNGSA,A,3,32,23,37,20,25,41,38,,,,,,0.84,0.50,0.67,4*03
$GPGSV,4,1,14,04,75,092,36,09,71,302,37,16,48,087,33,07,40,243,33,1*64
$GPGSV,4,2,14,48,33,182,29,26,29,052,31,03,27,174,30,06,16,271,17,1*65
$GPGSV,4,3,14,11,15,310,27,31,12,062,27,20,08,326,22,30,05,243,20,1*69
$GPGSV,4,4,14,27,02,116,18,29,01,009,,1*6A
$GLGSV,2,1,07,68,81,075,30,78,78,136,17,69,40,318,27,67,31,127,21,1*78
$GLGSV,2,2,07,79,30,201,26,85,13,334,18,84,07,284,,1*42
$GAGSV,3,1,10,09,79,315,33,06,73,093,32,04,46,102,28,31,45,146,29,7*7D
$GAGSV,3,2,10,05,25,291,25,34,20,301,21,36,15,249,21,24,08,186,21,7*77
$GAGSV,3,3,10,21,06,030,19,15,05,347,19,7*75
$GBGSV,2,1,08,32,73,167,39,23,70,091,39,37,45,206,35,20,43,305,37,1*76
$GBGSV,2,2,08,25,22,051,33,41,19,139,28,38,06,333,25,04,01,262,,1*7B
$GNRMC,182558.000,A,4910.425048,N,12304.401366,W,0.01,0.00,051224,,,D,V*1E
$GNVTG,0.00,T,,M,0.01,N,0.03,K,D*24
$GNGGA,182559.000,4910.425042,N,12304.401486,W,2,31,0.50,3.443,M,-16.816,M,,*41
$GNGLL,4910.425042,N,12304.401486,W,182559.000,A,D*50
$GNGSA,A,3,04,09,16,07,26,03,06,11,31,20,,,0.84,0.50,0.67,1*05
$GNGSA,A,3,68,78,69,67,79,85,,,,,,,0.84,0.50,0.67,2*06
$GNGSA,A,3,09,06,04,31,05,34,36,21,,,,,0.84,0.50,0.67,3*06
$GNGSA,A,3,32,23,37,20,25,41,38,,,,,,0.84,0.50,0.67,4*03
$GPGSV,4,1,14,04,75,092,36,09,71,302,37,16,48,087,34,07,40,243,33,1*63
$GPGSV,4,2,14,48,33,182,30,26,29,052,31,03,27,174,30,06,16,271,17,1*6D
$GPGSV,4,3,14,11,15,310,27,31,12,062,27,20,08,326,22,30,05,243,21,1*68
$GPGSV,4,4,14,27,02,116,18,29,01,009,,1*6A
$GLGSV,2,1,07,68,81,075,30,78,78,136,17,69,40,318,26,67,31,127,22,1*7A
$GLGSV,2,2,07,79,30,201,26,85,13,334,18,84,07,284,,1*42
$GAGSV,3,1,10,09,79,315,33,06,73,093,33,04,46,102,28,31,45,146,29,7*7C
$GAGSV,3,2,10,05,25,291,25,34,20,301,22,36,15,249,22,24,08,186,21,7*77
$GAGSV,3,3,10,21,06,030,19,15,05,347,19,7*75
$GBGSV,2,1,08,32,73,167,39,23,70,091,39,37,45,206,35,20,43,305,37,1*76
$GBGSV,2,2,08,25,22,051,33,41,19,139,29,38,06,333,27,04,01,262,,1*78
$GNRMC,182559.000,A,4910.425042,N,12304.401486,W,0.02,0.00,051224,,,D,V*1F
$GNVTG,0.00,T,,M,0.02,N,0.03,K,D*27
$GNGGA,182600.000,4910.425066,N,12304.401564,W,2,31,0.50,3.308,M,-16.816,M,,*4D
$GNGLL,4910.425066,N,12304.401564,W,182600.000,A,D*54
$GNGSA,A,3,04,09,16,07,26,03,06,11,31,20,,,0.84,0.50,0.67,1*05
$GNGSA,A,3,68,78,69,67,79,85,,,,,,,0.84,0.50,0.67,2*06
$GNGSA,A,3,09,06,04,31,05,34,36,21,,,,,0.84,0.50,0.67,3*06
$GNGSA,A,3,32,23,37,20,25,41,38,,,,,,0.84,0.50,0.67,4*03
$GPGSV,4,1,14,04,75,092,36,09,71,302,37,16,48,087,34,07,40,243,33,1*63
$GPGSV,4,2,14,48,33,182,30,26,29,052,31,03,27,174,30,06,16,271,17,1*6D
$GPGSV,4,3,14,11,15,310,27,31,12,062,27,20,08,326,22,30,05,243,21,1*68
$GPGSV,4,4,14,27,02,116,19,29,01,009,,1*6B
$GLGSV,2,1,07,68,81,075,30,78,78,136,17,69,40,318,26,67,31,127,22,1*7A
$GLGSV,2,2,07,79,30,201,26,85,13,334,18,84,07,284,,1*42
$GAGSV,3,1,10,09,79,315,33,06,73,093,33,04,46,102,28,31,45,146,29,7*7C
$GAGSV,3,2,10,05,25,291,25,34,20,301,22,36,15,249,21,24,08,186,22,7*77
$GAGSV,3,3,10,21,06,030,19,15,05,347,19,7*75
$GBGSV,2,1,08,32,73,167,39,23,70,091,38,37,45,206,35,20,43,305,37,1*77
$GBGSV,2,2,08,25,22,051,33,41,19,139,29,38,06,333,27,04,01,262,,1*78
$GNRMC,182600.000,A,4910.425066,N,12304.401564,W,0.02,0.00,051224,,,D,V*1B
$GNVTG,0.00,T,,M,0.02,N,0.03,K,D*27
$GNGGA,182601.000,4910.425084,N,12304.401582,W,2,31,0.50,3.259,M,-16.816,M,,*4D
$GNGLL,4910.425084,N,12304.401582,W,182601.000,A,D*51
$GNGSA,A,3,04,09,16,07,26,03,06,11,31,20,,,0.84,0.50,0.67,1*05
$GNGSA,A,3,68,78,69,67,79,85,,,,,,,0.84,0.50,0.67,2*06
$GNGSA,A,3,09,06,04,31,05,34,36,21,,,,,0.84,0.50,0.67,3*06
$GNGSA,A,3,32,23,37,20,25,41,38,,,,,,0.84,0.50,0.67,4*03
$GPGSV,4,1,14,04,75,092,36,09,71,302,37,16,48,087,34,07,40,243,33,1*63
$GPGSV,4,2,14,48,33,182,30,26,29,052,31,03,27,174,30,06,16,271,17,1*6D
$GPGSV,4,3,14,11,15,310,28,31,12,062,27,20,08,326,21,30,05,243,22,1*67
$GPGSV,4,4,14,27,02,116,19,29,01,009,,1*6B
$GLGSV,2,1,07,68,81,075,30,78,78,136,17,69,40,318,26,67,31,127,22,1*7A
$GLGSV,2,2,07,79,30,201,26,85,13,334,18,84,07,284,,1*42
$GAGSV,3,1,10,09,79,315,33,06,73,093,33,04,46,102,28,31,45,146,29,7*7C
$GAGSV,3,2,10,05,25,291,25,34,20,301,22,36,15,249,21,24,08,186,21,7*74
$GAGSV,3,3,10,21,06,030,19,15,05,347,19,7*75
$GBGSV,2,1,08,32,73,167,39,23,70,091,38,37,45,206,35,20,43,305,37,1*77
$GBGSV,2,2,08,25,22,051,33,41,19,139,29,38,06,333,26,04,01,262,,1*79
$GNRMC,182601.000,A,4910.425084,N,12304.401582,W,0.02,0.00,051224,,,D,V*1E
$GNVTG,0.00,T,,M,0.02,N,0.03,K,D*27
$GNGGA,182602.000,4910.425144,N,12304.401648,W,2,31,0.50,3.214,M,-16.817,M,,*4E
$GNGLL,4910.425144,N,12304.401648,W,182602.000,A,D*5A
$GNGSA,A,3,04,09,16,07,26,03,06,11,31,20,,,0.84,0.50,0.67,1*05
$GNGSA,A,3,68,78,69,67,79,85,,,,,,,0.84,0.50,0.67,2*06
$GNGSA,A,3,09,06,04,31,05,34,36,21,,,,,0.84,0.50,0.67,3*06
$GNGSA,A,3,32,23,37,20,25,41,38,,,,,,0.84,0.50,0.67,4*03
$GPGSV,4,1,14,04,75,092,36,09,71,302,37,16,48,087,34,07,40,243,33,1*63
$GPGSV,4,2,14,48,33,182,30,26,29,052,31,03,27,174,30,06,16,271,17,1*6D
$GPGSV,4,3,14,11,15,310,28,31,12,062,27,20,08,326,21,30,05,243,21,1*64
$GPGSV,4,4,14,27,02,115,18,29,01,009,,1*69
$GLGSV,2,1,07,68,81,075,30,78,78,136,17,69,40,318,26,67,31,127,22,1*7A
$GLGSV,2,2,07,79,30,201,26,85,13,334,18,84,07,284,,1*42
$GAGSV,3,1,10,09,79,315,33,06,73,093,33,04,46,102,28,31,45,146,29,7*7C
$GAGSV,3,2,10,05,25,291,25,34,20,301,22,36,15,249,22,24,08,186,21,7*77
$GAGSV,3,3,10,21,06,030,19,15,05,347,19,7*75
$GBGSV,2,1,08,32,73,167,39,23,70,091,38,37,45,206,35,20,43,305,37,1*77
$GBGSV,2,2,08,25,22,051,33,41,19,139,29,38,06,333,26,04,01,262,,1*79
$GNRMC,182602.000,A,4910.425144,N,12304.401648,W,0.02,0.00,051224,,,D,V*15
$GNVTG,0.00,T,,M,0.02,N,0.04,K,D*20
$GNGGA,182603.000,4910.425222,N,12304.401672,W,2,31,0.50,3.148,M,-16.816,M,,*4E
$GNGLL,4910.425222,N,12304.401672,W,182603.000,A,D*51
$GNGSA,A,3,04,09,16,07,26,03,06,11,31,20,,,0.84,0.50,0.67,1*05
$GNGSA,A,3,68,78,69,67,79,85,,,,,,,0.84,0.50,0.67,2*06
$GNGSA,A,3,09,06,04,31,05,34,36,21,,,,,0.84,0.50,0.67,3*06
$GNGSA,A,3,32,23,37,20,25,41,38,,,,,,0.84,0.50,0.67,4*03
$GPGSV,4,1,14,04,75,092,36,09,71,302,37,16,48,087,34,07,40,243,33,1*63
$GPGSV,4,2,14,48,33,182,30,26,29,052,31,03,27,174,30,06,16,271,17,1*6D
$GPGSV,4,3,14,11,15,310,28,31,12,062,27,20,08,326,20,30,05,243,21,1*65
$GPGSV,4,4,14,27,02,115,18,29,01,009,,1*69
$GLGSV,2,1,07,68,81,075,30,78,78,136,17,69,40,318,26,67,31,127,23,1*7B
$GLGSV,2,2,07,79,30,201,26,85,13,334,18,84,07,284,,1*42
$GAGSV,3,1,10,09,79,315,33,06,73,093,33,04,46,102,28,31,45,146,29,7*7C
$GAGSV,3,2,10,05,25,291,25,34,20,301,22,36,15,249,22,24,08,186,21,7*77
$GAGSV,3,3,10,21,06,030,19,15,05,347,19,7*75
$GBGSV,2,1,08,32,73,167,39,23,70,091,38,37,45,206,35,20,43,305,37,1*77
$GBGSV,2,2,08,25,22,051,33,41,19,139,29,38,06,333,25,04,01,262,,1*7A
$GNRMC,182603.000,A,4910.425222,N,12304.401672,W,0.02,0.00,051224,,,D,V*1E
$GNVTG,0.00,T,,M,0.02,N,0.04,K,D*20
$GNGGA,182604.000,4910.425252,N,12304.401762,W,2,31,0.50,3.102,M,-16.816,M,,*40
$GNGLL,4910.425252,N,12304.401762,W,182604.000,A,D*51
$GNGSA,A,3,04,09,16,07,26,03,06,11,31,20,,,0.84,0.50,0.67,1*05
$GNGSA,A,3,68,78,69,67,79,85,,,,,,,0.84,0.50,0.67,2*06
$GNGSA,A,3,09,06,04,31,05,34,36,21,,,,,0.84,0.50,0.67,3*06
$GNGSA,A,3,32,23,37,20,25,41,38,,,,,,0.84,0.50,0.67,4*03
$GPGSV,4,1,14,04,75,092,36,09,71,302,37,16,48,087,34,07,40,243,33,1*63
$GPGSV,4,2,14,48,33,182,30,26,29,052,32,03,27,174,30,06,16,271,19,1*60
$GPGSV,4,3,14,11,15,310,28,31,12,062,27,20,08,326,20,30,05,243,21,1*65
$GPGSV,4,4,14,27,02,115,18,29,01,009,,1*69
$GLGSV,2,1,07,68,81,075,30,78,78,136,17,69,40,318,26,67,31,127,23,1*7B
$GLGSV,2,2,07,79,30,201,26,85,13,334,18,84,07,284,,1*42
$GAGSV,3,1,10,09,79,315,33,06,73,093,33,04,46,102,28,31,45,146,29,7*7C
$GAGSV,3,2,10,05,25,291,25,34,20,301,22,36,15,249,22,24,08,186,21,7*77
$GAGSV,3,3,10,21,06,030,19,15,05,347,19,7*75
$GBGSV,2,1,08,32,73,167,39,23,70,091,38,37,45,206,35,20,43,305,37,1*77
$GBGSV,2,2,08,25,22,051,33,41,19,139,29,38,06,333,27,04,01,262,,1*78
$GNRMC,182604.000,A,4910.425252,N,12304.401762,W,0.03,0.00,051224,,,D,V*1F
$GNVTG,0.00,T,,M,0.03,N,0.05,K,D*20
$GNGGA,182605.000,4910.425294,N,12304.401738,W,2,31,0.50,2.962,M,-16.817,M,,*4A
$GNGLL,4910.425294,N,12304.401738,W,182605.000,A,D*55
$GNGSA,A,3,04,09,16,07,26,03,06,11,31,20,,,0.84,0.50,0.67,1*05
$GNGSA,A,3,68,78,69,67,79,85,,,,,,,0.84,0.50,0.67,2*06
$GNGSA,A,3,09,06,04,31,05,34,36,21,,,,,0.84,0.50,0.67,3*06
$GNGSA,A,3,32,23,37,20,25,41,38,,,,,,0.84,0.50,0.67,4*03
$GPGSV,4,1,14,04,75,092,36,09,71,302,37,16,48,087,34,07,40,243,34,1*64
$GPGSV,4,2,14,48,33,182,30,26,29,052,32,03,27,174,30,06,16,271,19,1*60
$GPGSV,4,3,14,11,15,310,28,31,12,062,27,20,08,326,20,30,05,243,21,1*65
$GPGSV,4,4,14,27,02,115,18,29,01,009,,1*69
$GLGSV,2,1,07,68,81,075,30,78,78,136,17,69,40,318,26,67,31,127,24,1*7C
$GLGSV,2,2,07,79,30,201,27,85,13,334,18,84,07,284,,1*43
$GAGSV,3,1,10,09,79,315,33,06,73,093,33,04,46,102,28,31,45,146,29,7*7C
$GAGSV,3,2,10,05,25,291,25,34,20,301,23,36,15,249,22,24,08,186,21,7*76
$GAGSV,3,3,10,21,06,030,19,15,05,347,19,7*75
$GBGSV,2,1,08,32,73,167,39,23,70,091,38,37,45,206,35,20,43,305,37,1*77
$GBGSV,2,2,08,25,22,051,33,41,19,139,29,38,06,333,27,04,01,262,,1*78
$GNRMC,182605.000,A,4910.425294,N,12304.401738,W,0.02,0.00,051224,,,D,V*1A
$GNVTG,0.00,T,,M,0.02,N,0.04,K,D*20
$GNGGA,182606.000,4910.425432,N,12304.401714,W,2,31,0.50,2.867,M,-16.816,M,,*48
$GNGLL,4910.425432,N,12304.401714,W,182606.000,A,D*52
$GNGSA,A,3,04,09,16,07,26,03,06,11,31,20,,,0.84,0.50,0.67,1*05
$GNGSA,A,3,68,78,69,67,79,85,,,,,,,0.84,0.50,0.67,2*06
$GNGSA,A,3,09,06,04,31,05,34,36,21,,,,,0.84,0.50,0.67,3*06
$GNGSA,A,3,32,23,37,20,25,41,38,,,,,,0.84,0.50,0.67,4*03
$GPGSV,4,1,14,04,75,092,36,09,71,302,37,16,48,087,34,07,40,243,34,1*64
$GPGSV,4,2,14,48,33,182,30,26,29,052,32,03,27,174,30,06,16,271,18,1*61
$GPGSV,4,3,14,11,15,310,28,31,12,062,27,20,08,326,20,30,05,243,21,1*65
$GPGSV,4,4,14,27,02,115,18,29,01,009,,1*69
$GLGSV,2,1,07,68,81,075,31,78,78,136,17,69,40,318,26,67,31,127,24,1*7D
$GLGSV,2,2,07,79,30,201,27,85,13,334,19,84,07,284,,1*42
$GAGSV,3,1,10,09,79,315,33,06,73,093,33,04,46,102,28,31,45,146,30,7*74
$GAGSV,3,2,10,05,25,291,25,34,20,301,23,36,15,249,22,24,08,186,21,7*76
$GAGSV,3,3,10,21,06,030,19,15,05,347,19,7*75
$GBGSV,2,1,08,32,73,167,39,23,70,091,38,37,45,206,35,20,43,305,37,1*77
$GBGSV,2,2,08,25,22,051,33,41,19,139,29,38,06,333,26,04,01,262,,1*79
$GNRMC,182606.000,A,4910.425432,N,12304.401714,W,0.02,0.00,051224,,,D,V*1D
$GNVTG,0.00,T,,M,0.02,N,0.04,K,D*20
$GNGGA,182607.000,4910.425528,N,12304.401726,W,2,31,0.50,2.725,M,-16.816,M,,*4B
$GNGLL,4910.425528,N,12304.401726,W,182607.000,A,D*58
$GNGSA,A,3,04,09,16,07,26,03,06,11,31,20,,,0.84,0.50,0.67,1*05
$GNGSA,A,3,68,78,69,67,79,85,,,,,,,0.84,0.50,0.67,2*06
$GNGSA,A,3,09,06,04,31,05,34,36,21,,,,,0.84,0.50,0.67,3*06
$GNGSA,A,3,32,23,37,20,25,41,38,,,,,,0.84,0.50,0.67,4*03
$GPGSV,4,1,14,04,75,093,36,09,72,302,37,16,48,087,34,07,41,243,34,1*67
$GPGSV,4,2,14,48,33,182,31,26,29,052,32,03,27,174,30,06,16,271,18,1*60
$GPGSV,4,3,14,11,15,310,28,31,12,062,27,20,09,326,19,30,05,243,21,1*6E
$GPGSV,4,4,14,27,02,115,18,29,01,009,,1*69
$GLGSV,2,1,07,68,81,077,31,78,78,135,17,69,40,318,26,67,31,127,24,1*7C
$GLGSV,2,2,07,79,30,201,27,85,13,333,19,84,07,284,,1*45
$GAGSV,3,1,10,09,79,316,33,06,73,093,33,04,46,103,28,31,45,146,30,7*76
$GAGSV,3,2,10,05,25,291,25,34,20,301,23,36,15,249,22,24,08,186,21,7*76
$GAGSV,3,3,10,21,06,030,19,15,05,347,18,7*74
$GBGSV,2,1,08,32,72,167,39,23,70,091,38,37,45,206,35,20,44,305,37,1*71
$GBGSV,2,2,08,25,22,051,33,41,19,139,29,38,06,333,26,04,01,262,,1*79
$GNRMC,182607.000,A,4910.425528,N,12304.401726,W,0.02,0.00,051224,,,D,V*17
$GNVTG,0.00,T,,M,0.02,N,0.04,K,D*20
$GNGGA,182608.000,4910.425636,N,12304.401732,W,2,31,0.50,2.589,M,-16.816,M,,*49
$GNGLL,4910.425636,N,12304.401732,W,182608.000,A,D*5E
$GNGSA,A,3,04,09,16,07,26,03,06,11,31,20,,,0.84,0.50,0.67,1*05
$GNGSA,A,3,68,78,69,67,79,85,,,,,,,0.84,0.50,0.67,2*06
$GNGSA,A,3,09,06,04,31,05,34,36,21,,,,,0.84,0.50,0.67,3*06
$GNGSA,A,3,32,23,37,20,25,41,38,,,,,,0.84,0.50,0.67,4*03
$GPGSV,4,1,14,04,75,093,36,09,72,302,37,16,48,087,34,07,41,243,34,1*67
$GPGSV,4,2,14,48,33,182,30,26,29,052,32,03,27,174,30,06,16,271,18,1*61
$GPGSV,4,3,14,11,15,310,28,31,12,062,27,20,09,326,18,30,05,243,21,1*6F
$GPGSV,4,4,14,27,02,115,18,29,01,009,,1*69
$GLGSV,2,1,07,68,81,077,31,78,78,135,17,69,40,318,26,67,31,127,24,1*7C
$GLGSV,2,2,07,79,30,201,27,85,13,333,19,84,07,284,,1*45
$GAGSV,3,1,10,09,79,316,33,06,73,093,33,04,46,103,28,31,45,146,30,7*76
$GAGSV,3,2,10,05,25,291,25,34,20,301,23,36,15,249,22,24,08,186,22,7*75
$GAGSV,3,3,10,21,06,030,19,15,05,347,18,7*74
$GBGSV,2,1,08,32,72,167,39,23,70,091,38,37,45,206,35,20,44,305,37,1*71
$GBGSV,2,2,08,25,22,051,33,41,19,139,29,38,06,333,26,04,01,262,,1*79
$GNRMC,182608.000,A,4910.425636,N,12304.401732,W,0.02,0.00,051224,,,D,V*11
$GNVTG,0.00,T,,M,0.02,N,0.04,K,D*20
$GNGGA,182609.000,4910.425780,N,12304.401726,W,2,31,0.50,2.484,M,-16.816,M,,*4D
$GNGLL,4910.425780,N,12304.401726,W,182609.000,A,D*56
$GNGSA,A,3,04,09,16,07,26,03,06,11,31,20,,,0.84,0.50,0.67,1*05
$GNGSA,A,3,68,78,69,67,79,85,,,,,,,0.84,0.50,0.67,2*06
$GNGSA,A,3,09,06,04,31,05,34,36,21,,,,,0.84,0.50,0.67,3*06
$GNGSA,A,3,32,23,37,20,25,41,38,,,,,,0.84,0.50,0.67,4*03
$GPGSV,4,1,14,04,75,093,36,09,72,302,37,16,48,087,34,07,41,243,34,1*67
$GPGSV,4,2,14,48,33,182,30,26,29,052,32,03,27,174,30,06,16,271,18,1*61
$GPGSV,4,3,14,11,15,310,28,31,12,062,27,20,09,326,18,30,05,243,21,1*6F
$GPGSV,4,4,14,27,02,115,18,29,01,009,,1*69
$GLGSV,2,1,07,68,81,077,31,78,78,135,15,69,40,318,26,67,31,127,25,1*7F
$GLGSV,2,2,07,79,30,201,27,85,13,333,19,84,07,284,,1*45
$GAGSV,3,1,10,09,79,316,33,06,73,093,33,04,46,103,28,31,45,146,30,7*76
$GAGSV,3,2,10,05,25,291,25,34,20,301,24,36,15,249,22,24,08,186,22,7*72
$GAGSV,3,3,10,21,06,030,19,15,05,347,18,7*74
$GBGSV,2,1,08,32,72,167,39,23,70,091,38,37,45,206,35,20,44,305,37,1*71
$GBGSV,2,2,08,25,22,051,33,41,19,139,29,38,06,333,26,04,01,262,,1*79
$GNRMC,182609.000,A,4910.425780,N,12304.401726,W,0.03,0.00,051224,,,D,V*18
$GNVTG,0.00,T,,M,0.03,N,0.05,K,D*20
$GNGGA,182610.000,4910.425948,N,12304.401702,W,2,31,0.50,2.454,M,-16.817,M,,*45
$GNGLL,4910.425948,N,12304.401702,W,182610.000,A,D*52
$GNGSA,A,3,04,09,16,07,26,03,06,11,31,20,,,0.84,0.50,0.67,1*05
$GNGSA,A,3,68,78,69,67,79,85,,,,,,,0.84,0.50,0.67,2*06
$GNGSA,A,3,09,06,04,31,05,34,36,21,,,,,0.84,0.50,0.67,3*06
$GNGSA,A,3,32,23,37,20,25,41,38,,,,,,0.84,0.50,0.67,4*03
$GPGSV,4,1,14,04,75,093,36,09,72,302,37,16,48,087,34,07,41,243,34,1*67
$GPGSV,4,2,14,48,33,182,30,26,29,052,32,03,27,174,30,06,16,271,18,1*61
$GPGSV,4,3,14,11,15,310,28,31,12,062,28,20,09,326,18,30,05,243,21,1*60
$GPGSV,4,4,14,27,02,115,18,29,01,009,,1*69
$GLGSV,2,1,07,68,81,077,31,78,78,135,15,69,40,318,26,67,31,127,25,1*7F
$GLGSV,2,2,07,79,30,201,27,85,13,333,19,84,07,284,,1*45
$GAGSV,3,1,10,09,79,316,33,06,73,093,33,04,46,103,28,31,45,146,30,7*76
$GAGSV,3,2,10,05,25,291,25,34,20,301,24,36,15,249,22,24,08,186,22,7*72
$GAGSV,3,3,10,21,06,030,19,15,05,347,18,7*74
$GBGSV,2,1,08,32,72,167,39,23,70,091,38,37,45,206,35,20,44,305,37,1*71
$GBGSV,2,2,08,25,22,051,32,41,19,139,29,38,06,333,26,04,01,262,,1*78
$GNRMC,182610.000,A,4910.425948,N,12304.401702,W,0.03,0.00,051224,,,D,V*1C
$GNVTG,0.00,T,,M,0.03,N,0.06,K,D*23
$GNGGA,182611.000,4910.426032,N,12304.401690,W,2,31,0.50,2.373,M,-16.816,M,,*4A
$GNGLL,4910.426032,N,12304.401690,W,182611.000,A,D*5E
$GNGSA,A,3,04,09,16,07,26,03,06,11,31,20,,,0.84,0.50,0.67,1*05
$GNGSA,A,3,68,78,69,67,79,85,,,,,,,0.84,0.50,0.67,2*06
$GNGSA,A,3,09,06,04,31,05,34,36,21,,,,,0.84,0.50,0.67,3*06
$GNGSA,A,3,32,23,37,20,25,41,38,,,,,,0.84,0.50,0.67,4*03
$GPGSV,4,1,14,04,75,093,36,09,72,302,37,16,48,087,34,07,41,243,34,1*67
$GPGSV,4,2,14,48,33,182,30,26,29,052,32,03,27,174,30,06,16,271,18,1*61
$GPGSV,4,3,14,11,15,310,28,31,12,062,28,20,09,326,18,30,05,243,21,1*60
$GPGSV,4,4,14,27,02,115,18,29,01,009,,1*69
$GLGSV,2,1,07,68,81,077,31,78,78,135,15,69,40,318,26,67,31,127,25,1*7F
$GLGSV,2,2,07,79,30,201,27,85,13,333,19,84,07,284,,1*45
$GAGSV,3,1,10,09,79,316,33,06,73,093,33,04,46,103,28,31,45,146,30,7*76
$GAGSV,3,2,10,05,25,291,25,34,20,301,24,36,15,249,22,24,08,186,22,7*72
$GAGSV,3,3,10,21,06,030,19,15,05,347,18,7*74
$GBGSV,2,1,08,32,72,167,39,23,70,091,38,37,45,206,34,20,44,305,37,1*70
$GBGSV,2,2,08,25,22,051,32,41,19,139,29,38,06,333,26,04,01,262,,1*78
$GNRMC,182611.000,A,4910.426032,N,12304.401690,W,0.03,0.00,051224,,,D,V*10
$GNVTG,0.00,T,,M,0.03,N,0.06,K,D*23
$GNGGA,182612.000,4910.426128,N,12304.401612,W,2,31,0.50,2.348,M,-16.816,M,,*41
$GNGLL,4910.426128,N,12304.401612,W,182612.000,A,D*5D
$GNGSA,A,3,04,09,16,07,26,03,06,11,31,20,,,0.84,0.50,0.67,1*05
$GNGSA,A,3,68,78,69,67,79,85,,,,,,,0.84,0.50,0.67,2*06
$GNGSA,A,3,09,06,04,31,05,34,36,21,,,,,0.84,0.50,0.67,3*06
$GNGSA,A,3,32,23,37,20,25,41,38,,,,,,0.84,0.50,0.67,4*03
$GPGSV,4,1,14,04,75,093,36,09,72,302,37,16,48,087,34,07,41,243,34,1*67
$GPGSV,4,2,14,48,33,182,30,26,29,052,32,03,27,174,30,06,16,271,18,1*61
$GPGSV,4,3,14,11,15,310,28,31,12,062,28,20,09,326,18,30,05,243,21,1*60
$GPGSV,4,4,14,27,02,115,18,29,01,009,,1*69
$GLGSV,2,1,07,68,81,077,31,78,78,135,15,69,40,318,26,67,31,127,25,1*7F
$GLGSV,2,2,07,79,30,201,27,85,13,333,19,84,07,284,,1*45
$GAGSV,3,1,10,09,79,316,34,06,73,093,33,04,46,103,28,31,45,146,30,7*71
$GAGSV,3,2,10,05,25,291,25,34,20,301,24,36,15,249,23,24,08,186,23,7*72
$GAGSV,3,3,10,21,06,030,20,15,05,347,19,7*7F
$GBGSV,2,1,08,32,72,167,39,23,70,091,38,37,45,206,34,20,44,305,37,1*70
$GBGSV,2,2,08,25,22,051,32,41,19,139,29,38,06,333,26,04,01,262,,1*78
$GNRMC,182612.000,A,4910.426128,N,12304.401612,W,0.03,0.00,051224,,,D,V*13
$GNVTG,0.00,T,,M,0.03,N,0.06,K,D*23
$GNGGA,182613.000,4910.426290,N,12304.401456,W,2,31,0.50,2.419,M,-16.816,M,,*41
$GNGLL,4910.426290,N,12304.401456,W,182613.000,A,D*5E
$GNGSA,A,3,04,09,16,07,26,03,06,11,31,20,,,0.84,0.50,0.67,1*05
$GNGSA,A,3,68,78,69,67,79,85,,,,,,,0.84,0.50,0.67,2*06
$GNGSA,A,3,09,06,04,31,05,34,36,21,,,,,0.84,0.50,0.67,3*06
$GNGSA,A,3,32,23,37,20,25,41,38,,,,,,0.84,0.50,0.67,4*03
$GPGSV,4,1,14,04,75,093,36,09,72,302,37,16,48,087,35,07,41,243,34,1*66
$GPGSV,4,2,14,48,33,182,30,26,29,052,32,03,27,174,30,06,16,271,18,1*61
$GPGSV,4,3,14,11,15,310,28,31,12,062,28,20,09,326,18,30,05,243,21,1*60
$GPGSV,4,4,14,27,02,115,18,29,01,009,,1*69
$GLGSV,2,1,07,68,81,077,31,78,78,135,16,69,40,318,26,67,31,127,26,1*7F
$GLGSV,2,2,07,79,30,201,27,85,13,333,19,84,07,284,,1*45
$GAGSV,3,1,10,09,79,316,34,06,73,093,33,04,46,103,28,31,45,146,30,7*71
$GAGSV,3,2,10,05,25,291,25,34,20,301,24,36,15,249,23,24,08,186,23,7*72
$GAGSV,3,3,10,21,06,030,20,15,05,347,19,7*7F
$GBGSV,2,1,08,32,72,167,39,23,70,091,38,37,45,206,34,20,44,305,37,1*70
$GBGSV,2,2,08,25,22,051,32,41,19,139,29,38,06,333,26,04,01,262,,1*78
$GNRMC,182613.000,A,4910.426290,N,12304.401456,W,0.04,0.00,051224,,,D,V*17
$GNVTG,0.00,T,,M,0.04,N,0.07,K,D*25
$GNGGA,182614.000,4910.426380,N,12304.401306,W,2,31,0.50,2.527,M,-16.816,M,,*48
$GNGLL,4910.426380,N,12304.401306,W,182614.000,A,D*5B
$GNGSA,A,3,04,09,16,07,26,03,06,11,31,20,,,0.84,0.50,0.67,1*05
$GNGSA,A,3,68,78,69,67,79,85,,,,,,,0.84,0.50,0.67,2*06
$GNGSA,A,3,09,06,04,31,05,34,36,21,,,,,0.84,0.50,0.67,3*06
$GNGSA,A,3,32,23,37,20,25,41,38,,,,,,0.84,0.50,0.67,4*03
$GPGSV,4,1,14,04,75,093,36,09,72,302,37,16,48,087,35,07,41,243,34,1*66
$GPGSV,4,2,14,48,33,182,30,26,29,052,32,03,27,174,30,06,16,271,18,1*61
$GPGSV,4,3,14,11,15,310,28,31,12,062,28,20,09,326,17,30,05,243,21,1*6F
$GPGSV,4,4,14,27,02,115,18,29,01,009,,1*69
$GLGSV,2,1,07,68,81,077,31,78,78,135,17,69,40,318,26,67,31,127,26,1*7E
$GLGSV,2,2,07,79,30,201,26,85,13,333,19,84,07,284,,1*44
$GAGSV,3,1,10,09,79,316,34,06,73,093,33,04,46,103,28,31,45,146,30,7*71
$GAGSV,3,2,10,05,25,291,25,34,20,301,24,36,15,249,23,24,08,186,22,7*73
$GAGSV,3,3,10,21,06,030,20,15,05,347,19,7*7F
$GBGSV,2,1,08,32,72,167,39,23,70,091,38,37,45,206,34,20,44,305,37,1*70
$GBGSV,2,2,08,25,22,051,32,41,19,139,29,38,06,333,26,04,01,262,,1*78
$GNRMC,182614.000,A,4910.426380,N,12304.401306,W,0.04,0.00,051224,,,D,V*12
$GNVTG,0.00,T,,M,0.04,N,0.08,K,D*2A
$GNGGA,182615.000,4910.426452,N,12304.401234,W,2,31,0.50,2.634,M,-16.816,M,,*40
$GNGLL,4910.426452,N,12304.401234,W,182615.000,A,D*52
$GNGSA,A,3,04,09,16,07,26,03,06,11,31,20,,,0.84,0.50,0.67,1*05
$GNGSA,A,3,68,78,69,67,79,85,,,,,,,0.84,0.50,0.67,2*06
$GNGSA,A,3,09,06,04,31,05,34,36,21,,,,,0.84,0.50,0.67,3*06
$GNGSA,A,3,32,23,37,20,25,41,38,,,,,,0.84,0.50,0.67,4*03
$GPGSV,4,1,14,04,75,093,36,09,72,302,37,16,48,087,35,07,41,243,34,1*66
$GPGSV,4,2,14,48,33,182,31,26,29,052,32,03,27,174,30,06,16,271,18,1*60
$GPGSV,4,3,14,11,15,310,28,31,12,062,28,20,09,326,17,30,05,243,21,1*6F
$GPGSV,4,4,14,27,02,115,18,29,01,009,,1*69
$GLGSV,2,1,07,68,81,077,31,78,78,135,17,69,40,318,26,67,31,127,26,1*7E
$GLGSV,2,2,07,79,30,201,27,85,13,333,19,84,07,284,,1*45
$GAGSV,3,1,10,09,79,316,33,06,73,093,33,04,46,103,28,31,45,146,30,7*76
$GAGSV,3,2,10,05,25,291,25,34,20,301,24,36,15,249,23,24,08,186,22,7*73
$GAGSV,3,3,10,21,06,030,20,15,05,347,19,7*7F
$GBGSV,2,1,08,32,72,167,39,23,70,091,38,37,45,206,34,20,44,305,37,1*70
$GBGSV,2,2,08,25,22,051,32,41,19,139,29,38,06,333,26,04,01,262,,1*78
$GNRMC,182615.000,A,4910.426452,N,12304.401234,W,0.04,0.00,051224,,,D,V*1B
$GNVTG,0.00,T,,M,0.04,N,0.07,K,D*25
$GNGGA,182616.000,4910.426530,N,12304.401222,W,2,31,0.50,2.702,M,-16.816,M,,*45
$GNGLL,4910.426530,N,12304.401222,W,182616.000,A,D*53
$GNGSA,A,3,04,09,16,07,26,03,06,11,31,20,,,0.84,0.50,0.67,1*05
$GNGSA,A,3,68,78,69,67,79,85,,,,,,,0.84,0.50,0.67,2*06
$GNGSA,A,3,09,06,04,31,05,34,36,21,,,,,0.84,0.50,0.67,3*06
$GNGSA,A,3,32,23,37,20,25,41,38,,,,,,0.84,0.50,0.67,4*03
$GPGSV,4,1,14,04,75,093,36,09,72,302,37,16,48,087,35,07,41,243,34,1*66
$GPGSV,4,2,14,48,33,182,30,26,29,052,32,03,27,174,30,06,16,271,18,1*61
$GPGSV,4,3,14,11,15,310,28,31,12,062,28,20,09,326,17,30,05,243,21,1*6F
$GPGSV,4,4,14,27,02,115,17,29,01,009,,1*66
$GLGSV,2,1,07,68,81,077,31,78,78,135,18,69,40,318,26,67,31,127,26,1*71
$GLGSV,2,2,07,79,30,201,27,85,13,333,18,84,07,284,,1*44
$GAGSV,3,1,10,09,79,316,33,06,73,093,33,04,46,103,28,31,45,146,30,7*76
$GAGSV,3,2,10,05,25,291,25,34,20,301,24,36,15,249,23,24,08,186,22,7*73
$GAGSV,3,3,10,21,06,030,19,15,05,347,19,7*75
$GBGSV,2,1,08,32,72,167,39,23,70,091,38,37,45,206,34,20,44,305,37,1*70
$GBGSV,2,2,08,25,22,051,32,41,19,139,29,38,06,333,26,04,01,262,,1*78
$GNRMC,182616.000,A,4910.426530,N,12304.401222,W,0.03,0.00,051224,,,D,V*1D
$GNVTG,0.00,T,,M,0.03,N,0.06,K,D*23
$GNGGA,182617.000,4910.426602,N,12304.401174,W,2,31,0.50,2.817,M,-16.817,M,,*4C
$GNGLL,4910.426602,N,12304.401174,W,182617.000,A,D*50
$GNGSA,A,3,04,09,16,07,26,03,06,11,31,20,,,0.84,0.50,0.67,1*05
$GNGSA,A,3,68,78,69,67,79,85,,,,,,,0.84,0.50,0.67,2*06
$GNGSA,A,3,09,06,04,31,05,34,36,21,,,,,0.84,0.50,0.67,3*06
$GNGSA,A,3,32,23,37,20,25,41,38,,,,,,0.84,0.50,0.67,4*03
$GPGSV,4,1,14,04,75,093,36,09,72,302,37,16,48,087,35,07,41,243,33,1*61
$GPGSV,4,2,14,48,33,182,30,26,29,052,32,03,27,174,30,06,16,271,18,1*61
$GPGSV,4,3,14,11,15,310,28,31,12,062,28,20,09,326,17,30,05,243,21,1*6F
$GPGSV,4,4,14,27,02,115,17,29,01,009,,1*66
$GLGSV,2,1,07,68,81,077,31,78,78,135,18,69,40,318,26,67,31,127,26,1*71
$GLGSV,2,2,07,79,30,201,27,85,13,333,18,84,07,284,,1*44
$GAGSV,3,1,10,09,79,316,33,06,73,093,32,04,46,103,27,31,45,146,29,7*70
$GAGSV,3,2,10,05,25,291,24,34,20,301,23,36,15,249,22,24,08,186,22,7*74
$GAGSV,3,3,10,21,06,030,19,15,05,347,19,7*75
$GBGSV,2,1,08,32,72,167,39,23,70,091,38,37,45,206,34,20,44,305,37,1*70
$GBGSV,2,2,08,25,22,051,32,41,19,139,29,38,06,333,26,04,01,262,,1*78
$GNRMC,182617.000,A,4910.426602,N,12304.401174,W,0.03,0.00,051224,,,D,V*1E
$GNVTG,0.00,T,,M,0.03,N,0.05,K,D*20
$GNGGA,182618.000,4910.426716,N,12304.401108,W,2,31,0.50,2.886,M,-16.816,M,,*45
$GNGLL,4910.426716,N,12304.401108,W,182618.000,A,D*50
$GNGSA,A,3,04,09,16,07,26,03,06,11,31,20,,,0.84,0.50,0.67,1*05
$GNGSA,A,3,68,78,69,67,79,85,,,,,,,0.84,0.50,0.67,2*06
$GNGSA,A,3,09,06,04,31,05,34,36,21,,,,,0.84,0.50,0.67,3*06
$GNGSA,A,3,32,23,37,20,25,41,38,,,,,,0.84,0.50,0.67,4*03
$GPGSV,4,1,14,04,75,093,36,09,72,302,37,16,48,087,35,07,41,243,33,1*61
$GPGSV,4,2,14,48,33,182,29,26,29,052,31,03,27,174,29,06,16,271,18,1*62
$GPGSV,4,3,14,11,15,310,27,31,12,062,28,20,09,326,17,30,05,243,21,1*60
$GPGSV,4,4,14,27,02,115,16,29,01,009,,1*67
$GLGSV,2,1,07,68,81,077,31,78,78,135,18,69,40,318,26,67,31,127,26,1*71
$GLGSV,2,2,07,79,30,201,27,85,13,333,18,84,07,284,,1*44
$GAGSV,3,1,10,09,79,316,33,06,73,093,31,04,46,103,27,31,45,146,28,7*72
$GAGSV,3,2,10,05,25,291,24,34,20,301,23,36,15,249,21,24,08,186,21,7*74
$GAGSV,3,3,10,21,06,030,19,15,05,347,19,7*75
$GBGSV,2,1,08,32,72,167,39,23,70,091,38,37,45,206,34,20,44,305,37,1*70
$GBGSV,2,2,08,25,22,051,32,41,19,139,29,38,06,333,26,04,01,262,,1*78
$GNRMC,182618.000,A,4910.426716,N,12304.401108,W,0.03,0.00,051224,,,D,V*1E
$GNVTG,0.00,T,,M,0.03,N,0.05,K,D*20
$GNGGA,182619.000,4910.426830,N,12304.401066,W,2,31,0.50,2.924,M,-16.816,M,,*4F
$GNGLL,4910.426830,N,12304.401066,W,182619.000,A,D*53
$GNGSA,A,3,04,09,16,07,26,03,06,11,31,20,,,0.84,0.50,0.67,1*05
$GNGSA,A,3,68,78,69,67,79,85,,,,,,,0.84,0.50,0.67,2*06
$GNGSA,A,3,09,06,04,31,05,34,36,21,,,,,0.84,0.50,0.67,3*06
$GNGSA,A,3,32,23,37,20,25,41,38,,,,,,0.84,0.50,0.67,4*03
$GPGSV,4,1,14,04,75,093,36,09,72,302,37,16,48,087,35,07,41,243,33,1*61
$GPGSV,4,2,14,48,33,182,29,26,29,052,31,03,27,174,29,06,16,271,18,1*62
$GPGSV,4,3,14,11,15,310,27,31,12,062,28,20,09,326,17,30,05,243,20,1*61
$GPGSV,4,4,14,27,02,115,16,29,01,009,,1*67
$GLGSV,2,1,07,68,81,077,31,78,78,135,18,69,40,318,26,67,31,127,26,1*71
$GLGSV,2,2,07,79,30,201,27,85,13,333,18,84,07,284,,1*44
$GAGSV,3,1,10,09,79,316,33,06,73,093,31,04,46,103,27,31,45,146,28,7*72
$GAGSV,3,2,10,05,25,291,24,34,20,301,23,36,15,249,21,24,08,186,21,7*74
$GAGSV,3,3,10,21,06,030,19,15,05,347,19,7*75
$GBGSV,2,1,08,32,72,167,39,23,70,091,38,37,45,206,34,20,44,305,37,1*70
$GBGSV,2,2,08,25,22,051,32,41,19,139,29,38,06,333,26,04,01,262,,1*78
$GNRMC,182619.000,A,4910.426830,N,12304.401066,W,0.03,0.00,051224,,,D,V*1D
$GNVTG,0.00,T,,M,0.03,N,0.05,K,D*20
$GNGGA,182620.000,4910.426884,N,12304.401102,W,2,31,0.50,2.929,M,-16.817,M,,*45
$GNGLL,4910.426884,N,12304.401102,W,182620.000,A,D*55
$GNGSA,A,3,04,09,16,07,26,03,06,11,31,20,,,0.84,0.50,0.67,1*05
$GNGSA,A,3,68,78,69,67,79,85,,,,,,,0.84,0.50,0.67,2*06
$GNGSA,A,3,09,06,04,31,05,34,36,21,,,,,0.84,0.50,0.67,3*06
$GNGSA,A,3,32,23,37,20,25,41,38,,,,,,0.84,0.50,0.67,4*03
$GPGSV,4,1,14,04,75,093,36,09,72,302,36,16,48,087,35,07,41,243,33,1*60
$GPGSV,4,2,14,48,33,182,29,26,29,052,31,03,27,174,29,06,16,271,18,1*62
$GPGSV,4,3,14,11,15,310,26,31,12,062,28,20,09,326,17,30,05,243,20,1*60
$GPGSV,4,4,14,27,02,115,16,29,01,009,,1*67
$GLGSV,2,1,07,68,81,077,31,78,78,135,18,69,40,318,25,67,31,127,26,1*72
$GLGSV,2,2,07,79,30,201,27,85,13,333,18,84,07,284,,1*44
$GAGSV,3,1,10,09,79,316,32,06,73,093,31,04,46,103,27,31,45,146,28,7*73
$GAGSV,3,2,10,05,25,291,24,34,20,301,23,36,15,249,21,24,08,186,21,7*74
$GAGSV,3,3,10,21,06,030,19,15,05,347,19,7*75
$GBGSV,2,1,08,32,72,167,38,23,70,091,38,37,45,206,34,20,44,305,37,1*71
$GBGSV,2,2,08,25,22,051,32,41,19,139,29,38,06,333,26,04,01,262,,1*78
$GNRMC,182620.000,A,4910.426884,N,12304.401102,W,0.03,0.00,051224,,,D,V*1B
$GNVTG,0.00,T,,M,0.03,N,0.05,K,D*20
$GNGGA,182621.000,4910.426968,N,12304.401186,W,2,31,0.50,2.971,M,-16.816,M,,*47
$GNGLL,4910.426968,N,12304.401186,W,182621.000,A,D*5B
$GNGSA,A,3,04,09,16,07,26,03,06,11,31,20,,,0.84,0.50,0.67,1*05
$GNGSA,A,3,68,78,69,67,79,85,,,,,,,0.84,0.50,0.67,2*06
$GNGSA,A,3,09,06,04,31,05,34,36,21,,,,,0.84,0.50,0.67,3*06
$GNGSA,A,3,32,23,37,20,25,41,38,,,,,,0.84,0.50,0.67,4*03
$GPGSV,4,1,14,04,75,093,36,09,72,302,36,16,48,087,35,07,41,243,33,1*60
$GPGSV,4,2,14,48,33,182,30,26,29,052,31,03,27,174,29,06,16,271,18,1*6A
$GPGSV,4,3,14,11,15,310,26,31,12,062,28,20,09,326,17,30,05,243,20,1*60
$GPGSV,4,4,14,27,02,115,16,29,01,009,,1*67
$GLGSV,2,1,07,68,81,077,31,78,78,135,18,69,40,318,25,67,31,127,26,1*72
$GLGSV,2,2,07,79,30,201,27,85,13,333,18,84,07,284,,1*44
$GAGSV,3,1,10,09,79,316,32,06,73,093,31,04,46,103,27,31,45,146,28,7*73
$GAGSV,3,2,10,05,25,291,24,34,20,301,23,36,15,249,21,24,08,186,21,7*74
$GAGSV,3,3,10,21,06,030,19,15,05,347,19,7*75
$GBGSV,2,1,08,32,72,167,38,23,70,091,38,37,45,206,34,20,44,305,37,1*71
$GBGSV,2,2,08,25,22,051,32,41,19,139,29,38,06,333,26,04,01,262,,1*78
$GNRMC,182621.000,A,4910.426968,N,12304.401186,W,0.03,0.00,051224,,,D,V*15
$GNVTG,0.00,T,,M,0.03,N,0.05,K,D*20
$GNGGA,182622.000,4910.426998,N,12304.401288,W,2,31,0.50,2.963,M,-16.816,M,,*45
$GNGLL,4910.426998,N,12304.401288,W,182622.000,A,D*5A
$GNGSA,A,3,04,09,16,07,26,03,06,11,31,20,,,0.84,0.50,0.67,1*05
$GNGSA,A,3,68,78,69,67,79,85,,,,,,,0.84,0.50,0.67,2*06
$GNGSA,A,3,09,06,04,31,05,34,36,21,,,,,0.84,0.50,0.67,3*06
$GNGSA,A,3,32,23,37,20,25,41,38,,,,,,0.84,0.50,0.67,4*03
$GPGSV,4,1,14,04,75,093,36,09,72,302,36,16,48,087,35,07,41,243,33,1*60
$GPGSV,4,2,14,48,33,182,29,26,29,052,31,03,27,174,29,06,16,271,18,1*62
$GPGSV,4,3,14,11,15,310,26,31,12,062,28,20,09,326,17,30,05,243,20,1*60
$GPGSV,4,4,14,27,02,115,16,29,01,009,,1*67
$GLGSV,2,1,07,68,81,077,31,78,78,135,18,69,40,318,25,67,31,127,26,1*72
$GLGSV,2,2,07,79,30,201,27,85,13,333,18,84,07,284,,1*44
$GAGSV,3,1,10,09,79,316,32,06,73,093,32,04,46,103,27,31,45,146,28,7*70
$GAGSV,3,2,10,05,25,291,24,34,20,301,24,36,15,249,21,24,08,186,21,7*73
$GAGSV,3,3,10,21,06,030,19,15,05,347,19,7*75
$GBGSV,2,1,08,32,72,167,38,23,70,091,38,37,45,206,34,20,44,305,37,1*71
$GBGSV,2,2,08,25,22,051,32,41,19,139,29,38,06,333,26,04,01,262,,1*78
$GNRMC,182622.000,A,4910.426998,N,12304.401288,W,0.03,0.00,051224,,,D,V*14
$GNVTG,0.00,T,,M,0.03,N,0.05,K,D*20
$GNGGA,182623.000,4910.427052,N,12304.401312,W,2,31,0.50,2.999,M,-16.816,M,,*4D
$GNGLL,4910.427052,N,12304.401312,W,182623.000,A,D*57
$GNGSA,A,3,04,09,16,07,26,03,06,11,31,20,,,0.84,0.50,0.67,1*05
$GNGSA,A,3,68,78,69,67,79,85,,,,,,,0.84,0.50,0.67,2*06
$GNGSA,A,3,09,06,04,31,05,34,36,21,,,,,0.84,0.50,0.67,3*06
$GNGSA,A,3,32,23,37,20,25,41,38,,,,,,0.84,0.50,0.67,4*03
$GPGSV,4,1,14,04,75,093,36,09,72,302,36,16,48,087,35,07,41,243,33,1*60
$GPGSV,4,2,14,48,33,182,29,26,29,052,31,03,27,174,29,06,16,271,18,1*62
$GPGSV,4,3,14,11,15,310,26,31,12,062,28,20,09,326,17,30,05,243,20,1*60
$GPGSV,4,4,14,27,02,115,16,29,01,009,,1*67
$GLGSV,2,1,07,68,81,077,31,78,78,135,18,69,40,318,25,67,31,127,26,1*72
$GLGSV,2,2,07,79,30,201,27,85,13,333,18,84,07,284,,1*44
$GAGSV,3,1,10,09,79,316,32,06,73,093,32,04,46,103,28,31,45,146,28,7*7F
$GAGSV,3,2,10,05,25,291,24,34,20,301,24,36,15,249,21,24,08,186,21,7*73
$GAGSV,3,3,10,21,06,030,19,15,05,347,19,7*75
$GBGSV,2,1,08,32,72,167,38,23,70,091,38,37,45,206,34,20,44,305,37,1*71
$GBGSV,2,2,08,25,22,051,32,41,19,139,29,38,06,333,26,04,01,262,,1*78
$GNRMC,182623.000,A,4910.427052,N,12304.401312,W,0.02,0.00,051224,,,D,V*18
$GNVTG,0.00,T,,M,0.02,N,0.04,K,D*20
$GNGGA,182624.000,4910.427106,N,12304.401360,W,2,31,0.50,3.063,M,-16.817,M,,*43
$GNGLL,4910.427106,N,12304.401360,W,182624.000,A,D*55
$GNGSA,A,3,04,09,16,07,26,03,06,11,31,20,,,0.84,0.50,0.67,1*05
$GNGSA,A,3,68,78,69,67,79,85,,,,,,,0.84,0.50,0.67,2*06
$GNGSA,A,3,09,06,04,31,05,34,36,21,,,,,0.84,0.50,0.67,3*06
$GNGSA,A,3,32,23,37,20,25,41,38,,,,,,0.84,0.50,0.67,4*03
$GPGSV,4,1,14,04,75,093,36,09,72,302,36,16,48,087,35,07,41,243,33,1*60
$GPGSV,4,2,14,48,33,182,29,26,29,052,31,03,27,174,29,06,16,271,18,1*62
$GPGSV,4,3,14,11,15,310,26,31,12,062,28,20,09,326,17,30,05,243,19,1*6A
$GPGSV,4,4,14,27,02,115,16,29,01,009,,1*67
$GLGSV,2,1,07,68,81,077,32,78,78,135,18,69,40,318,25,67,31,127,26,1*71
$GLGSV,2,2,07,79,30,201,26,85,13,333,19,84,07,284,,1*44
$GAGSV,3,1,10,09,79,316,32,06,73,093,32,04,46,103,28,31,45,146,28,7*7F
$GAGSV,3,2,10,05,25,291,24,34,20,301,24,36,15,249,21,24,08,186,21,7*73
$GAGSV,3,3,10,21,06,030,19,15,05,347,19,7*75
$GBGSV,2,1,08,32,72,167,38,23,70,091,38,37,45,206,34,20,44,305,37,1*71
$GBGSV,2,2,08,25,22,051,32,41,19,139,29,38,06,333,26,04,01,262,,1*78
$GNRMC,182624.000,A,4910.427106,N,12304.401360,W,0.02,0.00,051224,,,D,V*1A
$GNVTG,0.00,T,,M,0.02,N,0.04,K,D*20
$GNGGA,182625.000,4910.427136,N,12304.401450,W,2,31,0.50,3.158,M,-16.816,M,,*4D
$GNGLL,4910.427136,N,12304.401450,W,182625.000,A,D*53
$GNGSA,A,3,04,09,16,07,26,03,06,11,31,20,,,0.84,0.50,0.67,1*05
$GNGSA,A,3,68,78,69,67,79,85,,,,,,,0.84,0.50,0.67,2*06
$GNGSA,A,3,09,06,04,31,05,34,36,21,,,,,0.84,0.50,0.67,3*06
$GNGSA,A,3,32,23,37,20,25,41,38,,,,,,0.84,0.50,0.67,4*03
$GPGSV,4,1,14,04,75,093,36,09,72,302,36,16,48,087,35,07,41,243,33,1*60
$GPGSV,4,2,14,48,33,182,30,26,29,052,31,03,27,174,29,06,16,271,18,1*6A
$GPGSV,4,3,14,11,15,310,26,31,12,062,28,20,09,326,17,30,05,243,19,1*6A
$GPGSV,4,4,14,27,02,115,16,29,01,009,,1*67
$GLGSV,2,1,07,68,81,077,32,78,78,135,18,69,40,318,26,67,31,127,26,1*72
$GLGSV,2,2,07,79,30,201,26,85,13,333,20,84,07,284,,1*4E
$GAGSV,3,1,10,09,79,316,32,06,73,093,32,04,46,103,28,31,45,146,28,7*7F
$GAGSV,3,2,10,05,25,291,24,34,20,301,24,36,15,249,21,24,08,186,21,7*73
$GAGSV,3,3,10,21,06,030,19,15,05,347,19,7*75
$GBGSV,2,1,08,32,72,167,38,23,70,091,38,37,45,206,34,20,44,305,37,1*71
$GBGSV,2,2,08,25,22,051,33,41,19,139,29,38,06,333,26,04,01,262,,1*79
$GNRMC,182625.000,A,4910.427136,N,12304.401450,W,0.02,0.00,051224,,,D,V*1C
$GNVTG,0.00,T,,M,0.02,N,0.04,K,D*20
$GNGGA,182626.000,4910.427112,N,12304.401474,W,2,31,0.50,3.191,M,-16.817,M,,*4A
