$GNGGA,182937.000,4910.426614,N,12304.403070,W,2,31,0.50,11.604,M,-16.816,M,,*7E
$GNGLL,4910.426614,N,12304.403070,W,182937.000,A,D*5D
$GNGSA,A,3,04,09,16,07,26,03,06,11,31,20,,,0.83,0.50,0.66,1*03
$GNGSA,A,3,68,78,69,79,67,85,,,,,,,0.83,0.50,0.66,2*00
$GNGSA,A,3,09,06,31,04,05,34,36,21,,,,,0.83,0.50,0.66,3*00
$GNGSA,A,3,32,23,37,20,25,41,38,,,,,,0.83,0.50,0.66,4*05
$GPGSV,4,1,14,04,73,096,36,09,73,302,38,16,48,085,34,07,42,244,35,1*6D
$GPGSV,4,2,14,48,33,182,31,26,28,051,32,03,25,174,28,06,15,270,18,1*6B
$GPGSV,4,3,14,11,14,308,26,31,11,063,24,20,10,325,26,30,07,244,20,1*6A
$GPGSV,4,4,14,27,03,114,25,29,01,008,,1*66
$GLGSV,2,1,07,68,80,088,32,78,79,127,19,69,42,318,29,79,32,202,25,1*76
$GLGSV,2,2,07,67,30,128,22,85,13,332,19,84,06,283,,1*40
$GAGSV,3,1,10,09,80,318,33,06,72,095,32,31,46,145,30,04,45,104,30,7*75
$GAGSV,3,2,10,05,26,291,26,34,20,299,23,36,14,248,22,24,10,186,21,7*7F
$GAGSV,3,3,10,15,05,346,20,21,05,030,22,7*75
$GBGSV,2,1,08,32,71,166,39,23,70,087,38,37,46,207,35,20,45,305,37,1*77
$GBGSV,2,2,08,25,21,051,32,41,18,140,30,38,07,333,26,04,01,262,,1*7D
$GNRMC,182937.000,A,4910.426614,N,12304.403070,W,0.02,0.00,051224,,,D,V*12
$GNVTG,0.00,T,,M,0.02,N,0.04,K,D*20
$GNGGA,182938.000,4910.426698,N,12304.403064,W,2,31,0.50,11.606,M,-16.817,M,,*73
$GNGLL,4910.426698,N,12304.403064,W,182938.000,A,D*53
$GNGSA,A,3,04,09,16,07,26,03,06,11,31,20,,,0.83,0.50,0.66,1*03
$GNGSA,A,3,68,78,69,79,67,85,,,,,,,0.83,0.50,0.66,2*00
$GNGSA,A,3,09,06,31,04,05,34,36,21,,,,,0.83,0.50,0.66,3*00
$GNGSA,A,3,32,23,37,20,25,41,38,,,,,,0.83,0.50,0.66,4*05
$GPGSV,4,1,14,04,73,096,36,09,73,302,38,16,48,085,34,07,42,244,35,1*6D
$GPGSV,4,2,14,48,33,182,31,26,28,051,32,03,25,174,28,06,15,270,18,1*6B
$GPGSV,4,3,14,11,14,308,26,31,11,063,24,20,10,325,26,30,07,244,20,1*6A
$GPGSV,4,4,14,27,03,114,26,29,01,008,,1*65
$GLGSV,2,1,07,68,80,088,32,78,79,127,19,69,42,318,29,79,32,202,25,1*76
$GLGSV,2,2,07,67,30,128,22,85,13,332,19,84,06,283,,1*40
$GAGSV,3,1,10,09,80,318,33,06,72,095,32,31,46,145,30,04,45,104,30,7*75
$GAGSV,3,2,10,05,26,291,26,34,20,299,23,36,14,248,23,24,10,186,21,7*7E
$GAGSV,3,3,10,15,05,346,20,21,05,030,22,7*75
$GBGSV,2,1,08,32,71,166,39,23,70,087,38,37,46,207,35,20,45,305,37,1*77
$GBGSV,2,2,08,25,21,051,32,41,18,140,30,38,07,333,26,04,01,262,,1*7D
$GNRMC,182938.000,A,4910.426698,N,12304.403064,W,0.02,0.00,051224,,,D,V*1C
$GNVTG,0.00,T,,M,0.02,N,0.04,K,D*20
$GNGGA,182939.000,4910.426812,N,12304.402986,W,2,31,0.50,11.582,M,-16.816,M,,*74
$GNGLL,4910.426812,N,12304.402986,W,182939.000,A,D*5A
$GNGSA,A,3,04,09,16,07,26,03,06,11,31,20,,,0.83,0.50,0.66,1*03
$GNGSA,A,3,68,78,69,79,67,85,,,,,,,0.83,0.50,0.66,2*00
$GNGSA,A,3,09,06,31,04,05,34,36,21,,,,,0.83,0.50,0.66,3*00
$GNGSA,A,3,32,23,37,20,25,41,38,,,,,,0.83,0.50,0.66,4*05
$GPGSV,4,1,14,04,73,096,36,09,73,302,38,16,48,085,34,07,42,244,35,1*6D
$GPGSV,4,2,14,48,33,182,31,26,28,051,32,03,25,174,28,06,15,270,18,1*6B
$GPGSV,4,3,14,11,14,308,26,31,11,063,24,20,10,325,26,30,07,244,20,1*6A
$GPGSV,4,4,14,27,03,114,26,29,01,008,,1*65
$GLGSV,2,1,07,68,80,088,32,78,79,127,19,69,42,318,29,79,32,202,25,1*76
$GLGSV,2,2,07,67,30,128,22,85,13,332,19,84,06,283,,1*40
$GAGSV,3,1,10,09,80,318,33,06,72,095,32,31,46,145,30,04,45,104,30,7*75
$GAGSV,3,2,10,05,26,291,26,34,20,299,23,36,14,248,23,24,10,186,21,7*7E
$GAGSV,3,3,10,15,05,346,20,21,05,030,22,7*75
$GBGSV,2,1,08,32,71,166,39,23,70,087,38,37,46,207,35,20,45,305,37,1*77
$GBGSV,2,2,08,25,21,051,32,41,18,140,30,38,07,333,26,04,01,262,,1*7D
$GNRMC,182939.000,A,4910.426812,N,12304.402986,W,0.02,0.00,051224,,,D,V*15
$GNVTG,0.00,T,,M,0.02,N,0.04,K,D*20
$GNGGA,182940.000,4910.426890,N,12304.402962,W,2,31,0.50,11.541,M,-16.816,M,,*75
$GNGLL,4910.426890,N,12304.402962,W,182940.000,A,D*54
$GNGSA,A,3,04,09,16,07,26,03,06,11,31,20,,,0.83,0.50,0.66,1*03
$GNGSA,A,3,68,78,69,79,67,85,,,,,,,0.83,0.50,0.66,2*00
$GNGSA,A,3,09,06,31,04,05,34,36,21,,,,,0.83,0.50,0.66,3*00
$GNGSA,A,3,32,23,37,20,25,41,38,,,,,,0.83,0.50,0.66,4*05
$GPGSV,4,1,14,04,73,096,36,09,73,302,38,16,48,085,35,07,42,244,35,1*6C
$GPGSV,4,2,14,48,33,182,31,26,28,051,32,03,25,174,28,06,15,270,18,1*6B
$GPGSV,4,3,14,11,14,308,26,31,11,063,23,20,10,325,26,30,07,244,21,1*6C
$GPGSV,4,4,14,27,03,114,25,29,01,008,,1*66
$GLGSV,2,1,07,68,80,088,32,78,79,127,19,69,42,318,29,79,32,202,25,1*76
$GLGSV,2,2,07,67,30,128,22,85,13,332,19,84,06,283,,1*40
$GAGSV,3,1,10,09,80,318,33,06,72,095,32,31,46,145,30,04,45,104,30,7*75
$GAGSV,3,2,10,05,26,291,26,34,20,299,23,36,14,248,23,24,10,186,21,7*7E
$GAGSV,3,3,10,15,05,346,20,21,05,030,22,7*75
$GBGSV,2,1,08,32,71,166,39,23,70,087,38,37,46,207,35,20,45,305,37,1*77
$GBGSV,2,2,08,25,21,051,32,41,18,140,30,38,07,333,26,04,01,262,,1*7D
$GNRMC,182940.000,A,4910.426890,N,12304.402962,W,0.02,0.00,051224,,,D,V*1B
$GNVTG,0.00,T,,M,0.02,N,0.04,K,D*20
$GNGGA,182941.000,4910.426974,N,12304.402896,W,2,31,0.50,11.472,M,-16.816,M,,*74
$GNGLL,4910.426974,N,12304.402896,W,182941.000,A,D*54
$GNGSA,A,3,04,09,16,07,26,03,06,11,31,20,,,0.83,0.50,0.66,1*03
$GNGSA,A,3,68,78,69,79,67,85,,,,,,,0.83,0.50,0.66,2*00
$GNGSA,A,3,09,06,31,04,05,34,36,21,,,,,0.83,0.50,0.66,3*00
$GNGSA,A,3,32,23,37,20,25,41,38,,,,,,0.83,0.50,0.66,4*05
$GPGSV,4,1,14,04,73,096,36,09,73,302,38,16,48,085,35,07,42,244,35,1*6C
$GPGSV,4,2,14,48,33,182,31,26,28,051,32,03,25,174,28,06,15,270,18,1*6B
$GPGSV,4,3,14,11,14,308,26,31,11,063,22,20,10,325,26,30,07,244,21,1*6D
$GPGSV,4,4,14,27,03,114,26,29,01,008,,1*65
$GLGSV,2,1,07,68,80,088,32,78,79,127,19,69,42,318,29,79,32,202,25,1*76
$GLGSV,2,2,07,67,30,128,22,85,13,332,19,84,06,283,,1*40
$GAGSV,3,1,10,09,80,318,33,06,72,095,32,31,46,145,30,04,45,104,30,7*75
$GAGSV,3,2,10,05,26,291,26,34,20,299,23,36,14,248,23,24,10,186,21,7*7E
$GAGSV,3,3,10,15,05,346,20,21,05,030,22,7*75
$GBGSV,2,1,08,32,71,166,39,23,70,087,38,37,46,207,35,20,45,305,37,1*77
$GBGSV,2,2,08,25,21,051,32,41,18,140,30,38,07,333,26,04,01,262,,1*7D
$GNRMC,182941.000,A,4910.426974,N,12304.402896,W,0.02,0.00,051224,,,D,V*1B
$GNVTG,0.00,T,,M,0.02,N,0.04,K,D*20
$GNGGA,182942.000,4910.427034,N,12304.402830,W,2,31,0.50,11.482,M,-16.817,M,,*79
