$GNGGA,004309.000,4910.425132,N,12304.397124,W,2,31,0.51,2.474,M,-16.816,M,,*4A
$GNGLL,4910.425132,N,12304.397124,W,004309.000,A,D*5F
$GNGSA,A,3,06,12,19,24,11,17,03,32,,,,,0.85,0.51,0.68,1*09
$GNGSA,A,3,84,74,75,85,73,66,,,,,,,0.85,0.51,0.68,2*01
$GNGSA,A,3,21,13,15,27,26,04,06,09,,,,,0.85,0.51,0.68,3*0B
$GNGSA,A,3,34,25,11,12,23,43,44,24,39,,,,0.85,0.51,0.68,4*0A
$GPGSV,3,1,10,06,60,109,34,12,57,298,35,19,51,062,34,24,45,225,31,1*63
$GPGSV,3,2,10,11,42,168,31,25,42,301,,46,33,188,31,17,22,064,18,1*60
$GPGSV,3,3,10,03,10,032,24,32,09,318,26,1*66
$GLGSV,2,1,07,84,75,060,21,74,63,135,19,75,58,320,34,85,45,206,29,1*74
$GLGSV,2,2,07,73,17,138,26,83,11,034,,66,10,325,17,1*4C
$GAGSV,3,1,09,21,87,039,33,13,56,133,30,15,37,052,28,27,33,110,26,7*71
$GAGSV,3,2,09,26,20,185,25,04,15,290,25,06,13,315,23,09,08,337,26,7*7A
$GAGSV,3,3,09,19,05,236,18,7*49
$GBGSV,3,1,12,34,80,119,33,25,69,189,33,11,64,203,30,12,55,060,29,1*77
$GBGSV,3,2,12,23,45,301,30,43,41,219,27,44,29,055,29,24,20,146,27,1*7A
$GBGSV,3,3,12,39,10,330,23,19,02,018,18,48,01,354,,16,01,334,,1*78
$GNRMC,004309.000,A,4910.425132,N,12304.397124,W,0.01,40.82,070125,,,D,V*2C
$GNVTG,40.82,T,,M,0.01,N,0.03,K,D*1A
$PAIRLOG,Full*51
$GNGGA,004310.000,4910.425234,N,12304.397274,W,2,31,0.51,2.550,M,-16.816,M,,*46
$GNGLL,4910.425234,N,12304.397274,W,004310.000,A,D*54
$GNGSA,A,3,06,12,19,24,11,17,03,32,,,,,0.85,0.51,0.68,1*09
$GNGSA,A,3,84,74,75,85,73,66,,,,,,,0.85,0.51,0.68,2*01
$GNGSA,A,3,21,13,15,27,26,04,06,09,,,,,0.85,0.51,0.68,3*0B
$GNGSA,A,3,34,25,11,12,23,43,44,24,39,,,,0.85,0.51,0.68,4*0A
$GPGSV,3,1,10,06,60,109,34,12,57,298,36,19,51,062,35,24,45,225,32,1*62
$GPGSV,3,2,10,11,42,168,31,25,42,301,,46,33,188,31,17,22,064,19,1*61
$GPGSV,3,3,10,03,10,032,25,32,09,318,27,1*66
$GLGSV,2,1,07,84,75,060,21,74,63,135,23,75,58,320,34,85,45,206,29,1*7D
$GLGSV,2,2,07,73,17,138,27,83,11,034,,66,10,325,17,1*4D
$GAGSV,3,1,09,21,87,039,33,13,56,133,30,15,37,052,28,27,33,110,26,7*71
$GAGSV,3,2,09,26,20,185,25,04,15,290,25,06,13,315,23,09,08,337,26,7*7A
$GAGSV,3,3,09,19,05,236,18,7*49
$GBGSV,3,1,12,34,80,119,33,25,69,189,33,11,64,203,30,12,55,060,29,1*77
$GBGSV,3,2,12,23,45,301,30,43,41,219,27,44,29,055,29,24,20,146,27,1*7A
$GBGSV,3,3,12,39,10,330,23,19,02,018,18,48,01,354,,16,01,334,,1*78
$GNRMC,004310.000,A,4910.425234,N,12304.397274,W,0.02,40.82,070125,,,D,V*24
$GNVTG,40.82,T,,M,0.02,N,0.04,K,D*1E
$PAIRLOG,Full*51
$GNGGA,004311.000,4910.425342,N,12304.397406,W,2,31,0.51,2.661,M,-16.817,M,,*44
$GNGLL,4910.425342,N,12304.397406,W,004311.000,A,D*56
$GNGSA,A,3,06,12,19,24,11,17,03,32,,,,,0.85,0.51,0.68,1*09
$GNGSA,A,3,84,74,75,85,73,66,,,,,,,0.85,0.51,0.68,2*01
$GNGSA,A,3,21,13,15,27,26,04,06,09,,,,,0.85,0.51,0.68,3*0B
$GNGSA,A,3,34,25,11,12,23,43,44,24,39,,,,0.85,0.51,0.68,4*0A
$GPGSV,3,1,10,06,60,109,34,12,57,298,36,19,51,062,35,24,45,225,32,1*62
$GPGSV,3,2,10,11,42,168,31,25,42,301,,46,33,188,31,17,22,064,19,1*61
$GPGSV,3,3,10,03,10,032,24,32,09,318,27,1*67
$GLGSV,2,1,07,84,75,060,21,74,63,135,20,75,58,320,35,85,45,206,29,1*7F
$GLGSV,2,2,07,73,17,138,27,83,11,034,,66,10,325,17,1*4D
$GAGSV,3,1,09,21,87,039,33,13,56,133,31,15,37,052,28,27,33,110,26,7*70
$GAGSV,3,2,09,26,20,185,25,04,15,290,25,06,13,315,23,09,08,337,26,7*7A
$GAGSV,3,3,09,19,05,236,19,7*48
$GBGSV,3,1,12,34,80,119,33,25,69,189,34,11,64,203,30,12,55,060,29,1*70
$GBGSV,3,2,12,23,45,301,31,43,41,219,27,44,29,055,29,24,20,146,28,1*74
$GBGSV,3,3,12,39,10,330,23,19,02,018,18,48,01,354,,16,01,334,,1*78
$GNRMC,004311.000,A,4910.425342,N,12304.397406,W,0.02,40.82,070125,,,D,V*26
$GNVTG,40.82,T,,M,0.02,N,0.04,K,D*1E
$PAIRLOG,Full*51
$GNGGA,004312.000,4910.425438,N,12304.397526,W,2,31,0.51,2.691,M,-16.816,M,,*40
$GNGLL,4910.425438,N,12304.397526,W,004312.000,A,D*5C
$GNGSA,A,3,06,12,19,24,11,17,03,32,,,,,0.85,0.51,0.68,1*09
$GNGSA,A,3,84,74,75,85,73,66,,,,,,,0.85,0.51,0.68,2*01
$GNGSA,A,3,21,13,15,27,26,04,06,09,,,,,0.85,0.51,0.68,3*0B
$GNGSA,A,3,34,25,11,12,23,43,44,24,39,,,,0.85,0.51,0.68,4*0A
$GPGSV,3,1,10,06,60,109,33,12,57,298,36,19,51,062,35,24,45,225,32,1*65
$GPGSV,3,2,10,11,42,168,31,25,42,301,,46,33,188,31,17,22,064,19,1*61
$GPGSV,3,3,10,03,10,032,24,32,09,318,27,1*67
$GLGSV,2,1,07,84,75,060,21,74,63,135,19,75,58,320,35,85,45,206,29,1*75
$GLGSV,2,2,07,73,17,138,27,83,11,034,,66,10,325,17,1*4D
$GAGSV,3,1,09,21,87,039,33,13,56,133,31,15,37,052,28,27,33,110,26,7*70
$GAGSV,3,2,09,26,20,185,25,04,15,290,25,06,13,315,23,09,08,337,25,7*79
$GAGSV,3,3,09,19,05,236,19,7*48
$GBGSV,3,1,12,34,80,119,33,25,69,189,34,11,64,203,30,12,55,060,29,1*70
$GBGSV,3,2,12,23,45,301,31,43,41,219,27,44,29,055,29,24,20,146,28,1*74
$GBGSV,3,3,12,39,10,330,23,19,02,018,18,48,01,354,,16,01,334,,1*78
$GNRMC,004312.000,A,4910.425438,N,12304.397526,W,0.02,40.82,070125,,,D,V*2C
$GNVTG,40.82,T,,M,0.02,N,0.04,K,D*1E
$PAIRLOG,Full*51
$GNGGA,004313.000,4910.425510,N,12304.397646,W,2,31,0.51,2.725,M,-16.816,M,,*41
$GNGLL,4910.425510,N,12304.397646,W,004313.000,A,D*53
$GNGSA,A,3,06,12,19,24,11,17,03,32,,,,,0.85,0.51,0.68,1*09
$GNGSA,A,3,84,74,75,85,73,66,,,,,,,0.85,0.51,0.68,2*01
$GNGSA,A,3,21,13,15,27,26,04,06,09,,,,,0.85,0.51,0.68,3*0B
$GNGSA,A,3,34,25,11,12,23,43,44,24,39,,,,0.85,0.51,0.68,4*0A
$GPGSV,3,1,10,06,60,109,33,12,57,298,36,19,51,062,35,24,45,225,31,1*66
$GPGSV,3,2,10,11,42,168,31,25,42,301,,46,33,188,31,17,22,064,18,1*60
$GPGSV,3,3,10,03,10,032,23,32,09,318,27,1*60
$GLGSV,2,1,07,84,75,060,21,74,63,135,20,75,58,320,35,85,45,206,29,1*7F
$GLGSV,2,2,07,73,17,138,27,83,11,034,,66,10,325,17,1*4D
$GAGSV,3,1,09,21,87,039,33,13,56,133,31,15,37,052,28,27,33,110,26,7*70
$GAGSV,3,2,09,26,20,185,25,04,15,290,25,06,13,315,23,09,08,337,25,7*79
$GAGSV,3,3,09,19,05,236,19,7*48
$GBGSV,3,1,12,34,80,119,33,25,69,189,34,11,64,203,30,12,55,060,29,1*70
$GBGSV,3,2,12,23,45,301,31,43,41,219,27,44,29,055,29,24,20,146,28,1*74
$GBGSV,3,3,12,39,10,330,23,19,02,018,18,48,01,354,,16,01,334,,1*78
$GNRMC,004313.000,A,4910.425510,N,12304.397646,W,0.02,40.82,070125,,,D,V*23
$GNVTG,40.82,T,,M,0.02,N,0.04,K,D*1E
$PAIRLOG,Full*51
$GNGGA,004314.000,4910.425534,N,12304.397742,W,2,31,0.51,2.776,M,-16.816,M,,*43
$GNGLL,4910.425534,N,12304.397742,W,004314.000,A,D*57
$GNGSA,A,3,06,12,19,24,11,17,03,32,,,,,0.85,0.51,0.68,1*09
$GNGSA,A,3,84,74,75,85,73,66,,,,,,,0.85,0.51,0.68,2*01
$GNGSA,A,3,21,13,15,27,26,04,06,09,,,,,0.85,0.51,0.68,3*0B
$GNGSA,A,3,34,25,11,12,23,43,44,24,39,,,,0.85,0.51,0.68,4*0A
$GPGSV,3,1,10,06,60,109,33,12,57,298,36,19,51,062,35,24,45,225,31,1*66
$GPGSV,3,2,10,11,42,168,31,25,42,301,,46,33,188,31,17,22,064,18,1*60
$GPGSV,3,3,10,03,10,032,24,32,09,318,27,1*67
$GLGSV,2,1,07,84,75,060,21,74,63,135,19,75,58,320,35,85,45,206,29,1*75
$GLGSV,2,2,07,73,17,138,27,83,11,034,,66,10,325,17,1*4D
$GAGSV,3,1,09,21,87,039,33,13,56,133,31,15,37,052,29,27,33,110,26,7*71
$GAGSV,3,2,09,26,20,185,25,04,15,290,25,06,13,315,24,09,08,337,25,7*7E
$GAGSV,3,3,09,19,05,236,18,7*49
$GBGSV,3,1,12,34,80,119,33,25,69,189,34,11,64,203,30,12,55,060,29,1*70
$GBGSV,3,2,12,23,45,301,31,43,41,219,27,44,29,055,29,24,20,146,28,1*74
$GBGSV,3,3,12,39,10,330,23,19,02,018,18,48,01,354,,16,01,334,,1*78
$GNRMC,004314.000,A,4910.425534,N,12304.397742,W,0.02,40.82,070125,,,D,V*27
$GNVTG,40.82,T,,M,0.02,N,0.04,K,D*1E
$PAIRLOG,Full*51
$GNGGA,004315.000,4910.425534,N,12304.397826,W,2,31,0.51,2.826,M,-16.816,M,,*45
$GNGLL,4910.425534,N,12304.397826,W,004315.000,A,D*5B
$GNGSA,A,3,06,12,19,24,11,17,03,32,,,,,0.85,0.51,0.68,1*09
$GNGSA,A,3,84,74,75,85,73,66,,,,,,,0.85,0.51,0.68,2*01
$GNGSA,A,3,21,13,15,27,26,04,06,09,,,,,0.85,0.51,0.68,3*0B
$GNGSA,A,3,34,25,11,12,23,43,44,24,39,,,,0.85,0.51,0.68,4*0A
$GPGSV,3,1,10,06,60,109,33,12,57,298,35,19,51,062,35,24,45,225,31,1*65
$GPGSV,3,2,10,11,42,168,31,25,42,301,,46,33,188,31,17,22,064,18,1*60
$GPGSV,3,3,10,03,10,032,23,32,09,318,24,1*63
$GLGSV,2,1,07,84,75,060,21,74,63,135,20,75,58,320,35,85,45,206,29,1*7F
$GLGSV,2,2,07,73,17,138,27,83,11,034,,66,10,325,18,1*42
$GAGSV,3,1,09,21,87,039,33,13,56,133,31,15,37,052,29,27,33,110,26,7*71
$GAGSV,3,2,09,26,20,185,24,04,15,290,25,06,13,315,23,09,08,337,25,7*78
$GAGSV,3,3,09,19,05,236,18,7*49
$GBGSV,3,1,12,34,80,119,33,25,69,189,33,11,64,203,30,12,55,060,29,1*77
$GBGSV,3,2,12,23,45,301,30,43,41,219,27,44,29,055,29,24,20,146,28,1*75
$GBGSV,3,3,12,39,10,330,22,19,02,018,18,48,01,354,,16,01,334,,1*79
$GNRMC,004315.000,A,4910.425534,N,12304.397826,W,0.02,40.82,070125,,,D,V*2B
$GNVTG,40.82,T,,M,0.02,N,0.03,K,D*19
$PAIRLOG,Full*51
$GNGGA,004316.000,4910.425612,N,12304.397952,W,2,31,0.51,2.922,M,-16.816,M,,*46
$GNGLL,4910.425612,N,12304.397952,W,004316.000,A,D*5D
$GNGSA,A,3,06,12,19,24,11,17,03,32,,,,,0.85,0.51,0.68,1*09
$GNGSA,A,3,84,74,75,85,73,66,,,,,,,0.85,0.51,0.68,2*01
$GNGSA,A,3,21,13,15,27,26,04,06,09,,,,,0.85,0.51,0.68,3*0B
$GNGSA,A,3,34,25,11,12,23,43,44,24,39,,,,0.85,0.51,0.68,4*0A
$GPGSV,3,1,10,06,60,109,33,12,57,298,35,19,51,062,35,24,45,225,31,1*65
$GPGSV,3,2,10,11,42,168,31,25,42,301,,46,33,188,31,17,22,064,18,1*60
$GPGSV,3,3,10,03,10,032,23,32,09,318,25,1*62
$GLGSV,2,1,07,84,75,060,21,74,63,135,21,75,58,320,35,85,45,206,29,1*7E
$GLGSV,2,2,07,73,17,138,27,83,11,034,,66,10,325,19,1*43
$GAGSV,3,1,09,21,87,039,33,13,56,133,31,15,37,052,29,27,33,110,26,7*71
$GAGSV,3,2,09,26,20,185,24,04,15,290,25,06,13,315,23,09,08,337,25,7*78
$GAGSV,3,3,09,19,05,236,18,7*49
$GBGSV,3,1,12,34,80,119,33,25,69,189,33,11,64,203,30,12,55,060,29,1*77
$GBGSV,3,2,12,23,45,301,30,43,41,219,27,44,29,055,29,24,20,146,28,1*75
$GBGSV,3,3,12,39,10,330,22,19,02,018,18,48,01,354,,16,01,334,,1*79
$GNRMC,004316.000,A,4910.425612,N,12304.397952,W,0.02,40.82,070125,,,D,V*2D
$GNVTG,40.82,T,,M,0.02,N,0.03,K,D*19
$PAIRLOG,Full*51
$GNGGA,004317.000,4910.425624,N,12304.398066,W,2,31,0.51,3.005,M,-16.816,M,,*4E
$GNGLL,4910.425624,N,12304.398066,W,004317.000,A,D*58
$GNGSA,A,3,06,12,19,24,11,17,03,32,,,,,0.85,0.51,0.68,1*09
$GNGSA,A,3,84,74,75,85,73,66,,,,,,,0.85,0.51,0.68,2*01
$GNGSA,A,3,21,13,15,27,26,04,06,09,,,,,0.85,0.51,0.68,3*0B
$GNGSA,A,3,34,25,11,12,23,43,44,24,39,,,,0.85,0.51,0.68,4*0A
$GPGSV,3,1,10,06,60,109,33,12,57,298,35,19,51,062,35,24,45,225,31,1*65
$GPGSV,3,2,10,11,42,168,31,25,42,301,,46,33,188,31,17,22,064,18,1*60
$GPGSV,3,3,10,03,10,032,22,32,09,318,26,1*60
$GLGSV,2,1,07,84,75,060,20,74,63,135,22,75,58,320,35,85,45,206,29,1*7C
$GLGSV,2,2,07,73,17,138,26,83,11,034,,66,10,325,18,1*43
$GAGSV,3,1,09,21,87,039,33,13,56,133,31,15,37,052,29,27,33,110,26,7*71
$GAGSV,3,2,09,26,20,185,24,04,15,290,25,06,13,315,24,09,08,337,25,7*7F
$GAGSV,3,3,09,19,05,236,18,7*49
$GBGSV,3,1,12,34,80,119,33,25,69,189,33,11,64,203,30,12,55,060,29,1*77
$GBGSV,3,2,12,23,45,301,30,43,41,219,27,44,29,055,29,24,20,146,28,1*75
$GBGSV,3,3,12,39,10,330,22,19,02,018,18,48,01,354,,16,01,334,,1*79
$GNRMC,004317.000,A,4910.425624,N,12304.398066,W,0.01,40.82,070125,,,D,V*2B
$GNVTG,40.82,T,,M,0.01,N,0.02,K,D*1B
$PAIRLOG,Full*51
$GNGGA,004318.000,4910.425690,N,12304.398066,W,2,31,0.51,3.133,M,-16.816,M,,*4A
$GNGLL,4910.425690,N,12304.398066,W,004318.000,A,D*58
$GNGSA,A,3,06,12,19,24,11,17,03,32,,,,,0.85,0.51,0.68,1*09
$GNGSA,A,3,84,74,75,85,73,66,,,,,,,0.85,0.51,0.68,2*01
$GNGSA,A,3,21,13,15,27,26,04,06,09,,,,,0.85,0.51,0.68,3*0B
$GNGSA,A,3,34,25,11,12,23,43,44,24,39,,,,0.85,0.51,0.68,4*0A
$GPGSV,3,1,10,06,60,109,33,12,57,298,35,19,51,062,34,24,45,225,31,1*64
$GPGSV,3,2,10,11,42,168,31,25,42,301,,46,33,188,31,17,22,064,18,1*60
$GPGSV,3,3,10,03,10,032,21,32,09,318,24,1*61
$GLGSV,2,1,07,84,75,060,20,74,63,135,22,75,58,320,35,85,45,206,30,1*74
$GLGSV,2,2,07,73,17,138,26,83,11,034,,66,10,325,18,1*43
$GAGSV,3,1,09,21,87,039,33,13,56,133,31,15,37,052,29,27,33,110,26,7*71
$GAGSV,3,2,09,26,20,185,24,04,15,289,25,06,13,315,24,09,08,337,25,7*77
$GAGSV,3,3,09,19,05,236,18,7*49
$GBGSV,3,1,12,34,80,119,34,25,69,189,34,11,64,203,31,12,55,060,29,1*76
$GBGSV,3,2,12,23,45,301,31,43,41,219,28,44,29,055,29,24,20,146,28,1*7B
$GBGSV,3,3,12,39,10,330,23,19,02,018,18,48,01,354,,16,01,334,,1*78
$GNRMC,004318.000,A,4910.425690,N,12304.398066,W,0.01,40.82,070125,,,D,V*2B
$GNVTG,40.82,T,,M,0.01,N,0.02,K,D*1B
$PAIRLOG,Full*51
$GNGGA,004319.000,4910.425756,N,12304.398102,W,2,31,0.51,3.246,M,-16.816,M,,*42
$GNGLL,4910.425756,N,12304.398102,W,004319.000,A,D*51
$GNGSA,A,3,06,12,19,24,11,17,03,32,,,,,0.85,0.51,0.68,1*09
$GNGSA,A,3,84,74,75,85,73,66,,,,,,,0.85,0.51,0.68,2*01
$GNGSA,A,3,21,13,15,27,26,04,06,09,,,,,0.85,0.51,0.68,3*0B
$GNGSA,A,3,34,25,11,12,23,43,44,24,39,,,,0.85,0.51,0.68,4*0A
$GPGSV,3,1,10,06,60,109,32,12,57,298,34,19,51,062,33,24,45,225,30,1*62
$GPGSV,3,2,10,11,42,168,30,25,42,301,,46,33,188,30,17,22,064,18,1*60
$GPGSV,3,3,10,03,10,032,21,32,09,318,23,1*66
$GLGSV,2,1,07,84,75,060,20,74,63,135,22,75,58,320,35,85,45,206,30,1*74
$GLGSV,2,2,07,73,17,138,27,83,11,034,,66,10,325,18,1*42
$GAGSV,3,1,09,21,87,039,32,13,56,133,30,15,37,052,28,27,33,110,25,7*73
$GAGSV,3,2,09,26,20,185,24,04,15,289,25,06,13,315,24,09,08,337,24,7*76
$GAGSV,3,3,09,19,05,236,18,7*49
$GBGSV,3,1,12,34,80,119,34,25,69,189,34,11,64,203,31,12,55,060,29,1*76
$GBGSV,3,2,12,23,45,301,31,43,41,219,28,44,29,055,29,24,20,146,28,1*7B
$GBGSV,3,3,12,39,10,330,23,19,02,018,18,48,01,354,,16,01,334,,1*78
$GNRMC,004319.000,A,4910.425756,N,12304.398102,W,0.01,40.82,070125,,,D,V*22
$GNVTG,40.82,T,,M,0.01,N,0.02,K,D*1B
$PAIRLOG,Full*51
$GNGGA,004320.000,4910.425810,N,12304.398108,W,2,31,0.51,3.348,M,-16.817,M,,*41
$GNGLL,4910.425810,N,12304.398108,W,004320.000,A,D*5C
$GNGSA,A,3,06,12,19,24,11,17,03,32,,,,,0.85,0.51,0.68,1*09
$GNGSA,A,3,84,74,75,85,73,66,,,,,,,0.85,0.51,0.68,2*01
$GNGSA,A,3,21,13,15,27,26,04,06,09,,,,,0.85,0.51,0.68,3*0B
$GNGSA,A,3,34,25,11,12,23,43,44,24,39,,,,0.85,0.51,0.68,4*0A
$GPGSV,3,1,10,06,60,109,32,12,57,298,34,19,51,062,33,24,45,225,30,1*62
$GPGSV,3,2,10,11,42,168,29,25,42,301,,46,33,188,30,17,22,064,18,1*68
$GPGSV,3,3,10,03,10,032,21,32,09,318,22,1*67
$GLGSV,2,1,07,84,75,060,20,74,63,135,22,75,58,320,34,85,45,206,30,1*75
$GLGSV,2,2,07,73,17,138,27,83,11,034,,66,10,325,18,1*42
$GAGSV,3,1,09,21,87,039,32,13,56,133,29,15,37,052,28,27,33,110,24,7*7A
$GAGSV,3,2,09,26,20,185,23,04,15,289,24,06,13,314,23,09,08,337,23,7*71
$GAGSV,3,3,09,19,05,236,17,7*46
$GBGSV,3,1,12,34,80,119,34,25,69,189,34,11,64,203,31,12,55,060,29,1*76
$GBGSV,3,2,12,23,45,301,31,43,41,219,28,44,29,055,29,24,20,146,28,1*7B
$GBGSV,3,3,12,39,10,330,23,19,02,018,18,48,01,354,,16,01,334,,1*78
$GNRMC,004320.000,A,4910.425810,N,12304.398108,W,0.01,40.82,070125,,,D,V*2F
$GNVTG,40.82,T,,M,0.01,N,0.01,K,D*18
$PAIRLOG,Full*51
$GNGGA,004321.000,4910.425906,N,12304.398126,W,2,31,0.51,3.393,M,-16.816,M,,*4D
$GNGLL,4910.425906,N,12304.398126,W,004321.000,A,D*57
$GNGSA,A,3,06,12,19,24,11,17,03,32,,,,,0.85,0.51,0.68,1*09
$GNGSA,A,3,84,74,75,85,73,66,,,,,,,0.85,0.51,0.68,2*01
$GNGSA,A,3,21,13,15,27,26,04,06,09,,,,,0.85,0.51,0.68,3*0B
$GNGSA,A,3,34,25,11,12,23,43,44,24,39,,,,0.85,0.51,0.68,4*0A
$GPGSV,3,1,10,06,60,109,32,12,57,298,34,19,51,062,32,24,45,225,30,1*63
$GPGSV,3,2,10,11,42,168,29,25,42,301,,46,33,188,30,17,22,064,18,1*68
$GPGSV,3,3,10,03,10,032,20,32,09,318,22,1*66
$GLGSV,2,1,07,84,75,060,20,74,63,135,22,75,58,320,35,85,45,206,30,1*74
$GLGSV,2,2,07,73,17,138,27,83,11,034,,66,10,325,18,1*42
$GAGSV,3,1,09,21,87,039,31,13,56,133,29,15,37,052,27,27,33,110,24,7*76
$GAGSV,3,2,09,26,20,185,22,04,15,289,24,06,13,314,23,09,08,337,23,7*70
$GAGSV,3,3,09,19,05,236,17,7*46
$GBGSV,3,1,12,34,80,119,34,25,69,189,33,11,64,203,30,12,55,060,29,1*70
$GBGSV,3,2,12,23,45,301,31,43,41,219,28,44,29,055,28,24,20,146,27,1*75
$GBGSV,3,3,12,39,10,330,22,19,02,018,17,48,01,354,,16,01,334,,1*76
$GNRMC,004321.000,A,4910.425906,N,12304.398126,W,0.01,40.82,070125,,,D,V*24
$GNVTG,40.82,T,,M,0.01,N,0.02,K,D*1B
$PAIRLOG,Full*51
$GNGGA,004322.000,4910.425924,N,12304.398138,W,2,31,0.51,3.447,M,-16.816,M,,*4F
$GNGLL,4910.425924,N,12304.398138,W,004322.000,A,D*5B
$GNGSA,A,3,06,12,19,24,11,17,03,32,,,,,0.85,0.51,0.68,1*09
$GNGSA,A,3,84,74,75,85,73,66,,,,,,,0.85,0.51,0.68,2*01
$GNGSA,A,3,21,13,15,27,26,04,06,09,,,,,0.85,0.51,0.68,3*0B
$GNGSA,A,3,34,25,11,12,23,43,44,24,39,,,,0.85,0.51,0.68,4*0A
$GPGSV,3,1,10,06,60,109,31,12,57,298,33,19,51,062,32,24,45,225,30,1*67
$GPGSV,3,2,10,11,42,168,29,25,42,301,,46,33,188,29,17,22,064,18,1*60
$GPGSV,3,3,10,03,10,032,19,32,09,318,22,1*6C
$GLGSV,2,1,07,84,75,060,20,74,63,135,22,75,58,320,35,85,45,206,30,1*74
$GLGSV,2,2,07,73,17,138,27,83,11,034,,66,10,325,18,1*42
$GAGSV,3,1,09,21,87,039,30,13,56,133,28,15,37,052,27,27,33,110,24,7*76
$GAGSV,3,2,09,26,20,185,21,04,15,289,24,06,13,314,22,09,08,337,22,7*73
$GAGSV,3,3,09,19,05,236,16,7*47
$GBGSV,3,1,12,34,80,119,33,25,69,189,33,11,64,203,30,12,55,060,29,1*77
$GBGSV,3,2,12,23,45,301,30,43,41,219,28,44,29,055,28,24,20,146,27,1*74
$GBGSV,3,3,12,39,10,330,21,19,02,018,17,48,01,354,,16,01,334,,1*75
$GNRMC,004322.000,A,4910.425924,N,12304.398138,W,0.01,40.82,070125,,,D,V*28
$GNVTG,40.82,T,,M,0.01,N,0.02,K,D*1B
$PAIRLOG,Full*51
$GNGGA,004323.000,4910.425930,N,12304.398084,W,2,31,0.51,3.503,M,-16.816,M,,*4C
$GNGLL,4910.425930,N,12304.398084,W,004323.000,A,D*59
$GNGSA,A,3,06,12,19,24,11,17,03,32,,,,,0.85,0.51,0.68,1*09
$GNGSA,A,3,84,74,75,85,73,66,,,,,,,0.85,0.51,0.68,2*01
$GNGSA,A,3,21,13,15,27,26,04,06,09,,,,,0.85,0.51,0.68,3*0B
$GNGSA,A,3,34,25,11,12,23,43,44,24,39,,,,0.85,0.51,0.68,4*0A
$GPGSV,3,1,10,06,60,109,31,12,57,298,33,19,51,062,32,24,45,225,29,1*6F
$GPGSV,3,2,10,11,42,168,29,25,42,301,,46,33,188,29,17,22,064,18,1*60
$GPGSV,3,3,10,03,10,032,19,32,09,318,22,1*6C
$GLGSV,2,1,07,84,75,060,20,74,63,135,22,75,58,320,34,85,45,206,30,1*75
$GLGSV,2,2,07,73,17,138,27,83,11,034,,66,10,325,18,1*42
$GAGSV,3,1,09,21,87,039,30,13,56,133,28,15,37,052,27,27,33,110,24,7*76
$GAGSV,3,2,09,26,20,185,21,04,15,289,24,06,13,314,22,09,08,336,22,7*72
$GAGSV,3,3,09,19,05,236,16,7*47
$GBGSV,3,1,12,34,80,119,32,25,69,189,32,11,64,203,29,12,55,060,29,1*7F
$GBGSV,3,2,12,23,45,301,30,43,41,219,27,44,29,055,28,24,20,146,26,1*7A
$GBGSV,3,3,12,39,10,330,21,19,02,018,17,48,01,354,,16,01,334,,1*75
$GNRMC,004323.000,A,4910.425930,N,12304.398084,W,0.01,40.82,070125,,,D,V*2A
$GNVTG,40.82,T,,M,0.01,N,0.02,K,D*1B
$PAIRLOG,Full*51
$GNGGA,004324.000,4910.425972,N,12304.398030,W,2,31,0.51,3.518,M,-16.817,M,,*49
$GNGLL,4910.425972,N,12304.398030,W,004324.000,A,D*57
$GNGSA,A,3,06,12,19,24,11,17,03,32,,,,,0.85,0.51,0.68,1*09
$GNGSA,A,3,84,74,75,85,73,66,,,,,,,0.85,0.51,0.68,2*01
$GNGSA,A,3,21,13,15,27,26,04,06,09,,,,,0.85,0.51,0.68,3*0B
$GNGSA,A,3,34,25,11,12,23,43,44,24,39,,,,0.85,0.51,0.68,4*0A
$GPGSV,3,1,10,06,60,109,30,12,57,298,32,19,51,062,31,24,45,225,28,1*6D
$GPGSV,3,2,10,11,42,168,28,25,42,301,,46,33,188,29,17,22,064,18,1*61
$GPGSV,3,3,10,03,10,032,19,32,09,318,20,1*6E
$GLGSV,2,1,07,84,75,060,20,74,63,135,21,75,58,320,34,85,45,206,30,1*76
$GLGSV,2,2,07,73,17,138,27,83,11,034,,66,10,325,18,1*42
$GAGSV,3,1,09,21,87,039,30,13,56,133,28,15,37,052,27,27,33,110,23,7*71
$GAGSV,3,2,09,26,20,185,21,04,15,289,24,06,13,314,22,09,08,336,21,7*71
$GAGSV,3,3,09,19,05,236,16,7*47
$GBGSV,3,1,12,34,80,119,32,25,69,189,32,11,64,203,29,12,55,060,29,1*7F
$GBGSV,3,2,12,23,45,301,30,43,41,219,27,44,29,055,28,24,20,146,26,1*7A
$GBGSV,3,3,12,39,10,330,21,19,02,018,17,48,01,354,,16,01,334,,1*75
$GNRMC,004324.000,A,4910.425972,N,12304.398030,W,0.01,40.82,070125,,,D,V*24
$GNVTG,40.82,T,,M,0.01,N,0.02,K,D*1B
$PAIRLOG,Full*51
$GNGGA,004325.000,4910.426014,N,12304.397928,W,2,31,0.51,3.572,M,-16.816,M,,*40
$GNGLL,4910.426014,N,12304.397928,W,004325.000,A,D*53
$GNGSA,A,3,06,12,19,24,11,17,03,32,,,,,0.85,0.51,0.68,1*09
$GNGSA,A,3,84,74,75,85,73,66,,,,,,,0.85,0.51,0.68,2*01
$GNGSA,A,3,21,13,15,27,26,04,06,09,,,,,0.85,0.51,0.68,3*0B
$GNGSA,A,3,34,25,11,12,23,43,44,24,39,,,,0.85,0.51,0.68,4*0A
$GPGSV,3,1,10,06,60,109,30,12,57,298,32,19,51,062,31,24,45,225,28,1*6D
$GPGSV,3,2,10,11,42,168,28,25,42,301,,46,33,188,29,17,22,064,18,1*61
$GPGSV,3,3,10,03,10,032,19,32,09,318,22,1*6C
$GLGSV,2,1,07,84,75,060,20,74,63,135,21,75,58,320,34,85,45,206,30,1*76
$GLGSV,2,2,07,73,17,138,27,83,11,034,,66,10,325,18,1*42
$GAGSV,3,1,09,21,87,039,30,13,56,133,28,15,37,052,27,27,33,110,23,7*71
$GAGSV,3,2,09,26,20,185,21,04,15,289,24,06,13,314,22,09,08,336,21,7*71
$GAGSV,3,3,09,19,05,236,16,7*47
$GBGSV,3,1,12,34,80,119,31,25,69,189,31,11,64,203,29,12,55,060,28,1*7E
$GBGSV,3,2,12,23,45,301,29,43,41,219,27,44,29,055,28,24,20,146,26,1*72
$GBGSV,3,3,12,39,10,330,21,19,02,018,17,48,01,354,,16,01,334,,1*75
$GNRMC,004325.000,A,4910.426014,N,12304.397928,W,0.01,40.82,070125,,,D,V*20
$GNVTG,40.82,T,,M,0.01,N,0.03,K,D*1A
$PAIRLOG,Full*51
$GNGGA,004326.000,4910.426068,N,12304.397856,W,2,31,0.51,3.712,M,-16.816,M,,*44
$GNGLL,4910.426068,N,12304.397856,W,004326.000,A,D*53
$GNGSA,A,3,06,12,19,24,11,17,03,32,,,,,0.85,0.51,0.68,1*09
$GNGSA,A,3,84,74,75,85,73,66,,,,,,,0.85,0.51,0.68,2*01
$GNGSA,A,3,21,13,15,27,26,04,06,09,,,,,0.85,0.51,0.68,3*0B
$GNGSA,A,3,34,25,11,12,23,43,44,24,39,,,,0.85,0.51,0.68,4*0A
$GPGSV,3,1,10,06,60,109,30,12,57,298,31,19,51,062,30,24,45,225,27,1*60
$GPGSV,3,2,10,11,42,168,28,25,42,301,,46,33,188,28,17,22,064,18,1*60
$GPGSV,3,3,10,03,10,032,18,32,09,318,22,1*6D
$GLGSV,2,1,07,84,75,060,21,74,63,135,21,75,58,320,34,85,45,206,30,1*77
$GLGSV,2,2,07,73,17,138,27,83,11,034,,66,10,325,18,1*42
$GAGSV,3,1,09,21,87,039,30,13,56,133,28,15,37,052,27,27,33,110,23,7*71
$GAGSV,3,2,09,26,20,185,21,04,15,289,24,06,13,314,22,09,08,336,21,7*71
$GAGSV,3,3,09,19,05,236,16,7*47
$GBGSV,3,1,12,34,80,119,31,25,69,189,31,11,64,203,29,12,55,060,28,1*7E
$GBGSV,3,2,12,23,45,301,29,43,41,219,27,44,29,055,28,24,20,146,26,1*72
$GBGSV,3,3,12,39,10,330,20,19,02,018,17,48,01,354,,16,01,334,,1*74
$GNRMC,004326.000,A,4910.426068,N,12304.397856,W,0.02,40.82,070125,,,D,V*23
$GNVTG,40.82,T,,M,0.02,N,0.04,K,D*1E
$PAIRLOG,Full*51
$GNGGA,004327.000,4910.426152,N,12304.397916,W,2,31,0.51,3.846,M,-16.816,M,,*46
$GNGLL,4910.426152,N,12304.397916,W,004327.000,A,D*5F
$GNGSA,A,3,06,12,19,24,11,17,03,32,,,,,0.85,0.51,0.68,1*09
$GNGSA,A,3,84,74,75,85,73,66,,,,,,,0.85,0.51,0.68,2*01
$GNGSA,A,3,21,13,15,27,26,04,06,09,,,,,0.85,0.51,0.68,3*0B
$GNGSA,A,3,34,25,11,12,23,43,44,24,39,,,,0.85,0.51,0.68,4*0A
$GPGSV,3,1,10,06,60,109,31,12,57,298,32,19,51,062,30,24,45,225,27,1*62
$GPGSV,3,2,10,11,42,168,28,25,42,301,,46,33,188,28,17,22,064,17,1*6F
$GPGSV,3,3,10,03,10,032,18,32,09,318,22,1*6D
$GLGSV,2,1,07,84,75,060,21,74,63,135,21,75,58,320,34,85,45,206,29,1*7F
$GLGSV,2,2,07,73,17,138,27,83,11,034,,66,10,325,18,1*42
$GAGSV,3,1,09,21,87,039,30,13,57,131,28,15,37,052,27,27,33,110,23,7*72
$GAGSV,3,2,09,26,20,185,21,04,15,289,24,06,13,314,22,09,08,336,21,7*71
$GAGSV,3,3,09,19,05,236,16,7*47
$GBGSV,3,1,12,34,80,119,32,25,69,189,32,11,64,203,29,12,55,060,29,1*7F
$GBGSV,3,2,12,23,45,301,29,43,41,219,28,44,29,055,28,24,20,146,26,1*7D
$GBGSV,3,3,12,39,10,330,21,19,02,018,17,48,01,354,,16,01,334,,1*75
$GNRMC,004327.000,A,4910.426152,N,12304.397916,W,0.02,40.82,070125,,,D,V*2F
$GNVTG,40.82,T,,M,0.02,N,0.03,K,D*19
$PAIRLOG,Full*51
$GNGGA,004328.000,4910.426074,N,12304.397856,W,2,31,0.51,3.713,M,-16.817,M,,*47
$GNGLL,4910.426074,N,12304.397856,W,004328.000,A,D*50
$GNGSA,A,3,06,12,19,24,11,17,03,32,,,,,0.85,0.51,0.68,1*09
$GNGSA,A,3,84,74,75,85,73,66,,,,,,,0.85,0.51,0.68,2*01
$GNGSA,A,3,21,13,15,27,26,04,06,09,,,,,0.85,0.51,0.68,3*0B
$GNGSA,A,3,34,25,11,12,23,43,44,24,39,,,,0.85,0.51,0.68,4*0A
$GPGSV,3,1,10,06,60,109,31,12,57,298,32,19,51,062,30,24,45,225,27,1*62
$GPGSV,3,2,10,11,42,168,28,25,42,301,,46,33,188,28,17,22,064,17,1*6F
$GPGSV,3,3,10,03,10,032,18,32,09,318,22,1*6D
$GLGSV,2,1,07,84,75,060,21,74,63,135,21,75,58,320,34,85,45,206,30,1*77
$GLGSV,2,2,07,73,17,138,28,83,11,034,,66,10,325,18,1*4D
$GAGSV,3,1,09,21,87,039,30,13,57,131,28,15,37,052,27,27,33,110,23,7*72
$GAGSV,3,2,09,26,20,185,21,04,15,289,24,06,13,314,22,09,08,336,21,7*71
$GAGSV,3,3,09,19,05,236,17,7*46
$GBGSV,3,1,12,34,80,119,32,25,69,189,32,11,64,203,29,12,55,060,29,1*7F
$GBGSV,3,2,12,23,45,301,29,43,41,219,27,44,29,055,28,24,20,146,26,1*72
$GBGSV,3,3,12,39,10,330,21,19,02,018,17,48,01,354,,16,01,334,,1*75
$GNRMC,004328.000,A,4910.426074,N,12304.397856,W,0.02,40.82,070125,,,D,V*20
$GNVTG,40.82,T,,M,0.02,N,0.03,K,D*19
$PAIRLOG,Full*51
$GNGGA,004329.000,4910.426140,N,12304.397910,W,2,31,0.51,3.815,M,-16.817,M,,*4A
$GNGLL,4910.426140,N,12304.397910,W,004329.000,A,D*54
$GNGSA,A,3,06,12,19,24,11,17,03,32,,,,,0.85,0.51,0.68,1*09
$GNGSA,A,3,84,74,75,85,73,66,,,,,,,0.85,0.51,0.68,2*01
$GNGSA,A,3,21,13,15,27,26,04,06,09,,,,,0.85,0.51,0.68,3*0B
$GNGSA,A,3,34,25,11,12,23,43,44,24,39,,,,0.85,0.51,0.68,4*0A
$GPGSV,3,1,10,06,60,109,32,12,57,298,32,19,51,062,30,24,45,225,27,1*61
$GPGSV,3,2,10,11,42,168,29,25,42,301,,46,33,188,28,17,22,064,17,1*6E
$GPGSV,3,3,10,03,10,032,18,32,09,318,22,1*6D
$GLGSV,2,1,07,84,75,060,21,74,63,135,20,75,58,320,34,85,45,206,30,1*76
$GLGSV,2,2,07,73,17,138,28,83,11,034,,66,10,325,18,1*4D
$GAGSV,3,1,09,21,87,039,31,13,57,131,28,15,36,051,27,27,33,110,23,7*71
$GAGSV,3,2,09,26,20,185,21,04,15,289,24,06,13,314,22,09,08,336,21,7*71
$GAGSV,3,3,09,19,05,236,17,7*46
$GBGSV,3,1,12,34,80,119,32,25,69,189,33,11,64,203,29,12,55,060,29,1*7E
$GBGSV,3,2,12,23,45,301,30,43,41,219,27,44,29,055,28,24,20,146,26,1*7A
$GBGSV,3,3,12,39,10,330,21,19,02,018,17,48,01,354,,16,01,334,,1*75
$GNRMC,004329.000,A,4910.426140,N,12304.397910,W,0.47,40.82,070125,,,D,V*25
$GNVTG,40.82,T,,M,0.47,N,0.87,K,D*14
$PAIRLOG,Full*51
$GNGGA,004330.000,4910.426122,N,12304.397880,W,2,31,0.51,3.804,M,-16.816,M,,*4F
$GNGLL,4910.426122,N,12304.397880,W,004330.000,A,D*50
$GNGSA,A,3,06,12,19,24,11,17,03,32,,,,,0.85,0.51,0.68,1*09
$GNGSA,A,3,84,74,75,85,73,66,,,,,,,0.85,0.51,0.68,2*01
$GNGSA,A,3,21,13,15,27,26,04,06,09,,,,,0.85,0.51,0.68,3*0B
$GNGSA,A,3,34,25,11,12,23,43,44,24,39,,,,0.85,0.51,0.68,4*0A
$GPGSV,3,1,10,06,60,109,32,12,57,298,32,19,51,062,30,24,45,225,27,1*61
$GPGSV,3,2,10,11,42,168,29,25,42,301,,46,33,188,28,17,22,064,16,1*6F
$GPGSV,3,3,10,03,10,032,18,32,09,318,22,1*6D
$GLGSV,2,1,07,84,75,060,21,74,63,135,20,75,58,320,34,85,45,206,30,1*76
$GLGSV,2,2,07,73,17,138,28,83,11,034,,66,10,325,18,1*4D
$GAGSV,3,1,09,21,87,039,31,13,57,131,28,15,36,051,27,27,33,110,23,7*71
$GAGSV,3,2,09,26,20,185,22,04,15,289,24,06,13,314,22,09,08,336,21,7*72
$GAGSV,3,3,09,19,05,236,17,7*46
$GBGSV,3,1,12,34,80,119,32,25,69,189,33,11,64,203,29,12,55,060,29,1*7E
$GBGSV,3,2,12,23,45,301,30,43,41,219,27,44,29,055,27,24,20,146,26,1*75
$GBGSV,3,3,12,39,10,330,22,19,02,018,17,48,01,354,,16,01,334,,1*76
$GNRMC,004330.000,A,4910.426122,N,12304.397880,W,0.11,40.82,070125,,,D,V*22
$GNVTG,40.82,T,,M,0.11,N,0.20,K,D*1A
$PAIRLOG,Full*51
$GNGGA,004331.000,4910.426134,N,12304.397862,W,2,31,0.51,3.773,M,-16.816,M,,*4A
$GNGLL,4910.426134,N,12304.397862,W,004331.000,A,D*5A
$GNGSA,A,3,06,12,19,24,11,17,03,32,,,,,0.85,0.51,0.68,1*09
$GNGSA,A,3,84,74,75,85,73,66,,,,,,,0.85,0.51,0.68,2*01
$GNGSA,A,3,21,13,15,27,26,04,06,09,,,,,0.85,0.51,0.68,3*0B
$GNGSA,A,3,34,25,11,12,23,43,44,24,39,,,,0.85,0.51,0.68,4*0A
$GPGSV,3,1,10,06,60,109,33,12,57,298,33,19,51,062,31,24,45,225,28,1*6F
$GPGSV,3,2,10,11,42,168,29,25,42,301,,46,33,188,29,17,22,064,18,1*60
$GPGSV,3,3,10,03,10,032,19,32,09,318,23,1*6D
$GLGSV,2,1,07,84,75,060,21,74,63,135,20,75,58,320,34,85,45,206,30,1*76
$GLGSV,2,2,07,73,17,138,28,83,11,034,,66,10,325,18,1*4D
$GAGSV,3,1,09,21,87,039,32,13,57,131,29,15,36,051,28,27,33,110,24,7*7B
$GAGSV,3,2,09,26,20,185,23,04,15,289,25,06,13,314,23,09,08,336,22,7*70
$GAGSV,3,3,09,19,05,236,17,7*46
$GBGSV,3,1,12,34,80,119,32,25,69,189,33,11,64,203,29,12,55,060,29,1*7E
$GBGSV,3,2,12,23,45,301,30,43,41,219,27,44,29,055,27,24,20,146,26,1*75
$GBGSV,3,3,12,39,10,330,21,19,02,018,17,48,01,354,,16,01,334,,1*75
$GNRMC,004331.000,A,4910.426134,N,12304.397862,W,0.11,40.82,070125,,,D,V*28
$GNVTG,40.82,T,,M,0.11,N,0.21,K,D*1B
$PAIRLOG,Full*51
$GNGGA,004332.000,4910.426146,N,12304.397946,W,2,31,0.51,3.777,M,-16.816,M,,*4F
$GNGLL,4910.426146,N,12304.397946,W,004332.000,A,D*5B
$GNGSA,A,3,06,12,19,24,11,17,03,32,,,,,0.85,0.51,0.68,1*09
$GNGSA,A,3,84,74,75,85,73,66,,,,,,,0.85,0.51,0.68,2*01
$GNGSA,A,3,21,13,15,27,26,04,06,09,,,,,0.85,0.51,0.68,3*0B
$GNGSA,A,3,34,25,11,12,23,43,44,24,39,,,,0.85,0.51,0.68,4*0A
$GPGSV,3,1,10,06,60,109,34,12,57,298,33,19,51,062,32,24,45,225,29,1*6A
$GPGSV,3,2,10,11,42,168,30,25,42,301,,46,33,188,29,17,22,064,20,1*63
$GPGSV,3,3,10,03,10,032,20,32,09,318,24,1*60
$GLGSV,2,1,07,84,75,060,21,74,63,135,20,75,58,320,34,85,45,206,30,1*76
$GLGSV,2,2,07,73,17,138,28,83,11,034,,66,10,325,18,1*4D
$GAGSV,3,1,09,21,87,039,32,13,57,131,29,15,36,051,28,27,33,110,24,7*7B
$GAGSV,3,2,09,26,20,185,24,04,15,289,25,06,13,314,24,09,08,336,22,7*70
$GAGSV,3,3,09,19,05,236,18,7*49
$GBGSV,3,1,12,34,80,119,33,25,69,189,34,11,64,203,29,12,55,060,29,1*78
$GBGSV,3,2,12,23,45,301,31,43,41,219,27,44,29,055,27,24,20,146,26,1*74
$GBGSV,3,3,12,39,10,330,21,19,02,018,17,48,01,354,,16,01,334,,1*75
$GNRMC,004332.000,A,4910.426146,N,12304.397946,W,0.08,40.82,070125,,,D,V*21
$GNVTG,40.82,T,,M,0.08,N,0.14,K,D*15
$PAIRLOG,Full*51
$GNGGA,004333.000,4910.426110,N,12304.398048,W,2,31,0.51,3.743,M,-16.816,M,,*42
$GNGLL,4910.426110,N,12304.398048,W,004333.000,A,D*51
$GNGSA,A,3,06,12,19,24,11,17,03,32,,,,,0.85,0.51,0.68,1*09
$GNGSA,A,3,84,74,75,85,73,66,,,,,,,0.85,0.51,0.68,2*01
$GNGSA,A,3,21,13,15,27,26,04,06,09,,,,,0.85,0.51,0.68,3*0B
$GNGSA,A,3,34,25,11,12,23,43,44,24,39,,,,0.85,0.51,0.68,4*0A
$GPGSV,3,1,10,06,60,109,34,12,57,298,33,19,51,062,32,24,45,225,30,1*62
$GPGSV,3,2,10,11,42,168,30,25,42,301,,46,33,188,30,17,22,064,20,1*6B
$GPGSV,3,3,10,03,10,032,21,32,09,318,24,1*61
$GLGSV,2,1,07,84,75,060,21,74,63,135,20,75,58,320,34,85,45,206,29,1*7E
$GLGSV,2,2,07,73,17,138,27,83,11,034,,66,10,325,18,1*42
$GAGSV,3,1,09,21,87,039,32,13,57,131,29,15,36,051,28,27,33,110,25,7*7A
$GAGSV,3,2,09,26,20,185,24,04,15,289,26,06,13,314,24,09,08,336,23,7*72
$GAGSV,3,3,09,19,04,236,18,7*48
$GBGSV,3,1,12,34,80,119,32,25,69,189,33,11,64,203,28,12,55,060,29,1*7F
$GBGSV,3,2,12,23,45,301,30,43,41,219,27,44,29,055,26,24,20,146,26,1*74
$GBGSV,3,3,12,39,10,330,21,19,02,018,17,48,01,354,,16,01,334,,1*75
$GNRMC,004333.000,A,4910.426110,N,12304.398048,W,0.06,40.82,070125,,,D,V*25
$GNVTG,40.82,T,,M,0.06,N,0.11,K,D*1E
$PAIRLOG,Full*51
$GNGGA,004334.000,4910.426098,N,12304.398024,W,2,31,0.51,3.727,M,-16.816,M,,*4C
$GNGLL,4910.426098,N,12304.398024,W,004334.000,A,D*5D
$GNGSA,A,3,06,12,19,24,11,17,03,32,,,,,0.85,0.51,0.68,1*09
$GNGSA,A,3,84,74,75,85,73,66,,,,,,,0.85,0.51,0.68,2*01
$GNGSA,A,3,21,13,15,27,26,04,06,09,,,,,0.85,0.51,0.68,3*0B
$GNGSA,A,3,34,25,11,12,23,43,44,24,39,,,,0.85,0.51,0.68,4*0A
$GPGSV,3,1,10,06,60,109,33,12,57,298,32,19,51,062,31,24,45,225,29,1*6F
$GPGSV,3,2,10,11,42,168,30,25,42,301,,46,33,188,29,17,22,064,19,1*69
$GPGSV,3,3,10,03,10,032,21,32,09,318,23,1*66
$GLGSV,2,1,07,84,75,060,21,74,63,135,20,75,58,320,34,85,45,206,29,1*7E
$GLGSV,2,2,07,73,17,138,27,83,11,034,,66,10,325,18,1*42
$GAGSV,3,1,09,21,87,039,32,13,57,131,29,15,36,051,28,27,33,110,25,7*7A
$GAGSV,3,2,09,26,20,185,23,04,15,289,26,06,13,314,23,09,08,336,22,7*73
$GAGSV,3,3,09,19,04,236,18,7*48
$GBGSV,3,1,12,34,80,119,32,25,69,189,33,11,64,203,29,12,55,060,29,1*7E
$GBGSV,3,2,12,23,45,301,30,43,41,219,28,44,29,055,27,24,20,146,26,1*7A
$GBGSV,3,3,12,39,10,330,21,19,02,018,17,48,01,354,,16,01,334,,1*75
$GNRMC,004334.000,A,4910.426098,N,12304.398024,W,0.05,40.82,070125,,,D,V*2A
$GNVTG,40.82,T,,M,0.05,N,0.10,K,D*1C
$PAIRLOG,Full*51
$GNGGA,004335.000,4910.426110,N,12304.397994,W,2,31,0.51,3.717,M,-16.816,M,,*42
$GNGLL,4910.426110,N,12304.397994,W,004335.000,A,D*50
$GNGSA,A,3,06,12,19,24,11,17,03,32,,,,,0.85,0.51,0.68,1*09
$GNGSA,A,3,84,74,75,85,73,66,,,,,,,0.85,0.51,0.68,2*01
$GNGSA,A,3,21,13,15,27,26,04,06,09,,,,,0.85,0.51,0.68,3*0B
$GNGSA,A,3,34,25,11,12,23,43,44,24,39,,,,0.85,0.51,0.68,4*0A
$GPGSV,3,1,10,06,60,109,33,12,57,298,32,19,51,062,31,24,45,225,29,1*6F
$GPGSV,3,2,10,11,42,168,30,25,42,301,,46,33,188,29,17,22,064,19,1*69
$GPGSV,3,3,10,03,10,032,21,32,09,318,23,1*66
$GLGSV,2,1,07,84,75,060,21,74,63,135,20,75,58,320,34,85,45,206,29,1*7E
$GLGSV,2,2,07,73,17,138,26,83,11,034,,66,10,325,18,1*43
$GAGSV,3,1,09,21,86,056,32,13,57,131,29,15,36,051,28,27,33,110,25,7*72
$GAGSV,3,2,09,26,20,185,23,04,15,289,26,06,13,314,24,09,08,336,22,7*74
$GAGSV,3,3,09,19,04,236,18,7*48
$GBGSV,3,1,12,34,80,119,32,25,69,189,33,11,64,203,29,12,55,060,29,1*7E
$GBGSV,3,2,12,23,45,301,30,43,41,219,28,44,29,055,27,24,20,146,26,1*7A
$GBGSV,3,3,12,39,10,330,21,19,02,018,17,48,01,354,,16,01,334,,1*75
$GNRMC,004335.000,A,4910.426110,N,12304.397994,W,0.05,40.82,070125,,,D,V*27
$GNVTG,40.82,T,,M,0.05,N,0.09,K,D*14
$PAIRLOG,Full*51
$GNGGA,004336.000,4910.426128,N,12304.397952,W,2,31,0.51,3.641,M,-16.816,M,,*42
$GNGLL,4910.426128,N,12304.397952,W,004336.000,A,D*52
$GNGSA,A,3,06,12,19,24,11,17,03,32,,,,,0.85,0.51,0.68,1*09
$GNGSA,A,3,84,74,75,85,73,66,,,,,,,0.85,0.51,0.68,2*01
$GNGSA,A,3,21,13,15,27,26,04,06,09,,,,,0.85,0.51,0.68,3*0B
$GNGSA,A,3,34,25,11,12,23,43,44,24,39,,,,0.85,0.51,0.68,4*0A
$GPGSV,3,1,10,06,60,109,34,12,57,298,33,19,51,062,32,24,45,225,29,1*6A
$GPGSV,3,2,10,11,42,168,31,25,42,301,,46,33,188,30,17,22,064,20,1*6A
$GPGSV,3,3,10,03,10,032,21,32,09,318,24,1*61
$GLGSV,2,1,07,84,75,060,21,74,63,135,19,75,58,320,34,85,45,206,28,1*75
$GLGSV,2,2,07,73,17,138,26,83,11,034,,66,10,325,18,1*43
$GAGSV,3,1,09,21,86,056,33,13,57,131,30,15,36,051,29,27,33,110,25,7*7A
$GAGSV,3,2,09,26,20,185,24,04,15,289,26,06,13,314,24,09,08,336,22,7*73
$GAGSV,3,3,09,19,04,236,18,7*48
$GBGSV,3,1,12,34,80,119,33,25,69,189,33,11,64,203,30,12,55,060,29,1*77
$GBGSV,3,2,12,23,45,301,31,43,41,219,28,44,29,055,28,24,20,146,26,1*74
$GBGSV,3,3,12,39,10,330,21,19,02,018,17,48,01,354,,16,01,334,,1*75
$GNRMC,004336.000,A,4910.426128,N,12304.397952,W,0.03,40.82,070125,,,D,V*23
$GNVTG,40.82,T,,M,0.03,N,0.06,K,D*1D
$PAIRLOG,Full*51
$GNGGA,004337.000,4910.426092,N,12304.397844,W,2,31,0.51,3.519,M,-16.816,M,,*4B
$GNGLL,4910.426092,N,12304.397844,W,004337.000,A,D*55
$GNGSA,A,3,06,12,19,24,11,17,03,32,,,,,0.85,0.51,0.68,1*09
$GNGSA,A,3,84,74,75,85,73,66,,,,,,,0.85,0.51,0.68,2*01
$GNGSA,A,3,21,13,15,27,26,04,06,09,,,,,0.85,0.51,0.68,3*0B
$GNGSA,A,3,34,25,11,12,23,43,44,24,39,,,,0.85,0.51,0.68,4*0A
$GPGSV,3,1,10,06,60,109,35,12,57,298,33,19,51,062,33,24,45,225,30,1*62
$GPGSV,3,2,10,11,42,168,32,25,42,301,,46,33,188,30,17,22,064,21,1*68
$GPGSV,3,3,10,03,10,032,22,32,09,318,24,1*62
$GLGSV,2,1,07,84,75,060,21,74,63,135,18,75,58,320,34,85,45,206,28,1*74
$GLGSV,2,2,07,73,17,138,26,83,11,034,,66,10,325,18,1*43
$GAGSV,3,1,09,21,86,056,33,13,57,131,31,15,36,051,29,27,33,110,25,7*7B
$GAGSV,3,2,09,26,20,185,24,04,15,289,26,06,13,314,24,09,08,336,23,7*72
$GAGSV,3,3,09,19,04,236,18,7*48
$GBGSV,3,1,12,34,80,119,33,25,69,189,33,11,64,203,30,12,55,060,29,1*77
$GBGSV,3,2,12,23,45,301,31,43,41,219,28,44,29,055,28,24,20,146,26,1*74
$GBGSV,3,3,12,39,10,330,21,19,02,018,17,48,01,354,,16,01,334,,1*75
$GNRMC,004337.000,A,4910.426092,N,12304.397844,W,0.04,40.82,070125,,,D,V*23
$GNVTG,40.82,T,,M,0.04,N,0.08,K,D*14
$PAIRLOG,Full*51
$GNGGA,004338.000,4910.426092,N,12304.397856,W,2,31,0.51,3.541,M,-16.816,M,,*4A
$GNGLL,4910.426092,N,12304.397856,W,004338.000,A,D*59
$GNGSA,A,3,06,12,19,24,11,17,03,32,,,,,0.85,0.51,0.68,1*09
$GNGSA,A,3,84,74,75,85,73,66,,,,,,,0.85,0.51,0.68,2*01
$GNGSA,A,3,21,13,15,27,26,04,06,09,,,,,0.85,0.51,0.68,3*0B
$GNGSA,A,3,34,25,11,12,23,43,44,24,39,,,,0.85,0.51,0.68,4*0A
$GPGSV,3,1,10,06,60,109,36,12,57,298,33,19,51,062,33,24,45,225,30,1*61
$GPGSV,3,2,10,11,42,168,32,25,42,301,,46,33,188,30,17,22,064,22,1*6B
$GPGSV,3,3,10,03,10,032,23,32,09,318,24,1*63
$GLGSV,2,1,07,84,75,060,21,74,63,135,18,75,58,320,34,85,45,206,29,1*75
$GLGSV,2,2,07,73,17,138,26,83,11,034,,66,10,325,18,1*43
$GAGSV,3,1,09,21,86,056,33,13,57,131,31,15,36,051,29,27,33,110,26,7*78
$GAGSV,3,2,09,26,20,185,25,04,15,289,26,06,13,314,24,09,08,336,23,7*73
$GAGSV,3,3,09,19,04,236,18,7*48
$GBGSV,3,1,12,34,80,119,33,25,69,189,33,11,64,203,30,12,55,060,29,1*77
$GBGSV,3,2,12,23,45,301,31,43,41,219,29,44,29,055,28,24,20,146,27,1*74
$GBGSV,3,3,12,39,10,330,21,19,02,018,17,48,01,354,,16,01,334,,1*75
$GNRMC,004338.000,A,4910.426092,N,12304.397856,W,0.05,40.82,070125,,,D,V*2E
$GNVTG,40.82,T,,M,0.05,N,0.10,K,D*1C
$PAIRLOG,Full*51
$GNGGA,004339.000,4910.426116,N,12304.397928,W,2,31,0.51,3.463,M,-16.817,M,,*4E
