$GNGGA,180302.000,4910.425972,N,12304.400220,W,2,27,0.52,9.985,M,-16.817,M,,*43
$GNGLL,4910.425972,N,12304.400220,W,180302.000,A,D*5B
$GNGSA,A,3,04,09,16,03,26,07,06,31,11,,,,0.95,0.52,0.79,1*0A
$GNGSA,A,3,68,67,79,85,,,,,,,,,0.95,0.52,0.79,2*0B
$GNGSA,A,3,06,09,04,31,36,34,05,21,,,,,0.95,0.52,0.79,3*0B
$GNGSA,A,3,32,23,20,37,25,41,,,,,,,0.95,0.52,0.79,4*05
$GPGSV,3,1,11,04,83,042,37,09,60,296,38,16,45,105,35,03,39,173,33,1*6A
$GPGSV,3,2,11,26,36,061,31,48,33,182,32,07,30,237,32,06,21,281,29,1*61
$GPGSV,3,3,11,31,21,059,32,11,14,320,29,29,03,018,18,1*5F
$GLGSV,2,1,06,68,77,000,31,78,66,164,22,67,42,117,31,79,18,197,21,1*74
$GLGSV,2,2,06,84,14,293,,85,13,345,21,1*71
$GAGSV,3,1,09,06,80,068,33,09,71,302,34,04,53,094,32,31,36,151,28,7*77
$GAGSV,3,2,09,36,23,255,25,34,21,309,25,05,18,286,26,21,13,034,22,7*71
$GAGSV,3,3,09,11,03,211,13,7*49
$GBGSV,3,1,09,32,82,184,42,23,71,122,41,20,35,306,36,37,35,204,37,1*7A
$GBGSV,3,2,09,25,30,052,38,41,28,134,35,38,03,332,26,04,01,262,,1*74
$GBGSV,3,3,09,35,01,339,,1*41
$GNRMC,180302.000,A,4910.425972,N,12304.400220,W,0.02,0.00,051224,,,D,V*14
$GNVTG,0.00,T,,M,0.02,N,0.04,K,D*20
$GNGGA,180303.000,4910.426050,N,12304.400094,W,2,27,0.52,10.078,M,-16.816,M,,*77
$GNGLL,4910.426050,N,12304.400094,W,180303.000,A,D*5D
$GNGSA,A,3,04,09,16,03,26,07,06,31,11,,,,0.95,0.52,0.79,1*0A
$GNGSA,A,3,68,67,79,85,,,,,,,,,0.95,0.52,0.79,2*0B
$GNGSA,A,3,06,09,04,31,36,34,05,21,,,,,0.95,0.52,0.79,3*0B
$GNGSA,A,3,32,23,20,37,25,41,,,,,,,0.95,0.52,0.79,4*05
$GPGSV,3,1,11,04,83,042,37,09,60,296,38,16,45,105,35,03,39,173,33,1*6A
$GPGSV,3,2,11,26,36,061,31,48,33,182,32,07,30,237,32,06,21,281,29,1*61
$GPGSV,3,3,11,31,21,059,31,11,14,320,29,29,03,018,18,1*5C
$GLGSV,2,1,06,68,77,000,31,78,66,164,22,67,42,117,30,79,18,197,21,1*75
$GLGSV,2,2,06,84,14,293,,85,13,345,21,1*71
$GAGSV,3,1,09,06,80,068,33,09,71,302,34,04,53,094,32,31,36,151,28,7*77
$GAGSV,3,2,09,36,23,255,25,34,21,309,25,05,18,286,25,21,13,034,21,7*71
$GAGSV,3,3,09,11,03,211,12,7*48
$GBGSV,3,1,09,32,82,184,42,23,71,122,41,20,35,306,36,37,35,204,37,1*7A
$GBGSV,3,2,09,25,30,052,38,41,28,134,35,38,03,332,26,04,01,262,,1*74
$GBGSV,3,3,09,35,01,339,,1*41
$GNRMC,180303.000,A,4910.426050,N,12304.400094,W,0.03,0.00,051224,,,D,V*13
$GNVTG,0.00,T,,M,0.03,N,0.05,K,D*20
$GNGGA,180304.000,4910.426110,N,12304.400004,W,2,27,0.52,10.173,M,-16.816,M,,*76
$GNGLL,4910.426110,N,12304.400004,W,180304.000,A,D*56
$GNGSA,A,3,04,09,16,03,26,07,06,31,11,,,,0.95,0.52,0.79,1*0A
$GNGSA,A,3,68,67,79,85,,,,,,,,,0.95,0.52,0.79,2*0B
$GNGSA,A,3,06,09,04,31,36,34,05,21,,,,,0.95,0.52,0.79,3*0B
$GNGSA,A,3,32,23,20,37,25,41,,,,,,,0.95,0.52,0.79,4*05
$GPGSV,3,1,11,04,83,042,37,09,60,296,38,16,45,105,35,03,39,173,33,1*6A
$GPGSV,3,2,11,26,36,061,31,48,33,182,32,07,30,237,32,06,21,281,29,1*61
$GPGSV,3,3,11,31,21,059,31,11,14,320,29,29,03,018,18,1*5C
$GLGSV,2,1,06,68,77,000,30,78,66,164,22,67,42,117,30,79,18,197,21,1*74
$GLGSV,2,2,06,84,14,293,,85,13,345,22,1*72
$GAGSV,3,1,09,06,80,068,33,09,71,302,34,04,53,094,32,31,36,151,28,7*77
$GAGSV,3,2,09,36,23,255,25,34,21,309,25,05,18,286,25,21,13,034,21,7*71
$GAGSV,3,3,09,11,03,211,12,7*48
$GBGSV,3,1,09,32,82,184,42,23,71,122,41,20,35,306,36,37,35,204,37,1*7A
$GBGSV,3,2,09,25,30,052,38,41,28,134,34,38,03,332,26,04,01,262,,1*75
$GBGSV,3,3,09,35,01,339,,1*41
$GNRMC,180304.000,A,4910.426110,N,12304.400004,W,0.03,0.00,051224,,,D,V*18
$GNVTG,0.00,T,,M,0.03,N,0.05,K,D*20
$GNGGA,180305.000,4910.426128,N,12304.399962,W,2,27,0.52,10.243,M,-16.816,M,,*72
$GNGLL,4910.426128,N,12304.399962,W,180305.000,A,D*52
$GNGSA,A,3,04,09,16,03,26,07,06,31,11,,,,0.95,0.52,0.79,1*0A
$GNGSA,A,3,68,67,79,85,,,,,,,,,0.95,0.52,0.79,2*0B
$GNGSA,A,3,06,09,04,31,36,34,05,21,,,,,0.95,0.52,0.79,3*0B
$GNGSA,A,3,32,23,20,37,25,41,,,,,,,0.95,0.52,0.79,4*05
$GPGSV,3,1,11,04,83,042,37,09,60,296,38,16,45,105,35,03,39,173,33,1*6A
$GPGSV,3,2,11,26,36,061,31,48,33,182,32,07,30,237,32,06,21,281,29,1*61
$GPGSV,3,3,11,31,21,059,31,11,14,320,29,29,03,018,18,1*5C
$GLGSV,2,1,06,68,77,000,30,78,66,164,22,67,42,117,30,79,18,197,21,1*74
$GLGSV,2,2,06,84,14,293,,85,13,345,22,1*72
$GAGSV,3,1,09,06,80,068,33,09,71,302,34,04,53,094,32,31,36,151,28,7*77
$GAGSV,3,2,09,36,23,255,25,34,21,309,25,05,18,286,25,21,13,034,21,7*71
$GAGSV,3,3,09,11,03,211,12,7*48
$GBGSV,3,1,09,32,82,184,42,23,71,122,41,20,35,306,36,37,35,204,37,1*7A
$GBGSV,3,2,09,25,30,052,38,41,28,134,34,38,03,332,26,04,01,262,,1*75
$GBGSV,3,3,09,35,01,339,,1*41
$GNRMC,180305.000,A,4910.426128,N,12304.399962,W,0.02,0.00,051224,,,D,V*1D
$GNVTG,0.00,T,,M,0.02,N,0.04,K,D*20
$GNGGA,180306.000,4910.426158,N,12304.399866,W,2,27,0.52,10.239,M,-16.816,M,,*7E
$GNGLL,4910.426158,N,12304.399866,W,180306.000,A,D*53
$GNGSA,A,3,04,09,16,03,26,07,06,31,11,,,,0.95,0.52,0.79,1*0A
$GNGSA,A,3,68,67,79,85,,,,,,,,,0.95,0.52,0.79,2*0B
$GNGSA,A,3,06,09,04,31,36,34,05,21,,,,,0.95,0.52,0.79,3*0B
$GNGSA,A,3,32,23,20,37,25,41,,,,,,,0.95,0.52,0.79,4*05
$GPGSV,3,1,11,04,83,042,37,09,60,296,38,16,45,105,35,03,39,173,33,1*6A
$GPGSV,3,2,11,26,36,061,31,48,33,182,32,07,30,237,32,06,21,281,29,1*61
$GPGSV,3,3,11,31,21,059,31,11,14,320,29,29,03,018,18,1*5C
$GLGSV,2,1,06,68,77,000,30,78,66,164,21,67,42,117,30,79,18,197,21,1*77
$GLGSV,2,2,06,84,14,293,,85,13,345,22,1*72
$GAGSV,3,1,09,06,80,068,33,09,71,302,34,04,53,094,32,31,36,151,28,7*77
$GAGSV,3,2,09,36,23,255,25,34,21,309,25,05,18,286,25,21,13,034,21,7*71
$GAGSV,3,3,09,11,03,211,12,7*48
$GBGSV,3,1,09,32,82,184,42,23,71,122,41,20,35,306,36,37,35,204,37,1*7A
$GBGSV,3,2,09,25,30,052,38,41,28,134,34,38,03,332,26,04,01,262,,1*75
$GBGSV,3,3,09,35,01,339,,1*41
$GNRMC,180306.000,A,4910.426158,N,12304.399866,W,0.02,0.00,051224,,,D,V*1C
$GNVTG,0.00,T,,M,0.02,N,0.04,K,D*20
$GNGGA,180307.000,4910.426134,N,12304.399752,W,2,27,0.52,10.209,M,-16.817,M,,*7F
