$GNGGA,224518.000,4910.448994,N,12304.421268,W,2,57,0.41,5.037,M,-16.816,M,,*47
$GNGGA,224519.000,4910.449984,N,12304.422528,W,2,56,0.41,4.950,M,-16.816,M,,*4E
$GNGGA,224520.000,4910.450986,N,12304.423848,W,2,56,0.41,4.888,M,-16.817,M,,*41
$GNGGA,224521.000,4910.452000,N,12304.425174,W,2,57,0.41,4.761,M,-16.817,M,,*4C
$GNGGA,224522.000,4910.453038,N,12304.426476,W,2,57,0.41,4.646,M,-16.817,M,,*45
$GNGGA,224523.000,4910.454046,N,12304.427796,W,2,56,0.42,4.428,M,-16.816,M,,*4F
$GNGGA,224524.000,4910.455072,N,12304.429110,W,2,57,0.42,4.381,M,-16.817,M,,*4C
$GNGGA,224525.000,4910.456068,N,12304.430430,W,2,57,0.41,4.285,M,-16.816,M,,*4D
$GNGGA,224526.000,4910.457010,N,12304.431684,W,2,56,0.42,4.195,M,-16.817,M,,*4D
$GNGGA,224527.000,4910.457904,N,12304.432782,W,2,56,0.42,4.144,M,-16.817,M,,*48
$GNGGA,224528.000,4910.458720,N,12304.433730,W,2,56,0.42,3.992,M,-16.816,M,,*4D
$GNGGA,224529.000,4910.459566,N,12304.434522,W,2,56,0.41,3.998,M,-16.817,M,,*43
$GNGGA,224530.000,4910.460472,N,12304.435146,W,2,56,0.41,3.940,M,-16.816,M,,*46
$GNGGA,224531.000,4910.461462,N,12304.435566,W,2,57,0.40,3.898,M,-16.817,M,,*44
$GNGGA,224532.000,4910.462566,N,12304.435794,W,2,57,0.42,3.803,M,-16.816,M,,*4F
$GNGGA,224533.000,4910.463736,N,12304.435878,W,2,57,0.42,3.649,M,-16.816,M,,*45
$GNGGA,224534.000,4910.465008,N,12304.435926,W,2,57,0.42,3.537,M,-16.817,M,,*4F
$GNGGA,224535.000,4910.466316,N,12304.435878,W,2,56,0.43,3.421,M,-16.816,M,,*4C
$GNGGA,224536.000,4910.467582,N,12304.435806,W,2,56,0.43,3.444,M,-16.817,M,,*4E
$GNGGA,224537.000,4910.468878,N,12304.435698,W,2,56,0.42,3.334,M,-16.816,M,,*41
$GNGGA,224538.000,4910.470204,N,12304.435584,W,2,56,0.42,3.183,M,-16.817,M,,*47
$GNGGA,224539.000,4910.471518,N,12304.435476,W,2,55,0.43,3.034,M,-16.817,M,,*4E
$GNGGA,224540.000,4910.472796,N,12304.435422,W,2,57,0.41,2.896,M,-16.816,M,,*46
$GNGGA,224541.000,4910.474074,N,12304.435350,W,2,55,0.43,2.745,M,-16.816,M,,*49
$GNGGA,224542.000,4910.475310,N,12304.435314,W,2,56,0.42,2.714,M,-16.816,M,,*4C
$GNGGA,224543.000,4910.476510,N,12304.435248,W,2,57,0.42,2.639,M,-16.817,M,,*4E
$GNGGA,224544.000,4910.477662,N,12304.435194,W,2,58,0.41,2.625,M,-16.816,M,,*4C
$GNGGA,224545.000,4910.478766,N,12304.435140,W,2,58,0.41,2.602,M,-16.817,M,,*4A
$GNGGA,224546.000,4910.479852,N,12304.435074,W,2,58,0.41,2.588,M,-16.816,M,,*46
$GNGGA,224547.000,4910.480908,N,12304.434984,W,2,57,0.41,2.521,M,-16.816,M,,*44
$GNGGA,224548.000,4910.481946,N,12304.434906,W,2,57,0.41,2.430,M,-16.816,M,,*4B
$GNGGA,224549.000,4910.483002,N,12304.434822,W,2,58,0.40,2.463,M,-16.816,M,,*4E
$GNGGA,224550.000,4910.484076,N,12304.434726,W,2,58,0.40,2.436,M,-16.816,M,,*49
$GNGGA,224551.000,4910.485150,N,12304.434738,W,2,57,0.41,2.386,M,-16.817,M,,*40
$GNGGA,224552.000,4910.486242,N,12304.434720,W,2,57,0.41,2.402,M,-16.816,M,,*43
$GNGGA,224553.000,4910.487388,N,12304.434642,W,2,57,0.41,2.359,M,-16.816,M,,*48
$GNGGA,224554.000,4910.488564,N,12304.434576,W,2,58,0.41,2.272,M,-16.816,M,,*47
$GNGGA,224555.000,4910.489812,N,12304.434516,W,2,58,0.41,2.247,M,-16.816,M,,*4B
$GNGGA,224556.000,4910.491090,N,12304.434450,W,2,58,0.41,2.148,M,-16.816,M,,*4C
$GNGGA,224557.000,4910.492368,N,12304.434378,W,2,58,0.41,1.997,M,-16.816,M,,*4E
$GNGGA,224558.000,4910.493616,N,12304.434324,W,2,58,0.41,1.917,M,-16.816,M,,*4D
$GNGGA,224559.000,4910.494834,N,12304.434312,W,2,58,0.41,1.826,M,-16.816,M,,*43
$GNGGA,224600.000,4910.496088,N,12304.434348,W,2,58,0.41,1.726,M,-16.816,M,,*41
$GNGGA,224601.000,4910.497306,N,12304.434390,W,2,58,0.41,1.720,M,-16.817,M,,*46
$GNGGA,224602.000,4910.498506,N,12304.434468,W,2,58,0.41,1.719,M,-16.816,M,,*47
$GNGGA,224603.000,4910.499526,N,12304.434552,W,2,57,0.41,1.755,M,-16.816,M,,*4A
$GNGGA,224604.000,4910.500342,N,12304.434600,W,2,57,0.40,1.781,M,-16.816,M,,*44
$GNGGA,224605.000,4910.501356,N,12304.434636,W,2,58,0.40,1.801,M,-16.816,M,,*4C
$GNGGA,224606.000,4910.502748,N,12304.434702,W,2,58,0.41,1.799,M,-16.816,M,,*4E
$GNGGA,224607.000,4910.504326,N,12304.434810,W,2,58,0.41,1.758,M,-16.816,M,,*44
$GNGGA,224608.000,4910.506006,N,12304.434936,W,2,56,0.41,1.718,M,-16.816,M,,*47
$GNGGA,224609.000,4910.507782,N,12304.435038,W,2,58,0.41,1.664,M,-16.816,M,,*4E
$GNGGA,224610.000,4910.509540,N,12304.435152,W,2,58,0.41,1.620,M,-16.816,M,,*49
$GNGGA,224611.000,4910.511358,N,12304.435206,W,2,57,0.41,1.558,M,-16.816,M,,*4F
$GNGGA,224612.000,4910.513170,N,12304.435260,W,2,58,0.41,1.473,M,-16.816,M,,*41
$GNGGA,224613.000,4910.514940,N,12304.435314,W,2,58,0.41,1.399,M,-16.816,M,,*4D
$GNGGA,224614.000,4910.516668,N,12304.435326,W,2,57,0.41,1.317,M,-16.816,M,,*45
$GNGGA,224615.000,4910.518330,N,12304.435320,W,2,57,0.41,1.293,M,-16.816,M,,*49
$GNGGA,224616.000,4910.519902,N,12304.435320,W,2,58,0.41,1.300,M,-16.816,M,,*44
$GNGGA,224617.000,4910.521384,N,12304.435350,W,2,58,0.41,1.296,M,-16.816,M,,*43
$GNGGA,224618.000,4910.522800,N,12304.435308,W,2,58,0.41,1.288,M,-16.816,M,,*4A
$GNGGA,224619.000,4910.524240,N,12304.435254,W,2,58,0.41,1.241,M,-16.816,M,,*4E
$GNGGA,224620.000,4910.525776,N,12304.435194,W,2,58,0.41,1.248,M,-16.816,M,,*43
$GNGGA,224621.000,4910.527264,N,12304.435116,W,2,58,0.41,1.204,M,-16.816,M,,*44
$GNGGA,224622.000,4910.528608,N,12304.434954,W,2,58,0.41,1.193,M,-16.816,M,,*44
$GNGGA,224623.000,4910.529880,N,12304.434696,W,2,58,0.41,1.142,M,-16.816,M,,*47
$GNGGA,224624.000,4910.531188,N,12304.434312,W,2,58,0.41,1.137,M,-16.816,M,,*43
$GNGGA,224625.000,4910.532490,N,12304.433730,W,2,57,0.42,1.167,M,-16.815,M,,*44
$GNGGA,224626.000,4910.533702,N,12304.432884,W,2,57,0.42,1.163,M,-16.816,M,,*48
$GNGGA,224627.000,4910.534866,N,12304.431792,W,2,58,0.41,1.203,M,-16.816,M,,*41
$GNGGA,224628.000,4910.535970,N,12304.430448,W,2,57,0.42,1.106,M,-16.815,M,,*45
$GNGGA,224629.000,4910.537038,N,12304.428894,W,2,58,0.41,1.081,M,-16.816,M,,*46
$GNGGA,224630.000,4910.538058,N,12304.427280,W,2,58,0.41,0.999,M,-16.816,M,,*46
$GNGGA,224631.000,4910.539012,N,12304.425684,W,2,57,0.42,0.989,M,-16.815,M,,*44
$GNGGA,224632.000,4910.539882,N,12304.424202,W,2,58,0.41,0.983,M,-16.816,M,,*48
$GNGGA,224633.000,4910.540806,N,12304.422954,W,2,58,0.41,0.968,M,-16.815,M,,*43
$GNGGA,224634.000,4910.541814,N,12304.422168,W,2,58,0.41,0.997,M,-16.815,M,,*41
$GNGGA,224635.000,4910.542822,N,12304.421868,W,2,58,0.40,0.956,M,-16.815,M,,*40
$GNGGA,224636.000,4910.543740,N,12304.422048,W,2,58,0.40,0.942,M,-16.815,M,,*45
$GNGGA,224637.000,4910.544472,N,12304.422492,W,2,58,0.40,0.984,M,-16.816,M,,*4B
$GNGGA,224638.000,4910.544958,N,12304.422942,W,2,58,0.40,0.995,M,-16.816,M,,*41
$GNGGA,224639.000,4910.545234,N,12304.423308,W,2,58,0.40,0.998,M,-16.816,M,,*48
$GNGGA,224640.000,4910.545390,N,12304.423524,W,2,57,0.40,1.030,M,-16.816,M,,*44
$GNGGA,224641.000,4910.545420,N,12304.423596,W,2,58,0.40,1.016,M,-16.816,M,,*4B
$GNGGA,224642.000,4910.545408,N,12304.423596,W,2,58,0.40,1.001,M,-16.816,M,,*44
$GNGGA,224643.000,4910.545408,N,12304.423596,W,2,58,0.40,1.001,M,-16.816,M,,*45
$GNGGA,224644.000,4910.545408,N,12304.423596,W,2,58,0.40,1.001,M,-16.816,M,,*42
$GNGGA,224645.000,4910.545408,N,12304.423596,W,2,58,0.40,1.001,M,-16.816,M,,*43
$GNGGA,224646.000,4910.545408,N,12304.423596,W,2,58,0.40,1.001,M,-16.816,M,,*40
$GNGGA,224647.000,4910.545408,N,12304.423596,W,2,58,0.40,1.001,M,-16.816,M,,*41
$GNGGA,224648.000,4910.545408,N,12304.423596,W,2,58,0.40,1.001,M,-16.816,M,,*4E
$GNGGA,224649.000,4910.545408,N,12304.423596,W,2,58,0.40,1.001,M,-16.816,M,,*4F
$GNGGA,224650.000,4910.545408,N,12304.423596,W,2,57,0.41,1.001,M,-16.816,M,,*49
$GNGGA,224651.000,4910.545408,N,12304.423596,W,2,57,0.41,1.001,M,-16.816,M,,*48
$GNGGA,224652.000,4910.545408,N,12304.423596,W,2,57,0.41,1.001,M,-16.816,M,,*4B
$GNGGA,224653.000,4910.545408,N,12304.423596,W,2,57,0.41,1.001,M,-16.816,M,,*4A
$GNGGA,224654.000,4910.545408,N,12304.423596,W,2,57,0.42,1.001,M,-16.816,M,,*4E
$GNGGA,224655.000,4910.545408,N,12304.423596,W,2,57,0.42,1.001,M,-16.816,M,,*4F
$GNGGA,224656.000,4910.545408,N,12304.423596,W,2,58,0.41,1.001,M,-16.816,M,,*40
$GNGGA,224657.000,4910.545408,N,12304.423596,W,2,58,0.41,1.001,M,-16.816,M,,*41
$GNGGA,224658.000,4910.545408,N,12304.423596,W,2,58,0.41,1.001,M,-16.816,M,,*4E
$GNGGA,224659.000,4910.545408,N,12304.423596,W,2,58,0.41,1.001,M,-16.816,M,,*4F
$GNGGA,224700.000,4910.545408,N,12304.423596,W,2,58,0.41,1.001,M,-16.816,M,,*42
$GNGGA,224701.000,4910.545408,N,12304.423596,W,2,58,0.41,1.001,M,-16.816,M,,*43
$GNGGA,224702.000,4910.545408,N,12304.423596,W,2,58,0.41,1.001,M,-16.816,M,,*40
$GNGGA,224703.000,4910.545408,N,12304.423596,W,2,58,0.41,1.001,M,-16.816,M,,*41
$GNGGA,224704.000,4910.545408,N,12304.423596,W,2,58,0.41,1.001,M,-16.816,M,,*46
$GNGGA,224705.000,4910.545408,N,12304.423596,W,2,58,0.41,1.001,M,-16.816,M,,*47
$GNGGA,224706.000,4910.545408,N,12304.423596,W,2,58,0.41,1.001,M,-16.816,M,,*44
$GNGGA,224707.000,4910.545408,N,12304.423596,W,2,58,0.41,1.001,M,-16.816,M,,*45
$GNGGA,224708.000,4910.545408,N,12304.423596,W,2,58,0.41,1.001,M,-16.816,M,,*4A
$GNGGA,224709.000,4910.545408,N,12304.423596,W,2,58,0.41,1.001,M,-16.816,M,,*4B
$GNGGA,224710.000,4910.545408,N,12304.423596,W,2,58,0.41,1.001,M,-16.816,M,,*43
$GNGGA,224711.000,4910.545408,N,12304.423596,W,2,58,0.41,1.001,M,-16.816,M,,*42
$GNGGA,224712.000,4910.545408,N,12304.423596,W,2,58,0.41,1.001,M,-16.816,M,,*41
$GNGGA,224713.000,4910.545408,N,12304.423596,W,2,58,0.41,1.001,M,-16.816,M,,*40
$GNGGA,224714.000,4910.545408,N,12304.423596,W,2,58,0.41,1.001,M,-16.816,M,,*47
$GNGGA,224715.000,4910.545408,N,12304.423596,W,2,58,0.41,1.001,M,-16.816,M,,*46
$GNGGA,224716.000,4910.545408,N,12304.423596,W,2,58,0.41,1.001,M,-16.816,M,,*45
$GNGGA,224717.000,4910.545408,N,12304.423596,W,2,58,0.41,1.001,M,-16.816,M,,*44
$GNGGA,224718.000,4910.545408,N,12304.423596,W,2,58,0.41,1.001,M,-16.816,M,,*4B
$GNGGA,224719.000,4910.545408,N,12304.423596,W,2,58,0.41,1.001,M,-16.816,M,,*4A
$GNGGA,224720.000,4910.545408,N,12304.423596,W,2,58,0.41,1.001,M,-16.816,M,,*40
$GNGGA,224721.000,4910.545408,N,12304.423596,W,2,58,0.41,1.001,M,-16.816,M,,*41
$GNGGA,224722.000,4910.545408,N,12304.423596,W,2,58,0.41,1.001,M,-16.816,M,,*42
$GNGGA,224723.000,4910.545408,N,12304.423596,W,2,58,0.41,1.001,M,-16.816,M,,*43
$GNGGA,224724.000,4910.545408,N,12304.423596,W,2,58,0.41,1.001,M,-16.816,M,,*44
$GNGGA,224725.000,4910.545408,N,12304.423596,W,2,58,0.41,1.001,M,-16.816,M,,*45
$GNGGA,224726.000,4910.545408,N,12304.423596,W,2,58,0.41,1.001,M,-16.816,M,,*46
$GNGGA,224727.000,4910.545408,N,12304.423596,W,2,58,0.41,1.001,M,-16.816,M,,*47
$GNGGA,224728.000,4910.545408,N,12304.423596,W,2,58,0.41,1.001,M,-16.816,M,,*48
$GNGGA,224729.000,4910.545408,N,12304.423596,W,2,58,0.41,1.001,M,-16.816,M,,*49
$GNGGA,224730.000,4910.545408,N,12304.423596,W,2,58,0.41,1.001,M,-16.816,M,,*41
$GNGGA,224731.000,4910.545408,N,12304.423596,W,2,58,0.41,1.001,M,-16.816,M,,*40
$GNGGA,224732.000,4910.545408,N,12304.423596,W,2,58,0.41,1.001,M,-16.816,M,,*43
$GNGGA,224733.000,4910.545408,N,12304.423596,W,2,58,0.41,1.001,M,-16.816,M,,*42
$GNGGA,224734.000,4910.545408,N,12304.423596,W,2,58,0.41,1.001,M,-16.816,M,,*45
$GNGGA,224735.000,4910.545408,N,12304.423596,W,2,58,0.41,1.001,M,-16.816,M,,*44
$GNGGA,224736.000,4910.545408,N,12304.423596,W,2,58,0.41,1.001,M,-16.816,M,,*47
$GNGGA,224737.000,4910.545408,N,12304.423596,W,2,58,0.41,1.001,M,-16.816,M,,*46
$GNGGA,224738.000,4910.545408,N,12304.423596,W,2,58,0.41,1.001,M,-16.816,M,,*49
$GNGGA,224739.000,4910.545408,N,12304.423596,W,2,58,0.41,1.001,M,-16.816,M,,*48
$GNGGA,224740.000,4910.545408,N,12304.423596,W,2,58,0.41,1.001,M,-16.816,M,,*46
$GNGGA,224741.000,4910.545408,N,12304.423596,W,2,58,0.41,1.001,M,-16.816,M,,*47
$GNGGA,224742.000,4910.545408,N,12304.423596,W,2,58,0.41,1.001,M,-16.816,M,,*44
$GNGGA,224743.000,4910.545408,N,12304.423596,W,2,58,0.41,1.001,M,-16.816,M,,*45
$GNGGA,224744.000,4910.545408,N,12304.423596,W,2,58,0.41,1.001,M,-16.816,M,,*42
$GNGGA,224745.000,4910.545408,N,12304.423596,W,2,58,0.41,1.001,M,-16.816,M,,*43
$GNGGA,224746.000,4910.545408,N,12304.423596,W,2,58,0.41,1.001,M,-16.816,M,,*40
$GNGGA,224747.000,4910.545408,N,12304.423596,W,2,58,0.41,1.001,M,-16.816,M,,*41
$GNGGA,224748.000,4910.545408,N,12304.423596,W,2,58,0.41,1.001,M,-16.816,M,,*4E
$GNGGA,224749.000,4910.545408,N,12304.423596,W,2,58,0.41,1.001,M,-16.816,M,,*4F
$GNGGA,224750.000,4910.545408,N,12304.423596,W,2,58,0.41,1.001,M,-16.816,M,,*47
$GNGGA,224751.000,4910.545408,N,12304.423596,W,2,58,0.41,1.001,M,-16.816,M,,*46
$GNGGA,224752.000,4910.545408,N,12304.423596,W,2,58,0.41,1.001,M,-16.816,M,,*45
$GNGGA,224753.000,4910.545408,N,12304.423596,W,2,58,0.41,1.001,M,-16.816,M,,*44
$GNGGA,224754.000,4910.545408,N,12304.423596,W,2,58,0.41,1.001,M,-16.816,M,,*43
$GNGGA,224755.000,4910.545408,N,12304.423596,W,2,58,0.41,1.001,M,-16.816,M,,*42
$GNGGA,224756.000,4910.545408,N,12304.423596,W,2,58,0.41,1.001,M,-16.816,M,,*41
$GNGGA,224757.000,4910.545408,N,12304.423596,W,2,58,0.41,1.001,M,-16.816,M,,*40
$GNGGA,224758.000,4910.545408,N,12304.423596,W,2,58,0.41,1.001,M,-16.816,M,,*4F
$GNGGA,224759.000,4910.545408,N,12304.423596,W,2,58,0.41,1.001,M,-16.816,M,,*4E
$GNGGA,224800.000,4910.545408,N,12304.423596,W,2,58,0.41,1.001,M,-16.816,M,,*4D
$GNGGA,224801.000,4910.545408,N,12304.423596,W,2,58,0.41,1.001,M,-16.816,M,,*4C
$GNGGA,224802.000,4910.545408,N,12304.423596,W,2,58,0.41,1.001,M,-16.816,M,,*4F
$GNGGA,224803.000,4910.545408,N,12304.423596,W,2,58,0.41,1.001,M,-16.816,M,,*4E
$GNGGA,224804.000,4910.545408,N,12304.423596,W,2,58,0.41,1.001,M,-16.816,M,,*49
$GNGGA,224805.000,4910.545408,N,12304.423596,W,2,58,0.41,1.001,M,-16.816,M,,*48
$GNGGA,224806.000,4910.545408,N,12304.423596,W,2,58,0.41,1.001,M,-16.816,M,,*4B
$GNGGA,224807.000,4910.545408,N,12304.423596,W,2,58,0.41,1.001,M,-16.816,M,,*4A
$GNGGA,224808.000,4910.545408,N,12304.423596,W,2,58,0.41,1.001,M,-16.816,M,,*45
$GNGGA,224809.000,4910.545408,N,12304.423596,W,2,57,0.41,1.001,M,-16.816,M,,*4B
$GNGGA,224810.000,4910.545408,N,12304.423596,W,2,57,0.41,1.001,M,-16.816,M,,*43
$GNGGA,224811.000,4910.545408,N,12304.423596,W,2,58,0.41,1.001,M,-16.816,M,,*4D
$GNGGA,224812.000,4910.545408,N,12304.423596,W,2,58,0.41,1.001,M,-16.816,M,,*4E
$GNGGA,224813.000,4910.545408,N,12304.423596,W,2,58,0.41,1.001,M,-16.816,M,,*4F
$GNGGA,224814.000,4910.545408,N,12304.423596,W,2,58,0.41,1.001,M,-16.816,M,,*48
$GNGGA,224815.000,4910.545408,N,12304.423596,W,2,58,0.41,1.001,M,-16.816,M,,*49
$GNGGA,224816.000,4910.545408,N,12304.423596,W,2,57,0.42,1.001,M,-16.816,M,,*46
$GNGGA,224817.000,4910.545408,N,12304.423596,W,2,58,0.41,1.001,M,-16.816,M,,*4B
$GNGGA,224818.000,4910.545408,N,12304.423596,W,2,57,0.42,1.001,M,-16.816,M,,*48
$GNGGA,224819.000,4910.545408,N,12304.423596,W,2,59,0.40,1.001,M,-16.816,M,,*45
$GNGGA,224820.000,4910.545408,N,12304.423596,W,2,59,0.40,1.001,M,-16.816,M,,*4F
$GNGGA,224821.000,4910.545408,N,12304.423596,W,2,59,0.40,1.001,M,-16.816,M,,*4E
$GNGGA,224822.000,4910.545408,N,12304.423596,W,2,59,0.40,1.001,M,-16.816,M,,*4D
$GNGGA,224823.000,4910.545408,N,12304.423596,W,2,59,0.40,1.001,M,-16.816,M,,*4C
$GNGGA,224824.000,4910.545408,N,12304.423596,W,2,59,0.40,1.001,M,-16.816,M,,*4B
$GNGGA,224825.000,4910.545408,N,12304.423596,W,2,59,0.40,1.001,M,-16.816,M,,*4A
$GNGGA,224826.000,4910.545408,N,12304.423596,W,2,59,0.40,1.001,M,-16.816,M,,*49
$GNGGA,224827.000,4910.545408,N,12304.423596,W,2,59,0.40,1.001,M,-16.816,M,,*48
$GNGGA,224828.000,4910.545408,N,12304.423596,W,2,60,0.40,1.001,M,-16.816,M,,*4D
$GNGGA,224829.000,4910.545408,N,12304.423596,W,2,60,0.40,1.001,M,-16.816,M,,*4C
$GNGGA,224830.000,4910.545408,N,12304.423596,W,2,60,0.40,1.001,M,-16.816,M,,*44
$GNGGA,224831.000,4910.545408,N,12304.423596,W,2,60,0.40,1.001,M,-16.816,M,,*45
$GNGGA,224832.000,4910.545408,N,12304.423596,W,2,60,0.40,1.001,M,-16.816,M,,*46
$GNGGA,224833.000,4910.545408,N,12304.423596,W,2,60,0.40,1.001,M,-16.816,M,,*47
$GNGGA,224834.000,4910.545408,N,12304.423596,W,2,60,0.40,1.001,M,-16.816,M,,*40
$GNGGA,224835.000,4910.545408,N,12304.423596,W,2,60,0.40,1.001,M,-16.816,M,,*41
$GNGGA,224836.000,4910.545408,N,12304.423596,W,2,60,0.40,1.001,M,-16.816,M,,*42
$GNGGA,224837.000,4910.545408,N,12304.423596,W,2,60,0.40,1.001,M,-16.816,M,,*43
$GNGGA,224838.000,4910.545408,N,12304.423596,W,2,60,0.40,1.001,M,-16.816,M,,*4C
$GNGGA,224839.000,4910.545408,N,12304.423596,W,2,60,0.40,1.001,M,-16.816,M,,*4D
$GNGGA,224840.000,4910.545408,N,12304.423596,W,2,60,0.40,1.001,M,-16.816,M,,*43
$GNGGA,224841.000,4910.545408,N,12304.423596,W,2,60,0.40,1.001,M,-16.816,M,,*42
$GNGGA,224842.000,4910.545408,N,12304.423596,W,2,60,0.40,1.001,M,-16.816,M,,*41
$GNGGA,224843.000,4910.545408,N,12304.423596,W,2,60,0.40,1.001,M,-16.816,M,,*40
$GNGGA,224844.000,4910.545408,N,12304.423596,W,2,60,0.40,1.001,M,-16.816,M,,*47
$GNGGA,224845.000,4910.545408,N,12304.423596,W,2,60,0.40,1.001,M,-16.816,M,,*46
$GNGGA,224846.000,4910.545408,N,12304.423596,W,2,60,0.40,1.001,M,-16.816,M,,*45
$GNGGA,224847.000,4910.545408,N,12304.423596,W,2,60,0.40,1.001,M,-16.816,M,,*44
$GNGGA,224848.000,4910.545408,N,12304.423596,W,2,60,0.40,1.001,M,-16.816,M,,*4B
$GNGGA,224849.000,4910.545408,N,12304.423596,W,2,60,0.40,1.001,M,-16.816,M,,*4A
$GNGGA,224850.000,4910.545408,N,12304.423596,W,2,60,0.40,1.001,M,-16.816,M,,*42
$GNGGA,224851.000,4910.545408,N,12304.423596,W,2,60,0.40,1.001,M,-16.816,M,,*43
$GNGGA,224852.000,4910.545408,N,12304.423596,W,2,60,0.40,1.001,M,-16.816,M,,*40
$GNGGA,224853.000,4910.545408,N,12304.423596,W,2,60,0.40,1.001,M,-16.816,M,,*41
$GNGGA,224854.000,4910.545408,N,12304.423596,W,2,60,0.40,1.001,M,-16.816,M,,*46
$GNGGA,224855.000,4910.545408,N,12304.423596,W,2,60,0.40,1.001,M,-16.816,M,,*47
$GNGGA,224856.000,4910.545408,N,12304.423596,W,2,60,0.40,1.001,M,-16.816,M,,*44
$GNGGA,224857.000,4910.545408,N,12304.423596,W,2,60,0.40,1.001,M,-16.816,M,,*45
$GNGGA,224858.000,4910.545408,N,12304.423596,W,2,60,0.40,1.001,M,-16.816,M,,*4A
$GNGGA,224859.000,4910.545408,N,12304.423596,W,2,60,0.40,1.001,M,-16.816,M,,*4B
$GNGGA,224900.000,4910.545408,N,12304.423596,W,2,60,0.40,1.001,M,-16.816,M,,*46
$GNGGA,224901.000,4910.545408,N,12304.423596,W,2,60,0.40,1.001,M,-16.816,M,,*47
$GNGGA,224902.000,4910.545408,N,12304.423596,W,2,60,0.40,1.001,M,-16.816,M,,*44
$GNGGA,224903.000,4910.545408,N,12304.423596,W,2,60,0.40,1.001,M,-16.816,M,,*45
$GNGGA,224904.000,4910.545408,N,12304.423596,W,2,60,0.40,1.001,M,-16.816,M,,*42
$GNGGA,224905.000,4910.545408,N,12304.423596,W,2,60,0.40,1.001,M,-16.816,M,,*43
$GNGGA,224906.000,4910.545408,N,12304.423596,W,2,60,0.40,1.001,M,-16.816,M,,*40
$GNGGA,224907.000,4910.545408,N,12304.423596,W,2,60,0.40,1.001,M,-16.816,M,,*41
$GNGGA,224908.000,4910.545408,N,12304.423596,W,2,60,0.40,1.001,M,-16.816,M,,*4E
$GNGGA,224909.000,4910.545408,N,12304.423596,W,2,60,0.40,1.001,M,-16.816,M,,*4F
$GNGGA,224910.000,4910.545408,N,12304.423596,W,2,60,0.40,1.001,M,-16.816,M,,*47
$GNGGA,224911.000,4910.545408,N,12304.423596,W,2,59,0.40,1.001,M,-16.816,M,,*4C
$GNGGA,224912.000,4910.545408,N,12304.423596,W,2,59,0.40,1.001,M,-16.816,M,,*4F
$GNGGA,224913.000,4910.545408,N,12304.423596,W,2,59,0.40,1.001,M,-16.816,M,,*4E
$GNGGA,224914.000,4910.545408,N,12304.423596,W,2,59,0.40,1.001,M,-16.816,M,,*49
$GNGGA,224915.000,4910.545408,N,12304.423596,W,2,59,0.40,1.001,M,-16.816,M,,*48
$GNGGA,224916.000,4910.545408,N,12304.423596,W,2,59,0.40,1.001,M,-16.816,M,,*4B
$GNGGA,224917.000,4910.545408,N,12304.423596,W,2,59,0.40,1.001,M,-16.816,M,,*4A
$GNGGA,224918.000,4910.545408,N,12304.423596,W,2,59,0.40,1.001,M,-16.816,M,,*45
$GNGGA,224919.000,4910.545408,N,12304.423596,W,2,59,0.40,1.001,M,-16.816,M,,*44
$GNGGA,224920.000,4910.545408,N,12304.423596,W,2,59,0.40,1.001,M,-16.816,M,,*4E
$GNGGA,224921.000,4910.545408,N,12304.423596,W,2,59,0.40,1.001,M,-16.816,M,,*4F
$GNGGA,224922.000,4910.545408,N,12304.423596,W,2,59,0.40,1.001,M,-16.816,M,,*4C
$GNGGA,224923.000,4910.545408,N,12304.423596,W,2,59,0.40,1.001,M,-16.816,M,,*4D
$GNGGA,224924.000,4910.545408,N,12304.423596,W,2,59,0.40,1.001,M,-16.816,M,,*4A
$GNGGA,224925.000,4910.545408,N,12304.423596,W,2,60,0.40,1.001,M,-16.816,M,,*41
$GNGGA,224926.000,4910.545408,N,12304.423596,W,2,59,0.40,1.001,M,-16.816,M,,*48
$GNGGA,224927.000,4910.545408,N,12304.423596,W,2,58,0.41,1.001,M,-16.816,M,,*49
$GNGGA,224928.000,4910.545408,N,12304.423596,W,2,59,0.40,1.001,M,-16.816,M,,*46
$GNGGA,224929.000,4910.545408,N,12304.423596,W,2,58,0.41,1.001,M,-16.816,M,,*47
$GNGGA,224930.000,4910.545408,N,12304.423596,W,2,59,0.40,1.001,M,-16.816,M,,*4F
$GNGGA,224931.000,4910.545408,N,12304.423596,W,2,59,0.40,1.001,M,-16.816,M,,*4E
$GNGGA,224932.000,4910.545408,N,12304.423596,W,2,59,0.40,1.001,M,-16.816,M,,*4D
$GNGGA,224933.000,4910.545408,N,12304.423596,W,2,59,0.40,1.001,M,-16.816,M,,*4C
$GNGGA,224934.000,4910.545408,N,12304.423596,W,2,58,0.40,1.001,M,-16.816,M,,*4A
$GNGGA,224935.000,4910.545408,N,12304.423596,W,2,59,0.40,1.001,M,-16.816,M,,*4A
$GNGGA,224936.000,4910.545408,N,12304.423596,W,2,59,0.40,1.001,M,-16.816,M,,*49
$GNGGA,224937.000,4910.545408,N,12304.423596,W,2,58,0.40,1.001,M,-16.816,M,,*49
$GNGGA,224938.000,4910.545408,N,12304.423596,W,2,59,0.40,1.001,M,-16.816,M,,*47
$GNGGA,224939.000,4910.545408,N,12304.423596,W,2,59,0.40,1.001,M,-16.816,M,,*46
$GNGGA,224940.000,4910.545408,N,12304.423596,W,2,59,0.40,1.001,M,-16.816,M,,*48
$GNGGA,224941.000,4910.545408,N,12304.423596,W,2,58,0.40,1.001,M,-16.816,M,,*48
$GNGGA,224942.000,4910.545408,N,12304.423596,W,2,59,0.40,1.001,M,-16.816,M,,*4A
$GNGGA,224943.000,4910.545408,N,12304.423596,W,2,59,0.40,1.001,M,-16.816,M,,*4B
$GNGGA,224944.000,4910.545408,N,12304.423596,W,2,59,0.40,1.001,M,-16.816,M,,*4C
$GNGGA,224945.000,4910.545408,N,12304.423596,W,2,58,0.40,1.001,M,-16.816,M,,*4C
$GNGGA,224946.000,4910.545408,N,12304.423596,W,2,58,0.40,1.001,M,-16.816,M,,*4F
$GNGGA,224947.000,4910.545408,N,12304.423596,W,2,58,0.40,1.001,M,-16.816,M,,*4E
$GNGGA,224948.000,4910.545408,N,12304.423596,W,2,58,0.40,1.001,M,-16.816,M,,*41
$GNGGA,224949.000,4910.545408,N,12304.423596,W,2,58,0.40,1.001,M,-16.816,M,,*40
$GNGGA,224950.000,4910.545408,N,12304.423596,W,2,58,0.40,1.001,M,-16.816,M,,*48
$GNGGA,224951.000,4910.545408,N,12304.423596,W,2,59,0.40,1.001,M,-16.816,M,,*48
$GNGGA,224952.000,4910.545408,N,12304.423596,W,2,58,0.40,1.001,M,-16.816,M,,*4A
$GNGGA,224953.000,4910.545408,N,12304.423596,W,2,58,0.40,1.001,M,-16.816,M,,*4B
$GNGGA,224954.000,4910.545408,N,12304.423596,W,2,59,0.40,1.001,M,-16.816,M,,*4D
$GNGGA,224955.000,4910.545408,N,12304.423596,W,2,59,0.40,1.001,M,-16.816,M,,*4C
$GNGGA,224956.000,4910.545408,N,12304.423596,W,2,58,0.40,1.001,M,-16.816,M,,*4E
$GNGGA,224957.000,4910.545408,N,12304.423596,W,2,58,0.40,1.001,M,-16.816,M,,*4F
$GNGGA,224958.000,4910.545408,N,12304.423596,W,2,58,0.40,1.001,M,-16.816,M,,*40
$GNGGA,224959.000,4910.545408,N,12304.423596,W,2,58,0.40,1.001,M,-16.816,M,,*41
$GNGGA,225000.000,4910.545408,N,12304.423596,W,2,59,0.40,1.001,M,-16.816,M,,*44
$GNGGA,225001.000,4910.545408,N,12304.423596,W,2,58,0.40,1.001,M,-16.816,M,,*44
$GNGGA,225002.000,4910.545408,N,12304.423596,W,2,58,0.40,1.001,M,-16.816,M,,*47
$GNGGA,225003.000,4910.545408,N,12304.423596,W,2,59,0.40,1.001,M,-16.816,M,,*47
$GNGGA,225004.000,4910.545408,N,12304.423596,W,2,59,0.40,1.001,M,-16.816,M,,*40
$GNGGA,225005.000,4910.545408,N,12304.423596,W,2,59,0.40,1.001,M,-16.816,M,,*41
$GNGGA,225006.000,4910.545408,N,12304.423596,W,2,59,0.40,1.001,M,-16.816,M,,*42
$GNGGA,225007.000,4910.545408,N,12304.423596,W,2,60,0.40,1.001,M,-16.816,M,,*49
$GNGGA,225008.000,4910.545408,N,12304.423596,W,2,60,0.40,1.001,M,-16.816,M,,*46
$GNGGA,225009.000,4910.545408,N,12304.423596,W,2,60,0.40,1.001,M,-16.816,M,,*47
$GNGGA,225010.000,4910.545408,N,12304.423596,W,2,59,0.40,1.001,M,-16.816,M,,*45
$GNGGA,225011.000,4910.545408,N,12304.423596,W,2,60,0.40,1.001,M,-16.816,M,,*4E
$GNGGA,225012.000,4910.545408,N,12304.423596,W,2,60,0.40,1.001,M,-16.816,M,,*4D
$GNGGA,225013.000,4910.545408,N,12304.423596,W,2,60,0.40,1.001,M,-16.816,M,,*4C
$GNGGA,225014.000,4910.545408,N,12304.423596,W,2,59,0.40,1.001,M,-16.816,M,,*41
$GNGGA,225015.000,4910.545408,N,12304.423596,W,2,59,0.40,1.001,M,-16.816,M,,*40
$GNGGA,225016.000,4910.545408,N,12304.423596,W,2,59,0.40,1.001,M,-16.816,M,,*43
$GNGGA,225017.000,4910.545408,N,12304.423596,W,2,59,0.40,1.001,M,-16.816,M,,*42
$GNGGA,225018.000,4910.545408,N,12304.423596,W,2,60,0.40,1.001,M,-16.816,M,,*47
$GNGGA,225019.000,4910.545408,N,12304.423596,W,2,59,0.40,1.001,M,-16.816,M,,*4C
$GNGGA,225020.000,4910.545408,N,12304.423596,W,2,59,0.40,1.001,M,-16.816,M,,*46
$GNGGA,225021.000,4910.545408,N,12304.423596,W,2,60,0.40,1.001,M,-16.816,M,,*4D
$GNGGA,225022.000,4910.545408,N,12304.423596,W,2,59,0.40,1.001,M,-16.816,M,,*44
$GNGGA,225023.000,4910.545408,N,12304.423596,W,2,59,0.40,1.001,M,-16.816,M,,*45
$GNGGA,225024.000,4910.545408,N,12304.423596,W,2,59,0.40,1.001,M,-16.816,M,,*42
$GNGGA,225025.000,4910.545408,N,12304.423596,W,2,59,0.40,1.001,M,-16.816,M,,*43
$GNGGA,225026.000,4910.545408,N,12304.423596,W,2,60,0.40,1.001,M,-16.816,M,,*4A
$GNGGA,225027.000,4910.545408,N,12304.423596,W,2,59,0.40,1.001,M,-16.816,M,,*41
$GNGGA,225028.000,4910.545408,N,12304.423596,W,2,59,0.40,1.001,M,-16.816,M,,*4E
$GNGGA,225029.000,4910.545408,N,12304.423596,W,2,60,0.40,1.001,M,-16.816,M,,*45
$GNGGA,225030.000,4910.545408,N,12304.423596,W,2,59,0.40,1.001,M,-16.816,M,,*47
$GNGGA,225031.000,4910.545408,N,12304.423596,W,2,60,0.40,1.001,M,-16.816,M,,*4C
$GNGGA,225032.000,4910.545408,N,12304.423596,W,2,60,0.40,1.001,M,-16.816,M,,*4F
$GNGGA,225033.000,4910.545408,N,12304.423596,W,2,60,0.40,1.001,M,-16.816,M,,*4E
$GNGGA,225034.000,4910.545408,N,12304.423596,W,2,60,0.40,1.001,M,-16.816,M,,*49
$GNGGA,225035.000,4910.545408,N,12304.423596,W,2,60,0.40,1.001,M,-16.816,M,,*48
$GNGGA,225036.000,4910.545408,N,12304.423596,W,2,60,0.40,1.001,M,-16.816,M,,*4B
$GNGGA,225037.000,4910.545408,N,12304.423596,W,2,60,0.40,1.001,M,-16.816,M,,*4A
$GNGGA,225038.000,4910.545408,N,12304.423596,W,2,59,0.40,1.001,M,-16.816,M,,*4F
$GNGGA,225039.000,4910.545408,N,12304.423596,W,2,60,0.40,1.001,M,-16.816,M,,*44
$GNGGA,225040.000,4910.545408,N,12304.423596,W,2,60,0.40,1.001,M,-16.816,M,,*4A
$GNGGA,225041.000,4910.545408,N,12304.423596,W,2,60,0.40,1.001,M,-16.816,M,,*4B
$GNGGA,225042.000,4910.545408,N,12304.423596,W,2,60,0.40,1.001,M,-16.816,M,,*48
$GNGGA,225043.000,4910.545408,N,12304.423596,W,2,60,0.40,1.001,M,-16.816,M,,*49
$GNGGA,225044.000,4910.545408,N,12304.423596,W,2,60,0.40,1.001,M,-16.816,M,,*4E
$GNGGA,225045.000,4910.545408,N,12304.423596,W,2,60,0.40,1.001,M,-16.816,M,,*4F
$GNGGA,225046.000,4910.545408,N,12304.423596,W,2,60,0.40,1.001,M,-16.816,M,,*4C
$GNGGA,225047.000,4910.545408,N,12304.423596,W,2,60,0.40,1.001,M,-16.816,M,,*4D
$GNGGA,225048.000,4910.545408,N,12304.423596,W,2,60,0.40,1.001,M,-16.816,M,,*42
$GNGGA,225049.000,4910.545408,N,12304.423596,W,2,60,0.40,1.001,M,-16.816,M,,*43
$GNGGA,225050.000,4910.545408,N,12304.423596,W,2,60,0.40,1.001,M,-16.816,M,,*4B
$GNGGA,225051.000,4910.545408,N,12304.423596,W,2,60,0.40,1.001,M,-16.816,M,,*4A
$GNGGA,225052.000,4910.545408,N,12304.423596,W,2,60,0.40,1.001,M,-16.816,M,,*49
$GNGGA,225053.000,4910.545408,N,12304.423596,W,2,60,0.40,1.001,M,-16.816,M,,*48
$GNGGA,225054.000,4910.545408,N,12304.423596,W,2,60,0.40,1.001,M,-16.816,M,,*4F
$GNGGA,225055.000,4910.545408,N,12304.423596,W,2,60,0.40,1.001,M,-16.816,M,,*4E
$GNGGA,225056.000,4910.545408,N,12304.423596,W,2,60,0.40,1.001,M,-16.816,M,,*4D
$GNGGA,225057.000,4910.545408,N,12304.423596,W,2,60,0.40,1.001,M,-16.816,M,,*4C
$GNGGA,225058.000,4910.545408,N,12304.423596,W,2,60,0.40,1.001,M,-16.816,M,,*43
$GNGGA,225059.000,4910.545408,N,12304.423596,W,2,60,0.40,1.001,M,-16.816,M,,*42
$GNGGA,225100.000,4910.545408,N,12304.423596,W,2,60,0.40,1.001,M,-16.816,M,,*4F
$GNGGA,225101.000,4910.545408,N,12304.423596,W,2,59,0.40,1.001,M,-16.816,M,,*44
$GNGGA,225102.000,4910.545408,N,12304.423596,W,2,59,0.40,1.001,M,-16.816,M,,*47
$GNGGA,225103.000,4910.545408,N,12304.423596,W,2,60,0.40,1.001,M,-16.816,M,,*4C
$GNGGA,225104.000,4910.545408,N,12304.423596,W,2,59,0.40,1.001,M,-16.816,M,,*41
$GNGGA,225105.000,4910.545408,N,12304.423596,W,2,60,0.40,1.001,M,-16.816,M,,*4A
$GNGGA,225106.000,4910.545408,N,12304.423596,W,2,59,0.40,1.001,M,-16.816,M,,*43
$GNGGA,225107.000,4910.545408,N,12304.423596,W,2,60,0.40,1.001,M,-16.816,M,,*48
$GNGGA,225108.000,4910.545408,N,12304.423596,W,2,60,0.40,1.001,M,-16.816,M,,*47
$GNGGA,225109.000,4910.545408,N,12304.423596,W,2,60,0.40,1.001,M,-16.816,M,,*46
$GNGGA,225110.000,4910.545408,N,12304.423596,W,2,59,0.40,1.001,M,-16.816,M,,*44
$GNGGA,225111.000,4910.545408,N,12304.423596,W,2,59,0.40,1.001,M,-16.816,M,,*45
$GNGGA,225112.000,4910.545408,N,12304.423596,W,2,59,0.40,1.001,M,-16.816,M,,*46
$GNGGA,225113.000,4910.545408,N,12304.423596,W,2,59,0.40,1.001,M,-16.816,M,,*47
$GNGGA,225114.000,4910.545408,N,12304.423596,W,2,59,0.40,1.001,M,-16.816,M,,*40
$GNGGA,225115.000,4910.545408,N,12304.423596,W,2,59,0.40,1.001,M,-16.816,M,,*41
$GNGGA,225116.000,4910.545408,N,12304.423596,W,2,59,0.40,1.001,M,-16.816,M,,*42
$GNGGA,225117.000,4910.545408,N,12304.423596,W,2,59,0.40,1.001,M,-16.816,M,,*43
$GNGGA,225118.000,4910.545408,N,12304.423596,W,2,59,0.40,1.001,M,-16.816,M,,*4C
$GNGGA,225119.000,4910.545408,N,12304.423596,W,2,59,0.40,1.001,M,-16.816,M,,*4D
$GNGGA,225120.000,4910.545408,N,12304.423596,W,2,59,0.40,1.001,M,-16.816,M,,*47
$GNGGA,225121.000,4910.545408,N,12304.423596,W,2,59,0.40,1.001,M,-16.816,M,,*46
$GNGGA,225122.000,4910.545408,N,12304.423596,W,2,59,0.40,1.001,M,-16.816,M,,*45
$GNGGA,225123.000,4910.545408,N,12304.423596,W,2,59,0.40,1.001,M,-16.816,M,,*44
$GNGGA,225124.000,4910.545408,N,12304.423596,W,2,59,0.40,1.001,M,-16.816,M,,*43
$GNGGA,225125.000,4910.545408,N,12304.423596,W,2,59,0.40,1.001,M,-16.816,M,,*42
$GNGGA,225126.000,4910.545408,N,12304.423596,W,2,59,0.40,1.001,M,-16.816,M,,*41
$GNGGA,225127.000,4910.545408,N,12304.423596,W,2,59,0.40,1.001,M,-16.816,M,,*40
$GNGGA,225128.000,4910.545408,N,12304.423596,W,2,59,0.40,1.001,M,-16.816,M,,*4F
$GNGGA,225129.000,4910.545408,N,12304.423596,W,2,59,0.40,1.001,M,-16.816,M,,*4E
$GNGGA,225130.000,4910.545408,N,12304.423596,W,2,59,0.40,1.001,M,-16.816,M,,*46
$GNGGA,225131.000,4910.545408,N,12304.423596,W,2,60,0.40,1.001,M,-16.816,M,,*4D
$GNGGA,225132.000,4910.545408,N,12304.423596,W,2,60,0.40,1.001,M,-16.816,M,,*4E
$GNGGA,225133.000,4910.545408,N,12304.423596,W,2,60,0.40,1.001,M,-16.816,M,,*4F
$GNGGA,225134.000,4910.545408,N,12304.423596,W,2,59,0.40,1.001,M,-16.816,M,,*42
$GNGGA,225135.000,4910.545408,N,12304.423596,W,2,59,0.40,1.001,M,-16.816,M,,*43
$GNGGA,225136.000,4910.545408,N,12304.423596,W,2,59,0.40,1.001,M,-16.816,M,,*40
$GNGGA,225137.000,4910.545408,N,12304.423596,W,2,59,0.40,1.001,M,-16.816,M,,*41
$GNGGA,225138.000,4910.545408,N,12304.423596,W,2,59,0.40,1.001,M,-16.816,M,,*4E
$GNGGA,225139.000,4910.545408,N,12304.423596,W,2,60,0.40,1.001,M,-16.816,M,,*45
$GNGGA,225140.000,4910.545408,N,12304.423596,W,2,59,0.40,1.001,M,-16.816,M,,*41
$GNGGA,225141.000,4910.545408,N,12304.423596,W,2,60,0.40,1.001,M,-16.816,M,,*4A
$GNGGA,225142.000,4910.545408,N,12304.423596,W,2,60,0.40,1.001,M,-16.816,M,,*49
$GNGGA,225143.000,4910.545408,N,12304.423596,W,2,60,0.40,1.001,M,-16.816,M,,*48
$GNGGA,225144.000,4910.545408,N,12304.423596,W,2,60,0.40,1.001,M,-16.816,M,,*4F
$GNGGA,225145.000,4910.545408,N,12304.423596,W,2,60,0.40,1.001,M,-16.816,M,,*4E
$GNGGA,225146.000,4910.545408,N,12304.423596,W,2,60,0.40,1.001,M,-16.816,M,,*4D
$GNGGA,225147.000,4910.545408,N,12304.423596,W,2,60,0.40,1.001,M,-16.816,M,,*4C
$GNGGA,225148.000,4910.545408,N,12304.423596,W,2,60,0.40,1.001,M,-16.816,M,,*43
$GNGGA,225149.000,4910.545408,N,12304.423596,W,2,60,0.40,1.001,M,-16.816,M,,*42
$GNGGA,225150.000,4910.545408,N,12304.423596,W,2,59,0.40,1.001,M,-16.816,M,,*40
$GNGGA,225151.000,4910.545408,N,12304.423596,W,2,59,0.40,1.001,M,-16.816,M,,*41
$GNGGA,225152.000,4910.545408,N,12304.423596,W,2,60,0.40,1.001,M,-16.816,M,,*48
$GNGGA,225153.000,4910.545408,N,12304.423596,W,2,60,0.40,1.001,M,-16.816,M,,*49
$GNGGA,225154.000,4910.545408,N,12304.423596,W,2,60,0.40,1.001,M,-16.816,M,,*4E
$GNGGA,225155.000,4910.545408,N,12304.423596,W,2,60,0.40,1.001,M,-16.816,M,,*4F
$GNGGA,225156.000,4910.545408,N,12304.423596,W,2,60,0.40,1.001,M,-16.816,M,,*4C
$GNGGA,225157.000,4910.545408,N,12304.423596,W,2,60,0.40,1.001,M,-16.816,M,,*4D
$GNGGA,225158.000,4910.545408,N,12304.423596,W,2,60,0.40,1.001,M,-16.816,M,,*42
$GNGGA,225159.000,4910.545408,N,12304.423596,W,2,60,0.40,1.001,M,-16.816,M,,*43
$GNGGA,225200.000,4910.545408,N,12304.423596,W,2,60,0.40,1.001,M,-16.816,M,,*4C
$GNGGA,225201.000,4910.545408,N,12304.423596,W,2,60,0.40,1.001,M,-16.816,M,,*4D
$GNGGA,225202.000,4910.545408,N,12304.423596,W,2,60,0.40,1.001,M,-16.816,M,,*4E
$GNGGA,225203.000,4910.545408,N,12304.423596,W,2,60,0.40,1.001,M,-16.816,M,,*4F
$GNGGA,225204.000,4910.545408,N,12304.423596,W,2,60,0.40,1.001,M,-16.816,M,,*48
$GNGGA,225205.000,4910.545408,N,12304.423596,W,2,59,0.40,1.001,M,-16.816,M,,*43
$GNGGA,225206.000,4910.545408,N,12304.423596,W,2,59,0.40,1.001,M,-16.816,M,,*40
$GNGGA,225207.000,4910.545408,N,12304.423596,W,2,60,0.40,1.001,M,-16.816,M,,*4B
$GNGGA,225208.000,4910.545408,N,12304.423596,W,2,60,0.40,1.001,M,-16.816,M,,*44
$GNGGA,225209.000,4910.545408,N,12304.423596,W,2,59,0.40,1.001,M,-16.816,M,,*4F
$GNGGA,225210.000,4910.545408,N,12304.423596,W,2,60,0.40,1.001,M,-16.816,M,,*4D
$GNGGA,225211.000,4910.545408,N,12304.423596,W,2,58,0.40,1.001,M,-16.816,M,,*47
$GNGGA,225212.000,4910.545408,N,12304.423596,W,2,60,0.40,1.001,M,-16.816,M,,*4F
$GNGGA,225213.000,4910.545408,N,12304.423596,W,2,60,0.40,1.001,M,-16.816,M,,*4E
$GNGGA,225214.000,4910.545408,N,12304.423596,W,2,59,0.40,1.001,M,-16.816,M,,*43
$GNGGA,225215.000,4910.545408,N,12304.423596,W,2,60,0.40,1.001,M,-16.816,M,,*48
$GNGGA,225216.000,4910.545408,N,12304.423596,W,2,60,0.40,1.001,M,-16.816,M,,*4B
$GNGGA,225217.000,4910.545408,N,12304.423596,W,2,60,0.40,1.001,M,-16.816,M,,*4A
$GNGGA,225218.000,4910.545408,N,12304.423596,W,2,59,0.40,1.001,M,-16.816,M,,*4F
$GNGGA,225219.000,4910.545408,N,12304.423596,W,2,59,0.40,1.001,M,-16.816,M,,*4E
$GNGGA,225220.000,4910.545408,N,12304.423596,W,2,58,0.40,1.001,M,-16.816,M,,*45
$GNGGA,225221.000,4910.545408,N,12304.423596,W,2,58,0.40,1.001,M,-16.816,M,,*44
$GNGGA,225222.000,4910.545408,N,12304.423596,W,2,58,0.40,1.001,M,-16.816,M,,*47
$GNGGA,225223.000,4910.545408,N,12304.423596,W,2,58,0.40,1.001,M,-16.816,M,,*46
$GNGGA,225224.000,4910.545408,N,12304.423596,W,2,58,0.40,1.001,M,-16.816,M,,*41
$GNGGA,225225.000,4910.545408,N,12304.423596,W,2,58,0.40,1.001,M,-16.816,M,,*40
$GNGGA,225226.000,4910.545408,N,12304.423596,W,2,58,0.40,1.001,M,-16.816,M,,*43
$GNGGA,225227.000,4910.545408,N,12304.423596,W,2,58,0.40,1.001,M,-16.816,M,,*42
$GNGGA,225228.000,4910.545408,N,12304.423596,W,2,58,0.40,1.001,M,-16.816,M,,*4D
$GNGGA,225229.000,4910.545408,N,12304.423596,W,2,58,0.40,1.001,M,-16.816,M,,*4C
$GNGGA,225230.000,4910.545408,N,12304.423596,W,2,58,0.40,1.001,M,-16.816,M,,*44
$GNGGA,225231.000,4910.545408,N,12304.423596,W,2,58,0.40,1.001,M,-16.816,M,,*45
$GNGGA,225232.000,4910.545408,N,12304.423596,W,2,58,0.40,1.001,M,-16.816,M,,*46
$GNGGA,225233.000,4910.545408,N,12304.423596,W,2,58,0.40,1.001,M,-16.816,M,,*47
$GNGGA,225234.000,4910.545408,N,12304.423596,W,2,59,0.40,1.001,M,-16.816,M,,*41
$GNGGA,225235.000,4910.545408,N,12304.423596,W,2,59,0.40,1.001,M,-16.816,M,,*40
$GNGGA,225236.000,4910.545408,N,12304.423596,W,2,59,0.40,1.001,M,-16.816,M,,*43
$GNGGA,225237.000,4910.545408,N,12304.423596,W,2,59,0.40,1.001,M,-16.816,M,,*42
$GNGGA,225238.000,4910.545408,N,12304.423596,W,2,59,0.40,1.001,M,-16.816,M,,*4D
$GNGGA,225239.000,4910.545408,N,12304.423596,W,2,59,0.40,1.001,M,-16.816,M,,*4C
$GNGGA,225240.000,4910.545408,N,12304.423596,W,2,59,0.40,1.001,M,-16.816,M,,*42
$GNGGA,225241.000,4910.545408,N,12304.423596,W,2,59,0.40,1.001,M,-16.816,M,,*43
$GNGGA,225242.000,4910.545408,N,12304.423596,W,2,59,0.40,1.001,M,-16.816,M,,*40
$GNGGA,225243.000,4910.545408,N,12304.423596,W,2,59,0.40,1.001,M,-16.816,M,,*41
$GNGGA,225244.000,4910.545408,N,12304.423596,W,2,59,0.40,1.001,M,-16.816,M,,*46
$GNGGA,225245.000,4910.545408,N,12304.423596,W,2,59,0.40,1.001,M,-16.816,M,,*47
$GNGGA,225246.000,4910.545408,N,12304.423596,W,2,59,0.40,1.001,M,-16.816,M,,*44
$GNGGA,225247.000,4910.545408,N,12304.423596,W,2,59,0.40,1.001,M,-16.816,M,,*45
$GNGGA,225248.000,4910.545408,N,12304.423596,W,2,59,0.40,1.001,M,-16.816,M,,*4A
$GNGGA,225249.000,4910.545408,N,12304.423596,W,2,60,0.40,1.001,M,-16.816,M,,*41
$GNGGA,225250.000,4910.545408,N,12304.423596,W,2,60,0.40,1.001,M,-16.816,M,,*49
$GNGGA,225251.000,4910.545408,N,12304.423596,W,2,60,0.40,1.001,M,-16.816,M,,*48
$GNGGA,225252.000,4910.545408,N,12304.423596,W,2,60,0.40,1.001,M,-16.816,M,,*4B
$GNGGA,225253.000,4910.545408,N,12304.423596,W,2,60,0.40,1.001,M,-16.816,M,,*4A
$GNGGA,225254.000,4910.545408,N,12304.423596,W,2,59,0.40,1.001,M,-16.816,M,,*47
$GNGGA,225255.000,4910.545408,N,12304.423596,W,2,60,0.40,1.001,M,-16.816,M,,*4C
$GNGGA,225256.000,4910.545408,N,12304.423596,W,2,60,0.40,1.001,M,-16.816,M,,*4F
$GNGGA,225257.000,4910.545408,N,12304.423596,W,2,60,0.40,1.001,M,-16.816,M,,*4E
$GNGGA,225258.000,4910.545408,N,12304.423596,W,2,60,0.40,1.001,M,-16.816,M,,*41
$GNGGA,225259.000,4910.545408,N,12304.423596,W,2,60,0.40,1.001,M,-16.816,M,,*40
$GNGGA,225300.000,4910.545408,N,12304.423596,W,2,60,0.40,1.001,M,-16.816,M,,*4D
$GNGGA,225301.000,4910.545408,N,12304.423596,W,2,60,0.40,1.001,M,-16.816,M,,*4C
$GNGGA,225302.000,4910.545408,N,12304.423596,W,2,60,0.40,1.001,M,-16.816,M,,*4F
$GNGGA,225303.000,4910.545408,N,12304.423596,W,2,60,0.40,1.001,M,-16.816,M,,*4E
$GNGGA,225304.000,4910.545408,N,12304.423596,W,2,60,0.40,1.001,M,-16.816,M,,*49
$GNGGA,225305.000,4910.545408,N,12304.423596,W,2,60,0.40,1.001,M,-16.816,M,,*48
$GNGGA,225306.000,4910.545408,N,12304.423596,W,2,60,0.40,1.001,M,-16.816,M,,*4B
$GNGGA,225307.000,4910.545408,N,12304.423596,W,2,60,0.40,1.001,M,-16.816,M,,*4A
$GNGGA,225308.000,4910.545408,N,12304.423596,W,2,60,0.40,1.001,M,-16.816,M,,*45
$GNGGA,225309.000,4910.545408,N,12304.423596,W,2,60,0.40,1.001,M,-16.816,M,,*44
$GNGGA,225310.000,4910.545408,N,12304.423596,W,2,60,0.40,1.001,M,-16.816,M,,*4C
$GNGGA,225311.000,4910.545408,N,12304.423596,W,2,60,0.40,1.001,M,-16.816,M,,*4D
$GNGGA,225312.000,4910.545408,N,12304.423596,W,2,60,0.40,1.001,M,-16.816,M,,*4E
$GNGGA,225313.000,4910.545408,N,12304.423596,W,2,59,0.40,1.001,M,-16.816,M,,*45
$GNGGA,225314.000,4910.545408,N,12304.423596,W,2,59,0.40,1.001,M,-16.816,M,,*42
$GNGGA,225315.000,4910.545408,N,12304.423596,W,2,59,0.40,1.001,M,-16.816,M,,*43
$GNGGA,225316.000,4910.545408,N,12304.423596,W,2,59,0.40,1.001,M,-16.816,M,,*40
$GNGGA,225317.000,4910.545408,N,12304.423596,W,2,59,0.40,1.001,M,-16.816,M,,*41
$GNGGA,225318.000,4910.545408,N,12304.423596,W,2,59,0.40,1.001,M,-16.816,M,,*4E
$GNGGA,225319.000,4910.545408,N,12304.423596,W,2,59,0.40,1.001,M,-16.816,M,,*4F
$GNGGA,225320.000,4910.545408,N,12304.423596,W,2,59,0.40,1.001,M,-16.816,M,,*45
$GNGGA,225321.000,4910.545408,N,12304.423596,W,2,60,0.40,1.001,M,-16.816,M,,*4E
$GNGGA,225322.000,4910.545408,N,12304.423596,W,2,60,0.40,1.001,M,-16.816,M,,*4D
$GNGGA,225323.000,4910.545408,N,12304.423596,W,2,60,0.40,1.001,M,-16.816,M,,*4C
$GNGGA,225324.000,4910.545408,N,12304.423596,W,2,60,0.40,1.001,M,-16.816,M,,*4B
$GNGGA,225325.000,4910.545408,N,12304.423596,W,2,60,0.40,1.001,M,-16.816,M,,*4A
$GNGGA,225326.000,4910.545408,N,12304.423596,W,2,60,0.40,1.001,M,-16.816,M,,*49
$GNGGA,225327.000,4910.545408,N,12304.423596,W,2,60,0.40,1.001,M,-16.816,M,,*48
$GNGGA,225328.000,4910.545408,N,12304.423596,W,2,60,0.40,1.001,M,-16.816,M,,*47
$GNGGA,225329.000,4910.545408,N,12304.423596,W,2,60,0.40,1.001,M,-16.816,M,,*46
$GNGGA,225330.000,4910.545408,N,12304.423596,W,2,58,0.42,1.001,M,-16.816,M,,*47
$GNGGA,225331.000,4910.545408,N,12304.423596,W,2,58,0.42,1.001,M,-16.816,M,,*46
$GNGGA,225332.000,4910.545408,N,12304.423596,W,2,58,0.42,1.001,M,-16.816,M,,*45
$GNGGA,225333.000,4910.545408,N,12304.423596,W,2,58,0.42,1.001,M,-16.816,M,,*44
$GNGGA,225334.000,4910.545408,N,12304.423596,W,2,58,0.42,1.001,M,-16.816,M,,*43
$GNGGA,225335.000,4910.545408,N,12304.423596,W,2,58,0.42,1.001,M,-16.816,M,,*42
$GNGGA,225336.000,4910.545408,N,12304.423596,W,2,58,0.42,1.001,M,-16.816,M,,*41
$GNGGA,225337.000,4910.545408,N,12304.423596,W,2,58,0.42,1.001,M,-16.816,M,,*40
$GNGGA,225338.000,4910.545408,N,12304.423596,W,2,57,0.43,1.001,M,-16.816,M,,*41
$GNGGA,225339.000,4910.545408,N,12304.423596,W,2,58,0.42,1.001,M,-16.816,M,,*4E
$GNGGA,225340.000,4910.545408,N,12304.423596,W,2,57,0.43,1.001,M,-16.816,M,,*4E
$GNGGA,225341.000,4910.545408,N,12304.423596,W,2,58,0.42,1.001,M,-16.816,M,,*41
$GNGGA,225342.000,4910.545408,N,12304.423596,W,2,58,0.42,1.001,M,-16.816,M,,*42
$GNGGA,225343.000,4910.545408,N,12304.423596,W,2,58,0.42,1.001,M,-16.816,M,,*43
$GNGGA,225344.000,4910.545408,N,12304.423596,W,2,58,0.42,1.001,M,-16.816,M,,*44
$GNGGA,225345.000,4910.545408,N,12304.423596,W,2,58,0.42,1.001,M,-16.816,M,,*45
$GNGGA,225346.000,4910.545408,N,12304.423596,W,2,57,0.43,1.001,M,-16.816,M,,*48
$GNGGA,225347.000,4910.545408,N,12304.423596,W,2,58,0.42,1.001,M,-16.816,M,,*47
$GNGGA,225348.000,4910.545408,N,12304.423596,W,2,58,0.42,1.001,M,-16.816,M,,*48
$GNGGA,225349.000,4910.545408,N,12304.423596,W,2,57,0.43,1.001,M,-16.816,M,,*47
$GNGGA,225350.000,4910.545408,N,12304.423596,W,2,57,0.43,1.001,M,-16.816,M,,*4F
$GNGGA,225351.000,4910.545408,N,12304.423596,W,2,57,0.43,1.001,M,-16.816,M,,*4E
$GNGGA,225352.000,4910.545408,N,12304.423596,W,2,57,0.43,1.001,M,-16.816,M,,*4D
$GNGGA,225353.000,4910.545408,N,12304.423596,W,2,58,0.42,1.001,M,-16.816,M,,*42
$GNGGA,225354.000,4910.545408,N,12304.423596,W,2,57,0.43,1.001,M,-16.816,M,,*4B
$GNGGA,225355.000,4910.545408,N,12304.423596,W,2,58,0.42,1.001,M,-16.816,M,,*44
$GNGGA,225356.000,4910.545408,N,12304.423596,W,2,58,0.42,1.001,M,-16.816,M,,*47
$GNGGA,225357.000,4910.545408,N,12304.423596,W,2,58,0.42,1.001,M,-16.816,M,,*46
$GNGGA,225358.000,4910.545408,N,12304.423596,W,2,58,0.42,1.001,M,-16.816,M,,*49
$GNGGA,225359.000,4910.545408,N,12304.423596,W,2,58,0.42,1.001,M,-16.816,M,,*48
$GNGGA,225400.000,4910.545408,N,12304.423596,W,2,58,0.42,1.001,M,-16.816,M,,*43
$GNGGA,225401.000,4910.545408,N,12304.423596,W,2,58,0.42,1.001,M,-16.816,M,,*42
$GNGGA,225402.000,4910.545408,N,12304.423596,W,2,58,0.42,1.001,M,-16.816,M,,*41
$GNGGA,225403.000,4910.545408,N,12304.423596,W,2,58,0.42,1.001,M,-16.816,M,,*40
$GNGGA,225404.000,4910.545408,N,12304.423596,W,2,58,0.42,1.001,M,-16.816,M,,*47
$GNGGA,225405.000,4910.545408,N,12304.423596,W,2,58,0.42,1.001,M,-16.816,M,,*46
$GNGGA,225406.000,4910.545408,N,12304.423596,W,2,58,0.42,1.001,M,-16.816,M,,*45
$GNGGA,225407.000,4910.545408,N,12304.423596,W,2,58,0.42,1.001,M,-16.816,M,,*44
$GNGGA,225408.000,4910.545408,N,12304.423596,W,2,58,0.42,1.001,M,-16.816,M,,*4B
$GNGGA,225409.000,4910.545408,N,12304.423596,W,2,58,0.42,1.001,M,-16.816,M,,*4A
$GNGGA,225410.000,4910.545408,N,12304.423596,W,2,58,0.42,1.001,M,-16.816,M,,*42
$GNGGA,225411.000,4910.545408,N,12304.423596,W,2,58,0.42,1.001,M,-16.816,M,,*43
$GNGGA,225412.000,4910.545408,N,12304.423596,W,2,58,0.42,1.001,M,-16.816,M,,*40
$GNGGA,225413.000,4910.545408,N,12304.423596,W,2,58,0.42,1.001,M,-16.816,M,,*41
$GNGGA,225414.000,4910.545408,N,12304.423596,W,2,58,0.42,1.001,M,-16.816,M,,*46
$GNGGA,225415.000,4910.545408,N,12304.423596,W,2,58,0.42,1.001,M,-16.816,M,,*47
$GNGGA,225416.000,4910.545408,N,12304.423596,W,2,58,0.42,1.001,M,-16.816,M,,*44
$GNGGA,225417.000,4910.545408,N,12304.423596,W,2,58,0.42,1.001,M,-16.816,M,,*45
$GNGGA,225418.000,4910.545408,N,12304.423596,W,2,58,0.42,1.001,M,-16.816,M,,*4A
$GNGGA,225419.000,4910.545408,N,12304.423596,W,2,58,0.42,1.001,M,-16.816,M,,*4B
$GNGGA,225420.000,4910.545408,N,12304.423596,W,2,58,0.42,1.001,M,-16.816,M,,*41
$GNGGA,225421.000,4910.545408,N,12304.423596,W,2,58,0.42,1.001,M,-16.816,M,,*40
$GNGGA,225422.000,4910.545408,N,12304.423596,W,2,58,0.42,1.001,M,-16.816,M,,*43
$GNGGA,225423.000,4910.545408,N,12304.423596,W,2,58,0.42,1.001,M,-16.816,M,,*42
$GNGGA,225424.000,4910.545408,N,12304.423596,W,2,58,0.42,1.001,M,-16.816,M,,*45
$GNGGA,225425.000,4910.545408,N,12304.423596,W,2,58,0.42,1.001,M,-16.816,M,,*44
$GNGGA,225426.000,4910.545408,N,12304.423596,W,2,58,0.42,1.001,M,-16.816,M,,*47
$GNGGA,225427.000,4910.545408,N,12304.423596,W,2,58,0.42,1.001,M,-16.816,M,,*46
$GNGGA,225428.000,4910.545408,N,12304.423596,W,2,57,0.42,1.001,M,-16.816,M,,*46
$GNGGA,225429.000,4910.545408,N,12304.423596,W,2,57,0.42,1.001,M,-16.816,M,,*47
$GNGGA,225430.000,4910.545408,N,12304.423596,W,2,58,0.42,1.001,M,-16.816,M,,*40
$GNGGA,225431.000,4910.545408,N,12304.423596,W,2,58,0.42,1.001,M,-16.816,M,,*41
$GNGGA,225432.000,4910.545408,N,12304.423596,W,2,58,0.42,1.001,M,-16.816,M,,*42
$GNGGA,225433.000,4910.545408,N,12304.423596,W,2,58,0.42,1.001,M,-16.816,M,,*43
$GNGGA,225434.000,4910.545408,N,12304.423596,W,2,58,0.42,1.001,M,-16.816,M,,*44
$GNGGA,225435.000,4910.545408,N,12304.423596,W,2,58,0.42,1.001,M,-16.816,M,,*45
$GNGGA,225436.000,4910.545408,N,12304.423596,W,2,58,0.42,1.001,M,-16.816,M,,*46
$GNGGA,225437.000,4910.545408,N,12304.423596,W,2,58,0.42,1.001,M,-16.816,M,,*47
$GNGGA,225438.000,4910.545408,N,12304.423596,W,2,58,0.42,1.001,M,-16.816,M,,*48
$GNGGA,225439.000,4910.545408,N,12304.423596,W,2,58,0.42,1.001,M,-16.816,M,,*49
$GNGGA,225440.000,4910.545408,N,12304.423596,W,2,58,0.42,1.001,M,-16.816,M,,*47
$GNGGA,225441.000,4910.545408,N,12304.423596,W,2,58,0.42,1.001,M,-16.816,M,,*46
$GNGGA,225442.000,4910.545408,N,12304.423596,W,2,58,0.42,1.001,M,-16.816,M,,*45
$GNGGA,225443.000,4910.545408,N,12304.423596,W,2,58,0.42,1.001,M,-16.816,M,,*44
$GNGGA,225444.000,4910.545408,N,12304.423596,W,2,58,0.42,1.001,M,-16.816,M,,*43
$GNGGA,225445.000,4910.545408,N,12304.423596,W,2,58,0.42,1.001,M,-16.816,M,,*42
$GNGGA,225446.000,4910.545408,N,12304.423596,W,2,58,0.42,1.001,M,-16.816,M,,*41
$GNGGA,225447.000,4910.545408,N,12304.423596,W,2,58,0.42,1.001,M,-16.816,M,,*40
$GNGGA,225448.000,4910.545408,N,12304.423596,W,2,58,0.42,1.001,M,-16.816,M,,*4F
$GNGGA,225449.000,4910.545408,N,12304.423596,W,2,58,0.42,1.001,M,-16.816,M,,*4E
$GNGGA,225450.000,4910.545408,N,12304.423596,W,2,58,0.42,1.001,M,-16.816,M,,*46
$GNGGA,225451.000,4910.545408,N,12304.423596,W,2,58,0.42,1.001,M,-16.816,M,,*47
$GNGGA,225452.000,4910.545408,N,12304.423596,W,2,58,0.42,1.001,M,-16.816,M,,*44
$GNGGA,225453.000,4910.545408,N,12304.423596,W,2,58,0.42,1.001,M,-16.816,M,,*45
$GNGGA,225454.000,4910.545408,N,12304.423596,W,2,58,0.42,1.001,M,-16.816,M,,*42
$GNGGA,225455.000,4910.545408,N,12304.423596,W,2,58,0.42,1.001,M,-16.816,M,,*43
$GNGGA,225456.000,4910.545408,N,12304.423596,W,2,58,0.42,1.001,M,-16.816,M,,*40
$GNGGA,225457.000,4910.545408,N,12304.423596,W,2,58,0.42,1.001,M,-16.816,M,,*41
$GNGGA,225458.000,4910.545408,N,12304.423596,W,2,58,0.42,1.001,M,-16.816,M,,*4E
$GNGGA,225459.000,4910.545408,N,12304.423596,W,2,58,0.42,1.001,M,-16.816,M,,*4F
$GNGGA,225500.000,4910.545408,N,12304.423596,W,2,58,0.42,1.001,M,-16.816,M,,*42
$GNGGA,225501.000,4910.545408,N,12304.423596,W,2,58,0.42,1.001,M,-16.816,M,,*43
$GNGGA,225502.000,4910.545408,N,12304.423596,W,2,58,0.42,1.001,M,-16.816,M,,*40
$GNGGA,225503.000,4910.545408,N,12304.423596,W,2,58,0.42,1.001,M,-16.816,M,,*41
$GNGGA,225504.000,4910.545408,N,12304.423596,W,2,58,0.42,1.001,M,-16.816,M,,*46
$GNGGA,225505.000,4910.545408,N,12304.423596,W,2,58,0.42,1.001,M,-16.816,M,,*47
$GNGGA,225506.000,4910.545408,N,12304.423596,W,2,58,0.42,1.001,M,-16.816,M,,*44
$GNGGA,225507.000,4910.545408,N,12304.423596,W,2,58,0.42,1.001,M,-16.816,M,,*45
$GNGGA,225508.000,4910.545408,N,12304.423596,W,2,58,0.42,1.001,M,-16.816,M,,*4A
$GNGGA,225509.000,4910.545408,N,12304.423596,W,2,58,0.42,1.001,M,-16.816,M,,*4B
$GNGGA,225510.000,4910.545408,N,12304.423596,W,2,58,0.42,1.001,M,-16.816,M,,*43
$GNGGA,225511.000,4910.545408,N,12304.423596,W,2,58,0.42,1.001,M,-16.816,M,,*42
$GNGGA,225512.000,4910.545408,N,12304.423596,W,2,58,0.42,1.001,M,-16.816,M,,*41
$GNGGA,225513.000,4910.545408,N,12304.423596,W,2,58,0.42,1.001,M,-16.816,M,,*40
$GNGGA,225514.000,4910.545408,N,12304.423596,W,2,58,0.42,1.001,M,-16.816,M,,*47
$GNGGA,225515.000,4910.545408,N,12304.423596,W,2,58,0.42,1.001,M,-16.816,M,,*46
$GNGGA,225516.000,4910.545408,N,12304.423596,W,2,58,0.42,1.001,M,-16.816,M,,*45
$GNGGA,225517.000,4910.545408,N,12304.423596,W,2,58,0.42,1.001,M,-16.816,M,,*44
$GNGGA,225518.000,4910.545408,N,12304.423596,W,2,58,0.42,1.001,M,-16.816,M,,*4B
$GNGGA,225519.000,4910.545408,N,12304.423596,W,2,58,0.42,1.001,M,-16.816,M,,*4A
$GNGGA,225520.000,4910.545408,N,12304.423596,W,2,58,0.42,1.001,M,-16.816,M,,*40
$GNGGA,225521.000,4910.545408,N,12304.423596,W,2,58,0.42,1.001,M,-16.816,M,,*41
$GNGGA,225522.000,4910.545408,N,12304.423596,W,2,58,0.42,1.001,M,-16.816,M,,*42
$GNGGA,225523.000,4910.545408,N,12304.423596,W,2,58,0.42,1.001,M,-16.816,M,,*43
$GNGGA,225524.000,4910.545408,N,12304.423596,W,2,57,0.42,1.001,M,-16.816,M,,*4B
$GNGGA,225525.000,4910.545408,N,12304.423596,W,2,58,0.42,1.001,M,-16.816,M,,*45
$GNGGA,225526.000,4910.545408,N,12304.423596,W,2,58,0.42,1.001,M,-16.816,M,,*46
$GNGGA,225527.000,4910.545408,N,12304.423596,W,2,58,0.42,1.001,M,-16.816,M,,*47
$GNGGA,225528.000,4910.545408,N,12304.423596,W,2,58,0.42,1.001,M,-16.816,M,,*48
$GNGGA,225529.000,4910.545408,N,12304.423596,W,2,58,0.42,1.001,M,-16.816,M,,*49
$GNGGA,225530.000,4910.545408,N,12304.423596,W,2,58,0.42,1.001,M,-16.816,M,,*41
$GNGGA,225531.000,4910.545408,N,12304.423596,W,2,58,0.42,1.001,M,-16.816,M,,*40
$GNGGA,225532.000,4910.545408,N,12304.423596,W,2,58,0.42,1.001,M,-16.816,M,,*43
$GNGGA,225533.000,4910.545408,N,12304.423596,W,2,58,0.42,1.001,M,-16.816,M,,*42
$GNGGA,225534.000,4910.545408,N,12304.423596,W,2,58,0.42,1.001,M,-16.816,M,,*45
$GNGGA,225535.000,4910.545408,N,12304.423596,W,2,58,0.42,1.001,M,-16.816,M,,*44
$GNGGA,225536.000,4910.545408,N,12304.423596,W,2,58,0.42,1.001,M,-16.816,M,,*47
$GNGGA,225537.000,4910.545408,N,12304.423596,W,2,58,0.42,1.001,M,-16.816,M,,*46
$GNGGA,225538.000,4910.545408,N,12304.423596,W,2,58,0.42,1.001,M,-16.816,M,,*49
$GNGGA,225539.000,4910.545408,N,12304.423596,W,2,58,0.42,1.001,M,-16.816,M,,*48
$GNGGA,225540.000,4910.545408,N,12304.423596,W,2,58,0.42,1.001,M,-16.816,M,,*46
$GNGGA,225541.000,4910.545408,N,12304.423596,W,2,57,0.43,1.001,M,-16.816,M,,*49
$GNGGA,225542.000,4910.545408,N,12304.423596,W,2,58,0.42,1.001,M,-16.816,M,,*44
$GNGGA,225543.000,4910.545408,N,12304.423596,W,2,58,0.42,1.001,M,-16.816,M,,*45
$GNGGA,225544.000,4910.545408,N,12304.423596,W,2,57,0.42,1.001,M,-16.816,M,,*4D
$GNGGA,225545.000,4910.545408,N,12304.423596,W,2,57,0.42,1.001,M,-16.816,M,,*4C
$GNGGA,225546.000,4910.545408,N,12304.423596,W,2,58,0.42,1.001,M,-16.816,M,,*40
$GNGGA,225547.000,4910.545408,N,12304.423596,W,2,58,0.42,1.001,M,-16.816,M,,*41
$GNGGA,225548.000,4910.545408,N,12304.423596,W,2,58,0.42,1.001,M,-16.816,M,,*4E
$GNGGA,225549.000,4910.545408,N,12304.423596,W,2,58,0.42,1.001,M,-16.816,M,,*4F
$GNGGA,225550.000,4910.545408,N,12304.423596,W,2,58,0.42,1.001,M,-16.816,M,,*47
$GNGGA,225551.000,4910.545408,N,12304.423596,W,2,58,0.42,1.001,M,-16.816,M,,*46
$GNGGA,225552.000,4910.545408,N,12304.423596,W,2,58,0.42,1.001,M,-16.816,M,,*45
$GNGGA,225553.000,4910.545408,N,12304.423596,W,2,58,0.42,1.001,M,-16.816,M,,*44
$GNGGA,225554.000,4910.545408,N,12304.423596,W,2,58,0.42,1.001,M,-16.816,M,,*43
$GNGGA,225555.000,4910.545408,N,12304.423596,W,2,58,0.42,1.001,M,-16.816,M,,*42
$GNGGA,225556.000,4910.545408,N,12304.423596,W,2,58,0.42,1.001,M,-16.816,M,,*41
$GNGGA,225557.000,4910.545408,N,12304.423596,W,2,58,0.42,1.001,M,-16.816,M,,*40
$GNGGA,225558.000,4910.545408,N,12304.423596,W,2,58,0.42,1.001,M,-16.816,M,,*4F
$GNGGA,225559.000,4910.545408,N,12304.423596,W,2,58,0.42,1.001,M,-16.816,M,,*4E
$GNGGA,225600.000,4910.545408,N,12304.423596,W,2,58,0.42,1.001,M,-16.816,M,,*41
$GNGGA,225601.000,4910.545408,N,12304.423596,W,2,58,0.42,1.001,M,-16.816,M,,*40
$GNGGA,225602.000,4910.545408,N,12304.423596,W,2,58,0.42,1.001,M,-16.816,M,,*43
$GNGGA,225603.000,4910.545408,N,12304.423596,W,2,58,0.42,1.001,M,-16.816,M,,*42
$GNGGA,225604.000,4910.545408,N,12304.423596,W,2,58,0.42,1.001,M,-16.816,M,,*45
$GNGGA,225605.000,4910.545408,N,12304.423596,W,2,58,0.42,1.001,M,-16.816,M,,*44
$GNGGA,225606.000,4910.545408,N,12304.423596,W,2,58,0.42,1.001,M,-16.816,M,,*47
$GNGGA,225607.000,4910.545408,N,12304.423596,W,2,58,0.42,1.001,M,-16.816,M,,*46
$GNGGA,225608.000,4910.545408,N,12304.423596,W,2,58,0.42,1.001,M,-16.816,M,,*49
$GNGGA,225609.000,4910.545408,N,12304.423596,W,2,58,0.42,1.001,M,-16.816,M,,*48
$GNGGA,225610.000,4910.545408,N,12304.423596,W,2,58,0.42,1.001,M,-16.816,M,,*40
$GNGGA,225611.000,4910.545408,N,12304.423596,W,2,58,0.42,1.001,M,-16.816,M,,*41
$GNGGA,225612.000,4910.545408,N,12304.423596,W,2,58,0.42,1.001,M,-16.816,M,,*42
$GNGGA,225613.000,4910.545408,N,12304.423596,W,2,58,0.42,1.001,M,-16.816,M,,*43
$GNGGA,225614.000,4910.545408,N,12304.423596,W,2,58,0.42,1.001,M,-16.816,M,,*44
$GNGGA,225615.000,4910.545408,N,12304.423596,W,2,58,0.42,1.001,M,-16.816,M,,*45
$GNGGA,225616.000,4910.545408,N,12304.423596,W,2,58,0.42,1.001,M,-16.816,M,,*46
$GNGGA,225617.000,4910.545408,N,12304.423596,W,2,58,0.42,1.001,M,-16.816,M,,*47
$GNGGA,225618.000,4910.545408,N,12304.423596,W,2,58,0.42,1.001,M,-16.816,M,,*48
$GNGGA,225619.000,4910.545408,N,12304.423596,W,2,58,0.42,1.001,M,-16.816,M,,*49
$GNGGA,225620.000,4910.545408,N,12304.423596,W,2,58,0.42,1.001,M,-16.816,M,,*43
$GNGGA,225621.000,4910.545408,N,12304.423596,W,2,58,0.42,1.001,M,-16.816,M,,*42
$GNGGA,225622.000,4910.545408,N,12304.423596,W,2,58,0.42,1.001,M,-16.816,M,,*41
$GNGGA,225623.000,4910.545408,N,12304.423596,W,2,58,0.42,1.001,M,-16.816,M,,*40
$GNGGA,225624.000,4910.545408,N,12304.423596,W,2,58,0.42,1.001,M,-16.816,M,,*47
$GNGGA,225625.000,4910.545408,N,12304.423596,W,2,58,0.42,1.001,M,-16.816,M,,*46
$GNGGA,225626.000,4910.545408,N,12304.423596,W,2,58,0.42,1.001,M,-16.816,M,,*45
$GNGGA,225627.000,4910.545408,N,12304.423596,W,2,58,0.42,1.001,M,-16.816,M,,*44
$GNGGA,225628.000,4910.545408,N,12304.423596,W,2,58,0.42,1.001,M,-16.816,M,,*4B
$GNGGA,225629.000,4910.545408,N,12304.423596,W,2,58,0.42,1.001,M,-16.816,M,,*4A
$GNGGA,225630.000,4910.545408,N,12304.423596,W,2,58,0.42,1.001,M,-16.816,M,,*42
$GNGGA,225631.000,4910.545408,N,12304.423596,W,2,58,0.42,1.001,M,-16.816,M,,*43
$GNGGA,225632.000,4910.545408,N,12304.423596,W,2,58,0.42,1.001,M,-16.816,M,,*40
$GNGGA,225633.000,4910.545408,N,12304.423596,W,2,58,0.42,1.001,M,-16.816,M,,*41
$GNGGA,225634.000,4910.545408,N,12304.423596,W,2,58,0.42,1.001,M,-16.816,M,,*46
$GNGGA,225635.000,4910.545408,N,12304.423596,W,2,58,0.42,1.001,M,-16.816,M,,*47
$GNGGA,225636.000,4910.545408,N,12304.423596,W,2,58,0.42,1.001,M,-16.816,M,,*44
$GNGGA,225637.000,4910.545408,N,12304.423596,W,2,58,0.42,1.001,M,-16.816,M,,*45
$GNGGA,225638.000,4910.545408,N,12304.423596,W,2,60,0.41,1.001,M,-16.816,M,,*42
$GNGGA,225639.000,4910.545408,N,12304.423596,W,2,60,0.41,1.001,M,-16.816,M,,*43
$GNGGA,225640.000,4910.545408,N,12304.423596,W,2,60,0.41,1.001,M,-16.816,M,,*4D
$GNGGA,225641.000,4910.545408,N,12304.423596,W,2,60,0.41,1.001,M,-16.816,M,,*4C
$GNGGA,225642.000,4910.545408,N,12304.423596,W,2,60,0.41,1.001,M,-16.816,M,,*4F
$GNGGA,225643.000,4910.545408,N,12304.423596,W,2,60,0.41,1.001,M,-16.816,M,,*4E
$GNGGA,225644.000,4910.545408,N,12304.423596,W,2,60,0.41,1.001,M,-16.816,M,,*49
$GNGGA,225645.000,4910.545408,N,12304.423596,W,2,60,0.41,1.001,M,-16.816,M,,*48
$GNGGA,225646.000,4910.545408,N,12304.423596,W,2,59,0.41,1.001,M,-16.816,M,,*41
$GNGGA,225647.000,4910.545408,N,12304.423596,W,2,59,0.41,1.001,M,-16.816,M,,*40
$GNGGA,225648.000,4910.545408,N,12304.423596,W,2,60,0.41,1.001,M,-16.816,M,,*45
$GNGGA,225649.000,4910.545408,N,12304.423596,W,2,60,0.41,1.001,M,-16.816,M,,*44
$GNGGA,225650.000,4910.545408,N,12304.423596,W,2,60,0.41,1.001,M,-16.816,M,,*4C
$GNGGA,225651.000,4910.545408,N,12304.423596,W,2,60,0.41,1.001,M,-16.816,M,,*4D
$GNGGA,225652.000,4910.545408,N,12304.423596,W,2,60,0.41,1.001,M,-16.816,M,,*4E
$GNGGA,225653.000,4910.545408,N,12304.423596,W,2,60,0.41,1.001,M,-16.816,M,,*4F
$GNGGA,225654.000,4910.545408,N,12304.423596,W,2,60,0.41,1.001,M,-16.816,M,,*48
$GNGGA,225655.000,4910.545408,N,12304.423596,W,2,60,0.41,1.001,M,-16.816,M,,*49
$GNGGA,225656.000,4910.545408,N,12304.423596,W,2,60,0.41,1.001,M,-16.816,M,,*4A
$GNGGA,225657.000,4910.545408,N,12304.423596,W,2,60,0.41,1.001,M,-16.816,M,,*4B
$GNGGA,225658.000,4910.545408,N,12304.423596,W,2,60,0.41,1.001,M,-16.816,M,,*44
$GNGGA,225659.000,4910.545408,N,12304.423596,W,2,60,0.41,1.001,M,-16.816,M,,*45
$GNGGA,225700.000,4910.545408,N,12304.423596,W,2,60,0.41,1.001,M,-16.816,M,,*48
$GNGGA,225701.000,4910.545408,N,12304.423596,W,2,61,0.41,1.001,M,-16.816,M,,*48
$GNGGA,225702.000,4910.545408,N,12304.423596,W,2,60,0.41,1.001,M,-16.816,M,,*4A
$GNGGA,225703.000,4910.545408,N,12304.423596,W,2,61,0.41,1.001,M,-16.816,M,,*4A
$GNGGA,225704.000,4910.545408,N,12304.423596,W,2,60,0.41,1.001,M,-16.816,M,,*4C
$GNGGA,225705.000,4910.545408,N,12304.423596,W,2,60,0.41,1.001,M,-16.816,M,,*4D
$GNGGA,225706.000,4910.545408,N,12304.423596,W,2,60,0.41,1.001,M,-16.816,M,,*4E
$GNGGA,225707.000,4910.545408,N,12304.423596,W,2,60,0.41,1.001,M,-16.816,M,,*4F
$GNGGA,225708.000,4910.545408,N,12304.423596,W,2,60,0.41,1.001,M,-16.816,M,,*40
$GNGGA,225709.000,4910.545408,N,12304.423596,W,2,60,0.41,1.001,M,-16.816,M,,*41
$GNGGA,225710.000,4910.545408,N,12304.423596,W,2,60,0.41,1.001,M,-16.816,M,,*49
$GNGGA,225711.000,4910.545408,N,12304.423596,W,2,60,0.41,1.001,M,-16.816,M,,*48
$GNGGA,225712.000,4910.545408,N,12304.423596,W,2,60,0.41,1.001,M,-16.816,M,,*4B
$GNGGA,225713.000,4910.545408,N,12304.423596,W,2,60,0.41,1.001,M,-16.816,M,,*4A
$GNGGA,225714.000,4910.545408,N,12304.423596,W,2,60,0.41,1.001,M,-16.816,M,,*4D
$GNGGA,225715.000,4910.545408,N,12304.423596,W,2,60,0.41,1.001,M,-16.816,M,,*4C
$GNGGA,225716.000,4910.544844,N,12304.422888,W,2,61,0.41,-0.223,M,-16.815,M,,*65
$GNGGA,225717.000,4910.544478,N,12304.422582,W,2,60,0.41,-0.199,M,-16.815,M,,*63
$GNGGA,225718.000,4910.544088,N,12304.422396,W,2,61,0.41,-0.218,M,-16.815,M,,*6F
$GNGGA,225719.000,4910.543704,N,12304.422348,W,2,60,0.41,-0.195,M,-16.816,M,,*6D
$GNGGA,225720.000,4910.543416,N,12304.422372,W,2,61,0.41,-0.180,M,-16.816,M,,*6B
$GNGGA,225721.000,4910.543344,N,12304.422396,W,2,61,0.41,-0.140,M,-16.816,M,,*6C
$GNGGA,225722.000,4910.543404,N,12304.422384,W,2,61,0.41,-0.089,M,-16.815,M,,*68
$GNGGA,225723.000,4910.543404,N,12304.422384,W,2,59,0.43,-0.089,M,-16.815,M,,*60
$GNGGA,225724.000,4910.544394,N,12304.421718,W,2,59,0.43,-0.016,M,-16.816,M,,*69
$GNGGA,225725.000,4910.545174,N,12304.420842,W,2,58,0.44,0.051,M,-16.816,M,,*4C
$GNGGA,225726.000,4910.545948,N,12304.419558,W,2,58,0.44,0.110,M,-16.816,M,,*40
$GNGGA,225727.000,4910.546692,N,12304.417950,W,2,59,0.43,0.168,M,-16.816,M,,*49
$GNGGA,225728.000,4910.547400,N,12304.416102,W,2,59,0.43,0.251,M,-16.816,M,,*49
$GNGGA,225729.000,4910.548114,N,12304.414212,W,2,59,0.43,0.368,M,-16.816,M,,*4C
$GNGGA,225730.000,4910.548822,N,12304.412454,W,2,58,0.43,0.433,M,-16.815,M,,*41
$GNGGA,225731.000,4910.549488,N,12304.410792,W,2,59,0.43,0.497,M,-16.816,M,,*4A
$GNGGA,225732.000,4910.550196,N,12304.409214,W,2,58,0.43,0.727,M,-16.816,M,,*41
$GNGGA,225733.000,4910.550904,N,12304.407744,W,2,59,0.43,0.857,M,-16.816,M,,*44
$GNGGA,225734.000,4910.551558,N,12304.406292,W,2,59,0.43,0.996,M,-16.816,M,,*44
$GNGGA,225735.000,4910.552110,N,12304.404858,W,2,59,0.43,1.103,M,-16.816,M,,*45