$GNGGA,224518.000,4910.449101,N,12304.419720,W,4,37,0.47,1.0,M,-16.8,M,2.0,0569*67
$GNGGA,224518.100,4910.449199,N,12304.419849,W,4,37,0.47,1.0,M,-16.8,M,2.1,0569*66
$GNGGA,224518.200,4910.449299,N,12304.419969,W,4,37,0.47,1.0,M,-16.8,M,2.2,0569*66
$GNGGA,224518.300,4910.449401,N,12304.420099,W,4,37,0.47,1.0,M,-16.8,M,2.3,0569*6D
$GNGGA,224518.400,4910.449501,N,12304.420221,W,4,37,0.52,1.0,M,-16.8,M,1.4,0569*6A
$GNGGA,224518.500,4910.449604,N,12304.420345,W,4,37,0.52,1.0,M,-16.8,M,1.5,0569*6F
$GNGGA,224518.600,4910.449708,N,12304.420473,W,4,37,0.52,1.0,M,-16.8,M,1.6,0569*60
$GNGGA,224518.700,4910.449809,N,12304.420596,W,4,37,0.52,1.0,M,-16.8,M,1.7,0569*64
$GNGGA,224518.800,4910.449911,N,12304.420725,W,4,37,0.52,1.0,M,-16.8,M,1.8,0569*66
$GNGGA,224518.900,4910.450015,N,12304.420852,W,4,37,0.52,1.0,M,-16.8,M,1.9,0569*6C
$GNGGA,224519.000,4910.450118,N,12304.420976,W,4,37,0.52,1.0,M,-16.8,M,2.0,0569*65
$GNGGA,224519.100,4910.450224,N,12304.421101,W,4,37,0.52,1.0,M,-16.8,M,2.1,0569*60
$GNGGA,224519.200,4910.450329,N,12304.421222,W,4,37,0.52,1.0,M,-16.8,M,2.2,0569*6E
$GNGGA,224519.300,4910.450432,N,12304.421348,W,4,37,0.52,1.0,M,-16.8,M,2.3,0569*6E
$GNGGA,224519.400,4910.450538,N,12304.421471,W,4,37,0.53,1.0,M,-16.8,M,1.4,0569*6A
$GNGGA,224519.500,4910.450642,N,12304.421596,W,4,37,0.53,0.9,M,-16.8,M,1.5,0569*64
$GNGGA,224519.600,4910.450750,N,12304.421724,W,4,37,0.53,0.9,M,-16.8,M,1.6,0569*6D
$GNGGA,224519.700,4910.450860,N,12304.421848,W,4,37,0.53,0.9,M,-16.8,M,1.7,0569*64
$GNGGA,224519.800,4910.450968,N,12304.421971,W,4,37,0.53,0.9,M,-16.8,M,1.8,0569*66
$GNGGA,224519.900,4910.451077,N,12304.422096,W,4,37,0.53,0.9,M,-16.8,M,1.9,0569*63
$GNGGA,224520.000,4910.451179,N,12304.422219,W,4,37,0.53,0.9,M,-16.8,M,2.0,0569*60
$GNGGA,224520.100,4910.451285,N,12304.422345,W,4,37,0.53,0.9,M,-16.8,M,2.1,0569*68
$GNGGA,224520.200,4910.451394,N,12304.422471,W,4,36,0.53,0.9,M,-16.8,M,2.2,0569*68
$GNGGA,224520.300,4910.451504,N,12304.422596,W,4,37,0.53,0.9,M,-16.8,M,2.3,0569*6E
$GNGGA,224520.400,4910.451611,N,12304.422720,W,4,37,0.58,0.9,M,-16.8,M,1.4,0569*6E
$GNGGA,224520.500,4910.451720,N,12304.422848,W,4,37,0.58,0.9,M,-16.8,M,1.5,0569*6C
$GNGGA,224520.600,4910.451827,N,12304.422974,W,4,36,0.58,0.9,M,-16.8,M,1.6,0569*6B
$GNGGA,224520.700,4910.451937,N,12304.423102,W,4,37,0.58,0.9,M,-16.8,M,1.7,0569*62
$GNGGA,224520.800,4910.452048,N,12304.423225,W,4,37,0.58,0.9,M,-16.8,M,1.8,0569*66
$GNGGA,224520.900,4910.452152,N,12304.423355,W,4,37,0.58,0.9,M,-16.8,M,1.9,0569*6A
$GNGGA,224521.000,4910.452261,N,12304.423484,W,4,37,0.58,0.9,M,-16.8,M,2.0,0569*60
$GNGGA,224521.100,4910.452373,N,12304.423611,W,4,37,0.58,0.9,M,-16.8,M,2.1,0569*6C
$GNGGA,224521.200,4910.452483,N,12304.423739,W,4,37,0.58,0.9,M,-16.8,M,2.2,0569*6F
$GNGGA,224521.300,4910.452593,N,12304.423865,W,4,37,0.58,0.9,M,-16.8,M,2.3,0569*69
$GNGGA,224521.400,4910.452704,N,12304.423992,W,4,36,0.57,0.9,M,-16.8,M,1.4,0569*61
$GNGGA,224521.500,4910.452813,N,12304.424130,W,4,36,0.57,0.9,M,-16.8,M,1.5,0569*6F
$GNGGA,224521.600,4910.452924,N,12304.424257,W,4,36,0.57,0.9,M,-16.8,M,1.6,0569*68
$GNGGA,224521.700,4910.453034,N,12304.424385,W,4,37,0.57,0.9,M,-16.8,M,1.7,0569*6E
$GNGGA,224521.800,4910.453145,N,12304.424515,W,4,37,0.57,0.9,M,-16.8,M,1.8,0569*66
$GNGGA,224521.900,4910.453254,N,12304.424647,W,4,37,0.57,0.9,M,-16.8,M,1.9,0569*61
$GNGGA,224522.000,4910.453364,N,12304.424782,W,4,37,0.57,0.9,M,-16.8,M,2.0,0569*6B
$GNGGA,224522.100,4910.453473,N,12304.424908,W,4,36,0.57,0.9,M,-16.8,M,2.1,0569*67
$GNGGA,224522.200,4910.453583,N,12304.425044,W,4,36,0.57,0.9,M,-16.8,M,2.2,0569*69
$GNGGA,224522.300,4910.453691,N,12304.425174,W,4,36,0.57,0.9,M,-16.8,M,2.3,0569*6B
$GNGGA,224522.400,4910.453802,N,12304.425294,W,4,36,0.53,0.8,M,-16.8,M,1.4,0569*64
$GNGGA,224522.500,4910.453910,N,12304.425428,W,4,36,0.53,0.8,M,-16.8,M,1.5,0569*67
$GNGGA,224522.600,4910.454019,N,12304.425555,W,4,36,0.53,0.8,M,-16.8,M,1.6,0569*6B
$GNGGA,224522.700,4910.454124,N,12304.425690,W,4,36,0.53,0.8,M,-16.8,M,1.7,0569*6E
$GNGGA,224522.800,4910.454236,N,12304.425821,W,4,36,0.53,0.8,M,-16.8,M,1.8,0569*6A
$GNGGA,224522.900,4910.454337,N,12304.425957,W,4,37,0.53,0.8,M,-16.8,M,1.9,0569*6B
$GNGGA,224523.000,4910.454439,N,12304.426091,W,4,36,0.53,0.8,M,-16.8,M,2.0,0569*61
$GNGGA,224523.100,4910.454553,N,12304.426224,W,4,36,0.53,0.8,M,-16.8,M,2.1,0569*60
$GNGGA,224523.200,4910.454656,N,12304.426359,W,4,36,0.53,0.8,M,-16.8,M,2.2,0569*6D
$GNGGA,224523.300,4910.454760,N,12304.426495,W,4,36,0.53,0.8,M,-16.8,M,2.3,0569*6E
$GNGGA,224523.400,4910.454861,N,12304.426628,W,4,36,0.55,0.8,M,-16.8,M,1.4,0569*61
$GNGGA,224523.500,4910.454968,N,12304.426762,W,4,36,0.55,0.8,M,-16.8,M,1.5,0569*66
$GNGGA,224523.600,4910.455071,N,12304.426899,W,4,36,0.55,0.8,M,-16.8,M,1.6,0569*6D
$GNGGA,224523.700,4910.455169,N,12304.427035,W,4,36,0.55,0.8,M,-16.8,M,1.7,0569*6A
$GNGGA,224523.800,4910.455269,N,12304.427170,W,4,36,0.55,0.8,M,-16.8,M,1.8,0569*69
$GNGGA,224523.900,4910.455371,N,12304.427310,W,4,36,0.55,0.8,M,-16.8,M,1.9,0569*65
$GNGGA,224524.000,4910.455471,N,12304.427447,W,4,36,0.55,0.8,M,-16.8,M,2.0,0569*63
$GNGGA,224524.100,4910.455570,N,12304.427580,W,4,36,0.55,0.8,M,-16.8,M,2.1,0569*69
$GNGGA,224524.200,4910.455666,N,12304.427714,W,4,36,0.55,0.8,M,-16.8,M,2.2,0569*62
$GNGGA,224524.300,4910.455765,N,12304.427852,W,4,36,0.55,0.8,M,-16.8,M,2.3,0569*6D
$GNGGA,224524.400,4910.455859,N,12304.427989,W,4,36,0.55,0.8,M,-16.8,M,1.4,0569*69
$GNGGA,224524.500,4910.455955,N,12304.428127,W,4,36,0.55,0.8,M,-16.8,M,1.5,0569*67
$GNGGA,224524.600,4910.456052,N,12304.428261,W,4,36,0.55,0.8,M,-16.8,M,1.6,0569*6B
$GNGGA,224524.700,4910.456143,N,12304.428395,W,4,36,0.55,0.8,M,-16.8,M,1.7,0569*60
$GNGGA,224524.800,4910.456238,N,12304.428533,W,4,36,0.55,0.8,M,-16.8,M,1.8,0569*65
$GNGGA,224524.900,4910.456333,N,12304.428665,W,4,36,0.55,0.8,M,-16.8,M,1.9,0569*6F
$GNGGA,224525.000,4910.456425,N,12304.428798,W,4,36,0.55,0.8,M,-16.8,M,2.0,0569*6E
$GNGGA,224525.100,4910.456516,N,12304.428933,W,4,36,0.55,0.8,M,-16.8,M,2.1,0569*60
$GNGGA,224525.200,4910.456608,N,12304.429063,W,4,36,0.55,0.8,M,-16.8,M,2.2,0569*61
$GNGGA,224525.300,4910.456702,N,12304.429194,W,4,37,0.55,0.8,M,-16.8,M,2.3,0569*62
$GNGGA,224525.400,4910.456792,N,12304.429322,W,4,37,0.51,0.8,M,-16.8,M,1.4,0569*63
$GNGGA,224525.500,4910.456882,N,12304.429443,W,4,37,0.51,0.8,M,-16.8,M,1.5,0569*6D
$GNGGA,224525.600,4910.456973,N,12304.429567,W,4,37,0.51,0.8,M,-16.8,M,1.6,0569*65
$GNGGA,224525.700,4910.457063,N,12304.429694,W,4,36,0.51,0.8,M,-16.8,M,1.7,0569*62
$GNGGA,224525.800,4910.457151,N,12304.429818,W,4,36,0.51,0.8,M,-16.8,M,1.8,0569*68
$GNGGA,224525.900,4910.457242,N,12304.429940,W,4,36,0.51,0.8,M,-16.8,M,1.9,0569*65
$GNGGA,224526.000,4910.457334,N,12304.430059,W,4,36,0.51,0.8,M,-16.8,M,2.0,0569*6C
$GNGGA,224526.100,4910.457423,N,12304.430176,W,4,36,0.51,0.8,M,-16.8,M,2.1,0569*61
$GNGGA,224526.200,4910.457510,N,12304.430294,W,4,36,0.51,0.8,M,-16.8,M,2.2,0569*6F
$GNGGA,224526.300,4910.457596,N,12304.430410,W,4,36,0.51,0.8,M,-16.8,M,2.3,0569*6B
$GNGGA,224526.400,4910.457683,N,12304.430526,W,4,36,0.52,0.8,M,-16.8,M,1.4,0569*68
$GNGGA,224526.500,4910.457772,N,12304.430639,W,4,36,0.52,0.8,M,-16.8,M,1.5,0569*6A
$GNGGA,224526.600,4910.457861,N,12304.430749,W,4,36,0.52,0.8,M,-16.8,M,1.6,0569*61
$GNGGA,224526.700,4910.457952,N,12304.430857,W,4,36,0.52,0.9,M,-16.8,M,1.7,0569*61
$GNGGA,224526.800,4910.458043,N,12304.430965,W,4,36,0.52,0.9,M,-16.8,M,1.8,0569*67
$GNGGA,224526.900,4910.458127,N,12304.431067,W,4,36,0.52,0.9,M,-16.8,M,1.9,0569*6E
$GNGGA,224527.000,4910.458219,N,12304.431169,W,4,36,0.52,0.9,M,-16.8,M,2.0,0569*6D
$GNGGA,224527.100,4910.458310,N,12304.431269,W,4,36,0.52,0.9,M,-16.8,M,2.1,0569*66
$GNGGA,224527.200,4910.458398,N,12304.431367,W,4,36,0.52,0.9,M,-16.8,M,2.2,0569*69
$GNGGA,224527.300,4910.458481,N,12304.431469,W,4,36,0.52,0.9,M,-16.8,M,2.3,0569*6F
$GNGGA,224527.400,4910.458568,N,12304.431564,W,4,36,0.54,0.9,M,-16.8,M,1.4,0569*60
$GNGGA,224527.500,4910.458654,N,12304.431657,W,4,36,0.54,0.9,M,-16.8,M,1.5,0569*6F
$GNGGA,224527.600,4910.458741,N,12304.431750,W,4,36,0.54,0.9,M,-16.8,M,1.6,0569*6C
$GNGGA,224527.700,4910.458831,N,12304.431845,W,4,36,0.54,0.9,M,-16.8,M,1.7,0569*6F
$GNGGA,224527.800,4910.458919,N,12304.431933,W,4,36,0.54,0.9,M,-16.8,M,1.8,0569*64
$GNGGA,224527.900,4910.459005,N,12304.432026,W,4,36,0.54,0.9,M,-16.8,M,1.9,0569*6F
$GNGGA,224528.000,4910.459100,N,12304.432108,W,4,36,0.54,0.9,M,-16.8,M,2.0,0569*6A
$GNGGA,224528.100,4910.459187,N,12304.432188,W,4,36,0.54,0.9,M,-16.8,M,2.1,0569*6D
$GNGGA,224528.200,4910.459275,N,12304.432267,W,4,36,0.54,0.9,M,-16.8,M,2.2,0569*61
$GNGGA,224528.300,4910.459364,N,12304.432352,W,4,36,0.54,0.9,M,-16.8,M,2.3,0569*67
$GNGGA,224528.400,4910.459452,N,12304.432426,W,4,37,0.54,0.9,M,-16.8,M,1.4,0569*63
$GNGGA,224528.500,4910.459542,N,12304.432506,W,4,37,0.54,0.9,M,-16.8,M,1.5,0569*60
$GNGGA,224528.600,4910.459628,N,12304.432584,W,4,37,0.54,0.9,M,-16.8,M,1.6,0569*65
$GNGGA,224528.700,4910.459720,N,12304.432658,W,4,37,0.54,0.9,M,-16.8,M,1.7,0569*6E
$GNGGA,224528.800,4910.459809,N,12304.432732,W,4,37,0.54,0.9,M,-16.8,M,1.8,0569*67
$GNGGA,224528.900,4910.459902,N,12304.432799,W,4,37,0.54,0.9,M,-16.8,M,1.9,0569*6C
$GNGGA,224529.000,4910.459993,N,12304.432860,W,4,37,0.54,0.9,M,-16.8,M,2.0,0569*6F
$GNGGA,224529.100,4910.460091,N,12304.432921,W,4,37,0.54,0.9,M,-16.8,M,2.1,0569*6A
$GNGGA,224529.200,4910.460185,N,12304.432972,W,4,36,0.54,0.9,M,-16.8,M,2.2,0569*69
$GNGGA,224529.300,4910.460274,N,12304.433039,W,4,36,0.54,0.9,M,-16.8,M,2.3,0569*63
$GNGGA,224529.400,4910.460367,N,12304.433057,W,4,36,0.51,0.9,M,-16.8,M,1.4,0569*6E
$GNGGA,224529.500,4910.460464,N,12304.433113,W,4,36,0.51,0.9,M,-16.8,M,1.5,0569*6B
$GNGGA,224529.600,4910.460569,N,12304.433160,W,4,36,0.51,0.9,M,-16.8,M,1.6,0569*63
$GNGGA,224529.700,4910.460662,N,12304.433223,W,4,36,0.51,0.9,M,-16.8,M,1.7,0569*6F
$GNGGA,224529.800,4910.460756,N,12304.433271,W,4,36,0.51,0.9,M,-16.8,M,1.8,0569*6E
$GNGGA,224529.900,4910.460852,N,12304.433311,W,4,36,0.51,0.9,M,-16.8,M,1.9,0569*62
$GNGGA,224530.000,4910.460952,N,12304.433368,W,4,36,0.51,0.9,M,-16.8,M,2.0,0569*66
$GNGGA,224530.100,4910.461053,N,12304.433409,W,4,36,0.51,0.9,M,-16.8,M,2.1,0569*6F
$GNGGA,224530.200,4910.461150,N,12304.433453,W,4,36,0.51,0.9,M,-16.8,M,2.2,0569*62
$GNGGA,224530.300,4910.461250,N,12304.433499,W,4,36,0.51,0.9,M,-16.8,M,2.3,0569*67
$GNGGA,224530.400,4910.461354,N,12304.433541,W,4,36,0.55,0.9,M,-16.8,M,1.4,0569*61
$GNGGA,224530.500,4910.461455,N,12304.433577,W,4,36,0.55,0.9,M,-16.8,M,1.5,0569*62
$GNGGA,224530.600,4910.461561,N,12304.433604,W,4,36,0.55,0.9,M,-16.8,M,1.6,0569*63
$GNGGA,224530.700,4910.461661,N,12304.433642,W,4,37,0.55,0.9,M,-16.8,M,1.7,0569*63
$GNGGA,224530.800,4910.461766,N,12304.433678,W,4,37,0.55,0.9,M,-16.8,M,1.8,0569*6C
$GNGGA,224530.900,4910.461865,N,12304.433702,W,4,37,0.55,0.9,M,-16.8,M,1.9,0569*6C
$GNGGA,224531.000,4910.461978,N,12304.433738,W,4,37,0.55,0.9,M,-16.8,M,2.0,0569*6A
$GNGGA,224531.100,4910.462084,N,12304.433772,W,4,37,0.55,0.9,M,-16.8,M,2.1,0569*6D
$GNGGA,224531.200,4910.462186,N,12304.433788,W,4,36,0.55,0.9,M,-16.8,M,2.2,0569*6A
$GNGGA,224531.300,4910.462300,N,12304.433822,W,4,36,0.55,0.9,M,-16.8,M,2.3,0569*69
$GNGGA,224531.400,4910.462415,N,12304.433847,W,4,36,0.64,0.9,M,-16.8,M,1.4,0569*68
$GNGGA,224531.500,4910.462520,N,12304.433883,W,4,36,0.64,0.9,M,-16.8,M,1.5,0569*67
$GNGGA,224531.600,4910.462634,N,12304.433882,W,4,36,0.64,0.9,M,-16.8,M,1.6,0569*60
$GNGGA,224531.700,4910.462741,N,12304.433900,W,4,36,0.64,0.9,M,-16.8,M,1.7,0569*68
$GNGGA,224531.800,4910.462859,N,12304.433912,W,4,36,0.64,0.9,M,-16.8,M,1.8,0569*6D
$GNGGA,224531.900,4910.462967,N,12304.433934,W,4,36,0.64,0.9,M,-16.8,M,1.9,0569*65
$GNGGA,224532.000,4910.463081,N,12304.433957,W,4,36,0.64,0.9,M,-16.8,M,2.0,0569*60
$GNGGA,224532.100,4910.463207,N,12304.433966,W,4,36,0.64,0.9,M,-16.8,M,2.1,0569*6E
$GNGGA,224532.200,4910.463325,N,12304.433971,W,4,36,0.64,0.9,M,-16.8,M,2.2,0569*69
$GNGGA,224532.300,4910.463445,N,12304.433968,W,4,36,0.64,0.8,M,-16.8,M,2.3,0569*61
$GNGGA,224532.400,4910.463565,N,12304.433982,W,4,36,0.50,0.8,M,-16.8,M,1.4,0569*62
$GNGGA,224532.500,4910.463682,N,12304.433991,W,4,36,0.50,0.8,M,-16.8,M,1.5,0569*6A
$GNGGA,224532.600,4910.463803,N,12304.434009,W,4,36,0.50,0.8,M,-16.8,M,1.6,0569*62
$GNGGA,224532.700,4910.463927,N,12304.434014,W,4,36,0.50,0.8,M,-16.8,M,1.7,0569*69
$GNGGA,224532.800,4910.464049,N,12304.434017,W,4,36,0.50,0.8,M,-16.8,M,1.8,0569*6C
$GNGGA,224532.900,4910.464173,N,12304.434029,W,4,36,0.50,0.8,M,-16.8,M,1.9,0569*69
$GNGGA,224533.000,4910.464294,N,12304.434040,W,4,36,0.50,0.8,M,-16.8,M,2.0,0569*6E
$GNGGA,224533.100,4910.464420,N,12304.434045,W,4,36,0.50,0.8,M,-16.8,M,2.1,0569*62
$GNGGA,224533.200,4910.464544,N,12304.434052,W,4,36,0.50,0.8,M,-16.8,M,2.2,0569*67
$GNGGA,224533.300,4910.464669,N,12304.434060,W,4,36,0.50,0.8,M,-16.8,M,2.3,0569*6A
$GNGGA,224533.400,4910.464794,N,12304.434062,W,4,36,0.54,0.8,M,-16.8,M,1.4,0569*6C
$GNGGA,224533.500,4910.464920,N,12304.434068,W,4,36,0.54,0.8,M,-16.8,M,1.5,0569*67
$GNGGA,224533.600,4910.465046,N,12304.434074,W,4,36,0.54,0.8,M,-16.8,M,1.6,0569*62
$GNGGA,224533.700,4910.465173,N,12304.434079,W,4,36,0.54,0.8,M,-16.8,M,1.7,0569*68
$GNGGA,224533.800,4910.465297,N,12304.434077,W,4,36,0.54,0.8,M,-16.8,M,1.8,0569*6F
$GNGGA,224533.900,4910.465429,N,12304.434082,W,4,36,0.54,0.8,M,-16.8,M,1.9,0569*66
$GNGGA,224534.000,4910.465559,N,12304.434080,W,4,36,0.54,0.8,M,-16.8,M,2.0,0569*66
$GNGGA,224534.100,4910.465686,N,12304.434085,W,4,36,0.54,0.8,M,-16.8,M,2.1,0569*62
$GNGGA,224534.200,4910.465820,N,12304.434089,W,4,36,0.54,0.8,M,-16.8,M,2.2,0569*6C
$GNGGA,224534.300,4910.465948,N,12304.434085,W,4,36,0.54,0.8,M,-16.8,M,2.3,0569*6F
$GNGGA,224534.400,4910.466080,N,12304.434082,W,4,36,0.60,0.8,M,-16.8,M,1.4,0569*62
$GNGGA,224534.500,4910.466211,N,12304.434084,W,4,35,0.60,0.8,M,-16.8,M,1.5,0569*6D
$GNGGA,224534.600,4910.466345,N,12304.434084,W,4,35,0.60,0.8,M,-16.8,M,1.6,0569*6D
$GNGGA,224534.700,4910.466476,N,12304.434082,W,4,35,0.60,0.8,M,-16.8,M,1.7,0569*6C
$GNGGA,224534.800,4910.466608,N,12304.434084,W,4,35,0.60,0.8,M,-16.8,M,1.8,0569*61
$GNGGA,224534.900,4910.466742,N,12304.434083,W,4,35,0.60,0.8,M,-16.8,M,1.9,0569*69
$GNGGA,224535.000,4910.466873,N,12304.434071,W,4,35,0.60,0.7,M,-16.8,M,2.0,0569*64
$GNGGA,224535.100,4910.467006,N,12304.434069,W,4,35,0.60,0.7,M,-16.8,M,2.1,0569*66
$GNGGA,224535.200,4910.467139,N,12304.434065,W,4,35,0.60,0.7,M,-16.8,M,2.2,0569*67
$GNGGA,224535.300,4910.467276,N,12304.434068,W,4,35,0.60,0.7,M,-16.8,M,2.3,0569*62
$GNGGA,224535.400,4910.467404,N,12304.434054,W,4,35,0.57,0.7,M,-16.8,M,1.4,0569*69
$GNGGA,224535.500,4910.467545,N,12304.434052,W,4,35,0.57,0.7,M,-16.8,M,1.5,0569*6B
$GNGGA,224535.600,4910.467681,N,12304.434050,W,4,35,0.57,0.7,M,-16.8,M,1.6,0569*62
$GNGGA,224535.700,4910.467812,N,12304.434043,W,4,35,0.57,0.7,M,-16.8,M,1.7,0569*64
$GNGGA,224535.800,4910.467948,N,12304.434037,W,4,35,0.57,0.7,M,-16.8,M,1.8,0569*69
$GNGGA,224535.900,4910.468085,N,12304.434032,W,4,35,0.57,0.7,M,-16.8,M,1.9,0569*6B
$GNGGA,224536.000,4910.468217,N,12304.434022,W,4,35,0.57,0.7,M,-16.8,M,2.0,0569*63
$GNGGA,224536.100,4910.468353,N,12304.434021,W,4,35,0.57,0.7,M,-16.8,M,2.1,0569*61
$GNGGA,224536.200,4910.468486,N,12304.434009,W,4,35,0.57,0.7,M,-16.8,M,2.2,0569*64
$GNGGA,224536.300,4910.468622,N,12304.434001,W,4,35,0.57,0.7,M,-16.8,M,2.3,0569*60
$GNGGA,224536.400,4910.468751,N,12304.433985,W,4,35,0.52,0.7,M,-16.8,M,1.4,0569*61
$GNGGA,224536.500,4910.468887,N,12304.433975,W,4,35,0.52,0.7,M,-16.8,M,1.5,0569*6A
$GNGGA,224536.600,4910.469019,N,12304.433967,W,4,35,0.52,0.7,M,-16.8,M,1.6,0569*67
$GNGGA,224536.700,4910.469156,N,12304.433960,W,4,35,0.52,0.7,M,-16.8,M,1.7,0569*6A
$GNGGA,224536.800,4910.469291,N,12304.433954,W,4,35,0.52,0.7,M,-16.8,M,1.8,0569*65
$GNGGA,224536.900,4910.469425,N,12304.433940,W,4,35,0.52,0.7,M,-16.8,M,1.9,0569*69
$GNGGA,224537.000,4910.469560,N,12304.433937,W,4,35,0.52,0.7,M,-16.8,M,2.0,0569*6B
$GNGGA,224537.100,4910.469693,N,12304.433926,W,4,35,0.52,0.7,M,-16.8,M,2.1,0569*64
$GNGGA,224537.200,4910.469830,N,12304.433919,W,4,36,0.52,0.7,M,-16.8,M,2.2,0569*6C
$GNGGA,224537.300,4910.469964,N,12304.433912,W,4,36,0.52,0.7,M,-16.8,M,2.3,0569*67
$GNGGA,224537.400,4910.470106,N,12304.433915,W,4,36,0.55,0.7,M,-16.8,M,1.4,0569*60
$GNGGA,224537.500,4910.470233,N,12304.433898,W,4,36,0.55,0.7,M,-16.8,M,1.5,0569*61
$GNGGA,224537.600,4910.470373,N,12304.433891,W,4,36,0.55,0.7,M,-16.8,M,1.6,0569*6D
$GNGGA,224537.700,4910.470504,N,12304.433885,W,4,36,0.55,0.7,M,-16.8,M,1.7,0569*6E
$GNGGA,224537.800,4910.470640,N,12304.433877,W,4,36,0.55,0.7,M,-16.8,M,1.8,0569*60
$GNGGA,224537.900,4910.470774,N,12304.433871,W,4,36,0.55,0.7,M,-16.8,M,1.9,0569*60
$GNGGA,224538.000,4910.470906,N,12304.433861,W,4,36,0.55,0.7,M,-16.8,M,2.0,0569*66
$GNGGA,224538.100,4910.471038,N,12304.433853,W,4,36,0.55,0.7,M,-16.8,M,2.1,0569*62
$GNGGA,224538.200,4910.471174,N,12304.433851,W,4,36,0.55,0.7,M,-16.8,M,2.2,0569*69
$GNGGA,224538.300,4910.471304,N,12304.433839,W,4,36,0.55,0.7,M,-16.8,M,2.3,0569*62
$GNGGA,224538.400,4910.471440,N,12304.433836,W,4,36,0.52,0.7,M,-16.8,M,1.4,0569*6E
$GNGGA,224538.500,4910.471573,N,12304.433823,W,4,36,0.52,0.7,M,-16.8,M,1.5,0569*6B
$GNGGA,224538.600,4910.471706,N,12304.433821,W,4,36,0.52,0.7,M,-16.8,M,1.6,0569*69
$GNGGA,224538.700,4910.471835,N,12304.433808,W,4,36,0.52,0.7,M,-16.8,M,1.7,0569*6D
$GNGGA,224538.800,4910.471968,N,12304.433807,W,4,36,0.52,0.7,M,-16.8,M,1.8,0569*6B
$GNGGA,224538.900,4910.472099,N,12304.433797,W,4,36,0.52,0.7,M,-16.8,M,1.9,0569*69
$GNGGA,224539.000,4910.472229,N,12304.433794,W,4,36,0.52,0.7,M,-16.8,M,2.0,0569*61
$GNGGA,224539.100,4910.472363,N,12304.433791,W,4,36,0.52,0.7,M,-16.8,M,2.1,0569*6B
$GNGGA,224539.200,4910.472494,N,12304.433783,W,4,36,0.52,0.7,M,-16.8,M,2.2,0569*67
$GNGGA,224539.300,4910.472625,N,12304.433778,W,4,36,0.52,0.7,M,-16.8,M,2.3,0569*6B
$GNGGA,224539.400,4910.472758,N,12304.433771,W,4,36,0.59,0.7,M,-16.8,M,1.4,0569*61
$GNGGA,224539.500,4910.472888,N,12304.433768,W,4,36,0.59,0.7,M,-16.8,M,1.5,0569*6B
$GNGGA,224539.600,4910.473021,N,12304.433768,W,4,36,0.59,0.7,M,-16.8,M,1.6,0569*61
$GNGGA,224539.700,4910.473145,N,12304.433761,W,4,36,0.59,0.7,M,-16.8,M,1.7,0569*6B
$GNGGA,224539.800,4910.473277,N,12304.433753,W,4,36,0.59,0.7,M,-16.8,M,1.8,0569*68
$GNGGA,224539.900,4910.473408,N,12304.433747,W,4,36,0.59,0.7,M,-16.8,M,1.9,0569*63
$GNGGA,224540.000,4910.473537,N,12304.433746,W,4,36,0.59,0.7,M,-16.8,M,2.0,0569*62
$GNGGA,224540.100,4910.473663,N,12304.433739,W,4,36,0.59,0.7,M,-16.8,M,2.1,0569*68
$GNGGA,224540.200,4910.473791,N,12304.433733,W,4,36,0.59,0.7,M,-16.8,M,2.2,0569*6E
$GNGGA,224540.300,4910.473922,N,12304.433726,W,4,36,0.59,0.7,M,-16.8,M,2.3,0569*6C
$GNGGA,224540.400,4910.474050,N,12304.433726,W,4,36,0.61,0.7,M,-16.8,M,1.4,0569*6F
$GNGGA,224540.500,4910.474181,N,12304.433722,W,4,36,0.61,0.7,M,-16.8,M,1.5,0569*66
$GNGGA,224540.600,4910.474302,N,12304.433712,W,4,36,0.61,0.7,M,-16.8,M,1.6,0569*6C
$GNGGA,224540.700,4910.474433,N,12304.433712,W,4,36,0.61,0.7,M,-16.8,M,1.7,0569*69
$GNGGA,224540.800,4910.474558,N,12304.433706,W,4,36,0.61,0.7,M,-16.8,M,1.8,0569*60
$GNGGA,224540.900,4910.474685,N,12304.433700,W,4,36,0.61,0.7,M,-16.8,M,1.9,0569*65
$GNGGA,224541.000,4910.474812,N,12304.433697,W,4,36,0.61,0.7,M,-16.8,M,2.0,0569*68
$GNGGA,224541.100,4910.474935,N,12304.433693,W,4,36,0.61,0.7,M,-16.8,M,2.1,0569*68
$GNGGA,224541.200,4910.475063,N,12304.433689,W,4,36,0.61,0.7,M,-16.8,M,2.2,0569*68
$GNGGA,224541.300,4910.475186,N,12304.433683,W,4,36,0.61,0.7,M,-16.8,M,2.3,0569*68
$GNGGA,224541.400,4910.475312,N,12304.433679,W,4,36,0.63,0.7,M,-16.8,M,1.4,0569*63
$GNGGA,224541.500,4910.475438,N,12304.433679,W,4,36,0.63,0.7,M,-16.8,M,1.5,0569*6C
$GNGGA,224541.600,4910.475563,N,12304.433671,W,4,36,0.63,0.7,M,-16.8,M,1.6,0569*6B
$GNGGA,224541.700,4910.475686,N,12304.433670,W,4,36,0.63,0.7,M,-16.8,M,1.7,0569*62
$GNGGA,224541.800,4910.475814,N,12304.433667,W,4,36,0.63,0.7,M,-16.8,M,1.8,0569*61
$GNGGA,224541.900,4910.475936,N,12304.433661,W,4,36,0.63,0.7,M,-16.8,M,1.9,0569*66
$GNGGA,224542.000,4910.476056,N,12304.433657,W,4,36,0.63,0.7,M,-16.8,M,2.0,0569*6F
$GNGGA,224542.100,4910.476182,N,12304.433654,W,4,36,0.63,0.7,M,-16.8,M,2.1,0569*64
$GNGGA,224542.200,4910.476305,N,12304.433648,W,4,36,0.63,0.7,M,-16.8,M,2.2,0569*64
$GNGGA,224542.300,4910.476426,N,12304.433650,W,4,36,0.63,0.7,M,-16.8,M,2.3,0569*6B
$GNGGA,224542.400,4910.476549,N,12304.433642,W,4,36,0.64,0.7,M,-16.8,M,1.4,0569*64
$GNGGA,224542.500,4910.476669,N,12304.433640,W,4,36,0.64,0.7,M,-16.8,M,1.5,0569*67
$GNGGA,224542.600,4910.476791,N,12304.433637,W,4,36,0.64,0.7,M,-16.8,M,1.6,0569*61
$GNGGA,224542.700,4910.476914,N,12304.433634,W,4,36,0.64,0.7,M,-16.8,M,1.7,0569*61
$GNGGA,224542.800,4910.477034,N,12304.433631,W,4,36,0.64,0.7,M,-16.8,M,1.8,0569*6E
$GNGGA,224542.900,4910.477153,N,12304.433625,W,4,36,0.64,0.7,M,-16.8,M,1.9,0569*6B
$GNGGA,224543.000,4910.477272,N,12304.433622,W,4,36,0.64,0.7,M,-16.8,M,2.0,0569*6E
$GNGGA,224543.100,4910.477393,N,12304.433619,W,4,36,0.64,0.7,M,-16.8,M,2.1,0569*68
$GNGGA,224543.200,4910.477512,N,12304.433615,W,4,36,0.64,0.7,M,-16.8,M,2.2,0569*6B
$GNGGA,224543.300,4910.477629,N,12304.433611,W,4,36,0.64,0.7,M,-16.8,M,2.3,0569*64
$GNGGA,224543.400,4910.477747,N,12304.433609,W,4,37,0.59,0.7,M,-16.8,M,1.4,0569*68
$GNGGA,224543.500,4910.477863,N,12304.433607,W,4,36,0.59,0.7,M,-16.8,M,1.5,0569*6E
$GNGGA,224543.600,4910.477982,N,12304.433604,W,4,36,0.59,0.7,M,-16.8,M,1.6,0569*63
$GNGGA,224543.700,4910.478101,N,12304.433603,W,4,36,0.59,0.7,M,-16.8,M,1.7,0569*68
$GNGGA,224543.800,4910.478217,N,12304.433597,W,4,36,0.59,0.7,M,-16.8,M,1.8,0569*62
$GNGGA,224543.900,4910.478337,N,12304.433597,W,4,36,0.59,0.7,M,-16.8,M,1.9,0569*61
$GNGGA,224544.000,4910.478451,N,12304.433591,W,4,36,0.59,0.7,M,-16.8,M,2.0,0569*64
$GNGGA,224544.100,4910.478565,N,12304.433586,W,4,36,0.59,0.7,M,-16.8,M,2.1,0569*64
$GNGGA,224544.200,4910.478681,N,12304.433583,W,4,36,0.59,0.7,M,-16.8,M,2.2,0569*68
$GNGGA,224544.300,4910.478795,N,12304.433579,W,4,36,0.59,0.7,M,-16.8,M,2.3,0569*69
$GNGGA,224544.400,4910.478913,N,12304.433587,W,4,36,0.55,0.8,M,-16.8,M,1.4,0569*68
$GNGGA,224544.500,4910.479025,N,12304.433583,W,4,36,0.55,0.8,M,-16.8,M,1.5,0569*61
$GNGGA,224544.600,4910.479140,N,12304.433582,W,4,36,0.55,0.8,M,-16.8,M,1.6,0569*62
$GNGGA,224544.700,4910.479249,N,12304.433577,W,4,36,0.55,0.8,M,-16.8,M,1.7,0569*62
$GNGGA,224544.800,4910.479364,N,12304.433574,W,4,37,0.55,0.8,M,-16.8,M,1.8,0569*6E
$GNGGA,224544.900,4910.479470,N,12304.433568,W,4,37,0.55,0.8,M,-16.8,M,1.9,0569*61
$GNGGA,224545.000,4910.479587,N,12304.433567,W,4,37,0.55,0.8,M,-16.8,M,2.0,0569*65
$GNGGA,224545.100,4910.479699,N,12304.433569,W,4,37,0.55,0.8,M,-16.8,M,2.1,0569*67
$GNGGA,224545.200,4910.479804,N,12304.433564,W,4,37,0.55,0.8,M,-16.8,M,2.2,0569*60
$GNGGA,224545.300,4910.479914,N,12304.433561,W,4,37,0.55,0.8,M,-16.8,M,2.3,0569*65
$GNGGA,224545.400,4910.480030,N,12304.433557,W,4,37,0.61,0.8,M,-16.8,M,1.4,0569*6D
$GNGGA,224545.500,4910.480139,N,12304.433552,W,4,37,0.61,0.8,M,-16.8,M,1.5,0569*60
$GNGGA,224545.600,4910.480246,N,12304.433548,W,4,37,0.61,0.8,M,-16.8,M,1.6,0569*60
$GNGGA,224545.700,4910.480357,N,12304.433551,W,4,37,0.61,0.8,M,-16.8,M,1.7,0569*69
$GNGGA,224545.800,4910.480465,N,12304.433549,W,4,36,0.61,0.8,M,-16.8,M,1.8,0569*67
$GNGGA,224545.900,4910.480575,N,12304.433548,W,4,36,0.61,0.8,M,-16.8,M,1.9,0569*66
$GNGGA,224546.000,4910.480686,N,12304.433547,W,4,36,0.61,0.8,M,-16.8,M,2.0,0569*66
$GNGGA,224546.100,4910.480793,N,12304.433544,W,4,36,0.61,0.8,M,-16.8,M,2.1,0569*60
$GNGGA,224546.200,4910.480907,N,12304.433549,W,4,35,0.61,0.8,M,-16.8,M,2.2,0569*6D
$GNGGA,224546.300,4910.481018,N,12304.433551,W,4,37,0.61,0.8,M,-16.8,M,2.3,0569*60
$GNGGA,224546.400,4910.481121,N,12304.433545,W,4,37,0.66,0.8,M,-16.8,M,2.4,0569*69
$GNGGA,224546.500,4910.481228,N,12304.433544,W,4,37,0.66,0.8,M,-16.8,M,2.5,0569*62
$GNGGA,224546.600,4910.481338,N,12304.433549,W,4,37,0.66,0.8,M,-16.8,M,2.6,0569*6F
$GNGGA,224546.700,4910.481447,N,12304.433546,W,4,37,0.66,0.8,M,-16.8,M,2.7,0569*6F
$GNGGA,224546.800,4910.481549,N,12304.433550,W,4,37,0.66,0.8,M,-16.8,M,2.8,0569*67
$GNGGA,224546.900,4910.481659,N,12304.433548,W,4,37,0.66,0.8,M,-16.8,M,2.9,0569*6C
$GNGGA,224547.000,4910.481763,N,12304.433540,W,4,37,0.66,0.8,M,-16.8,M,3.0,0569*6C
$GNGGA,224547.100,4910.481877,N,12304.433547,W,4,37,0.66,0.8,M,-16.8,M,3.1,0569*61
$GNGGA,224547.200,4910.481983,N,12304.433546,W,4,37,0.66,0.8,M,-16.8,M,3.2,0569*6A
$GNGGA,224547.300,4910.482100,N,12304.433542,W,4,37,0.66,0.8,M,-16.8,M,3.3,0569*6E
$GNGGA,224547.400,4910.482180,N,12304.433530,W,4,37,0.66,0.9,M,-16.8,M,1.4,0569*60
$GNGGA,224547.500,4910.482293,N,12304.433534,W,4,37,0.66,0.9,M,-16.8,M,1.5,0569*65
$GNGGA,224547.600,4910.482403,N,12304.433535,W,4,37,0.66,0.9,M,-16.8,M,1.6,0569*6B
$GNGGA,224547.700,4910.482521,N,12304.433533,W,4,37,0.66,0.8,M,-16.8,M,1.7,0569*6D
$GNGGA,224547.800,4910.482622,N,12304.433531,W,4,37,0.66,0.9,M,-16.8,M,1.8,0569*6E
$GNGGA,224547.900,4910.482725,N,12304.433533,W,4,37,0.66,0.9,M,-16.8,M,1.9,0569*6A
$GNGGA,224548.000,4910.482840,N,12304.433542,W,4,37,0.66,0.8,M,-16.8,M,2.0,0569*6D
$GNGGA,224548.100,4910.482954,N,12304.433553,W,4,37,0.66,0.8,M,-16.8,M,2.1,0569*69
$GNGGA,224548.200,4910.483064,N,12304.433548,W,4,37,0.66,0.8,M,-16.8,M,2.2,0569*68
$GNGGA,224548.300,4910.483182,N,12304.433558,W,4,37,0.66,0.8,M,-16.8,M,2.3,0569*60
$GNGGA,224548.400,4910.483273,N,12304.433542,W,4,37,0.57,0.9,M,-16.8,M,1.4,0569*66
$GNGGA,224548.500,4910.483388,N,12304.433546,W,4,37,0.57,0.8,M,-16.8,M,1.5,0569*66
$GNGGA,224548.600,4910.483490,N,12304.433535,W,4,37,0.57,0.8,M,-16.8,M,1.6,0569*6C
$GNGGA,224548.700,4910.483597,N,12304.433539,W,4,37,0.57,0.9,M,-16.8,M,1.7,0569*67
$GNGGA,224548.800,4910.483706,N,12304.433536,W,4,37,0.57,0.8,M,-16.8,M,1.8,0569*63
$GNGGA,224548.900,4910.483817,N,12304.433543,W,4,37,0.57,0.9,M,-16.8,M,1.9,0569*6F
$GNGGA,224549.000,4910.483938,N,12304.433532,W,4,37,0.57,0.8,M,-16.8,M,2.0,0569*66
$GNGGA,224549.100,4910.484046,N,12304.433532,W,4,37,0.57,0.8,M,-16.8,M,2.1,0569*61
$GNGGA,224549.200,4910.484144,N,12304.433515,W,4,37,0.57,0.8,M,-16.8,M,2.2,0569*67
$GNGGA,224549.300,4910.484255,N,12304.433521,W,4,37,0.57,0.9,M,-16.8,M,2.3,0569*62
$GNGGA,224549.400,4910.484365,N,12304.433509,W,4,37,0.55,0.8,M,-16.8,M,2.4,0569*69
$GNGGA,224549.500,4910.484473,N,12304.433496,W,4,37,0.55,0.8,M,-16.8,M,2.5,0569*6E
$GNGGA,224549.600,4910.484584,N,12304.433484,W,4,37,0.55,0.8,M,-16.8,M,2.6,0569*64
$GNGGA,224549.700,4910.484702,N,12304.433482,W,4,37,0.55,0.8,M,-16.8,M,2.7,0569*6E
$GNGGA,224549.800,4910.484803,N,12304.433443,W,4,37,0.55,0.8,M,-16.8,M,2.8,0569*6D
$GNGGA,224549.900,4910.484912,N,12304.433442,W,4,37,0.55,0.8,M,-16.8,M,2.9,0569*6D
$GNGGA,224550.000,4910.485022,N,12304.433439,W,4,37,0.55,0.8,M,-16.8,M,3.0,0569*63
$GNGGA,224550.100,4910.485130,N,12304.433425,W,4,37,0.55,0.8,M,-16.8,M,3.1,0569*6C
$GNGGA,224550.200,4910.485239,N,12304.433411,W,4,37,0.55,0.8,M,-16.8,M,3.2,0569*61
$GNGGA,224550.300,4910.485347,N,12304.433407,W,4,37,0.55,0.8,M,-16.8,M,3.3,0569*6E
$GNGGA,224550.400,4910.485461,N,12304.433404,W,4,37,0.54,0.8,M,-16.8,M,1.4,0569*6D
$GNGGA,224550.500,4910.485580,N,12304.433402,W,4,37,0.54,0.8,M,-16.8,M,1.5,0569*65
$GNGGA,224550.600,4910.485688,N,12304.433406,W,4,37,0.54,0.9,M,-16.8,M,1.6,0569*6B
$GNGGA,224550.700,4910.485797,N,12304.433402,W,4,37,0.54,0.9,M,-16.8,M,1.7,0569*60
$GNGGA,224550.800,4910.485908,N,12304.433381,W,4,37,0.54,0.8,M,-16.8,M,1.8,0569*65
$GNGGA,224550.900,4910.486018,N,12304.433367,W,4,37,0.54,0.8,M,-16.8,M,1.9,0569*66
$GNGGA,224551.000,4910.486132,N,12304.433356,W,4,37,0.54,0.8,M,-16.8,M,2.0,0569*6F
$GNGGA,224551.100,4910.486249,N,12304.433343,W,4,37,0.54,0.8,M,-16.8,M,2.1,0569*64
$GNGGA,224551.200,4910.486357,N,12304.433339,W,4,37,0.54,0.8,M,-16.8,M,2.2,0569*67
$GNGGA,224551.300,4910.486464,N,12304.433331,W,4,37,0.54,0.8,M,-16.8,M,2.3,0569*68
$GNGGA,224551.400,4910.486580,N,12304.433333,W,4,37,0.49,0.9,M,-16.8,M,1.4,0569*6F
$GNGGA,224551.500,4910.486694,N,12304.433328,W,4,37,0.49,0.8,M,-16.8,M,1.5,0569*62
$GNGGA,224551.600,4910.486798,N,12304.433323,W,4,37,0.49,0.8,M,-16.8,M,1.6,0569*64
$GNGGA,224551.700,4910.486910,N,12304.433318,W,4,37,0.49,0.8,M,-16.8,M,1.7,0569*62
$GNGGA,224551.800,4910.487024,N,12304.433318,W,4,37,0.49,0.8,M,-16.8,M,1.8,0569*6D
$GNGGA,224551.900,4910.487137,N,12304.433306,W,4,37,0.49,0.8,M,-16.8,M,1.9,0569*61
$GNGGA,224552.000,4910.487244,N,12304.433298,W,4,37,0.49,0.8,M,-16.8,M,2.0,0569*60
$GNGGA,224552.100,4910.487353,N,12304.433293,W,4,37,0.49,0.8,M,-16.8,M,2.1,0569*6C
$GNGGA,224552.200,4910.487469,N,12304.433292,W,4,37,0.49,0.8,M,-16.8,M,2.2,0569*63
$GNGGA,224552.300,4910.487581,N,12304.433289,W,4,37,0.49,0.8,M,-16.8,M,2.3,0569*6E
$GNGGA,224552.400,4910.487691,N,12304.433275,W,4,37,0.53,0.8,M,-16.8,M,1.4,0569*67
$GNGGA,224552.500,4910.487807,N,12304.433274,W,4,37,0.53,0.8,M,-16.8,M,1.5,0569*67
$GNGGA,224552.600,4910.487917,N,12304.433263,W,4,37,0.53,0.8,M,-16.8,M,1.6,0569*61
$GNGGA,224552.700,4910.488032,N,12304.433261,W,4,37,0.53,0.8,M,-16.8,M,1.7,0569*62
$GNGGA,224552.800,4910.488150,N,12304.433258,W,4,37,0.53,0.8,M,-16.8,M,1.8,0569*6D
$GNGGA,224552.900,4910.488258,N,12304.433258,W,4,37,0.53,0.8,M,-16.8,M,1.9,0569*66
$GNGGA,224553.000,4910.488370,N,12304.433249,W,4,37,0.53,0.8,M,-16.8,M,2.0,0569*6F
$GNGGA,224553.100,4910.488485,N,12304.433250,W,4,37,0.53,0.8,M,-16.8,M,2.1,0569*6A
$GNGGA,224553.200,4910.488600,N,12304.433239,W,4,37,0.53,0.8,M,-16.8,M,2.2,0569*6A
$GNGGA,224553.300,4910.488715,N,12304.433240,W,4,37,0.53,0.8,M,-16.8,M,2.3,0569*61
$GNGGA,224553.400,4910.488827,N,12304.433234,W,4,37,0.52,0.8,M,-16.8,M,1.4,0569*6E
$GNGGA,224553.500,4910.488946,N,12304.433238,W,4,37,0.52,0.8,M,-16.8,M,1.5,0569*64
$GNGGA,224553.600,4910.489057,N,12304.433226,W,4,37,0.52,0.8,M,-16.8,M,1.6,0569*63
$GNGGA,224553.700,4910.489179,N,12304.433224,W,4,37,0.52,0.8,M,-16.8,M,1.7,0569*6C
$GNGGA,224553.800,4910.489292,N,12304.433214,W,4,37,0.52,0.8,M,-16.8,M,1.8,0569*69
$GNGGA,224553.900,4910.489407,N,12304.433214,W,4,37,0.52,0.8,M,-16.8,M,1.9,0569*63
$GNGGA,224554.000,4910.489528,N,12304.433212,W,4,37,0.52,0.8,M,-16.8,M,2.0,0569*6D
$GNGGA,224554.100,4910.489648,N,12304.433212,W,4,37,0.52,0.8,M,-16.8,M,2.1,0569*68
$GNGGA,224554.200,4910.489767,N,12304.433194,W,4,37,0.52,0.8,M,-16.8,M,2.2,0569*69
$GNGGA,224554.300,4910.489885,N,12304.433190,W,4,37,0.52,0.8,M,-16.8,M,2.3,0569*6E
$GNGGA,224554.400,4910.490000,N,12304.433179,W,4,37,0.51,0.8,M,-16.8,M,1.4,0569*64
$GNGGA,224554.500,4910.490121,N,12304.433171,W,4,37,0.51,0.8,M,-16.8,M,1.5,0569*6E
$GNGGA,224554.600,4910.490245,N,12304.433170,W,4,37,0.51,0.8,M,-16.8,M,1.6,0569*6E
$GNGGA,224554.700,4910.490363,N,12304.433166,W,4,37,0.51,0.8,M,-16.8,M,1.7,0569*6C
$GNGGA,224554.800,4910.490490,N,12304.433161,W,4,37,0.51,0.8,M,-16.8,M,1.8,0569*60
$GNGGA,224554.900,4910.490613,N,12304.433158,W,4,37,0.51,0.8,M,-16.8,M,1.9,0569*63
$GNGGA,224555.000,4910.490735,N,12304.433152,W,4,37,0.51,0.8,M,-16.8,M,2.0,0569*6E
$GNGGA,224555.100,4910.490858,N,12304.433148,W,4,37,0.51,0.8,M,-16.8,M,2.1,0569*61
$GNGGA,224555.200,4910.490983,N,12304.433146,W,4,37,0.51,0.8,M,-16.8,M,2.2,0569*68
$GNGGA,224555.300,4910.491108,N,12304.433146,W,4,37,0.51,0.8,M,-16.8,M,2.3,0569*62
$GNGGA,224555.400,4910.491233,N,12304.433139,W,4,37,0.51,0.8,M,-16.8,M,1.4,0569*62
$GNGGA,224555.500,4910.491362,N,12304.433133,W,4,37,0.51,0.8,M,-16.8,M,1.5,0569*6D
$GNGGA,224555.600,4910.491487,N,12304.433131,W,4,37,0.51,0.8,M,-16.8,M,1.6,0569*63
$GNGGA,224555.700,4910.491608,N,12304.433113,W,4,37,0.51,0.8,M,-16.8,M,1.7,0569*66
$GNGGA,224555.800,4910.491732,N,12304.433117,W,4,37,0.51,0.8,M,-16.8,M,1.8,0569*6A
$GNGGA,224555.900,4910.491860,N,12304.433105,W,4,37,0.51,0.8,M,-16.8,M,1.9,0569*61
$GNGGA,224556.000,4910.491984,N,12304.433108,W,4,37,0.51,0.8,M,-16.8,M,2.0,0569*67
$GNGGA,224556.100,4910.492110,N,12304.433106,W,4,37,0.51,0.8,M,-16.8,M,2.1,0569*6F
$GNGGA,224556.200,4910.492237,N,12304.433091,W,4,37,0.51,0.8,M,-16.8,M,2.2,0569*66
$GNGGA,224556.300,4910.492363,N,12304.433082,W,4,37,0.51,0.8,M,-16.8,M,2.3,0569*64
$GNGGA,224556.400,4910.492489,N,12304.433078,W,4,37,0.53,0.7,M,-16.8,M,1.4,0569*6C
$GNGGA,224556.500,4910.492615,N,12304.433080,W,4,37,0.53,0.8,M,-16.8,M,1.5,0569*63
$GNGGA,224556.600,4910.492738,N,12304.433079,W,4,37,0.53,0.8,M,-16.8,M,1.6,0569*6B
$GNGGA,224556.700,4910.492864,N,12304.433077,W,4,37,0.53,0.8,M,-16.8,M,1.7,0569*63
$GNGGA,224556.800,4910.492986,N,12304.433070,W,4,37,0.53,0.8,M,-16.8,M,1.8,0569*69
$GNGGA,224556.900,4910.493106,N,12304.433071,W,4,37,0.53,0.8,M,-16.8,M,1.9,0569*69
$GNGGA,224557.000,4910.493227,N,12304.433063,W,4,37,0.53,0.8,M,-16.8,M,2.0,0569*68
$GNGGA,224557.100,4910.493345,N,12304.433065,W,4,37,0.53,0.8,M,-16.8,M,2.1,0569*6B
$GNGGA,224557.200,4910.493462,N,12304.433060,W,4,37,0.53,0.8,M,-16.8,M,2.2,0569*6C
$GNGGA,224557.300,4910.493581,N,12304.433056,W,4,37,0.53,0.8,M,-16.8,M,2.3,0569*65
$GNGGA,224557.400,4910.493700,N,12304.433056,W,4,37,0.50,0.8,M,-16.8,M,1.4,0569*6E
$GNGGA,224557.500,4910.493818,N,12304.433053,W,4,37,0.50,0.8,M,-16.8,M,1.5,0569*6D
$GNGGA,224557.600,4910.493935,N,12304.433052,W,4,37,0.50,0.8,M,-16.8,M,1.6,0569*62
$GNGGA,224557.700,4910.494055,N,12304.433051,W,4,37,0.50,0.7,M,-16.8,M,1.7,0569*66
$GNGGA,224557.800,4910.494176,N,12304.433046,W,4,37,0.50,0.7,M,-16.8,M,1.8,0569*60
$GNGGA,224557.900,4910.494297,N,12304.433047,W,4,37,0.50,0.7,M,-16.8,M,1.9,0569*6D
$GNGGA,224558.000,4910.494419,N,12304.433047,W,4,37,0.50,0.7,M,-16.8,M,2.0,0569*61
$GNGGA,224558.100,4910.494536,N,12304.433040,W,4,37,0.50,0.7,M,-16.8,M,2.1,0569*6A
$GNGGA,224558.200,4910.494657,N,12304.433043,W,4,37,0.50,0.7,M,-16.8,M,2.2,0569*6D
$GNGGA,224558.300,4910.494778,N,12304.433041,W,4,37,0.50,0.7,M,-16.8,M,2.3,0569*63
$GNGGA,224558.400,4910.494897,N,12304.433036,W,4,37,0.54,0.7,M,-16.8,M,1.4,0569*6A
$GNGGA,224558.500,4910.495020,N,12304.433037,W,4,37,0.54,0.8,M,-16.8,M,1.5,0569*61
$GNGGA,224558.600,4910.495137,N,12304.433033,W,4,37,0.54,0.7,M,-16.8,M,1.6,0569*6D
$GNGGA,224558.700,4910.495261,N,12304.433034,W,4,37,0.54,0.7,M,-16.8,M,1.7,0569*6A
$GNGGA,224558.800,4910.495382,N,12304.433032,W,4,37,0.54,0.7,M,-16.8,M,1.8,0569*60
$GNGGA,224558.900,4910.495501,N,12304.433033,W,4,37,0.54,0.7,M,-16.8,M,1.9,0569*6C
$GNGGA,224559.000,4910.495621,N,12304.433029,W,4,37,0.54,0.7,M,-16.8,M,2.0,0569*64
$GNGGA,224559.100,4910.495744,N,12304.433029,W,4,37,0.54,0.7,M,-16.8,M,2.1,0569*66
$GNGGA,224559.200,4910.495863,N,12304.433029,W,4,37,0.54,0.7,M,-16.8,M,2.2,0569*6C
$GNGGA,224559.300,4910.495985,N,12304.433026,W,4,37,0.54,0.7,M,-16.8,M,2.3,0569*6A
$GNGGA,224559.400,4910.496105,N,12304.433026,W,4,37,0.58,0.7,M,-16.8,M,1.4,0569*66
$GNGGA,224559.500,4910.496227,N,12304.433026,W,4,37,0.58,0.7,M,-16.8,M,1.5,0569*65
$GNGGA,224559.600,4910.496350,N,12304.433027,W,4,37,0.58,0.7,M,-16.8,M,1.6,0569*65
$GNGGA,224559.700,4910.496468,N,12304.433023,W,4,37,0.58,0.7,M,-16.8,M,1.7,0569*6D
$GNGGA,224559.800,4910.496587,N,12304.433020,W,4,37,0.58,0.7,M,-16.8,M,1.8,0569*6E
$GNGGA,224559.900,4910.496709,N,12304.433021,W,4,37,0.58,0.7,M,-16.8,M,1.9,0569*6B
$GNGGA,224600.000,4910.496832,N,12304.433028,W,4,37,0.58,0.7,M,-16.8,M,2.0,0569*69
$GNGGA,224600.100,4910.496951,N,12304.433025,W,4,37,0.58,0.7,M,-16.8,M,2.1,0569*60
$GNGGA,224600.200,4910.497069,N,12304.433019,W,4,37,0.58,0.7,M,-16.8,M,2.2,0569*6C
$GNGGA,224600.300,4910.497190,N,12304.433018,W,4,37,0.58,0.7,M,-16.8,M,2.3,0569*6A
$GNGGA,224600.400,4910.497310,N,12304.433018,W,4,37,0.49,0.7,M,-16.8,M,1.4,0569*63
$GNGGA,224600.500,4910.497430,N,12304.433018,W,4,37,0.49,0.7,M,-16.8,M,1.5,0569*66
$GNGGA,224600.600,4910.497550,N,12304.433020,W,4,37,0.49,0.7,M,-16.8,M,1.6,0569*6A
$GNGGA,224600.700,4910.497669,N,12304.433022,W,4,36,0.49,0.7,M,-16.8,M,1.7,0569*60
$GNGGA,224600.800,4910.497790,N,12304.433021,W,4,37,0.49,0.7,M,-16.8,M,1.8,0569*65
$GNGGA,224600.900,4910.497911,N,12304.433021,W,4,36,0.49,0.7,M,-16.8,M,1.9,0569*63
$GNGGA,224601.000,4910.498029,N,12304.433026,W,4,36,0.49,0.7,M,-16.8,M,2.0,0569*6B
$GNGGA,224601.100,4910.498146,N,12304.433029,W,4,36,0.49,0.7,M,-16.8,M,2.1,0569*6C
$GNGGA,224601.200,4910.498265,N,12304.433031,W,4,37,0.49,0.7,M,-16.8,M,2.2,0569*66
$GNGGA,224601.300,4910.498382,N,12304.433034,W,4,37,0.49,0.7,M,-16.8,M,2.3,0569*6B
$GNGGA,224601.400,4910.498508,N,12304.433040,W,4,37,0.47,0.7,M,-16.8,M,1.4,0569*61
$GNGGA,224601.500,4910.498625,N,12304.433041,W,4,37,0.47,0.7,M,-16.8,M,1.5,0569*6C
$GNGGA,224601.600,4910.498743,N,12304.433043,W,4,37,0.47,0.7,M,-16.8,M,1.6,0569*6F
$GNGGA,224601.700,4910.498860,N,12304.433049,W,4,37,0.47,0.7,M,-16.8,M,1.7,0569*6B
$GNGGA,224601.800,4910.498977,N,12304.433052,W,4,37,0.47,0.7,M,-16.8,M,1.8,0569*66
$GNGGA,224601.900,4910.499094,N,12304.433056,W,4,37,0.47,0.7,M,-16.8,M,1.9,0569*67
$GNGGA,224602.000,4910.499209,N,12304.433061,W,4,37,0.47,0.7,M,-16.8,M,2.0,0569*65
$GNGGA,224602.100,4910.499324,N,12304.433063,W,4,37,0.47,0.7,M,-16.8,M,2.1,0569*69
$GNGGA,224602.200,4910.499434,N,12304.433066,W,4,37,0.47,0.7,M,-16.8,M,2.2,0569*6A
$GNGGA,224602.300,4910.499539,N,12304.433070,W,4,37,0.47,0.7,M,-16.8,M,2.3,0569*61
$GNGGA,224602.400,4910.499633,N,12304.433071,W,4,37,0.53,0.7,M,-16.8,M,1.4,0569*6F
$GNGGA,224602.500,4910.499732,N,12304.433077,W,4,37,0.53,0.7,M,-16.8,M,1.5,0569*69
$GNGGA,224602.600,4910.499823,N,12304.433080,W,4,37,0.53,0.7,M,-16.8,M,1.6,0569*6E
$GNGGA,224602.700,4910.499910,N,12304.433081,W,4,37,0.53,0.7,M,-16.8,M,1.7,0569*6E
$GNGGA,224602.800,4910.499995,N,12304.433087,W,4,37,0.53,0.7,M,-16.8,M,1.8,0569*65
$GNGGA,224602.900,4910.500075,N,12304.433085,W,4,37,0.53,0.7,M,-16.8,M,1.9,0569*61
$GNGGA,224603.000,4910.500154,N,12304.433090,W,4,37,0.53,0.7,M,-16.8,M,2.0,0569*65
$GNGGA,224603.100,4910.500229,N,12304.433095,W,4,37,0.53,0.7,M,-16.8,M,2.1,0569*69
$GNGGA,224603.200,4910.500301,N,12304.433098,W,4,37,0.53,0.7,M,-16.8,M,2.2,0569*6F
$GNGGA,224603.300,4910.500372,N,12304.433102,W,4,37,0.53,0.7,M,-16.8,M,2.3,0569*69
$GNGGA,224603.400,4910.500437,N,12304.433103,W,4,37,0.51,0.7,M,-16.8,M,1.4,0569*6F
$GNGGA,224603.500,4910.500505,N,12304.433107,W,4,37,0.51,0.7,M,-16.8,M,1.5,0569*6B
$GNGGA,224603.600,4910.500575,N,12304.433111,W,4,37,0.51,0.7,M,-16.8,M,1.6,0569*6B
$GNGGA,224603.700,4910.500645,N,12304.433115,W,4,37,0.51,0.7,M,-16.8,M,1.7,0569*6F
$GNGGA,224603.800,4910.500718,N,12304.433121,W,4,37,0.51,0.7,M,-16.8,M,1.8,0569*61
$GNGGA,224603.900,4910.500792,N,12304.433123,W,4,37,0.51,0.7,M,-16.8,M,1.9,0569*61
$GNGGA,224604.000,4910.500868,N,12304.433126,W,4,37,0.51,0.7,M,-16.8,M,2.0,0569*6A
$GNGGA,224604.100,4910.500943,N,12304.433129,W,4,37,0.51,0.7,M,-16.8,M,2.1,0569*6D
$GNGGA,224604.200,4910.501018,N,12304.433131,W,4,37,0.51,0.7,M,-16.8,M,2.2,0569*62
$GNGGA,224604.300,4910.501098,N,12304.433132,W,4,37,0.51,0.7,M,-16.8,M,2.3,0569*69
$GNGGA,224604.400,4910.501179,N,12304.433138,W,4,37,0.47,0.7,M,-16.8,M,1.4,0569*69
$GNGGA,224604.500,4910.501267,N,12304.433140,W,4,37,0.47,0.7,M,-16.8,M,1.5,0569*6A
$GNGGA,224604.600,4910.501358,N,12304.433143,W,4,37,0.47,0.7,M,-16.8,M,1.6,0569*64
$GNGGA,224604.700,4910.501458,N,12304.433147,W,4,37,0.47,0.7,M,-16.8,M,1.7,0569*67
$GNGGA,224604.800,4910.501562,N,12304.433149,W,4,37,0.47,0.7,M,-16.8,M,1.8,0569*61
$GNGGA,224604.900,4910.501677,N,12304.433155,W,4,37,0.47,0.7,M,-16.8,M,1.9,0569*6B
$GNGGA,224605.000,4910.501796,N,12304.433161,W,4,37,0.47,0.7,M,-16.8,M,2.0,0569*60
$GNGGA,224605.100,4910.501926,N,12304.433170,W,4,37,0.47,0.7,M,-16.8,M,2.1,0569*65
$GNGGA,224605.200,4910.502062,N,12304.433177,W,4,37,0.47,0.7,M,-16.8,M,2.2,0569*68
$GNGGA,224605.300,4910.502201,N,12304.433187,W,4,37,0.47,0.7,M,-16.8,M,2.3,0569*60
$GNGGA,224605.400,4910.502343,N,12304.433199,W,4,37,0.48,0.7,M,-16.8,M,1.4,0569*64
$GNGGA,224605.500,4910.502494,N,12304.433205,W,4,37,0.48,0.7,M,-16.8,M,1.5,0569*6F
$GNGGA,224605.600,4910.502645,N,12304.433213,W,4,37,0.48,0.7,M,-16.8,M,1.6,0569*66
$GNGGA,224605.700,4910.502800,N,12304.433222,W,4,37,0.48,0.7,M,-16.8,M,1.7,0569*6B
$GNGGA,224605.800,4910.502953,N,12304.433228,W,4,37,0.48,0.7,M,-16.8,M,1.8,0569*66
$GNGGA,224605.900,4910.503107,N,12304.433238,W,4,37,0.48,0.7,M,-16.8,M,1.9,0569*6F
$GNGGA,224606.000,4910.503260,N,12304.433245,W,4,37,0.48,0.7,M,-16.8,M,2.0,0569*67
$GNGGA,224606.100,4910.503414,N,12304.433261,W,4,37,0.48,0.8,M,-16.8,M,2.1,0569*6B
$GNGGA,224606.200,4910.503561,N,12304.433272,W,4,37,0.48,0.8,M,-16.8,M,2.2,0569*6A
$GNGGA,224606.300,4910.503713,N,12304.433286,W,4,37,0.48,0.8,M,-16.8,M,2.3,0569*66
$GNGGA,224606.400,4910.503862,N,12304.433295,W,4,37,0.46,0.8,M,-16.8,M,1.4,0569*60
$GNGGA,224606.500,4910.504011,N,12304.433304,W,4,37,0.46,0.8,M,-16.8,M,1.5,0569*62
$GNGGA,224606.600,4910.504159,N,12304.433319,W,4,37,0.46,0.8,M,-16.8,M,1.6,0569*63
$GNGGA,224606.700,4910.504301,N,12304.433328,W,4,37,0.46,0.8,M,-16.8,M,1.7,0569*6E
$GNGGA,224606.800,4910.504448,N,12304.433336,W,4,37,0.46,0.8,M,-16.8,M,1.8,0569*6B
$GNGGA,224606.900,4910.504599,N,12304.433353,W,4,37,0.46,0.8,M,-16.8,M,1.9,0569*65
$GNGGA,224607.000,4910.504752,N,12304.433365,W,4,37,0.46,0.8,M,-16.8,M,2.0,0569*67
$GNGGA,224607.100,4910.504908,N,12304.433376,W,4,37,0.46,0.8,M,-16.8,M,2.1,0569*64
$GNGGA,224607.200,4910.505067,N,12304.433385,W,4,37,0.46,0.8,M,-16.8,M,2.2,0569*69
$GNGGA,224607.300,4910.505232,N,12304.433398,W,4,37,0.46,0.8,M,-16.8,M,2.3,0569*67
$GNGGA,224607.400,4910.505400,N,12304.433408,W,4,37,0.47,0.8,M,-16.8,M,1.4,0569*6C
$GNGGA,224607.500,4910.505567,N,12304.433424,W,4,37,0.47,0.8,M,-16.8,M,1.5,0569*62
$GNGGA,224607.600,4910.505736,N,12304.433435,W,4,37,0.47,0.8,M,-16.8,M,1.6,0569*64
$GNGGA,224607.700,4910.505908,N,12304.433448,W,4,37,0.47,0.8,M,-16.8,M,1.7,0569*6D
$GNGGA,224607.800,4910.506080,N,12304.433456,W,4,37,0.47,0.8,M,-16.8,M,1.8,0569*68
$GNGGA,224607.900,4910.506255,N,12304.433470,W,4,37,0.47,0.8,M,-16.8,M,1.9,0569*66
$GNGGA,224608.000,4910.506430,N,12304.433484,W,4,37,0.47,0.8,M,-16.8,M,2.0,0569*64
$GNGGA,224608.100,4910.506602,N,12304.433498,W,4,37,0.47,0.8,M,-16.8,M,2.1,0569*6A
$GNGGA,224608.200,4910.506777,N,12304.433510,W,4,37,0.47,0.8,M,-16.8,M,2.2,0569*68
$GNGGA,224608.300,4910.506952,N,12304.433523,W,4,37,0.47,0.8,M,-16.8,M,2.3,0569*61
$GNGGA,224608.400,4910.507128,N,12304.433530,W,4,37,0.47,0.7,M,-16.8,M,1.4,0569*6B
$GNGGA,224608.500,4910.507301,N,12304.433542,W,4,37,0.47,0.7,M,-16.8,M,1.5,0569*67
$GNGGA,224608.600,4910.507474,N,12304.433552,W,4,37,0.47,0.7,M,-16.8,M,1.6,0569*63
$GNGGA,224608.700,4910.507643,N,12304.433564,W,4,37,0.47,0.7,M,-16.8,M,1.7,0569*60
$GNGGA,224608.800,4910.507815,N,12304.433578,W,4,37,0.47,0.7,M,-16.8,M,1.8,0569*60
$GNGGA,224608.900,4910.507983,N,12304.433586,W,4,37,0.47,0.7,M,-16.8,M,1.9,0569*6F
$GNGGA,224609.000,4910.508152,N,12304.433599,W,4,37,0.47,0.7,M,-16.8,M,2.0,0569*68
$GNGGA,224609.100,4910.508322,N,12304.433610,W,4,37,0.47,0.7,M,-16.8,M,2.1,0569*6F
$GNGGA,224609.200,4910.508486,N,12304.433618,W,4,37,0.47,0.7,M,-16.8,M,2.2,0569*6E
$GNGGA,224609.300,4910.508654,N,12304.433626,W,4,37,0.47,0.7,M,-16.8,M,2.3,0569*6E
$GNGGA,224609.400,4910.508821,N,12304.433635,W,4,37,0.49,0.7,M,-16.8,M,1.4,0569*6D
$GNGGA,224609.500,4910.508990,N,12304.433646,W,4,37,0.49,0.7,M,-16.8,M,1.5,0569*62
$GNGGA,224609.600,4910.509164,N,12304.433660,W,4,37,0.49,0.7,M,-16.8,M,1.6,0569*64
$GNGGA,224609.700,4910.509337,N,12304.433668,W,4,37,0.49,0.7,M,-16.8,M,1.7,0569*68
$GNGGA,224609.800,4910.509516,N,12304.433677,W,4,37,0.49,0.7,M,-16.8,M,1.8,0569*63
$GNGGA,224609.900,4910.509693,N,12304.433691,W,4,37,0.49,0.7,M,-16.8,M,1.9,0569*65
$GNGGA,224610.000,4910.509872,N,12304.433703,W,4,37,0.49,0.7,M,-16.8,M,2.0,0569*65
$GNGGA,224610.100,4910.510052,N,12304.433706,W,4,37,0.49,0.7,M,-16.8,M,2.1,0569*62
$GNGGA,224610.200,4910.510234,N,12304.433710,W,4,37,0.49,0.7,M,-16.8,M,2.2,0569*67
$GNGGA,224610.300,4910.510419,N,12304.433717,W,4,37,0.49,0.7,M,-16.8,M,2.3,0569*69
$GNGGA,224610.400,4910.510604,N,12304.433728,W,4,37,0.47,0.7,M,-16.8,M,1.4,0569*66
$GNGGA,224610.500,4910.510792,N,12304.433739,W,4,37,0.47,0.7,M,-16.8,M,1.5,0569*68
$GNGGA,224610.600,4910.510980,N,12304.433747,W,4,37,0.47,0.7,M,-16.8,M,1.6,0569*6C
$GNGGA,224610.700,4910.511163,N,12304.433756,W,4,37,0.47,0.7,M,-16.8,M,1.7,0569*68
$GNGGA,224610.800,4910.511353,N,12304.433761,W,4,37,0.47,0.7,M,-16.8,M,1.8,0569*6D
$GNGGA,224610.900,4910.511540,N,12304.433763,W,4,37,0.47,0.7,M,-16.8,M,1.9,0569*6B
$GNGGA,224611.000,4910.511724,N,12304.433765,W,4,37,0.47,0.7,M,-16.8,M,2.0,0569*6F
$GNGGA,224611.100,4910.511908,N,12304.433773,W,4,37,0.47,0.7,M,-16.8,M,2.1,0569*68
$GNGGA,224611.200,4910.512095,N,12304.433786,W,4,37,0.47,0.7,M,-16.8,M,2.2,0569*6C
$GNGGA,224611.300,4910.512279,N,12304.433793,W,4,37,0.47,0.7,M,-16.8,M,2.3,0569*68
$GNGGA,224611.400,4910.512467,N,12304.433798,W,4,37,0.47,0.7,M,-16.8,M,1.4,0569*69
$GNGGA,224611.500,4910.512654,N,12304.433798,W,4,37,0.47,0.7,M,-16.8,M,1.5,0569*6B
$GNGGA,224611.600,4910.512834,N,12304.433799,W,4,37,0.47,0.7,M,-16.8,M,1.6,0569*62
$GNGGA,224611.700,4910.513017,N,12304.433804,W,4,37,0.47,0.7,M,-16.8,M,1.7,0569*61
$GNGGA,224611.800,4910.513200,N,12304.433810,W,4,37,0.47,0.7,M,-16.8,M,1.8,0569*60
$GNGGA,224611.900,4910.513379,N,12304.433818,W,4,37,0.47,0.7,M,-16.8,M,1.9,0569*67
$GNGGA,224612.000,4910.513556,N,12304.433828,W,4,37,0.47,0.7,M,-16.8,M,2.0,0569*6F
$GNGGA,224612.100,4910.513733,N,12304.433833,W,4,37,0.47,0.7,M,-16.8,M,2.1,0569*64
$GNGGA,224612.200,4910.513915,N,12304.433836,W,4,37,0.47,0.7,M,-16.8,M,2.2,0569*6B
$GNGGA,224612.300,4910.514095,N,12304.433838,W,4,37,0.47,0.7,M,-16.8,M,2.3,0569*63
$GNGGA,224612.400,4910.514275,N,12304.433843,W,4,37,0.50,0.7,M,-16.8,M,1.4,0569*66
$GNGGA,224612.500,4910.514452,N,12304.433848,W,4,37,0.50,0.6,M,-16.8,M,1.5,0569*6F
$GNGGA,224612.600,4910.514630,N,12304.433853,W,4,37,0.50,0.6,M,-16.8,M,1.6,0569*63
$GNGGA,224612.700,4910.514809,N,12304.433855,W,4,37,0.50,0.6,M,-16.8,M,1.7,0569*61
$GNGGA,224612.800,4910.514987,N,12304.433859,W,4,37,0.50,0.6,M,-16.8,M,1.8,0569*6A
$GNGGA,224612.900,4910.515162,N,12304.433861,W,4,37,0.50,0.6,M,-16.8,M,1.9,0569*63
$GNGGA,224613.000,4910.515336,N,12304.433861,W,4,37,0.50,0.6,M,-16.8,M,2.0,0569*62
$GNGGA,224613.100,4910.515511,N,12304.433864,W,4,37,0.50,0.6,M,-16.8,M,2.1,0569*64
$GNGGA,224613.200,4910.515687,N,12304.433872,W,4,37,0.50,0.6,M,-16.8,M,2.2,0569*6F
$GNGGA,224613.300,4910.515862,N,12304.433877,W,4,37,0.50,0.6,M,-16.8,M,2.3,0569*6F
$GNGGA,224613.400,4910.516035,N,12304.433878,W,4,38,0.47,0.6,M,-16.8,M,1.4,0569*63
$GNGGA,224613.500,4910.516209,N,12304.433878,W,4,38,0.47,0.6,M,-16.8,M,1.5,0569*6E
$GNGGA,224613.600,4910.516381,N,12304.433881,W,4,38,0.47,0.6,M,-16.8,M,1.6,0569*69
$GNGGA,224613.700,4910.516554,N,12304.433884,W,4,38,0.47,0.6,M,-16.8,M,1.7,0569*62
$GNGGA,224613.800,4910.516728,N,12304.433888,W,4,38,0.47,0.6,M,-16.8,M,1.8,0569*67
$GNGGA,224613.900,4910.516899,N,12304.433886,W,4,38,0.47,0.6,M,-16.8,M,1.9,0569*6C
$GNGGA,224614.000,4910.517065,N,12304.433888,W,4,38,0.47,0.6,M,-16.8,M,2.0,0569*6C
$GNGGA,224614.100,4910.517233,N,12304.433886,W,4,38,0.47,0.6,M,-16.8,M,2.1,0569*63
$GNGGA,224614.200,4910.517402,N,12304.433886,W,4,38,0.47,0.6,M,-16.8,M,2.2,0569*67
$GNGGA,224614.300,4910.517569,N,12304.433888,W,4,38,0.47,0.6,M,-16.8,M,2.3,0569*65
$GNGGA,224614.400,4910.517735,N,12304.433890,W,4,38,0.47,0.6,M,-16.8,M,1.4,0569*64
$GNGGA,224614.500,4910.517899,N,12304.433896,W,4,38,0.47,0.6,M,-16.8,M,1.5,0569*6B
$GNGGA,224614.600,4910.518064,N,12304.433897,W,4,38,0.47,0.6,M,-16.8,M,1.6,0569*6F
$GNGGA,224614.700,4910.518229,N,12304.433898,W,4,38,0.47,0.6,M,-16.8,M,1.7,0569*6B
$GNGGA,224614.800,4910.518393,N,12304.433897,W,4,38,0.47,0.6,M,-16.8,M,1.8,0569*64
$GNGGA,224614.900,4910.518557,N,12304.433898,W,4,38,0.47,0.6,M,-16.8,M,1.9,0569*65
$GNGGA,224615.000,4910.518721,N,12304.433898,W,4,38,0.47,0.6,M,-16.8,M,2.0,0569*64
$GNGGA,224615.100,4910.518881,N,12304.433895,W,4,38,0.47,0.6,M,-16.8,M,2.1,0569*6C
$GNGGA,224615.200,4910.519043,N,12304.433897,W,4,38,0.47,0.6,M,-16.8,M,2.2,0569*69
$GNGGA,224615.300,4910.519203,N,12304.433898,W,4,38,0.47,0.6,M,-16.8,M,2.3,0569*60
$GNGGA,224615.400,4910.519360,N,12304.433900,W,4,38,0.48,0.6,M,-16.8,M,1.4,0569*68
$GNGGA,224615.500,4910.519519,N,12304.433906,W,4,38,0.48,0.6,M,-16.8,M,1.5,0569*66
$GNGGA,224615.600,4910.519677,N,12304.433905,W,4,38,0.48,0.6,M,-16.8,M,1.6,0569*6E
$GNGGA,224615.700,4910.519831,N,12304.433902,W,4,38,0.48,0.6,M,-16.8,M,1.7,0569*65
$GNGGA,224615.800,4910.519986,N,12304.433902,W,4,38,0.48,0.6,M,-16.8,M,1.8,0569*68
$GNGGA,224615.900,4910.520140,N,12304.433902,W,4,38,0.48,0.6,M,-16.8,M,1.9,0569*60
$GNGGA,224616.000,4910.520293,N,12304.433902,W,4,38,0.48,0.6,M,-16.8,M,2.0,0569*6D
$GNGGA,224616.100,4910.520445,N,12304.433904,W,4,38,0.48,0.6,M,-16.8,M,2.1,0569*66
$GNGGA,224616.200,4910.520595,N,12304.433904,W,4,38,0.48,0.6,M,-16.8,M,2.2,0569*6A
$GNGGA,224616.300,4910.520746,N,12304.433907,W,4,38,0.48,0.6,M,-16.8,M,2.3,0569*65
$GNGGA,224616.400,4910.520896,N,12304.433909,W,4,38,0.49,0.6,M,-16.8,M,1.4,0569*6B
$GNGGA,224616.500,4910.521043,N,12304.433911,W,4,38,0.49,0.6,M,-16.8,M,1.5,0569*63
$GNGGA,224616.600,4910.521191,N,12304.433910,W,4,38,0.49,0.6,M,-16.8,M,1.6,0569*6C
$GNGGA,224616.700,4910.521338,N,12304.433910,W,4,38,0.49,0.6,M,-16.8,M,1.7,0569*6D
$GNGGA,224616.800,4910.521485,N,12304.433909,W,4,38,0.49,0.6,M,-16.8,M,1.8,0569*64
$GNGGA,224616.900,4910.521630,N,12304.433906,W,4,38,0.49,0.6,M,-16.8,M,1.9,0569*67
$GNGGA,224617.000,4910.521772,N,12304.433908,W,4,38,0.49,0.6,M,-16.8,M,2.0,0569*6C
$GNGGA,224617.100,4910.521914,N,12304.433906,W,4,38,0.49,0.7,M,-16.8,M,2.1,0569*6D
$GNGGA,224617.200,4910.522057,N,12304.433907,W,4,38,0.49,0.7,M,-16.8,M,2.2,0569*61
$GNGGA,224617.300,4910.522199,N,12304.433908,W,4,38,0.49,0.7,M,-16.8,M,2.3,0569*6D
$GNGGA,224617.400,4910.522347,N,12304.433911,W,4,38,0.49,0.6,M,-16.8,M,1.4,0569*66
$GNGGA,224617.500,4910.522486,N,12304.433909,W,4,38,0.49,0.7,M,-16.8,M,1.5,0569*64
$GNGGA,224617.600,4910.522624,N,12304.433905,W,4,38,0.49,0.6,M,-16.8,M,1.6,0569*63
$GNGGA,224617.700,4910.522762,N,12304.433907,W,4,38,0.49,0.7,M,-16.8,M,1.7,0569*63
$GNGGA,224617.800,4910.522900,N,12304.433909,W,4,38,0.49,0.7,M,-16.8,M,1.8,0569*67
$GNGGA,224617.900,4910.523037,N,12304.433909,W,4,38,0.49,0.7,M,-16.8,M,1.9,0569*6B
$GNGGA,224618.000,4910.523177,N,12304.433905,W,4,38,0.49,0.7,M,-16.8,M,2.0,0569*6E
$GNGGA,224618.100,4910.523319,N,12304.433903,W,4,38,0.49,0.7,M,-16.8,M,2.1,0569*62
$GNGGA,224618.200,4910.523460,N,12304.433902,W,4,38,0.49,0.7,M,-16.8,M,2.2,0569*6A
$GNGGA,224618.300,4910.523604,N,12304.433905,W,4,38,0.49,0.7,M,-16.8,M,2.3,0569*6D
$GNGGA,224618.400,4910.523747,N,12304.433906,W,4,38,0.44,0.6,M,-16.8,M,1.4,0569*67
$GNGGA,224618.500,4910.523893,N,12304.433907,W,4,38,0.44,0.7,M,-16.8,M,1.5,0569*61
$GNGGA,224618.600,4910.524043,N,12304.433900,W,4,38,0.44,0.7,M,-16.8,M,1.6,0569*64
$GNGGA,224618.700,4910.524192,N,12304.433898,W,4,38,0.44,0.7,M,-16.8,M,1.7,0569*69
$GNGGA,224618.800,4910.524343,N,12304.433898,W,4,38,0.44,0.7,M,-16.8,M,1.8,0569*67
$GNGGA,224618.900,4910.524492,N,12304.433897,W,4,38,0.44,0.7,M,-16.8,M,1.9,0569*63
$GNGGA,224619.000,4910.524646,N,12304.433894,W,4,38,0.44,0.7,M,-16.8,M,2.0,0569*69
$GNGGA,224619.100,4910.524798,N,12304.433890,W,4,38,0.44,0.7,M,-16.8,M,2.1,0569*6F
$GNGGA,224619.200,4910.524946,N,12304.433883,W,4,38,0.44,0.7,M,-16.8,M,2.2,0569*60
$GNGGA,224619.300,4910.525100,N,12304.433883,W,4,38,0.44,0.7,M,-16.8,M,2.3,0569*6B
$GNGGA,224619.400,4910.525257,N,12304.433880,W,4,38,0.50,0.7,M,-16.8,M,1.4,0569*6F
$GNGGA,224619.500,4910.525413,N,12304.433875,W,4,38,0.50,0.7,M,-16.8,M,1.5,0569*63
$GNGGA,224619.600,4910.525570,N,12304.433874,W,4,38,0.50,0.7,M,-16.8,M,1.6,0569*66
$GNGGA,224619.700,4910.525728,N,12304.433869,W,4,38,0.50,0.7,M,-16.8,M,1.7,0569*65
$GNGGA,224619.800,4910.525884,N,12304.433859,W,4,38,0.50,0.7,M,-16.8,M,1.8,0569*6F
$GNGGA,224619.900,4910.526044,N,12304.433852,W,4,38,0.50,0.7,M,-16.8,M,1.9,0569*63
$GNGGA,224620.000,4910.526200,N,12304.433845,W,4,38,0.50,0.7,M,-16.8,M,2.0,0569*6E
$GNGGA,224620.100,4910.526358,N,12304.433839,W,4,38,0.50,0.7,M,-16.8,M,2.1,0569*69
$GNGGA,224620.200,4910.526511,N,12304.433833,W,4,38,0.50,0.7,M,-16.8,M,2.2,0569*68
$GNGGA,224620.300,4910.526665,N,12304.433826,W,4,37,0.50,0.7,M,-16.8,M,2.3,0569*63
$GNGGA,224620.400,4910.526816,N,12304.433819,W,4,37,0.46,0.7,M,-16.8,M,1.4,0569*61
$GNGGA,224620.500,4910.526968,N,12304.433809,W,4,38,0.46,0.7,M,-16.8,M,1.5,0569*67
$GNGGA,224620.600,4910.527119,N,12304.433800,W,4,38,0.46,0.7,M,-16.8,M,1.6,0569*61
$GNGGA,224620.700,4910.527268,N,12304.433786,W,4,38,0.46,0.7,M,-16.8,M,1.7,0569*65
$GNGGA,224620.800,4910.527415,N,12304.433773,W,4,38,0.46,0.7,M,-16.8,M,1.8,0569*63
$GNGGA,224620.900,4910.527560,N,12304.433759,W,4,38,0.46,0.7,M,-16.8,M,1.9,0569*68
$GNGGA,224621.000,4910.527702,N,12304.433749,W,4,38,0.46,0.7,M,-16.8,M,2.0,0569*6D
$GNGGA,224621.100,4910.527845,N,12304.433738,W,4,38,0.46,0.8,M,-16.8,M,2.1,0569*68
$GNGGA,224621.200,4910.527984,N,12304.433724,W,4,38,0.46,0.8,M,-16.8,M,2.2,0569*69
$GNGGA,224621.300,4910.528125,N,12304.433715,W,4,38,0.46,0.8,M,-16.8,M,2.3,0569*67
$GNGGA,224621.400,4910.528263,N,12304.433695,W,4,37,0.47,0.8,M,-16.8,M,1.4,0569*62
$GNGGA,224621.500,4910.528397,N,12304.433680,W,4,37,0.47,0.8,M,-16.8,M,1.5,0569*6C
$GNGGA,224621.600,4910.528534,N,12304.433663,W,4,37,0.47,0.8,M,-16.8,M,1.6,0569*6E
$GNGGA,224621.700,4910.528668,N,12304.433644,W,4,38,0.47,0.8,M,-16.8,M,1.7,0569*6E
$GNGGA,224621.800,4910.528801,N,12304.433629,W,4,38,0.47,0.8,M,-16.8,M,1.8,0569*64
$GNGGA,224621.900,4910.528936,N,12304.433614,W,4,38,0.47,0.8,M,-16.8,M,1.9,0569*6F
$GNGGA,224622.000,4910.529066,N,12304.433595,W,4,38,0.47,0.8,M,-16.8,M,2.0,0569*68
$GNGGA,224622.100,4910.529194,N,12304.433572,W,4,38,0.47,0.8,M,-16.8,M,2.1,0569*6D
$GNGGA,224622.200,4910.529325,N,12304.433551,W,4,38,0.47,0.8,M,-16.8,M,2.2,0569*64
$GNGGA,224622.300,4910.529452,N,12304.433535,W,4,38,0.47,0.8,M,-16.8,M,2.3,0569*61
$GNGGA,224622.400,4910.529582,N,12304.433517,W,4,38,0.52,0.8,M,-16.8,M,1.4,0569*6A
$GNGGA,224622.500,4910.529709,N,12304.433496,W,4,38,0.52,0.9,M,-16.8,M,1.5,0569*62
$GNGGA,224622.600,4910.529842,N,12304.433469,W,4,37,0.52,0.8,M,-16.8,M,1.6,0569*6C
$GNGGA,224622.700,4910.529971,N,12304.433444,W,4,37,0.52,0.9,M,-16.8,M,1.7,0569*63
$GNGGA,224622.800,4910.530099,N,12304.433418,W,4,37,0.52,0.9,M,-16.8,M,1.8,0569*6D
$GNGGA,224622.900,4910.530228,N,12304.433395,W,4,37,0.52,0.9,M,-16.8,M,1.9,0569*67
$GNGGA,224623.000,4910.530359,N,12304.433371,W,4,38,0.52,0.9,M,-16.8,M,2.0,0569*67
$GNGGA,224623.100,4910.530494,N,12304.433338,W,4,38,0.52,0.9,M,-16.8,M,2.1,0569*6C
$GNGGA,224623.200,4910.530631,N,12304.433297,W,4,38,0.52,0.9,M,-16.8,M,2.2,0569*65
$GNGGA,224623.300,4910.530767,N,12304.433257,W,4,38,0.52,0.9,M,-16.8,M,2.3,0569*6B
$GNGGA,224623.400,4910.530913,N,12304.433225,W,4,38,0.50,0.9,M,-16.8,M,1.4,0569*62
$GNGGA,224623.500,4910.531050,N,12304.433195,W,4,38,0.50,0.9,M,-16.8,M,1.5,0569*65
$GNGGA,224623.600,4910.531185,N,12304.433152,W,4,38,0.50,0.9,M,-16.8,M,1.6,0569*67
$GNGGA,224623.700,4910.531324,N,12304.433111,W,4,38,0.50,0.9,M,-16.8,M,1.7,0569*69
$GNGGA,224623.800,4910.531456,N,12304.433070,W,4,37,0.50,0.9,M,-16.8,M,1.8,0569*62
$GNGGA,224623.900,4910.531598,N,12304.433021,W,4,37,0.50,0.9,M,-16.8,M,1.9,0569*65
$GNGGA,224624.000,4910.531729,N,12304.432974,W,4,37,0.50,0.9,M,-16.8,M,2.0,0569*61
$GNGGA,224624.100,4910.531865,N,12304.432924,W,4,37,0.50,0.9,M,-16.8,M,2.1,0569*63
$GNGGA,224624.200,4910.532006,N,12304.432874,W,4,37,0.50,0.9,M,-16.8,M,2.2,0569*69
$GNGGA,224624.300,4910.532142,N,12304.432823,W,4,37,0.50,0.9,M,-16.8,M,2.3,0569*6A
$GNGGA,224624.400,4910.532280,N,12304.432761,W,4,37,0.77,0.9,M,-16.8,M,1.4,0569*68
$GNGGA,224624.500,4910.532411,N,12304.432698,W,4,37,0.77,0.9,M,-16.8,M,1.5,0569*61
$GNGGA,224624.600,4910.532537,N,12304.432639,W,4,37,0.77,0.9,M,-16.8,M,1.6,0569*6F
$GNGGA,224624.700,4910.532669,N,12304.432572,W,4,37,0.77,0.9,M,-16.8,M,1.7,0569*6B
$GNGGA,224624.800,4910.532801,N,12304.432515,W,4,37,0.77,0.9,M,-16.8,M,1.8,0569*6A
$GNGGA,224624.900,4910.532934,N,12304.432462,W,4,37,0.77,0.9,M,-16.8,M,1.9,0569*6C
$GNGGA,224625.000,4910.533063,N,12304.432384,W,4,37,0.77,0.9,M,-16.8,M,2.0,0569*6B
$GNGGA,224625.100,4910.533182,N,12304.432312,W,4,38,0.77,0.9,M,-16.8,M,2.1,0569*65
$GNGGA,224625.200,4910.533313,N,12304.432239,W,4,37,0.77,0.9,M,-16.8,M,2.2,0569*68
$GNGGA,224625.300,4910.533427,N,12304.432150,W,4,36,0.77,0.9,M,-16.8,M,2.3,0569*65
$GNGGA,224625.400,4910.533560,N,12304.432073,W,4,37,0.72,0.9,M,-16.8,M,1.4,0569*60
$GNGGA,224625.500,4910.533680,N,12304.431990,W,4,37,0.72,0.9,M,-16.8,M,1.5,0569*6A
$GNGGA,224625.600,4910.533805,N,12304.431902,W,4,38,0.72,0.9,M,-16.8,M,1.6,0569*6D
$GNGGA,224625.700,4910.533925,N,12304.431810,W,4,37,0.72,0.9,M,-16.8,M,1.7,0569*63
$GNGGA,224625.800,4910.534047,N,12304.431723,W,4,37,0.72,0.9,M,-16.8,M,1.8,0569*66
$GNGGA,224625.900,4910.534168,N,12304.431630,W,4,37,0.72,0.9,M,-16.8,M,1.9,0569*69
$GNGGA,224626.000,4910.534287,N,12304.431533,W,4,37,0.72,0.9,M,-16.8,M,2.0,0569*6B
$GNGGA,224626.100,4910.534411,N,12304.431437,W,4,37,0.72,0.9,M,-16.8,M,2.1,0569*67
$GNGGA,224626.200,4910.534529,N,12304.431334,W,4,38,0.72,0.9,M,-16.8,M,2.2,0569*66
$GNGGA,224626.300,4910.534647,N,12304.431226,W,4,37,0.72,0.9,M,-16.8,M,2.3,0569*60
$GNGGA,224626.400,4910.534759,N,12304.431120,W,4,38,0.60,0.9,M,-16.8,M,1.4,0569*64
$GNGGA,224626.500,4910.534873,N,12304.431009,W,4,37,0.60,0.9,M,-16.8,M,1.5,0569*66
$GNGGA,224626.600,4910.534986,N,12304.430899,W,4,37,0.60,0.9,M,-16.8,M,1.6,0569*6D
$GNGGA,224626.700,4910.535099,N,12304.430786,W,4,37,0.60,0.9,M,-16.8,M,1.7,0569*6A
$GNGGA,224626.800,4910.535213,N,12304.430672,W,4,37,0.60,0.9,M,-16.8,M,1.8,0569*60
$GNGGA,224626.900,4910.535327,N,12304.430553,W,4,38,0.60,0.9,M,-16.8,M,1.9,0569*69
$GNGGA,224627.000,4910.535436,N,12304.430425,W,4,38,0.60,0.9,M,-16.8,M,2.0,0569*6C
$GNGGA,224627.100,4910.535551,N,12304.430299,W,4,38,0.60,0.9,M,-16.8,M,2.1,0569*6D
$GNGGA,224627.200,4910.535664,N,12304.430168,W,4,38,0.60,0.9,M,-16.8,M,2.2,0569*65
$GNGGA,224627.300,4910.535776,N,12304.430038,W,4,38,0.60,0.9,M,-16.8,M,2.3,0569*63
$GNGGA,224627.400,4910.535888,N,12304.429904,W,4,38,0.53,0.9,M,-16.8,M,1.4,0569*60
$GNGGA,224627.500,4910.536002,N,12304.429770,W,4,38,0.53,0.9,M,-16.8,M,1.5,0569*64
$GNGGA,224627.600,4910.536114,N,12304.429628,W,4,38,0.53,0.8,M,-16.8,M,1.6,0569*6F
$GNGGA,224627.700,4910.536223,N,12304.429492,W,4,38,0.53,0.8,M,-16.8,M,1.7,0569*6B
$GNGGA,224627.800,4910.536336,N,12304.429350,W,4,38,0.53,0.8,M,-16.8,M,1.8,0569*67
$GNGGA,224627.900,4910.536452,N,12304.429209,W,4,38,0.53,0.9,M,-16.8,M,1.9,0569*6E
$GNGGA,224628.000,4910.536565,N,12304.429060,W,4,37,0.53,0.8,M,-16.8,M,2.0,0569*64
$GNGGA,224628.100,4910.536678,N,12304.428915,W,4,38,0.53,0.8,M,-16.8,M,2.1,0569*6E
$GNGGA,224628.200,4910.536787,N,12304.428763,W,4,38,0.53,0.8,M,-16.8,M,2.2,0569*60
$GNGGA,224628.300,4910.536895,N,12304.428609,W,4,38,0.53,0.8,M,-16.8,M,2.3,0569*61
$GNGGA,224628.400,4910.537009,N,12304.428466,W,4,38,0.50,0.8,M,-16.8,M,1.4,0569*66
$GNGGA,224628.500,4910.537117,N,12304.428313,W,4,38,0.50,0.8,M,-16.8,M,1.5,0569*6D
$GNGGA,224628.600,4910.537225,N,12304.428162,W,4,38,0.50,0.8,M,-16.8,M,1.6,0569*6B
$GNGGA,224628.700,4910.537335,N,12304.428006,W,4,38,0.50,0.8,M,-16.8,M,1.7,0569*68
$GNGGA,224628.800,4910.537438,N,12304.427850,W,4,38,0.50,0.8,M,-16.8,M,1.8,0569*66
$GNGGA,224628.900,4910.537547,N,12304.427692,W,4,38,0.50,0.8,M,-16.8,M,1.9,0569*6F
$GNGGA,224629.000,4910.537652,N,12304.427536,W,4,38,0.50,0.8,M,-16.8,M,2.0,0569*67
$GNGGA,224629.100,4910.537755,N,12304.427378,W,4,38,0.50,0.8,M,-16.8,M,2.1,0569*6D
$GNGGA,224629.200,4910.537853,N,12304.427216,W,4,38,0.50,0.8,M,-16.8,M,2.2,0569*6D
$GNGGA,224629.300,4910.537954,N,12304.427056,W,4,38,0.50,0.8,M,-16.8,M,2.3,0569*6D
$GNGGA,224629.400,4910.538052,N,12304.426897,W,4,38,0.49,0.8,M,-16.8,M,1.4,0569*62
$GNGGA,224629.500,4910.538153,N,12304.426737,W,4,38,0.49,0.8,M,-16.8,M,1.5,0569*67
$GNGGA,224629.600,4910.538255,N,12304.426575,W,4,38,0.49,0.8,M,-16.8,M,1.6,0569*66
$GNGGA,224629.700,4910.538352,N,12304.426408,W,4,38,0.49,0.8,M,-16.8,M,1.7,0569*6B
$GNGGA,224629.800,4910.538453,N,12304.426250,W,4,38,0.49,0.8,M,-16.8,M,1.8,0569*66
$GNGGA,224629.900,4910.538549,N,12304.426087,W,4,38,0.49,0.8,M,-16.8,M,1.9,0569*64
$GNGGA,224630.000,4910.538647,N,12304.425924,W,4,38,0.49,0.8,M,-16.8,M,2.0,0569*61
$GNGGA,224630.100,4910.538745,N,12304.425764,W,4,38,0.49,0.8,M,-16.8,M,2.1,0569*68
