$GNGGA,225754.00,4910.550560,N,12304.372742,W,1,12,0.5,7.8,M,-19.2,M,,*41
$GNGGA,225755.00,4910.550543,N,12304.370778,W,1,12,0.5,7.6,M,-19.2,M,,*44
$GNGGA,225756.00,4910.550570,N,12304.368789,W,1,12,0.5,8.0,M,-19.2,M,,*49
$GNGGA,225757.00,4910.550648,N,12304.366853,W,1,12,0.5,8.5,M,-19.2,M,,*43
$GNGGA,225758.00,4910.550794,N,12304.364940,W,1,12,0.5,8.7,M,-19.2,M,,*4F
$GNGGA,225759.00,4910.550980,N,12304.363072,W,1,12,0.5,9.3,M,-19.2,M,,*4F
$GNGGA,225800.00,4910.551096,N,12304.361341,W,1,12,0.5,9.1,M,-19.2,M,,*40
$GNGGA,225801.00,4910.551149,N,12304.359590,W,1,12,0.5,8.9,M,-19.2,M,,*4A
$GNGGA,225802.00,4910.551287,N,12304.357903,W,1,12,0.5,9.1,M,-19.2,M,,*49
$GNGGA,225803.00,4910.551526,N,12304.356376,W,1,12,0.5,9.7,M,-19.2,M,,*4B
$GNGGA,225804.00,4910.551932,N,12304.354955,W,1,12,0.5,10.0,M,-19.2,M,,*73
$GNGGA,225805.00,4910.552428,N,12304.353679,W,1,12,0.5,9.9,M,-19.2,M,,*40
$GNGGA,225806.00,4910.552964,N,12304.352467,W,1,12,0.5,9.9,M,-19.2,M,,*4A
$GNGGA,225807.00,4910.553594,N,12304.351234,W,1,12,0.5,10.3,M,-19.2,M,,*78
$GNGGA,225808.00,4910.554295,N,12304.350020,W,1,12,0.5,10.2,M,-19.2,M,,*71
$GNGGA,225809.00,4910.555046,N,12304.348797,W,1,12,0.5,10.2,M,-19.2,M,,*7F
$GNGGA,225810.00,4910.555897,N,12304.347510,W,1,12,0.5,10.3,M,-19.2,M,,*70
$GNGGA,225811.00,4910.556790,N,12304.346205,W,1,12,0.5,10.6,M,-19.2,M,,*7D
$GNGGA,225812.00,4910.557711,N,12304.344903,W,1,12,0.5,10.6,M,-19.2,M,,*79
$GNGGA,225813.00,4910.558692,N,12304.343477,W,1,12,0.5,10.3,M,-19.2,M,,*71
$GNGGA,225814.00,4910.559676,N,12304.342102,W,1,12,0.5,9.8,M,-19.2,M,,*48
$GNGGA,225815.00,4910.560611,N,12304.340736,W,1,12,0.5,9.8,M,-19.2,M,,*41
$GNGGA,225816.00,4910.561519,N,12304.339309,W,1,12,0.5,9.7,M,-19.2,M,,*41
$GNGGA,225817.00,4910.562446,N,12304.337965,W,1,12,0.5,9.6,M,-19.2,M,,*47
$GNGGA,225818.00,4910.563394,N,12304.336612,W,1,12,0.5,9.5,M,-19.2,M,,*4C
$GNGGA,225819.00,4910.564367,N,12304.335259,W,1,12,0.5,9.6,M,-19.2,M,,*4D
$GNGGA,225820.00,4910.565234,N,12304.333934,W,1,12,0.5,9.5,M,-19.2,M,,*44
$GNGGA,225821.00,4910.566061,N,12304.332736,W,1,12,0.5,9.8,M,-19.2,M,,*44
$GNGGA,225822.00,4910.566997,N,12304.331422,W,1,12,0.5,9.6,M,-19.2,M,,*4C
$GNGGA,225823.00,4910.567959,N,12304.330068,W,1,12,0.5,9.5,M,-19.2,M,,*46
$GNGGA,225824.00,4910.568930,N,12304.328803,W,1,12,0.5,9.3,M,-19.2,M,,*4B
$GNGGA,225825.00,4910.569863,N,12304.327513,W,1,12,0.5,9.4,M,-19.2,M,,*48
$GNGGA,225826.00,4910.570684,N,12304.326364,W,1,12,0.5,9.5,M,-19.2,M,,*42
$GNGGA,225827.00,4910.571518,N,12304.324982,W,1,12,0.5,9.6,M,-19.2,M,,*47
$GNGGA,225828.00,4910.572404,N,12304.323262,W,1,12,0.5,9.6,M,-19.2,M,,*45
$GNGGA,225829.00,4910.573225,N,12304.321373,W,1,12,0.5,10.3,M,-19.2,M,,*7E
$GNGGA,225830.00,4910.573852,N,12304.319527,W,1,12,0.5,10.6,M,-19.2,M,,*75
$GNGGA,225831.00,4910.574389,N,12304.317688,W,1,12,0.5,10.9,M,-19.2,M,,*79
$GNGGA,225832.00,4910.574981,N,12304.315826,W,1,12,0.5,10.8,M,-19.2,M,,*71
$GNGGA,225833.00,4910.575712,N,12304.314268,W,1,12,0.5,10.6,M,-19.2,M,,*7A
$GNGGA,225834.00,4910.576594,N,12304.313104,W,1,12,0.5,11.0,M,-19.2,M,,*7B
$GNGGA,225835.00,4910.577612,N,12304.312264,W,1,12,0.5,10.9,M,-19.2,M,,*7A
$GNGGA,225836.00,4910.578664,N,12304.311797,W,1,12,0.5,11.0,M,-19.2,M,,*75
$GNGGA,225837.00,4910.579729,N,12304.311718,W,1,12,0.5,11.2,M,-19.2,M,,*78
$GNGGA,225838.00,4910.580798,N,12304.312057,W,1,12,0.5,11.3,M,-19.2,M,,*75
$GNGGA,225839.00,4910.581825,N,12304.312850,W,1,12,0.5,12.1,M,-19.2,M,,*72
$GNGGA,225840.00,4910.582766,N,12304.313977,W,1,12,0.5,12.6,M,-19.2,M,,*75
$GNGGA,225841.00,4910.583601,N,12304.315498,W,1,12,0.5,12.6,M,-19.2,M,,*7F
$GNGGA,225842.00,4910.584316,N,12304.317230,W,1,12,0.5,12.2,M,-19.2,M,,*7A
$GNGGA,225843.00,4910.585040,N,12304.318889,W,1,12,0.5,12.5,M,-19.2,M,,*7A
$GNGGA,225844.00,4910.585796,N,12304.320187,W,1,12,0.5,13.1,M,-19.2,M,,*78
$GNGGA,225845.00,4910.586771,N,12304.321373,W,1,12,0.5,12.5,M,-19.2,M,,*7E
$GNGGA,225846.00,4910.587796,N,12304.322515,W,1,12,0.5,12.9,M,-19.2,M,,*7C
$GNGGA,225847.00,4910.588968,N,12304.323502,W,1,12,0.5,14.0,M,-19.2,M,,*75
$GNGGA,225848.00,4910.590343,N,12304.324427,W,1,12,0.5,14.5,M,-19.2,M,,*74
$GNGGA,225849.00,4910.591808,N,12304.325318,W,1,12,0.5,14.6,M,-19.2,M,,*79
$GNGGA,225850.00,4910.593295,N,12304.326315,W,1,12,0.5,15.3,M,-19.2,M,,*77
$GNGGA,225851.00,4910.594820,N,12304.327395,W,1,12,0.5,15.6,M,-19.2,M,,*79
$GNGGA,225852.00,4910.596368,N,12304.328588,W,1,12,0.5,15.4,M,-19.2,M,,*78
$GNGGA,225853.00,4910.598025,N,12304.329884,W,1,12,0.5,15.1,M,-19.2,M,,*78
$GNGGA,225854.00,4910.599804,N,12304.331306,W,1,12,0.5,15.9,M,-19.2,M,,*75
$GNGGA,225855.00,4910.601531,N,12304.332777,W,1,12,0.5,16.4,M,-19.2,M,,*72
$GNGGA,225856.00,4910.603118,N,12304.334176,W,1,12,0.5,17.2,M,-19.2,M,,*7A
$GNGGA,225857.00,4910.604564,N,12304.335366,W,1,12,0.5,16.8,M,-19.2,M,,*7A
$GNGGA,225858.00,4910.605871,N,12304.336522,W,1,12,0.5,17.4,M,-19.2,M,,*75
$GNGGA,225859.00,4910.607146,N,12304.337567,W,1,12,0.5,16.9,M,-19.2,M,,*77
$GNGGA,225900.00,4910.608305,N,12304.338476,W,1,12,0.5,17.0,M,-19.2,M,,*76
$GNGGA,225901.00,4910.609366,N,12304.339324,W,1,12,0.5,16.9,M,-19.2,M,,*7A
$GNGGA,225902.00,4910.610323,N,12304.340169,W,1,12,0.5,16.8,M,-19.2,M,,*74
$GNGGA,225903.00,4910.611271,N,12304.340914,W,1,12,0.5,17.4,M,-19.2,M,,*7D
$GNGGA,225904.00,4910.612208,N,12304.341591,W,1,12,0.5,16.8,M,-19.2,M,,*7A
$GNGGA,225905.00,4910.613023,N,12304.342136,W,1,12,0.5,16.5,M,-19.2,M,,*76
$GNGGA,225906.00,4910.613875,N,12304.342725,W,1,12,0.5,15.2,M,-19.2,M,,*7E
$GNGGA,225907.00,4910.614839,N,12304.343475,W,1,12,0.5,14.5,M,-19.2,M,,*71
$GNGGA,225908.00,4910.615859,N,12304.344313,W,1,12,0.5,14.0,M,-19.2,M,,*7C
$GNGGA,225909.00,4910.616948,N,12304.345243,W,1,12,0.5,13.8,M,-19.2,M,,*75
$GNGGA,225910.00,4910.618046,N,12304.346227,W,1,12,0.5,14.1,M,-19.2,M,,*7B
$GNGGA,225911.00,4910.619256,N,12304.347130,W,1,12,0.5,14.1,M,-19.2,M,,*7C
$GNGGA,225912.00,4910.620543,N,12304.347907,W,1,12,0.5,14.6,M,-19.2,M,,*7D
$GNGGA,225913.00,4910.621866,N,12304.348346,W,1,12,0.5,15.0,M,-19.2,M,,*70
$GNGGA,225914.00,4910.623221,N,12304.348298,W,1,12,0.5,15.0,M,-19.2,M,,*7E
$GNGGA,225915.00,4910.624458,N,12304.347680,W,1,12,0.5,14.2,M,-19.2,M,,*71
$GNGGA,225916.00,4910.625372,N,12304.346701,W,1,12,0.5,13.4,M,-19.2,M,,*74
$GNGGA,225917.00,4910.626123,N,12304.345466,W,1,12,0.5,12.7,M,-19.2,M,,*73
$GNGGA,225918.00,4910.626817,N,12304.344049,W,1,12,0.5,12.5,M,-19.2,M,,*78
$GNGGA,225919.00,4910.627496,N,12304.342516,W,1,12,0.5,12.1,M,-19.2,M,,*70
$GNGGA,225920.00,4910.628147,N,12304.340885,W,1,12,0.5,11.6,M,-19.2,M,,*7D
$GNGGA,225921.00,4910.628774,N,12304.339226,W,1,12,0.5,11.2,M,-19.2,M,,*73
$GNGGA,225922.00,4910.629377,N,12304.337449,W,1,12,0.5,10.9,M,-19.2,M,,*7D
$GNGGA,225923.00,4910.629914,N,12304.335729,W,1,12,0.5,11.1,M,-19.2,M,,*7D
$GNGGA,225924.00,4910.630400,N,12304.334093,W,1,12,0.5,10.5,M,-19.2,M,,*78
$GNGGA,225925.00,4910.630816,N,12304.332536,W,1,12,0.5,10.5,M,-19.2,M,,*7E
$GNGGA,225926.00,4910.631186,N,12304.330956,W,1,12,0.5,10.2,M,-19.2,M,,*73
$GNGGA,225927.00,4910.631479,N,12304.329358,W,1,12,0.5,10.1,M,-19.2,M,,*78
$GNGGA,225928.00,4910.631707,N,12304.327733,W,1,12,0.5,10.1,M,-19.2,M,,*7A
$GNGGA,225929.00,4910.631888,N,12304.326121,W,1,12,0.5,10.0,M,-19.2,M,,*76
$GNGGA,225930.00,4910.632035,N,12304.324645,W,1,12,0.5,10.1,M,-19.2,M,,*75
$GNGGA,225931.00,4910.632147,N,12304.323191,W,1,12,0.5,10.1,M,-19.2,M,,*79
$GNGGA,225932.00,4910.632259,N,12304.321705,W,1,12,0.5,10.2,M,-19.2,M,,*7C
$GNGGA,225933.00,4910.632360,N,12304.320160,W,1,12,0.5,9.9,M,-19.2,M,,*41
$GNGGA,225934.00,4910.632478,N,12304.318456,W,1,12,0.5,10.1,M,-19.2,M,,*73
$GNGGA,225935.00,4910.632632,N,12304.316639,W,1,12,0.5,10.3,M,-19.2,M,,*79
$GNGGA,225936.00,4910.632794,N,12304.314713,W,1,12,0.5,10.6,M,-19.2,M,,*79
$GNGGA,225937.00,4910.633039,N,12304.312655,W,1,12,0.5,10.6,M,-19.2,M,,*7C
$GNGGA,225938.00,4910.633385,N,12304.310596,W,1,12,0.5,10.7,M,-19.2,M,,*78
$GNGGA,225939.00,4910.633847,N,12304.308626,W,1,12,0.5,10.7,M,-19.2,M,,*7D
$GNGGA,225940.00,4910.634380,N,12304.306794,W,1,12,0.5,11.2,M,-19.2,M,,*76
$GNGGA,225941.00,4910.634885,N,12304.305079,W,1,12,0.5,11.3,M,-19.2,M,,*7F
$GNGGA,225942.00,4910.635420,N,12304.303299,W,1,12,0.5,11.8,M,-19.2,M,,*7F
$GNGGA,225943.00,4910.635940,N,12304.301357,W,1,12,0.5,11.9,M,-19.2,M,,*75
$GNGGA,225944.00,4910.636411,N,12304.299290,W,1,12,0.5,12.2,M,-19.2,M,,*7A
$GNGGA,225945.00,4910.636739,N,12304.297358,W,1,12,0.5,11.7,M,-19.2,M,,*7F
$GNGGA,225946.00,4910.636960,N,12304.295440,W,1,12,0.5,11.1,M,-19.2,M,,*74
$GNGGA,225947.00,4910.637113,N,12304.293465,W,1,12,0.5,10.9,M,-19.2,M,,*70
$GNGGA,225948.00,4910.637176,N,12304.291553,W,1,12,0.5,10.7,M,-19.2,M,,*74
$GNGGA,225949.00,4910.637133,N,12304.289730,W,1,12,0.5,10.7,M,-19.2,M,,*7A
$GNGGA,225950.00,4910.636927,N,12304.288008,W,1,12,0.5,10.7,M,-19.2,M,,*73
$GNGGA,225951.00,4910.636527,N,12304.286453,W,1,12,0.5,10.5,M,-19.2,M,,*78
$GNGGA,225952.00,4910.635962,N,12304.285228,W,1,12,0.5,10.5,M,-19.2,M,,*7C
$GNGGA,225953.00,4910.635310,N,12304.284417,W,1,12,0.5,10.3,M,-19.2,M,,*7F
$GNGGA,225954.00,4910.634680,N,12304.283986,W,1,12,0.5,9.9,M,-19.2,M,,*45
$GNGGA,225955.00,4910.634113,N,12304.283749,W,1,12,0.5,9.8,M,-19.2,M,,*45
$GNGGA,225956.00,4910.633644,N,12304.283608,W,1,12,0.5,9.6,M,-19.2,M,,*4E
$GNGGA,225957.00,4910.633324,N,12304.283510,W,1,12,0.5,9.2,M,-19.2,M,,*42
$GNGGA,225958.00,4910.633463,N,12304.283299,W,1,12,0.5,9.4,M,-19.2,M,,*49
$GNGGA,225959.00,4910.633328,N,12304.283281,W,1,12,0.5,8.5,M,-19.2,M,,*49
$GNGGA,230000.00,4910.633357,N,12304.283278,W,1,12,0.5,8.2,M,-19.2,M,,*41
$GNGGA,230001.00,4910.633532,N,12304.283252,W,1,12,0.5,8.3,M,-19.2,M,,*4C
$GNGGA,230002.00,4910.633653,N,12304.283233,W,1,12,0.5,8.2,M,-19.2,M,,*4D
$GNGGA,230003.00,4910.633749,N,12304.283165,W,1,12,0.5,8.3,M,-19.2,M,,*47
$GNGGA,230004.00,4910.633790,N,12304.283168,W,1,12,0.5,8.1,M,-19.2,M,,*4B
$GNGGA,230005.00,4910.633861,N,12304.283188,W,1,12,0.5,8.3,M,-19.2,M,,*47
$GNGGA,230006.00,4910.633916,N,12304.283216,W,1,12,0.5,8.4,M,-19.2,M,,*46
$GNGGA,230007.00,4910.633955,N,12304.283281,W,1,12,0.5,8.5,M,-19.2,M,,*4F
$GNGGA,230008.00,4910.633985,N,12304.283315,W,1,12,0.5,8.7,M,-19.2,M,,*43
$GNGGA,230009.00,4910.634039,N,12304.283353,W,1,12,0.5,8.8,M,-19.2,M,,*46
$GNGGA,230010.00,4910.634091,N,12304.283378,W,1,12,0.5,8.9,M,-19.2,M,,*44
$GNGGA,230011.00,4910.634123,N,12304.283392,W,1,12,0.5,8.9,M,-19.2,M,,*49
$GNGGA,230012.00,4910.634138,N,12304.283402,W,1,12,0.5,8.9,M,-19.2,M,,*4E
$GNGGA,230013.00,4910.634144,N,12304.283405,W,1,12,0.5,9.0,M,-19.2,M,,*4B
$GNGGA,230014.00,4910.634147,N,12304.283407,W,1,12,0.5,9.0,M,-19.2,M,,*4D
$GNGGA,230015.00,4910.634149,N,12304.283407,W,1,12,0.5,9.0,M,-19.2,M,,*42
$GNGGA,230016.00,4910.634149,N,12304.283408,W,1,12,0.5,9.0,M,-19.2,M,,*4E
$GNGGA,230017.00,4910.634148,N,12304.283408,W,1,12,0.5,9.0,M,-19.2,M,,*4E
$GNGGA,230018.00,4910.634147,N,12304.283408,W,1,12,0.5,9.0,M,-19.2,M,,*4E
$GNGGA,230019.00,4910.634146,N,12304.283408,W,1,12,0.5,9.0,M,-19.2,M,,*4E
$GNGGA,230020.00,4910.634144,N,12304.283407,W,1,12,0.5,9.0,M,-19.2,M,,*49
$GNGGA,230021.00,4910.634143,N,12304.283406,W,1,12,0.5,9.0,M,-19.2,M,,*4E
$GNGGA,230022.00,4910.634141,N,12304.283405,W,1,12,0.5,9.0,M,-19.2,M,,*4C
$GNGGA,230023.00,4910.634140,N,12304.283404,W,1,12,0.5,9.0,M,-19.2,M,,*4D
$GNGGA,230024.00,4910.634138,N,12304.283403,W,1,12,0.5,9.0,M,-19.2,M,,*42
$GNGGA,230025.00,4910.634137,N,12304.283403,W,1,12,0.5,9.0,M,-19.2,M,,*4C
$GNGGA,230026.00,4910.634135,N,12304.283402,W,1,12,0.5,9.0,M,-19.2,M,,*4C
$GNGGA,230027.00,4910.634134,N,12304.283402,W,1,12,0.5,9.0,M,-19.2,M,,*4C
$GNGGA,230028.00,4910.634132,N,12304.283402,W,1,12,0.5,9.0,M,-19.2,M,,*45
$GNGGA,230029.00,4910.634131,N,12304.283402,W,1,12,0.5,9.0,M,-19.2,M,,*47
$GNGGA,230030.00,4910.634129,N,12304.283403,W,1,12,0.5,9.0,M,-19.2,M,,*47
$GNGGA,230031.00,4910.634128,N,12304.283403,W,1,12,0.5,9.0,M,-19.2,M,,*47
$GNGGA,230032.00,4910.634127,N,12304.283403,W,1,12,0.5,9.0,M,-19.2,M,,*4B
$GNGGA,230033.00,4910.634125,N,12304.283403,W,1,12,0.5,9.0,M,-19.2,M,,*48
$GNGGA,230034.00,4910.634123,N,12304.283404,W,1,12,0.5,9.0,M,-19.2,M,,*4E
$GNGGA,230035.00,4910.634122,N,12304.283404,W,1,12,0.5,9.0,M,-19.2,M,,*4E
$GNGGA,230036.00,4910.634122,N,12304.283405,W,1,12,0.5,9.0,M,-19.2,M,,*4C
$GNGGA,230037.00,4910.634120,N,12304.283405,W,1,12,0.5,9.1,M,-19.2,M,,*4E
$GNGGA,230038.00,4910.634120,N,12304.283406,W,1,12,0.5,9.1,M,-19.2,M,,*42
$GNGGA,230039.00,4910.634119,N,12304.283407,W,1,12,0.5,9.1,M,-19.2,M,,*48
$GNGGA,230040.00,4910.634119,N,12304.283407,W,1,12,0.5,9.1,M,-19.2,M,,*46
$GNGGA,230041.00,4910.634118,N,12304.283407,W,1,12,0.5,9.1,M,-19.2,M,,*46
$GNGGA,230042.00,4910.634117,N,12304.283407,W,1,12,0.5,9.1,M,-19.2,M,,*4A
$GNGGA,230043.00,4910.634117,N,12304.283406,W,1,12,0.5,9.1,M,-19.2,M,,*4A
$GNGGA,230044.00,4910.634117,N,12304.283405,W,1,12,0.5,9.1,M,-19.2,M,,*4E
$GNGGA,230045.00,4910.634116,N,12304.283405,W,1,12,0.6,9.1,M,-19.2,M,,*4D
$GNGGA,230046.00,4910.634116,N,12304.283405,W,1,12,0.6,9.1,M,-19.2,M,,*4E
$GNGGA,230047.00,4910.634116,N,12304.283404,W,1,12,0.6,9.1,M,-19.2,M,,*4E
$GNGGA,230048.00,4910.634115,N,12304.283404,W,1,12,0.6,9.1,M,-19.2,M,,*42
$GNGGA,230049.00,4910.634115,N,12304.283404,W,1,12,0.6,9.0,M,-19.2,M,,*42
$GNGGA,230050.00,4910.634114,N,12304.283403,W,1,12,0.6,9.0,M,-19.2,M,,*4C
$GNGGA,230051.00,4910.634114,N,12304.283402,W,1,12,0.6,9.0,M,-19.2,M,,*4C
$GNGGA,230052.00,4910.634113,N,12304.283402,W,1,12,0.6,9.0,M,-19.2,M,,*48
$GNGGA,230053.00,4910.634112,N,12304.283401,W,1,12,0.6,9.0,M,-19.2,M,,*4B
$GNGGA,230054.00,4910.634112,N,12304.283401,W,1,12,0.6,9.0,M,-19.2,M,,*4C
$GNGGA,230055.00,4910.634111,N,12304.283401,W,1,12,0.6,9.0,M,-19.2,M,,*4E
$GNGGA,230056.00,4910.634110,N,12304.283400,W,1,12,0.6,9.0,M,-19.2,M,,*4D
$GNGGA,230057.00,4910.634109,N,12304.283400,W,1,12,0.6,9.0,M,-19.2,M,,*44
$GNGGA,230058.00,4910.634108,N,12304.283399,W,1,12,0.6,9.0,M,-19.2,M,,*4D
$GNGGA,230059.00,4910.634107,N,12304.283399,W,1,12,0.6,9.0,M,-19.2,M,,*43
$GNGGA,230100.00,4910.634107,N,12304.283399,W,1,12,0.6,9.0,M,-19.2,M,,*4E
$GNGGA,230101.00,4910.634106,N,12304.283400,W,1,12,0.6,9.0,M,-19.2,M,,*49
$GNGGA,230102.00,4910.634105,N,12304.283400,W,1,12,0.6,9.0,M,-19.2,M,,*49
$GNGGA,230103.00,4910.634105,N,12304.283401,W,1,12,0.6,9.0,M,-19.2,M,,*49
$GNGGA,230104.00,4910.634105,N,12304.283401,W,1,12,0.6,9.0,M,-19.2,M,,*4E
$GNGGA,230105.00,4910.634105,N,12304.283401,W,1,12,0.6,9.0,M,-19.2,M,,*4F
$GNGGA,230106.00,4910.634105,N,12304.283402,W,1,12,0.6,9.0,M,-19.2,M,,*4F
$GNGGA,230107.00,4910.634105,N,12304.283402,W,1,12,0.6,9.0,M,-19.2,M,,*4E
$GNGGA,230108.00,4910.634105,N,12304.283402,W,1,12,0.6,9.0,M,-19.2,M,,*41
$GNGGA,230109.00,4910.634105,N,12304.283402,W,1,12,0.6,9.0,M,-19.2,M,,*40
$GNGGA,230110.00,4910.634105,N,12304.283402,W,1,12,0.6,9.0,M,-19.2,M,,*48
$GNGGA,230111.00,4910.634106,N,12304.283402,W,1,12,0.6,9.0,M,-19.2,M,,*4A
$GNGGA,230112.00,4910.634107,N,12304.283402,W,1,12,0.6,9.0,M,-19.2,M,,*48
$GNGGA,230113.00,4910.634107,N,12304.283402,W,1,12,0.6,9.0,M,-19.2,M,,*49
$GNGGA,230114.00,4910.634108,N,12304.283402,W,1,12,0.6,9.0,M,-19.2,M,,*41
$GNGGA,230115.00,4910.634108,N,12304.283402,W,1,12,0.6,9.0,M,-19.2,M,,*40
$GNGGA,230116.00,4910.634108,N,12304.283402,W,1,12,0.6,9.0,M,-19.2,M,,*43
$GNGGA,230117.00,4910.634109,N,12304.283402,W,1,12,0.6,9.0,M,-19.2,M,,*43
$GNGGA,230118.00,4910.634110,N,12304.283402,W,1,12,0.6,9.0,M,-19.2,M,,*44
$GNGGA,230119.00,4910.634110,N,12304.283401,W,1,12,0.6,9.0,M,-19.2,M,,*46
$GNGGA,230120.00,4910.634110,N,12304.283399,W,1,12,0.6,9.0,M,-19.2,M,,*4A
$GNGGA,230121.00,4910.634110,N,12304.283398,W,1,12,0.6,9.0,M,-19.2,M,,*4A
$GNGGA,230122.00,4910.634110,N,12304.283396,W,1,12,0.6,9.0,M,-19.2,M,,*47
$GNGGA,230123.00,4910.634110,N,12304.283396,W,1,12,0.6,9.0,M,-19.2,M,,*46
$GNGGA,230124.00,4910.634109,N,12304.283395,W,1,12,0.6,9.0,M,-19.2,M,,*4A
$GNGGA,230125.00,4910.634109,N,12304.283395,W,1,12,0.6,9.0,M,-19.2,M,,*4B
$GNGGA,230126.00,4910.634108,N,12304.283395,W,1,12,0.6,9.0,M,-19.2,M,,*49
$GNGGA,230127.00,4910.634108,N,12304.283395,W,1,12,0.6,9.0,M,-19.2,M,,*48
$GNGGA,230128.00,4910.634107,N,12304.283394,W,1,12,0.6,9.0,M,-19.2,M,,*49
$GNGGA,230129.00,4910.634105,N,12304.283394,W,1,12,0.6,9.0,M,-19.2,M,,*4A
$GNGGA,230130.00,4910.634104,N,12304.283393,W,1,12,0.6,9.0,M,-19.2,M,,*44
$GNGGA,230131.00,4910.634103,N,12304.283393,W,1,12,0.6,9.0,M,-19.2,M,,*42
$GNGGA,230132.00,4910.634101,N,12304.283393,W,1,12,0.6,9.0,M,-19.2,M,,*43
$GNGGA,230133.00,4910.634100,N,12304.283393,W,1,12,0.6,9.0,M,-19.2,M,,*43
$GNGGA,230134.00,4910.634099,N,12304.283393,W,1,12,0.6,9.0,M,-19.2,M,,*45
$GNGGA,230135.00,4910.634098,N,12304.283393,W,1,12,0.6,9.0,M,-19.2,M,,*45
$GNGGA,230136.00,4910.634096,N,12304.283394,W,1,12,0.6,9.0,M,-19.2,M,,*4F
$GNGGA,230137.00,4910.634095,N,12304.283395,W,1,12,0.6,9.0,M,-19.2,M,,*4C
$GNGGA,230138.00,4910.634093,N,12304.283395,W,1,12,0.6,9.0,M,-19.2,M,,*45
$GNGGA,230139.00,4910.634092,N,12304.283396,W,1,12,0.6,9.0,M,-19.2,M,,*46
$GNGGA,230140.00,4910.634090,N,12304.283396,W,1,12,0.6,9.0,M,-19.2,M,,*4A
$GNGGA,230141.00,4910.634089,N,12304.283396,W,1,12,0.6,9.0,M,-19.2,M,,*43
$GNGGA,230142.00,4910.634087,N,12304.283397,W,1,12,0.6,9.0,M,-19.2,M,,*4F
$GNGGA,230143.00,4910.634086,N,12304.283398,W,1,12,0.6,9.0,M,-19.2,M,,*40
$GNGGA,230144.00,4910.634084,N,12304.283398,W,1,12,0.6,9.0,M,-19.2,M,,*45
$GNGGA,230145.00,4910.634082,N,12304.283399,W,1,12,0.6,9.0,M,-19.2,M,,*43
$GNGGA,230146.00,4910.634080,N,12304.283400,W,1,12,0.6,9.0,M,-19.2,M,,*45
$GNGGA,230147.00,4910.634078,N,12304.283401,W,1,12,0.6,9.0,M,-19.2,M,,*42
$GNGGA,230148.00,4910.634077,N,12304.283402,W,1,12,0.6,9.0,M,-19.2,M,,*41
$GNGGA,230149.00,4910.634075,N,12304.283404,W,1,12,0.6,9.0,M,-19.2,M,,*44
$GNGGA,230150.00,4910.634074,N,12304.283405,W,1,12,0.6,9.0,M,-19.2,M,,*4C
$GNGGA,230151.00,4910.634072,N,12304.283406,W,1,12,0.6,9.0,M,-19.2,M,,*48
$GNGGA,230152.00,4910.634071,N,12304.283407,W,1,12,0.6,9.0,M,-19.2,M,,*49
$GNGGA,230153.00,4910.634071,N,12304.283408,W,1,12,0.6,9.0,M,-19.2,M,,*47
$GNGGA,230154.00,4910.634069,N,12304.283408,W,1,12,0.6,9.0,M,-19.2,M,,*49
$GNGGA,230155.00,4910.634069,N,12304.283408,W,1,12,0.6,9.0,M,-19.2,M,,*48
$GNGGA,230156.00,4910.634068,N,12304.283408,W,1,12,0.6,9.0,M,-19.2,M,,*4A
$GNGGA,230157.00,4910.634067,N,12304.283407,W,1,12,0.6,9.0,M,-19.2,M,,*4B
$GNGGA,230158.00,4910.634066,N,12304.283407,W,1,12,0.6,9.0,M,-19.2,M,,*45
$GNGGA,230159.00,4910.634066,N,12304.283405,W,1,12,0.6,9.0,M,-19.2,M,,*46
$GNGGA,230200.00,4910.634065,N,12304.283404,W,1,12,0.6,9.0,M,-19.2,M,,*4B
$GNGGA,230201.00,4910.634065,N,12304.283402,W,1,12,0.6,9.0,M,-19.2,M,,*4C
$GNGGA,230202.00,4910.634065,N,12304.283401,W,1,12,0.6,9.0,M,-19.2,M,,*4C
$GNGGA,230203.00,4910.634065,N,12304.283400,W,1,12,0.6,9.0,M,-19.2,M,,*4C
$GNGGA,230204.00,4910.634065,N,12304.283399,W,1,12,0.6,9.0,M,-19.2,M,,*4C
$GNGGA,230205.00,4910.634065,N,12304.283398,W,1,12,0.6,9.0,M,-19.2,M,,*4C
$GNGGA,230206.00,4910.634065,N,12304.283396,W,1,12,0.6,9.0,M,-19.2,M,,*41
$GNGGA,230207.00,4910.634065,N,12304.283396,W,1,12,0.6,9.0,M,-19.2,M,,*40
$GNGGA,230208.00,4910.634065,N,12304.283395,W,1,12,0.6,9.0,M,-19.2,M,,*4C
$GNGGA,230209.00,4910.634065,N,12304.283395,W,1,12,0.6,9.0,M,-19.2,M,,*4D
$GNGGA,230210.00,4910.634064,N,12304.283394,W,1,12,0.6,9.0,M,-19.2,M,,*45
$GNGGA,230211.00,4910.634064,N,12304.283393,W,1,12,0.6,9.0,M,-19.2,M,,*43
$GNGGA,230212.00,4910.634064,N,12304.283392,W,1,12,0.6,9.0,M,-19.2,M,,*41
$GNGGA,230213.00,4910.634065,N,12304.283392,W,1,12,0.6,9.0,M,-19.2,M,,*41
$GNGGA,230214.00,4910.634065,N,12304.283392,W,1,12,0.6,9.0,M,-19.2,M,,*46
$GNGGA,230215.00,4910.634065,N,12304.283392,W,1,12,0.6,9.0,M,-19.2,M,,*47
$GNGGA,230216.00,4910.634065,N,12304.283393,W,1,12,0.6,9.0,M,-19.2,M,,*45
$GNGGA,230217.00,4910.634065,N,12304.283393,W,1,12,0.6,9.0,M,-19.2,M,,*44
$GNGGA,230218.00,4910.634065,N,12304.283393,W,1,12,0.6,9.0,M,-19.2,M,,*4B
$GNGGA,230219.00,4910.634065,N,12304.283393,W,1,12,0.6,9.0,M,-19.2,M,,*4A
$GNGGA,230220.00,4910.634065,N,12304.283393,W,1,12,0.6,9.0,M,-19.2,M,,*40
$GNGGA,230221.00,4910.634065,N,12304.283392,W,1,12,0.6,9.0,M,-19.2,M,,*40
$GNGGA,230222.00,4910.634065,N,12304.283392,W,1,12,0.6,9.0,M,-19.2,M,,*43
$GNGGA,230223.00,4910.634065,N,12304.283392,W,1,12,0.6,8.9,M,-19.2,M,,*4A
$GNGGA,230224.00,4910.634065,N,12304.283391,W,1,12,0.6,8.9,M,-19.2,M,,*4E
$GNGGA,230225.00,4910.634063,N,12304.283390,W,1,12,0.6,8.9,M,-19.2,M,,*48
$GNGGA,230226.00,4910.634063,N,12304.283390,W,1,12,0.6,8.9,M,-19.2,M,,*4B
$GNGGA,230227.00,4910.634062,N,12304.283389,W,1,12,0.6,8.9,M,-19.2,M,,*43
$GNGGA,230228.00,4910.634061,N,12304.283389,W,1,12,0.6,8.9,M,-19.2,M,,*4F
$GNGGA,230229.00,4910.634060,N,12304.283388,W,1,12,0.6,8.9,M,-19.2,M,,*4E
$GNGGA,230230.00,4910.634060,N,12304.283388,W,1,12,0.6,8.9,M,-19.2,M,,*46
$GNGGA,230231.00,4910.634059,N,12304.283388,W,1,12,0.6,8.9,M,-19.2,M,,*4D
$GNGGA,230232.00,4910.634059,N,12304.283389,W,1,12,0.6,8.9,M,-19.2,M,,*4F
$GNGGA,230233.00,4910.634059,N,12304.283389,W,1,12,0.6,8.9,M,-19.2,M,,*4E
$GNGGA,230234.00,4910.634059,N,12304.283389,W,1,12,0.6,8.9,M,-19.2,M,,*49
$GNGGA,230235.00,4910.634059,N,12304.283389,W,1,12,0.6,8.9,M,-19.2,M,,*48
$GNGGA,230236.00,4910.634059,N,12304.283389,W,1,12,0.6,9.0,M,-19.2,M,,*43
$GNGGA,230237.00,4910.634059,N,12304.283389,W,1,12,0.6,9.0,M,-19.2,M,,*42
$GNGGA,230238.00,4910.634059,N,12304.283389,W,1,12,0.6,9.0,M,-19.2,M,,*4D
$GNGGA,230239.00,4910.634059,N,12304.283389,W,1,12,0.6,9.0,M,-19.2,M,,*4C
$GNGGA,230240.00,4910.634059,N,12304.283389,W,1,12,0.6,9.0,M,-19.2,M,,*42
$GNGGA,230241.00,4910.634059,N,12304.283389,W,1,12,0.6,9.0,M,-19.2,M,,*43
$GNGGA,230242.00,4910.634060,N,12304.283389,W,1,12,0.6,9.0,M,-19.2,M,,*4A
$GNGGA,230243.00,4910.634060,N,12304.283388,W,1,12,0.6,9.0,M,-19.2,M,,*4A
$GNGGA,230244.00,4910.634060,N,12304.283387,W,1,12,0.6,9.0,M,-19.2,M,,*42
$GNGGA,230245.00,4910.634060,N,12304.283387,W,1,12,0.6,9.0,M,-19.2,M,,*43
$GNGGA,230246.00,4910.634060,N,12304.283387,W,1,12,0.6,9.0,M,-19.2,M,,*40
$GNGGA,230247.00,4910.634060,N,12304.283387,W,1,12,0.6,9.0,M,-19.2,M,,*41
$GNGGA,230248.00,4910.634060,N,12304.283387,W,1,12,0.6,9.0,M,-19.2,M,,*4E
$GNGGA,230249.00,4910.634059,N,12304.283387,W,1,12,0.6,9.0,M,-19.2,M,,*45
$GNGGA,230250.00,4910.634059,N,12304.283388,W,1,12,0.6,9.0,M,-19.2,M,,*42
$GNGGA,230251.00,4910.634059,N,12304.283388,W,1,12,0.6,9.0,M,-19.2,M,,*43
$GNGGA,230252.00,4910.634058,N,12304.283387,W,1,12,0.6,9.0,M,-19.2,M,,*4E
$GNGGA,230253.00,4910.634057,N,12304.283387,W,1,12,0.6,9.0,M,-19.2,M,,*40
$GNGGA,230254.00,4910.634057,N,12304.283387,W,1,12,0.6,9.0,M,-19.2,M,,*47
$GNGGA,230255.00,4910.634056,N,12304.283387,W,1,12,0.6,9.0,M,-19.2,M,,*47
$GNGGA,230256.00,4910.634055,N,12304.283387,W,1,12,0.6,9.0,M,-19.2,M,,*47
$GNGGA,230257.00,4910.634054,N,12304.283387,W,1,12,0.6,8.9,M,-19.2,M,,*4F
$GNGGA,230258.00,4910.634053,N,12304.283387,W,1,12,0.6,8.9,M,-19.2,M,,*47
$GNGGA,230259.00,4910.634053,N,12304.283387,W,1,12,0.6,8.9,M,-19.2,M,,*46
$GNGGA,230300.00,4910.634051,N,12304.283387,W,1,12,0.6,8.9,M,-19.2,M,,*49
$GNGGA,230301.00,4910.634051,N,12304.283387,W,1,12,0.6,8.9,M,-19.2,M,,*48
$GNGGA,230302.00,4910.634050,N,12304.283387,W,1,12,0.6,8.9,M,-19.2,M,,*4A
$GNGGA,230303.00,4910.634049,N,12304.283386,W,1,12,0.6,8.9,M,-19.2,M,,*42
$GNGGA,230304.00,4910.634048,N,12304.283386,W,1,12,0.6,8.9,M,-19.2,M,,*44
$GNGGA,230305.00,4910.634048,N,12304.283386,W,1,12,0.6,8.9,M,-19.2,M,,*45
$GNGGA,230306.00,4910.634047,N,12304.283386,W,1,12,0.6,8.9,M,-19.2,M,,*49
$GNGGA,230307.00,4910.634046,N,12304.283386,W,1,12,0.6,8.9,M,-19.2,M,,*49
$GNGGA,230308.00,4910.634045,N,12304.283386,W,1,12,0.6,8.9,M,-19.2,M,,*45
$GNGGA,230309.00,4910.634044,N,12304.283387,W,1,12,0.6,8.9,M,-19.2,M,,*44
$GNGGA,230310.00,4910.634044,N,12304.283387,W,1,12,0.6,8.9,M,-19.2,M,,*4C
$GNGGA,230311.00,4910.634043,N,12304.283389,W,1,12,0.6,8.9,M,-19.2,M,,*44
$GNGGA,230312.00,4910.634042,N,12304.283390,W,1,12,0.6,8.9,M,-19.2,M,,*4E
$GNGGA,230313.00,4910.634042,N,12304.283392,W,1,12,0.6,8.9,M,-19.2,M,,*4D
$GNGGA,230314.00,4910.634041,N,12304.283393,W,1,12,0.6,8.9,M,-19.2,M,,*48
$GNGGA,230315.00,4910.634041,N,12304.283395,W,1,12,0.6,8.9,M,-19.2,M,,*4F
$GNGGA,230316.00,4910.634041,N,12304.283397,W,1,12,0.6,8.9,M,-19.2,M,,*4E
$GNGGA,230317.00,4910.634040,N,12304.283399,W,1,12,0.6,8.9,M,-19.2,M,,*40
$GNGGA,230318.00,4910.634040,N,12304.283400,W,1,12,0.6,8.9,M,-19.2,M,,*48
$GNGGA,230319.00,4910.634039,N,12304.283402,W,1,12,0.6,8.9,M,-19.2,M,,*45
$GNGGA,230320.00,4910.634039,N,12304.283403,W,1,12,0.6,8.9,M,-19.2,M,,*4E
$GNGGA,230321.00,4910.634038,N,12304.283404,W,1,12,0.6,8.9,M,-19.2,M,,*49
$GNGGA,230322.00,4910.634038,N,12304.283405,W,1,12,0.6,8.9,M,-19.2,M,,*4B
$GNGGA,230323.00,4910.634037,N,12304.283405,W,1,12,0.6,8.9,M,-19.2,M,,*45
$GNGGA,230324.00,4910.634036,N,12304.283405,W,1,12,0.6,8.9,M,-19.2,M,,*43
$GNGGA,230325.00,4910.634036,N,12304.283405,W,1,12,0.6,8.9,M,-19.2,M,,*42
$GNGGA,230326.00,4910.634035,N,12304.283404,W,1,12,0.6,8.9,M,-19.2,M,,*43
$GNGGA,230327.00,4910.634035,N,12304.283404,W,1,12,0.6,8.9,M,-19.2,M,,*42
$GNGGA,230328.00,4910.634033,N,12304.283404,W,1,12,0.6,8.9,M,-19.2,M,,*4B
$GNGGA,230329.00,4910.634033,N,12304.283403,W,1,12,0.6,8.9,M,-19.2,M,,*4D
$GNGGA,230330.00,4910.634032,N,12304.283402,W,1,12,0.6,8.9,M,-19.2,M,,*45
$GNGGA,230331.00,4910.634032,N,12304.283402,W,1,12,0.6,8.9,M,-19.2,M,,*44
$GNGGA,230332.00,4910.634030,N,12304.283401,W,1,12,0.6,8.9,M,-19.2,M,,*46
$GNGGA,230333.00,4910.634030,N,12304.283401,W,1,12,0.6,8.9,M,-19.2,M,,*47
$GNGGA,230334.00,4910.634029,N,12304.283399,W,1,12,0.6,8.9,M,-19.2,M,,*4E
$GNGGA,230335.00,4910.634028,N,12304.283399,W,1,12,0.6,8.9,M,-19.2,M,,*4E
$GNGGA,230336.00,4910.634027,N,12304.283398,W,1,12,0.6,8.9,M,-19.2,M,,*43
$GNGGA,230337.00,4910.634026,N,12304.283397,W,1,12,0.6,8.9,M,-19.2,M,,*4C
$GNGGA,230338.00,4910.634024,N,12304.283395,W,1,12,0.6,8.9,M,-19.2,M,,*43
$GNGGA,230339.00,4910.634023,N,12304.283394,W,1,12,0.6,8.9,M,-19.2,M,,*44
$GNGGA,230340.00,4910.634022,N,12304.283392,W,1,12,0.6,8.9,M,-19.2,M,,*4D
$GNGGA,230341.00,4910.634021,N,12304.283390,W,1,12,0.6,8.9,M,-19.2,M,,*4D
$GNGGA,230342.00,4910.634020,N,12304.283389,W,1,12,0.6,8.9,M,-19.2,M,,*47
$GNGGA,230343.00,4910.634018,N,12304.283387,W,1,12,0.6,8.9,M,-19.2,M,,*43
$GNGGA,230344.00,4910.634017,N,12304.283386,W,1,12,0.6,8.9,M,-19.2,M,,*4A
$GNGGA,230345.00,4910.634015,N,12304.283384,W,1,12,0.6,8.9,M,-19.2,M,,*4B
$GNGGA,230346.00,4910.634014,N,12304.283383,W,1,12,0.6,8.9,M,-19.2,M,,*4E
$GNGGA,230347.00,4910.634012,N,12304.283381,W,1,12,0.6,8.9,M,-19.2,M,,*4B
$GNGGA,230348.00,4910.634011,N,12304.283381,W,1,12,0.6,8.9,M,-19.2,M,,*47
$GNGGA,230349.00,4910.634010,N,12304.283380,W,1,12,0.6,8.9,M,-19.2,M,,*46
$GNGGA,230350.00,4910.634009,N,12304.283380,W,1,12,0.6,8.9,M,-19.2,M,,*46
$GNGGA,230351.00,4910.634008,N,12304.283380,W,1,12,0.6,8.9,M,-19.2,M,,*46
$GNGGA,230352.00,4910.634006,N,12304.283380,W,1,12,0.6,8.9,M,-19.2,M,,*4B
$GNGGA,230353.00,4910.634005,N,12304.283380,W,1,12,0.6,8.9,M,-19.2,M,,*49
$GNGGA,230354.00,4910.634003,N,12304.283380,W,1,12,0.6,8.9,M,-19.2,M,,*48
$GNGGA,230355.00,4910.634002,N,12304.283380,W,1,12,0.6,8.9,M,-19.2,M,,*48
$GNGGA,230356.00,4910.634000,N,12304.283380,W,1,12,0.6,8.9,M,-19.2,M,,*49
$GNGGA,230357.00,4910.634000,N,12304.283380,W,1,12,0.6,8.9,M,-19.2,M,,*48
$GNGGA,230358.00,4910.633999,N,12304.283380,W,1,12,0.6,8.9,M,-19.2,M,,*49
$GNGGA,230359.00,4910.633998,N,12304.283380,W,1,12,0.6,8.9,M,-19.2,M,,*49
$GNGGA,230400.00,4910.633997,N,12304.283380,W,1,12,0.6,8.9,M,-19.2,M,,*4D
$GNGGA,230401.00,4910.633996,N,12304.283380,W,1,12,0.6,8.9,M,-19.2,M,,*4D
$GNGGA,230402.00,4910.633995,N,12304.283381,W,1,12,0.6,8.9,M,-19.2,M,,*4C
$GNGGA,230403.00,4910.633994,N,12304.283383,W,1,12,0.6,8.9,M,-19.2,M,,*4E
$GNGGA,230404.00,4910.633994,N,12304.283384,W,1,12,0.6,8.9,M,-19.2,M,,*4E
$GNGGA,230405.00,4910.633994,N,12304.283386,W,1,12,0.6,8.9,M,-19.2,M,,*4D
$GNGGA,230406.00,4910.633993,N,12304.283388,W,1,12,0.6,8.9,M,-19.2,M,,*47
$GNGGA,230407.00,4910.633993,N,12304.283390,W,1,12,0.6,8.9,M,-19.2,M,,*4F
$GNGGA,230408.00,4910.633993,N,12304.283392,W,1,12,0.6,8.9,M,-19.2,M,,*42
$GNGGA,230409.00,4910.633993,N,12304.283393,W,1,12,0.6,8.9,M,-19.2,M,,*42
$GNGGA,230410.00,4910.633993,N,12304.283395,W,1,12,0.6,8.9,M,-19.2,M,,*4C
$GNGGA,230411.00,4910.633993,N,12304.283396,W,1,12,0.6,8.9,M,-19.2,M,,*4E
$GNGGA,230412.00,4910.633993,N,12304.283398,W,1,12,0.6,8.9,M,-19.2,M,,*43
$GNGGA,230413.00,4910.633992,N,12304.283399,W,1,12,0.6,8.9,M,-19.2,M,,*42
$GNGGA,230414.00,4910.633992,N,12304.283399,W,1,12,0.6,8.9,M,-19.2,M,,*45
$GNGGA,230415.00,4910.633992,N,12304.283400,W,1,12,0.6,8.9,M,-19.2,M,,*43
$GNGGA,230416.00,4910.633992,N,12304.283401,W,1,12,0.6,8.9,M,-19.2,M,,*41
$GNGGA,230417.00,4910.633991,N,12304.283402,W,1,12,0.6,8.9,M,-19.2,M,,*40
$GNGGA,230418.00,4910.633991,N,12304.283402,W,1,12,0.6,8.9,M,-19.2,M,,*4F
$GNGGA,230419.00,4910.633991,N,12304.283404,W,1,12,0.6,8.9,M,-19.2,M,,*48
$GNGGA,230420.00,4910.633990,N,12304.283405,W,1,12,0.6,8.9,M,-19.2,M,,*42
$GNGGA,230421.00,4910.633990,N,12304.283406,W,1,12,0.6,8.9,M,-19.2,M,,*40
$GNGGA,230422.00,4910.633989,N,12304.283407,W,1,12,0.6,8.9,M,-19.2,M,,*4A
$GNGGA,230423.00,4910.633988,N,12304.283408,W,1,12,0.6,8.9,M,-19.2,M,,*45
$GNGGA,230424.00,4910.633988,N,12304.283409,W,1,12,0.6,8.9,M,-19.2,M,,*43
$GNGGA,230425.00,4910.633987,N,12304.283410,W,1,12,0.6,8.9,M,-19.2,M,,*45
$GNGGA,230426.00,4910.633986,N,12304.283411,W,1,12,0.6,8.9,M,-19.2,M,,*46
$GNGGA,230427.00,4910.633985,N,12304.283411,W,1,12,0.6,8.9,M,-19.2,M,,*44
$GNGGA,230428.00,4910.633985,N,12304.283412,W,1,12,0.6,8.9,M,-19.2,M,,*48
$GNGGA,230429.00,4910.633984,N,12304.283412,W,1,12,0.6,8.9,M,-19.2,M,,*48
$GNGGA,230430.00,4910.633983,N,12304.283412,W,1,12,0.6,8.9,M,-19.2,M,,*47
$GNGGA,230431.00,4910.633982,N,12304.283412,W,1,12,0.6,8.9,M,-19.2,M,,*47
$GNGGA,230432.00,4910.633982,N,12304.283412,W,1,12,0.6,8.9,M,-19.2,M,,*44
$GNGGA,230433.00,4910.633981,N,12304.283413,W,1,12,0.6,8.9,M,-19.2,M,,*47
$GNGGA,230434.00,4910.633981,N,12304.283413,W,1,12,0.6,8.9,M,-19.2,M,,*40
$GNGGA,230435.00,4910.633981,N,12304.283413,W,1,12,0.6,8.9,M,-19.2,M,,*41
$GNGGA,230436.00,4910.633981,N,12304.283413,W,1,12,0.6,8.9,M,-19.2,M,,*42
$GNGGA,230437.00,4910.633982,N,12304.283414,W,1,12,0.6,8.9,M,-19.2,M,,*47
$GNGGA,230438.00,4910.633982,N,12304.283414,W,1,12,0.6,8.9,M,-19.2,M,,*48
$GNGGA,230439.00,4910.633983,N,12304.283415,W,1,12,0.6,8.9,M,-19.2,M,,*49
$GNGGA,230440.00,4910.633984,N,12304.283416,W,1,12,0.6,8.9,M,-19.2,M,,*43
$GNGGA,230441.00,4910.633984,N,12304.283417,W,1,12,0.6,8.9,M,-19.2,M,,*43
$GNGGA,230442.00,4910.633985,N,12304.283418,W,1,12,0.6,8.9,M,-19.2,M,,*4E
$GNGGA,230443.00,4910.633986,N,12304.283419,W,1,12,0.6,8.9,M,-19.2,M,,*4D
$GNGGA,230444.00,4910.633987,N,12304.283420,W,1,12,0.6,8.9,M,-19.2,M,,*41
$GNGGA,230445.00,4910.633988,N,12304.283421,W,1,12,0.6,8.9,M,-19.2,M,,*4E
$GNGGA,230446.00,4910.633988,N,12304.283422,W,1,12,0.6,8.9,M,-19.2,M,,*4E
$GNGGA,230447.00,4910.633989,N,12304.283422,W,1,12,0.6,8.9,M,-19.2,M,,*4E
$GNGGA,230448.00,4910.633989,N,12304.283422,W,1,12,0.6,8.9,M,-19.2,M,,*41
$GNGGA,230449.00,4910.633989,N,12304.283423,W,1,12,0.6,8.9,M,-19.2,M,,*41
$GNGGA,230450.00,4910.633989,N,12304.283423,W,1,12,0.6,8.9,M,-19.2,M,,*49
$GNGGA,230451.00,4910.633989,N,12304.283424,W,1,12,0.6,8.9,M,-19.2,M,,*4F
$GNGGA,230452.00,4910.633989,N,12304.283424,W,1,12,0.6,8.9,M,-19.2,M,,*4C
$GNGGA,230453.00,4910.633988,N,12304.283424,W,1,12,0.6,8.9,M,-19.2,M,,*4C
$GNGGA,230454.00,4910.633988,N,12304.283424,W,1,12,0.6,8.9,M,-19.2,M,,*4B
$GNGGA,230455.00,4910.633987,N,12304.283423,W,1,12,0.6,8.9,M,-19.2,M,,*42
$GNGGA,230456.00,4910.633987,N,12304.283424,W,1,12,0.6,8.9,M,-19.2,M,,*46
$GNGGA,230457.00,4910.633986,N,12304.283424,W,1,12,0.6,8.9,M,-19.2,M,,*46
$GNGGA,230458.00,4910.633985,N,12304.283424,W,1,12,0.6,8.9,M,-19.2,M,,*4A
$GNGGA,230459.00,4910.633984,N,12304.283425,W,1,12,0.6,8.9,M,-19.2,M,,*4B
$GNGGA,230500.00,4910.633984,N,12304.283425,W,1,12,0.6,8.9,M,-19.2,M,,*46
$GNGGA,230501.00,4910.633982,N,12304.283425,W,1,12,0.6,8.9,M,-19.2,M,,*41
$GNGGA,230502.00,4910.633982,N,12304.283425,W,1,12,0.6,8.9,M,-19.2,M,,*42
$GNGGA,230503.00,4910.633981,N,12304.283425,W,1,12,0.6,8.9,M,-19.2,M,,*40
$GNGGA,230504.00,4910.633981,N,12304.283424,W,1,12,0.6,8.9,M,-19.2,M,,*46
$GNGGA,230505.00,4910.633980,N,12304.283424,W,1,12,0.6,8.9,M,-19.2,M,,*46
$GNGGA,230506.00,4910.633979,N,12304.283423,W,1,12,0.6,8.9,M,-19.2,M,,*44
$GNGGA,230507.00,4910.633978,N,12304.283423,W,1,12,0.6,8.9,M,-19.2,M,,*44
$GNGGA,230508.00,4910.633978,N,12304.283422,W,1,12,0.6,8.9,M,-19.2,M,,*4A
$GNGGA,230509.00,4910.633976,N,12304.283422,W,1,12,0.6,8.9,M,-19.2,M,,*45
$GNGGA,230510.00,4910.633976,N,12304.283420,W,1,12,0.6,8.9,M,-19.2,M,,*4F
$GNGGA,230511.00,4910.633975,N,12304.283420,W,1,12,0.6,8.9,M,-19.2,M,,*4D
$GNGGA,230512.00,4910.633974,N,12304.283418,W,1,12,0.6,8.9,M,-19.2,M,,*44
$GNGGA,230513.00,4910.633974,N,12304.283416,W,1,12,0.6,8.9,M,-19.2,M,,*4B
$GNGGA,230514.00,4910.633973,N,12304.283415,W,1,12,0.6,8.9,M,-19.2,M,,*48
$GNGGA,230515.00,4910.633973,N,12304.283414,W,1,12,0.6,8.9,M,-19.2,M,,*48
$GNGGA,230516.00,4910.633973,N,12304.283413,W,1,12,0.6,8.9,M,-19.2,M,,*4C
$GNGGA,230517.00,4910.633974,N,12304.283412,W,1,12,0.6,8.9,M,-19.2,M,,*4B
$GNGGA,230518.00,4910.633975,N,12304.283411,W,1,12,0.6,8.9,M,-19.2,M,,*46
$GNGGA,230519.00,4910.633975,N,12304.283410,W,1,12,0.6,8.9,M,-19.2,M,,*46
$GNGGA,230520.00,4910.633975,N,12304.283409,W,1,12,0.6,8.9,M,-19.2,M,,*44
$GNGGA,230521.00,4910.633976,N,12304.283408,W,1,12,0.6,8.9,M,-19.2,M,,*47
$GNGGA,230522.00,4910.633976,N,12304.283407,W,1,12,0.6,8.9,M,-19.2,M,,*4B
$GNGGA,230523.00,4910.633976,N,12304.283406,W,1,12,0.6,8.9,M,-19.2,M,,*4B
$GNGGA,230524.00,4910.633977,N,12304.283405,W,1,12,0.6,8.9,M,-19.2,M,,*4E
$GNGGA,230525.00,4910.633977,N,12304.283405,W,1,12,0.6,8.9,M,-19.2,M,,*4F
$GNGGA,230526.00,4910.633978,N,12304.283404,W,1,12,0.6,8.9,M,-19.2,M,,*42
$GNGGA,230527.00,4910.633978,N,12304.283403,W,1,12,0.6,8.9,M,-19.2,M,,*44
$GNGGA,230528.00,4910.633978,N,12304.283403,W,1,12,0.6,8.9,M,-19.2,M,,*4B
$GNGGA,230529.00,4910.633977,N,12304.283402,W,1,12,0.6,8.9,M,-19.2,M,,*44
$GNGGA,230530.00,4910.633977,N,12304.283402,W,1,12,0.6,8.9,M,-19.2,M,,*4C
$GNGGA,230531.00,4910.633977,N,12304.283401,W,1,12,0.6,8.9,M,-19.2,M,,*4E
$GNGGA,230532.00,4910.633976,N,12304.283401,W,1,12,0.6,8.9,M,-19.2,M,,*4C
$GNGGA,230533.00,4910.633976,N,12304.283401,W,1,12,0.6,8.9,M,-19.2,M,,*4D
$GNGGA,230534.00,4910.633975,N,12304.283400,W,1,12,0.6,8.9,M,-19.2,M,,*48
$GNGGA,230535.00,4910.633974,N,12304.283399,W,1,12,0.6,8.9,M,-19.2,M,,*4F
$GNGGA,230536.00,4910.633973,N,12304.283399,W,1,12,0.6,8.9,M,-19.2,M,,*4B
$GNGGA,230537.00,4910.633972,N,12304.283399,W,1,12,0.6,8.9,M,-19.2,M,,*4B
$GNGGA,230538.00,4910.633970,N,12304.283398,W,1,12,0.6,8.9,M,-19.2,M,,*47
$GNGGA,230539.00,4910.633969,N,12304.283398,W,1,12,0.6,8.9,M,-19.2,M,,*4E
$GNGGA,230540.00,4910.633967,N,12304.283398,W,1,12,0.6,8.9,M,-19.2,M,,*4E
$GNGGA,230541.00,4910.633967,N,12304.283398,W,1,12,0.6,8.9,M,-19.2,M,,*4F
$GNGGA,230542.00,4910.633966,N,12304.283398,W,1,12,0.6,8.9,M,-19.2,M,,*4D
$GNGGA,230543.00,4910.633964,N,12304.283398,W,1,12,0.6,8.9,M,-19.2,M,,*4E
$GNGGA,230544.00,4910.633964,N,12304.283398,W,1,12,0.6,8.9,M,-19.2,M,,*49
$GNGGA,230545.00,4910.633963,N,12304.283398,W,1,12,0.6,8.9,M,-19.2,M,,*4F
$GNGGA,230546.00,4910.633962,N,12304.283398,W,1,12,0.6,8.9,M,-19.2,M,,*4D
$GNGGA,230547.00,4910.633961,N,12304.283398,W,1,12,0.6,8.9,M,-19.2,M,,*4F
$GNGGA,230548.00,4910.633960,N,12304.283398,W,1,12,0.6,8.9,M,-19.2,M,,*41
$GNGGA,230549.00,4910.633960,N,12304.283396,W,1,12,0.6,8.9,M,-19.2,M,,*4E
$GNGGA,230550.00,4910.633958,N,12304.283396,W,1,12,0.6,8.9,M,-19.2,M,,*4D
$GNGGA,230551.00,4910.633958,N,12304.283395,W,1,12,0.6,8.9,M,-19.2,M,,*4F
$GNGGA,230552.00,4910.633957,N,12304.283394,W,1,12,0.6,8.9,M,-19.2,M,,*42
$GNGGA,230553.00,4910.633955,N,12304.283393,W,1,12,0.6,8.9,M,-19.2,M,,*46
$GNGGA,230554.00,4910.633955,N,12304.283393,W,1,12,0.6,8.9,M,-19.2,M,,*41
$GNGGA,230555.00,4910.633954,N,12304.283392,W,1,12,0.6,8.9,M,-19.2,M,,*40
$GNGGA,230556.00,4910.633952,N,12304.283392,W,1,12,0.6,8.9,M,-19.2,M,,*45
$GNGGA,230557.00,4910.633951,N,12304.283392,W,1,12,0.6,8.9,M,-19.2,M,,*47
$GNGGA,230558.00,4910.633951,N,12304.283392,W,1,12,0.6,8.9,M,-19.2,M,,*48
$GNGGA,230559.00,4910.633949,N,12304.283391,W,1,12,0.6,8.9,M,-19.2,M,,*43
$GNGGA,230600.00,4910.633949,N,12304.283390,W,1,12,0.6,8.9,M,-19.2,M,,*4D
$GNGGA,230601.00,4910.633949,N,12304.283390,W,1,12,0.6,8.9,M,-19.2,M,,*4C
$GNGGA,230602.00,4910.633949,N,12304.283389,W,1,12,0.6,8.9,M,-19.2,M,,*47
$GNGGA,230603.00,4910.633949,N,12304.283389,W,1,12,0.6,8.9,M,-19.2,M,,*46
$GNGGA,230604.00,4910.633949,N,12304.283389,W,1,12,0.6,8.9,M,-19.2,M,,*41
$GNGGA,230605.00,4910.633950,N,12304.283388,W,1,12,0.6,8.9,M,-19.2,M,,*49
$GNGGA,230606.00,4910.633950,N,12304.283387,W,1,12,0.6,8.9,M,-19.2,M,,*45
$GNGGA,230607.00,4910.633951,N,12304.283386,W,1,12,0.6,8.9,M,-19.2,M,,*44
$GNGGA,230608.00,4910.633952,N,12304.283385,W,1,12,0.6,8.9,M,-19.2,M,,*4B
$GNGGA,230609.00,4910.633952,N,12304.283384,W,1,12,0.6,8.9,M,-19.2,M,,*4B
$GNGGA,230610.00,4910.633953,N,12304.283383,W,1,12,0.6,8.9,M,-19.2,M,,*45
$GNGGA,230611.00,4910.633954,N,12304.283381,W,1,12,0.6,8.9,M,-19.2,M,,*41
$GNGGA,230612.00,4910.633954,N,12304.283380,W,1,12,0.6,8.9,M,-19.2,M,,*43
$GNGGA,230613.00,4910.633955,N,12304.283378,W,1,12,0.6,8.9,M,-19.2,M,,*44
$GNGGA,230614.00,4910.633955,N,12304.283377,W,1,12,0.6,8.9,M,-19.2,M,,*4C
$GNGGA,230615.00,4910.633955,N,12304.283375,W,1,12,0.6,8.9,M,-19.2,M,,*4F
$GNGGA,230616.00,4910.633955,N,12304.283375,W,1,12,0.6,8.9,M,-19.2,M,,*4C
$GNGGA,230617.00,4910.633956,N,12304.283374,W,1,12,0.6,8.9,M,-19.2,M,,*4F
$GNGGA,230618.00,4910.633956,N,12304.283374,W,1,12,0.6,8.9,M,-19.2,M,,*40
$GNGGA,230619.00,4910.633956,N,12304.283374,W,1,12,0.6,8.9,M,-19.2,M,,*41
$GNGGA,230620.00,4910.633956,N,12304.283374,W,1,12,0.6,9.0,M,-19.2,M,,*43
$GNGGA,230621.00,4910.633956,N,12304.283374,W,1,12,0.6,9.0,M,-19.2,M,,*42
$GNGGA,230622.00,4910.633956,N,12304.283374,W,1,12,0.6,9.0,M,-19.2,M,,*41
$GNGGA,230623.00,4910.633955,N,12304.283374,W,1,12,0.6,9.0,M,-19.2,M,,*43
$GNGGA,230624.00,4910.633955,N,12304.283374,W,1,12,0.6,9.0,M,-19.2,M,,*44
$GNGGA,230625.00,4910.633955,N,12304.283375,W,1,12,0.6,9.0,M,-19.2,M,,*44
$GNGGA,230626.00,4910.633955,N,12304.283375,W,1,12,0.6,9.0,M,-19.2,M,,*47
$GNGGA,230627.00,4910.633955,N,12304.283375,W,1,12,0.6,9.0,M,-19.2,M,,*46
$GNGGA,230628.00,4910.633955,N,12304.283375,W,1,12,0.6,9.0,M,-19.2,M,,*49
$GNGGA,230629.00,4910.633955,N,12304.283377,W,1,12,0.6,9.0,M,-19.2,M,,*4A
$GNGGA,230630.00,4910.633955,N,12304.283377,W,1,12,0.6,9.0,M,-19.2,M,,*42
$GNGGA,230631.00,4910.633955,N,12304.283378,W,1,12,0.6,9.0,M,-19.2,M,,*4C
$GNGGA,230632.00,4910.633955,N,12304.283378,W,1,12,0.6,9.0,M,-19.2,M,,*4F
$GNGGA,230633.00,4910.633955,N,12304.283380,W,1,12,0.6,9.0,M,-19.2,M,,*49
$GNGGA,230634.00,4910.633955,N,12304.283381,W,1,12,0.6,9.0,M,-19.2,M,,*4F
$GNGGA,230635.00,4910.633954,N,12304.283383,W,1,12,0.6,9.0,M,-19.2,M,,*4D
$GNGGA,230636.00,4910.633954,N,12304.283384,W,1,12,0.6,9.0,M,-19.2,M,,*49
$GNGGA,230637.00,4910.633953,N,12304.283384,W,1,12,0.6,9.0,M,-19.2,M,,*4F
$GNGGA,230638.00,4910.633953,N,12304.283385,W,1,12,0.6,9.0,M,-19.2,M,,*41
$GNGGA,230639.00,4910.633953,N,12304.283386,W,1,12,0.6,9.0,M,-19.2,M,,*43
$GNGGA,230640.00,4910.633953,N,12304.283386,W,1,12,0.6,9.0,M,-19.2,M,,*4D
$GNGGA,230641.00,4910.633952,N,12304.283386,W,1,12,0.6,9.0,M,-19.2,M,,*4D
$GNGGA,230642.00,4910.633952,N,12304.283386,W,1,12,0.6,9.0,M,-19.2,M,,*4E
$GNGGA,230643.00,4910.633952,N,12304.283387,W,1,12,0.6,9.0,M,-19.2,M,,*4E
$GNGGA,230644.00,4910.633952,N,12304.283387,W,1,12,0.6,9.0,M,-19.2,M,,*49
$GNGGA,230645.00,4910.633951,N,12304.283387,W,1,12,0.6,9.0,M,-19.2,M,,*4B
$GNGGA,230646.00,4910.633951,N,12304.283387,W,1,12,0.6,9.0,M,-19.2,M,,*48
$GNGGA,230647.00,4910.633951,N,12304.283389,W,1,12,0.6,9.0,M,-19.2,M,,*47
$GNGGA,230648.00,4910.633950,N,12304.283389,W,1,12,0.6,9.0,M,-19.2,M,,*49
$GNGGA,230649.00,4910.633950,N,12304.283390,W,1,12,0.6,9.0,M,-19.2,M,,*40
$GNGGA,230650.00,4910.633949,N,12304.283391,W,1,12,0.6,9.0,M,-19.2,M,,*41
$GNGGA,230651.00,4910.633949,N,12304.283392,W,1,12,0.6,9.0,M,-19.2,M,,*43
$GNGGA,230652.00,4910.633948,N,12304.283392,W,1,12,0.6,9.0,M,-19.2,M,,*41
$GNGGA,230653.00,4910.633948,N,12304.283392,W,1,12,0.6,9.0,M,-19.2,M,,*40
$GNGGA,230654.00,4910.633947,N,12304.283392,W,1,12,0.6,9.0,M,-19.2,M,,*48
$GNGGA,230655.00,4910.633946,N,12304.283392,W,1,12,0.6,9.0,M,-19.2,M,,*48
$GNGGA,230656.00,4910.633946,N,12304.283392,W,1,12,0.6,9.0,M,-19.2,M,,*4B
$GNGGA,230657.00,4910.633945,N,12304.283391,W,1,12,0.6,9.0,M,-19.2,M,,*4A
$GNGGA,230658.00,4910.633944,N,12304.283391,W,1,12,0.6,9.0,M,-19.2,M,,*44
$GNGGA,230659.00,4910.633943,N,12304.283391,W,1,12,0.6,9.0,M,-19.2,M,,*42
$GNGGA,230700.00,4910.633942,N,12304.283392,W,1,12,0.6,9.0,M,-19.2,M,,*4D
$GNGGA,230701.00,4910.633940,N,12304.283392,W,1,12,0.6,9.0,M,-19.2,M,,*4E
$GNGGA,230702.00,4910.633939,N,12304.283393,W,1,12,0.6,9.0,M,-19.2,M,,*42
$GNGGA,230703.00,4910.633938,N,12304.283395,W,1,12,0.6,9.0,M,-19.2,M,,*44
$GNGGA,230704.00,4910.633937,N,12304.283396,W,1,12,0.6,9.0,M,-19.2,M,,*4F
$GNGGA,230705.00,4910.633936,N,12304.283397,W,1,12,0.6,9.0,M,-19.2,M,,*4E
$GNGGA,230706.00,4910.633935,N,12304.283399,W,1,12,0.6,9.0,M,-19.2,M,,*40
$GNGGA,230707.00,4910.633934,N,12304.283400,W,1,12,0.6,9.0,M,-19.2,M,,*47
$GNGGA,230708.00,4910.633932,N,12304.283402,W,1,12,0.6,9.0,M,-19.2,M,,*4C
$GNGGA,230709.00,4910.633931,N,12304.283404,W,1,12,0.6,9.0,M,-19.2,M,,*48
$GNGGA,230710.00,4910.633930,N,12304.283406,W,1,12,0.6,9.0,M,-19.2,M,,*43
$GNGGA,230711.00,4910.633928,N,12304.283408,W,1,12,0.6,9.0,M,-19.2,M,,*45
$GNGGA,230712.00,4910.633927,N,12304.283410,W,1,12,0.6,9.0,M,-19.2,M,,*40
$GNGGA,230713.00,4910.633925,N,12304.283411,W,1,12,0.6,9.0,M,-19.2,M,,*42
$GNGGA,230714.00,4910.633924,N,12304.283414,W,1,12,0.6,9.0,M,-19.2,M,,*41
$GNGGA,230715.00,4910.633922,N,12304.283416,W,1,12,0.6,9.0,M,-19.2,M,,*44
$GNGGA,230716.00,4910.633921,N,12304.283417,W,1,12,0.6,9.0,M,-19.2,M,,*45
$GNGGA,230717.00,4910.633920,N,12304.283419,W,1,12,0.6,9.0,M,-19.2,M,,*4B
$GNGGA,230718.00,4910.633919,N,12304.283421,W,1,12,0.6,9.0,M,-19.2,M,,*45
$GNGGA,230719.00,4910.633918,N,12304.283422,W,1,12,0.6,9.0,M,-19.2,M,,*46
$GNGGA,230720.00,4910.633917,N,12304.283423,W,1,12,0.6,9.0,M,-19.2,M,,*42
$GNGGA,230721.00,4910.633916,N,12304.283425,W,1,12,0.6,9.0,M,-19.2,M,,*44
$GNGGA,230722.00,4910.633915,N,12304.283426,W,1,12,0.6,9.0,M,-19.2,M,,*47
$GNGGA,230723.00,4910.633915,N,12304.283427,W,1,12,0.6,9.0,M,-19.2,M,,*47
$GNGGA,230724.00,4910.633914,N,12304.283428,W,1,12,0.6,9.0,M,-19.2,M,,*4E
$GNGGA,230725.00,4910.633913,N,12304.283429,W,1,12,0.6,9.0,M,-19.2,M,,*49
$GNGGA,230726.00,4910.633913,N,12304.283429,W,1,12,0.6,9.0,M,-19.2,M,,*4A
$GNGGA,230727.00,4910.633913,N,12304.283430,W,1,12,0.6,9.0,M,-19.2,M,,*43
$GNGGA,230728.00,4910.633912,N,12304.283431,W,1,12,0.6,9.0,M,-19.2,M,,*4C
$GNGGA,230729.00,4910.633912,N,12304.283431,W,1,12,0.6,9.0,M,-19.2,M,,*4D
$GNGGA,230730.00,4910.633912,N,12304.283432,W,1,12,0.6,9.0,M,-19.2,M,,*46
$GNGGA,230731.00,4910.633912,N,12304.283433,W,1,12,0.6,9.0,M,-19.2,M,,*46
$GNGGA,230732.00,4910.633912,N,12304.283434,W,1,12,0.6,9.0,M,-19.2,M,,*42
$GNGGA,230733.00,4910.633912,N,12304.283435,W,1,12,0.6,9.0,M,-19.2,M,,*42
$GNGGA,230734.00,4910.633912,N,12304.283435,W,1,12,0.6,9.0,M,-19.2,M,,*45
$GNGGA,230735.00,4910.633911,N,12304.283437,W,1,12,0.6,9.0,M,-19.2,M,,*45
$GNGGA,230736.00,4910.633911,N,12304.283438,W,1,12,0.6,9.0,M,-19.2,M,,*49
$GNGGA,230737.00,4910.633911,N,12304.283439,W,1,12,0.6,9.0,M,-19.2,M,,*49
$GNGGA,230738.00,4910.633911,N,12304.283440,W,1,12,0.6,9.0,M,-19.2,M,,*48
$GNGGA,230739.00,4910.633911,N,12304.283441,W,1,12,0.6,9.0,M,-19.2,M,,*48
$GNGGA,230740.00,4910.633911,N,12304.283442,W,1,12,0.6,9.0,M,-19.2,M,,*45
$GNGGA,230741.00,4910.633912,N,12304.283443,W,1,12,0.6,9.0,M,-19.2,M,,*46
$GNGGA,230742.00,4910.633911,N,12304.283444,W,1,12,0.6,9.0,M,-19.2,M,,*41
$GNGGA,230743.00,4910.633911,N,12304.283444,W,1,12,0.6,9.0,M,-19.2,M,,*40
$GNGGA,230744.00,4910.633911,N,12304.283444,W,1,12,0.6,9.0,M,-19.2,M,,*47
$GNGGA,230745.00,4910.633912,N,12304.283445,W,1,12,0.6,9.0,M,-19.2,M,,*44
$GNGGA,230746.00,4910.633912,N,12304.283446,W,1,12,0.6,9.0,M,-19.2,M,,*44
$GNGGA,230747.00,4910.633912,N,12304.283445,W,1,12,0.6,9.0,M,-19.2,M,,*46
$GNGGA,230748.00,4910.633912,N,12304.283444,W,1,12,0.6,9.0,M,-19.2,M,,*48
$GNGGA,230749.00,4910.633912,N,12304.283444,W,1,12,0.6,9.0,M,-19.2,M,,*49
$GNGGA,230750.00,4910.633913,N,12304.283444,W,1,12,0.6,9.0,M,-19.2,M,,*40
$GNGGA,230751.00,4910.633913,N,12304.283443,W,1,12,0.6,9.0,M,-19.2,M,,*46
$GNGGA,230752.00,4910.633914,N,12304.283442,W,1,12,0.6,9.0,M,-19.2,M,,*43
$GNGGA,230753.00,4910.633915,N,12304.283442,W,1,12,0.6,9.0,M,-19.2,M,,*43
$GNGGA,230754.00,4910.633915,N,12304.283441,W,1,12,0.6,9.0,M,-19.2,M,,*47
$GNGGA,230755.00,4910.633915,N,12304.283440,W,1,12,0.6,9.0,M,-19.2,M,,*47
$GNGGA,230756.00,4910.633914,N,12304.283438,W,1,12,0.6,9.0,M,-19.2,M,,*4A
$GNGGA,230757.00,4910.633914,N,12304.283437,W,1,12,0.6,9.0,M,-19.2,M,,*44
$GNGGA,230758.00,4910.633914,N,12304.283435,W,1,12,0.6,9.0,M,-19.2,M,,*49
$GNGGA,230759.00,4910.633913,N,12304.283434,W,1,12,0.6,9.0,M,-19.2,M,,*4E
$GNGGA,230800.00,4910.633913,N,12304.283432,W,1,12,0.6,9.0,M,-19.2,M,,*4B
$GNGGA,230801.00,4910.633912,N,12304.283430,W,1,12,0.6,9.0,M,-19.2,M,,*49
$GNGGA,230802.00,4910.633912,N,12304.283428,W,1,12,0.6,9.0,M,-19.2,M,,*43
$GNGGA,230803.00,4910.633911,N,12304.283426,W,1,12,0.6,9.0,M,-19.2,M,,*4F
$GNGGA,230804.00,4910.633910,N,12304.283425,W,1,12,0.6,9.0,M,-19.2,M,,*4A
$GNGGA,230805.00,4910.633910,N,12304.283423,W,1,12,0.6,9.0,M,-19.2,M,,*4D
$GNGGA,230806.00,4910.633910,N,12304.283422,W,1,12,0.6,9.0,M,-19.2,M,,*4F
$GNGGA,230807.00,4910.633909,N,12304.283420,W,1,12,0.6,9.0,M,-19.2,M,,*44
$GNGGA,230808.00,4910.633909,N,12304.283418,W,1,12,0.6,9.0,M,-19.2,M,,*40
$GNGGA,230809.00,4910.633909,N,12304.283416,W,1,12,0.6,9.0,M,-19.2,M,,*4F
$GNGGA,230810.00,4910.633908,N,12304.283415,W,1,12,0.6,9.0,M,-19.2,M,,*45
$GNGGA,230811.00,4910.633908,N,12304.283414,W,1,12,0.6,9.0,M,-19.2,M,,*45
$GNGGA,230812.00,4910.633908,N,12304.283412,W,1,12,0.6,9.0,M,-19.2,M,,*40
$GNGGA,230813.00,4910.633908,N,12304.283411,W,1,12,0.6,9.0,M,-19.2,M,,*42
$GNGGA,230814.00,4910.633907,N,12304.283410,W,1,12,0.6,9.0,M,-19.2,M,,*4B
$GNGGA,230815.00,4910.633907,N,12304.283410,W,1,12,0.6,9.0,M,-19.2,M,,*4A
$GNGGA,230816.00,4910.633906,N,12304.283409,W,1,12,0.6,9.0,M,-19.2,M,,*40
$GNGGA,230817.00,4910.633906,N,12304.283408,W,1,12,0.6,9.0,M,-19.2,M,,*40
$GNGGA,230818.00,4910.633904,N,12304.283408,W,1,12,0.6,9.0,M,-19.2,M,,*4D
$GNGGA,230819.00,4910.633904,N,12304.283408,W,1,12,0.6,9.0,M,-19.2,M,,*4C
$GNGGA,230820.00,4910.633903,N,12304.283408,W,1,12,0.6,9.0,M,-19.2,M,,*41
$GNGGA,230821.00,4910.633903,N,12304.283408,W,1,12,0.6,9.0,M,-19.2,M,,*40
$GNGGA,230822.00,4910.633902,N,12304.283408,W,1,12,0.6,9.0,M,-19.2,M,,*42
$GNGGA,230823.00,4910.633901,N,12304.283409,W,1,12,0.6,9.0,M,-19.2,M,,*41
$GNGGA,230824.00,4910.633901,N,12304.283409,W,1,12,0.6,9.0,M,-19.2,M,,*46
$GNGGA,230825.00,4910.633900,N,12304.283410,W,1,12,0.6,9.0,M,-19.2,M,,*4E
$GNGGA,230826.00,4910.633900,N,12304.283410,W,1,12,0.6,9.0,M,-19.2,M,,*4D
$GNGGA,230827.00,4910.633900,N,12304.283410,W,1,12,0.6,9.0,M,-19.2,M,,*4C
$GNGGA,230828.00,4910.633899,N,12304.283411,W,1,12,0.6,9.0,M,-19.2,M,,*43
$GNGGA,230829.00,4910.633899,N,12304.283411,W,1,12,0.6,9.0,M,-19.2,M,,*42
$GNGGA,230830.00,4910.633899,N,12304.283411,W,1,12,0.6,9.0,M,-19.2,M,,*4A
$GNGGA,230831.00,4910.633899,N,12304.283411,W,1,12,0.6,9.0,M,-19.2,M,,*4B
$GNGGA,230832.00,4910.633899,N,12304.283412,W,1,12,0.6,9.0,M,-19.2,M,,*4B
$GNGGA,230833.00,4910.633899,N,12304.283412,W,1,12,0.6,9.0,M,-19.2,M,,*4A
$GNGGA,230834.00,4910.633899,N,12304.283413,W,1,12,0.6,9.0,M,-19.2,M,,*4C
$GNGGA,230835.00,4910.633899,N,12304.283412,W,1,12,0.6,9.0,M,-19.2,M,,*4C
$GNGGA,230836.00,4910.633899,N,12304.283412,W,1,12,0.6,9.0,M,-19.2,M,,*4F
$GNGGA,230837.00,4910.633899,N,12304.283411,W,1,12,0.6,9.0,M,-19.2,M,,*4D
$GNGGA,230838.00,4910.633899,N,12304.283411,W,1,12,0.6,9.0,M,-19.2,M,,*42
$GNGGA,230839.00,4910.633899,N,12304.283411,W,1,12,0.6,9.0,M,-19.2,M,,*43
$GNGGA,230840.00,4910.633899,N,12304.283412,W,1,12,0.6,9.0,M,-19.2,M,,*4E
$GNGGA,230841.00,4910.633899,N,12304.283413,W,1,12,0.6,9.0,M,-19.2,M,,*4E
$GNGGA,230842.00,4910.633899,N,12304.283414,W,1,12,0.6,9.0,M,-19.2,M,,*4A
$GNGGA,230843.00,4910.633900,N,12304.283415,W,1,12,0.6,9.0,M,-19.2,M,,*4B
$GNGGA,230844.00,4910.633900,N,12304.283416,W,1,12,0.6,9.0,M,-19.2,M,,*4F
$GNGGA,230845.00,4910.633900,N,12304.283418,W,1,12,0.6,9.0,M,-19.2,M,,*40
$GNGGA,230846.00,4910.633901,N,12304.283420,W,1,12,0.6,9.0,M,-19.2,M,,*49
$GNGGA,230847.00,4910.633901,N,12304.283422,W,1,12,0.6,9.0,M,-19.2,M,,*4A
$GNGGA,230848.00,4910.633901,N,12304.283424,W,1,12,0.6,9.0,M,-19.2,M,,*43
$GNGGA,230849.00,4910.633901,N,12304.283426,W,1,12,0.6,9.0,M,-19.2,M,,*40
$GNGGA,230850.00,4910.633900,N,12304.283428,W,1,12,0.6,9.0,M,-19.2,M,,*47
$GNGGA,230851.00,4910.633900,N,12304.283429,W,1,12,0.6,9.0,M,-19.2,M,,*47
$GNGGA,230852.00,4910.633899,N,12304.283430,W,1,12,0.6,9.0,M,-19.2,M,,*4D
$GNGGA,230853.00,4910.633898,N,12304.283431,W,1,12,0.6,9.0,M,-19.2,M,,*4C
$GNGGA,230854.00,4910.633898,N,12304.283431,W,1,12,0.6,9.0,M,-19.2,M,,*4B
$GNGGA,230855.00,4910.633897,N,12304.283432,W,1,12,0.6,9.0,M,-19.2,M,,*46
$GNGGA,230856.00,4910.633896,N,12304.283432,W,1,12,0.6,9.0,M,-19.2,M,,*44
$GNGGA,230857.00,4910.633895,N,12304.283432,W,1,12,0.6,9.0,M,-19.2,M,,*46
$GNGGA,230858.00,4910.633895,N,12304.283433,W,1,12,0.6,9.0,M,-19.2,M,,*48
$GNGGA,230859.00,4910.633895,N,12304.283434,W,1,12,0.6,9.0,M,-19.2,M,,*4E
$GNGGA,230900.00,4910.633894,N,12304.283434,W,1,12,0.6,9.0,M,-19.2,M,,*42
$GNGGA,230901.00,4910.633894,N,12304.283434,W,1,12,0.6,9.0,M,-19.2,M,,*43
$GNGGA,230902.00,4910.633893,N,12304.283435,W,1,12,0.6,9.0,M,-19.2,M,,*46
$GNGGA,230903.00,4910.633892,N,12304.283435,W,1,12,0.6,9.0,M,-19.2,M,,*46
$GNGGA,230904.00,4910.633892,N,12304.283437,W,1,12,0.6,9.0,M,-19.2,M,,*43
$GNGGA,230905.00,4910.633892,N,12304.283437,W,1,12,0.6,9.0,M,-19.2,M,,*42
$GNGGA,230906.00,4910.633892,N,12304.283438,W,1,12,0.6,9.0,M,-19.2,M,,*4E
$GNGGA,230907.00,4910.633891,N,12304.283438,W,1,12,0.6,9.0,M,-19.2,M,,*4C
$GNGGA,230908.00,4910.633891,N,12304.283440,W,1,12,0.6,9.0,M,-19.2,M,,*4C
$GNGGA,230909.00,4910.633890,N,12304.283441,W,1,12,0.6,9.0,M,-19.2,M,,*4D
$GNGGA,230910.00,4910.633890,N,12304.283442,W,1,12,0.6,9.0,M,-19.2,M,,*46
$GNGGA,230911.00,4910.633889,N,12304.283443,W,1,12,0.6,9.0,M,-19.2,M,,*4E
$GNGGA,230912.00,4910.633889,N,12304.283443,W,1,12,0.6,9.0,M,-19.2,M,,*4D
$GNGGA,230913.00,4910.633889,N,12304.283444,W,1,12,0.6,9.0,M,-19.2,M,,*4B
$GNGGA,230914.00,4910.633888,N,12304.283444,W,1,12,0.6,9.0,M,-19.2,M,,*4D
$GNGGA,230915.00,4910.633888,N,12304.283445,W,1,12,0.6,9.0,M,-19.2,M,,*4D
$GNGGA,230916.00,4910.633888,N,12304.283446,W,1,12,0.6,9.0,M,-19.2,M,,*4D
$GNGGA,230917.00,4910.633887,N,12304.283446,W,1,12,0.6,9.0,M,-19.2,M,,*43
$GNGGA,230918.00,4910.633886,N,12304.283447,W,1,12,0.6,9.0,M,-19.2,M,,*4C
$GNGGA,230919.00,4910.633886,N,12304.283448,W,1,12,0.6,9.0,M,-19.2,M,,*42
$GNGGA,230920.00,4910.633885,N,12304.283449,W,1,12,0.6,9.0,M,-19.2,M,,*4A
$GNGGA,230921.00,4910.633885,N,12304.283450,W,1,12,0.6,9.0,M,-19.2,M,,*43
$GNGGA,230922.00,4910.633885,N,12304.283451,W,1,12,0.6,9.0,M,-19.2,M,,*41
$GNGGA,230923.00,4910.633884,N,12304.283452,W,1,12,0.6,9.0,M,-19.2,M,,*42
$GNGGA,230924.00,4910.633883,N,12304.283453,W,1,12,0.6,9.0,M,-19.2,M,,*43
$GNGGA,230925.00,4910.633883,N,12304.283453,W,1,12,0.6,9.0,M,-19.2,M,,*42
$GNGGA,230926.00,4910.633882,N,12304.283455,W,1,12,0.6,9.0,M,-19.2,M,,*46
$GNGGA,230927.00,4910.633882,N,12304.283455,W,1,12,0.6,9.0,M,-19.2,M,,*47
$GNGGA,230928.00,4910.633881,N,12304.283455,W,1,12,0.6,9.0,M,-19.2,M,,*4B
$GNGGA,230929.00,4910.633880,N,12304.283455,W,1,12,0.6,9.0,M,-19.2,M,,*4B
$GNGGA,230930.00,4910.633880,N,12304.283455,W,1,12,0.6,9.0,M,-19.2,M,,*43
$GNGGA,230931.00,4910.633879,N,12304.283454,W,1,12,0.6,9.0,M,-19.2,M,,*45
$GNGGA,230932.00,4910.633878,N,12304.283453,W,1,12,0.6,9.0,M,-19.2,M,,*40
$GNGGA,230933.00,4910.633877,N,12304.283453,W,1,12,0.6,9.0,M,-19.2,M,,*4E
$GNGGA,230934.00,4910.633877,N,12304.283452,W,1,12,0.6,9.0,M,-19.2,M,,*48
$GNGGA,230935.00,4910.633876,N,12304.283451,W,1,12,0.6,9.0,M,-19.2,M,,*4B
$GNGGA,230936.00,4910.633876,N,12304.283450,W,1,12,0.6,9.0,M,-19.2,M,,*49
$GNGGA,230937.00,4910.633875,N,12304.283448,W,1,12,0.6,9.0,M,-19.2,M,,*42
$GNGGA,230938.00,4910.633874,N,12304.283447,W,1,12,0.6,9.0,M,-19.2,M,,*43
$GNGGA,230939.00,4910.633874,N,12304.283445,W,1,12,0.6,9.0,M,-19.2,M,,*40
$GNGGA,230940.00,4910.633873,N,12304.283444,W,1,12,0.6,9.0,M,-19.2,M,,*48
$GNGGA,230941.00,4910.633872,N,12304.283443,W,1,12,0.6,9.0,M,-19.2,M,,*4F
$GNGGA,230942.00,4910.633871,N,12304.283441,W,1,12,0.6,9.0,M,-19.2,M,,*4D
$GNGGA,230943.00,4910.633871,N,12304.283440,W,1,12,0.6,9.0,M,-19.2,M,,*4D
$GNGGA,230944.00,4910.633870,N,12304.283438,W,1,12,0.6,9.0,M,-19.2,M,,*44
$GNGGA,230945.00,4910.633869,N,12304.283437,W,1,12,0.6,9.0,M,-19.2,M,,*42
$GNGGA,230946.00,4910.633868,N,12304.283435,W,1,12,0.6,9.0,M,-19.2,M,,*42
$GNGGA,230947.00,4910.633867,N,12304.283434,W,1,12,0.6,9.0,M,-19.2,M,,*4D
$GNGGA,230948.00,4910.633867,N,12304.283433,W,1,12,0.6,9.0,M,-19.2,M,,*45
$GNGGA,230949.00,4910.633865,N,12304.283432,W,1,12,0.6,9.0,M,-19.2,M,,*47
$GNGGA,230950.00,4910.633864,N,12304.283432,W,1,12,0.6,9.0,M,-19.2,M,,*4E
$GNGGA,230951.00,4910.633864,N,12304.283431,W,1,12,0.6,9.0,M,-19.2,M,,*4C
$GNGGA,230952.00,4910.633863,N,12304.283431,W,1,12,0.6,9.0,M,-19.2,M,,*48
$GNGGA,230953.00,4910.633862,N,12304.283431,W,1,12,0.6,9.0,M,-19.2,M,,*48
$GNGGA,230954.00,4910.633861,N,12304.283430,W,1,12,0.6,9.0,M,-19.2,M,,*4D
$GNGGA,230955.00,4910.633861,N,12304.283428,W,1,12,0.6,9.0,M,-19.2,M,,*45
$GNGGA,230956.00,4910.633859,N,12304.283427,W,1,12,0.6,9.0,M,-19.2,M,,*42
$GNGGA,230957.00,4910.633859,N,12304.283426,W,1,12,0.6,9.0,M,-19.2,M,,*42
$GNGGA,230958.00,4910.633858,N,12304.283425,W,1,12,0.6,9.0,M,-19.2,M,,*4F
$GNGGA,230959.00,4910.633858,N,12304.283423,W,1,12,0.6,9.0,M,-19.2,M,,*48
$GNGGA,231000.00,4910.633858,N,12304.283422,W,1,12,0.6,9.1,M,-19.2,M,,*4C
$GNGGA,231001.00,4910.633858,N,12304.283420,W,1,12,0.6,9.1,M,-19.2,M,,*4F
$GNGGA,231002.00,4910.633857,N,12304.283419,W,1,12,0.6,9.1,M,-19.2,M,,*49
$GNGGA,231003.00,4910.633857,N,12304.283417,W,1,12,0.6,9.1,M,-19.2,M,,*46
$GNGGA,231004.00,4910.633857,N,12304.283416,W,1,12,0.6,9.1,M,-19.2,M,,*40
$GNGGA,231005.00,4910.633856,N,12304.283414,W,1,12,0.6,9.1,M,-19.2,M,,*42
$GNGGA,231006.00,4910.633856,N,12304.283412,W,1,12,0.6,9.1,M,-19.2,M,,*47
$GNGGA,231007.00,4910.633856,N,12304.283411,W,1,12,0.6,9.1,M,-19.2,M,,*45
$GNGGA,231008.00,4910.633856,N,12304.283409,W,1,12,0.6,9.1,M,-19.2,M,,*43
$GNGGA,231009.00,4910.633856,N,12304.283408,W,1,12,0.6,9.1,M,-19.2,M,,*43
$GNGGA,231010.00,4910.633856,N,12304.283407,W,1,12,0.6,9.1,M,-19.2,M,,*44
$GNGGA,231011.00,4910.633856,N,12304.283405,W,1,12,0.6,9.1,M,-19.2,M,,*47
$GNGGA,231012.00,4910.633856,N,12304.283404,W,1,12,0.6,9.1,M,-19.2,M,,*45
$GNGGA,231013.00,4910.633855,N,12304.283403,W,1,12,0.6,9.1,M,-19.2,M,,*40
$GNGGA,231014.00,4910.633856,N,12304.283402,W,1,12,0.6,9.1,M,-19.2,M,,*45
$GNGGA,231015.00,4910.633856,N,12304.283401,W,1,12,0.6,9.1,M,-19.2,M,,*47
$GNGGA,231016.00,4910.633856,N,12304.283401,W,1,12,0.6,9.1,M,-19.2,M,,*44
$GNGGA,231017.00,4910.633856,N,12304.283401,W,1,12,0.6,9.1,M,-19.2,M,,*45
$GNGGA,231018.00,4910.633856,N,12304.283400,W,1,12,0.6,9.1,M,-19.2,M,,*4B
$GNGGA,231019.00,4910.633857,N,12304.283400,W,1,12,0.6,9.1,M,-19.2,M,,*4B
$GNGGA,231020.00,4910.633857,N,12304.283400,W,1,12,0.6,9.1,M,-19.2,M,,*41
$GNGGA,231021.00,4910.633857,N,12304.283399,W,1,12,0.6,9.1,M,-19.2,M,,*47
$GNGGA,231022.00,4910.633858,N,12304.283399,W,1,12,0.6,9.1,M,-19.2,M,,*4B
$GNGGA,231023.00,4910.633858,N,12304.283399,W,1,12,0.6,9.1,M,-19.2,M,,*4A
$GNGGA,231024.00,4910.633858,N,12304.283399,W,1,12,0.6,9.1,M,-19.2,M,,*4D
$GNGGA,231025.00,4910.633858,N,12304.283399,W,1,12,0.6,9.1,M,-19.2,M,,*4C
$GNGGA,231026.00,4910.633857,N,12304.283400,W,1,12,0.6,9.1,M,-19.2,M,,*47
$GNGGA,231027.00,4910.633857,N,12304.283401,W,1,12,0.6,9.1,M,-19.2,M,,*47
$GNGGA,231028.00,4910.633857,N,12304.283402,W,1,12,0.6,9.1,M,-19.2,M,,*4B
$GNGGA,231029.00,4910.633856,N,12304.283402,W,1,12,0.6,9.1,M,-19.2,M,,*4B
$GNGGA,231030.00,4910.633856,N,12304.283404,W,1,12,0.6,9.1,M,-19.2,M,,*45
$GNGGA,231031.00,4910.633856,N,12304.283404,W,1,12,0.6,9.1,M,-19.2,M,,*44
$GNGGA,231032.00,4910.633856,N,12304.283405,W,1,12,0.6,9.1,M,-19.2,M,,*46
$GNGGA,231033.00,4910.633856,N,12304.283407,W,1,12,0.6,9.1,M,-19.2,M,,*45
$GNGGA,231034.00,4910.633855,N,12304.283408,W,1,12,0.6,9.1,M,-19.2,M,,*4E
$GNGGA,231035.00,4910.633855,N,12304.283408,W,1,12,0.6,9.1,M,-19.2,M,,*4F
$GNGGA,231036.00,4910.633855,N,12304.283409,W,1,12,0.6,9.1,M,-19.2,M,,*4D
$GNGGA,231037.00,4910.633855,N,12304.283410,W,1,12,0.6,9.1,M,-19.2,M,,*44
$GNGGA,231038.00,4910.633855,N,12304.283411,W,1,12,0.6,9.1,M,-19.2,M,,*4A
$GNGGA,231039.00,4910.633855,N,12304.283411,W,1,12,0.6,9.1,M,-19.2,M,,*4B
$GNGGA,231040.00,4910.633855,N,12304.283411,W,1,12,0.6,9.1,M,-19.2,M,,*45
$GNGGA,231041.00,4910.633855,N,12304.283411,W,1,12,0.6,9.1,M,-19.2,M,,*44
$GNGGA,231042.00,4910.633854,N,12304.283411,W,1,12,0.6,9.1,M,-19.2,M,,*46
$GNGGA,231043.00,4910.633854,N,12304.283412,W,1,12,0.6,9.1,M,-19.2,M,,*44
$GNGGA,231044.00,4910.633853,N,12304.283411,W,1,12,0.6,9.1,M,-19.2,M,,*47
$GNGGA,231045.00,4910.633853,N,12304.283411,W,1,12,0.6,9.1,M,-19.2,M,,*46
$GNGGA,231046.00,4910.633852,N,12304.283411,W,1,12,0.6,9.1,M,-19.2,M,,*44
$GNGGA,231047.00,4910.633852,N,12304.283411,W,1,12,0.6,9.1,M,-19.2,M,,*45
$GNGGA,231048.00,4910.633850,N,12304.283411,W,1,12,0.6,9.1,M,-19.2,M,,*48
$GNGGA,231049.00,4910.633850,N,12304.283411,W,1,12,0.6,9.1,M,-19.2,M,,*49
$GNGGA,231050.00,4910.633849,N,12304.283410,W,1,12,0.6,9.1,M,-19.2,M,,*48
$GNGGA,231051.00,4910.633847,N,12304.283410,W,1,12,0.6,9.1,M,-19.2,M,,*47
$GNGGA,231052.00,4910.633847,N,12304.283409,W,1,12,0.6,9.1,M,-19.2,M,,*4C
$GNGGA,231053.00,4910.633846,N,12304.283408,W,1,12,0.6,9.1,M,-19.2,M,,*4D
$GNGGA,231054.00,4910.633844,N,12304.283408,W,1,12,0.6,9.1,M,-19.2,M,,*48
$GNGGA,231055.00,4910.633844,N,12304.283407,W,1,12,0.6,9.1,M,-19.2,M,,*46
$GNGGA,231056.00,4910.633843,N,12304.283407,W,1,12,0.6,9.1,M,-19.2,M,,*42
$GNGGA,231057.00,4910.633841,N,12304.283406,W,1,12,0.6,9.1,M,-19.2,M,,*40
$GNGGA,231058.00,4910.633841,N,12304.283405,W,1,12,0.6,9.1,M,-19.2,M,,*4C
$GNGGA,231059.00,4910.633840,N,12304.283405,W,1,12,0.6,9.1,M,-19.2,M,,*4C
$GNGGA,231100.00,4910.633838,N,12304.283405,W,1,12,0.6,9.1,M,-19.2,M,,*4E
$GNGGA,231101.00,4910.633838,N,12304.283405,W,1,12,0.6,9.1,M,-19.2,M,,*4F
$GNGGA,231102.00,4910.633837,N,12304.283405,W,1,12,0.6,9.1,M,-19.2,M,,*43
$GNGGA,231103.00,4910.633837,N,12304.283405,W,1,12,0.6,9.1,M,-19.2,M,,*42
$GNGGA,231104.00,4910.633836,N,12304.283405,W,1,12,0.6,9.1,M,-19.2,M,,*44
$GNGGA,231105.00,4910.633835,N,12304.283405,W,1,12,0.6,9.1,M,-19.2,M,,*46
$GNGGA,231106.00,4910.633835,N,12304.283404,W,1,12,0.6,9.1,M,-19.2,M,,*44
$GNGGA,231107.00,4910.633835,N,12304.283404,W,1,12,0.6,9.1,M,-19.2,M,,*45
$GNGGA,231108.00,4910.633367,N,12304.283273,W,1,12,0.6,8.8,M,-19.2,M,,*48
$GNGGA,231109.00,4910.632661,N,12304.282832,W,1,12,0.6,8.3,M,-19.2,M,,*4E
$GNGGA,231110.00,4910.631875,N,12304.282072,W,1,12,0.6,8.2,M,-19.2,M,,*43
$GNGGA,231111.00,4910.631171,N,12304.281110,W,1,12,0.6,8.5,M,-19.2,M,,*4E
$GNGGA,231112.00,4910.630628,N,12304.279771,W,1,12,0.6,8.5,M,-19.2,M,,*41
$GNGGA,231113.00,4910.630291,N,12304.278105,W,1,12,0.6,8.7,M,-19.2,M,,*40
$GNGGA,231114.00,4910.630149,N,12304.276260,W,1,12,0.6,9.1,M,-19.2,M,,*48
$GNGGA,231115.00,4910.630127,N,12304.274408,W,1,12,0.6,9.6,M,-19.2,M,,*4C
$GNGGA,231116.00,4910.630189,N,12304.272636,W,1,12,0.6,9.8,M,-19.2,M,,*4C
$GNGGA,231117.00,4910.630259,N,12304.271030,W,1,12,0.6,9.6,M,-19.2,M,,*4E
$GNGGA,231118.00,4910.630300,N,12304.269560,W,1,12,0.6,9.3,M,-19.2,M,,*40
$GNGGA,231119.00,4910.630305,N,12304.268166,W,1,12,0.6,9.2,M,-19.2,M,,*46
$GNGGA,231120.00,4910.630294,N,12304.266742,W,1,12,0.6,8.6,M,-19.2,M,,*4E
$GNGGA,231121.00,4910.630347,N,12304.265357,W,1,12,0.6,9.1,M,-19.2,M,,*45
$GNGGA,231122.00,4910.630425,N,12304.264030,W,1,12,0.6,9.1,M,-19.2,M,,*46
