$GNGGA,225754.000,4910.552638,N,12304.369806,W,2,59,0.43,1.608,M,-16.815,M,,*47
$GNGGA,225755.000,4910.552644,N,12304.367748,W,2,59,0.43,1.721,M,-16.815,M,,*4C
$GNGGA,225756.000,4910.552656,N,12304.365690,W,2,59,0.43,1.833,M,-16.815,M,,*46
$GNGGA,225757.000,4910.552716,N,12304.363704,W,2,59,0.43,1.817,M,-16.815,M,,*4E
$GNGGA,225758.000,4910.552872,N,12304.361760,W,2,59,0.43,1.883,M,-16.816,M,,*42
$GNGGA,225759.000,4910.553070,N,12304.359822,W,2,59,0.43,1.986,M,-16.816,M,,*4E
$GNGGA,225800.000,4910.553178,N,12304.357986,W,2,59,0.43,1.874,M,-16.815,M,,*4A
$GNGGA,225801.000,4910.553286,N,12304.356252,W,2,59,0.43,1.952,M,-16.815,M,,*4F
$GNGGA,225802.000,4910.553442,N,12304.354620,W,2,59,0.43,2.011,M,-16.815,M,,*4C
$GNGGA,225803.000,4910.553748,N,12304.353072,W,2,59,0.43,2.086,M,-16.815,M,,*4C
$GNGGA,225804.000,4910.554168,N,12304.351668,W,2,59,0.43,2.156,M,-16.815,M,,*4B
$GNGGA,225805.000,4910.554678,N,12304.350402,W,2,59,0.43,2.193,M,-16.815,M,,*4A
$GNGGA,225806.000,4910.555248,N,12304.349172,W,2,58,0.43,2.309,M,-16.815,M,,*45
$GNGGA,225807.000,4910.555902,N,12304.348014,W,2,59,0.43,2.453,M,-16.815,M,,*48
$GNGGA,225808.000,4910.556628,N,12304.346802,W,2,59,0.43,2.480,M,-16.815,M,,*4C
$GNGGA,225809.000,4910.557372,N,12304.345506,W,2,58,0.43,2.538,M,-16.815,M,,*4F
$GNGGA,225810.000,4910.558218,N,12304.344150,W,2,58,0.44,2.542,M,-16.816,M,,*4A
$GNGGA,225811.000,4910.559160,N,12304.342746,W,2,58,0.44,2.543,M,-16.815,M,,*43
$GNGGA,225812.000,4910.560150,N,12304.341336,W,2,58,0.44,2.519,M,-16.816,M,,*45
$GNGGA,225813.000,4910.561152,N,12304.339914,W,2,56,0.44,2.543,M,-16.815,M,,*40
$GNGGA,225814.000,4910.562142,N,12304.338534,W,2,57,0.44,2.539,M,-16.815,M,,*46
$GNGGA,225815.000,4910.563060,N,12304.337154,W,2,57,0.44,2.569,M,-16.815,M,,*4F
$GNGGA,225816.000,4910.563888,N,12304.335840,W,2,58,0.43,2.550,M,-16.815,M,,*4E
$GNGGA,225817.000,4910.564752,N,12304.334460,W,2,57,0.43,2.663,M,-16.816,M,,*40
$GNGGA,225818.000,4910.565682,N,12304.333002,W,2,58,0.43,2.779,M,-16.815,M,,*43
$GNGGA,225819.000,4910.566630,N,12304.331658,W,2,58,0.43,2.760,M,-16.815,M,,*4B
$GNGGA,225820.000,4910.567536,N,12304.330422,W,2,59,0.43,2.863,M,-16.815,M,,*46
$GNGGA,225821.000,4910.568436,N,12304.329150,W,2,58,0.43,3.024,M,-16.815,M,,*4A
$GNGGA,225822.000,4910.569372,N,12304.327698,W,2,58,0.44,3.083,M,-16.815,M,,*48
$GNGGA,225823.000,4910.570356,N,12304.326264,W,2,56,0.44,2.998,M,-16.815,M,,*4D
$GNGGA,225824.000,4910.571292,N,12304.324932,W,2,58,0.43,3.143,M,-16.815,M,,*4E
$GNGGA,225825.000,4910.572156,N,12304.323648,W,2,58,0.43,3.489,M,-16.815,M,,*41
$GNGGA,225826.000,4910.573026,N,12304.322484,W,2,59,0.43,3.675,M,-16.815,M,,*46
$GNGGA,225827.000,4910.573974,N,12304.321092,W,2,59,0.43,3.780,M,-16.815,M,,*42
$GNGGA,225828.000,4910.574850,N,12304.319496,W,2,58,0.43,4.050,M,-16.815,M,,*4A
$GNGGA,225829.000,4910.575576,N,12304.317672,W,2,58,0.43,4.352,M,-16.815,M,,*44
$GNGGA,225830.000,4910.576188,N,12304.315740,W,2,57,0.43,4.483,M,-16.814,M,,*4D
$GNGGA,225831.000,4910.576716,N,12304.313796,W,2,58,0.43,4.656,M,-16.815,M,,*44
$GNGGA,225832.000,4910.577346,N,12304.312056,W,2,59,0.43,4.847,M,-16.815,M,,*42
$GNGGA,225833.000,4910.578090,N,12304.310436,W,2,58,0.43,4.918,M,-16.815,M,,*4E
$GNGGA,225834.000,4910.578990,N,12304.309170,W,2,58,0.43,5.185,M,-16.815,M,,*42
$GNGGA,225835.000,4910.580028,N,12304.308354,W,2,57,0.44,5.500,M,-16.815,M,,*4A
$GNGGA,225836.000,4910.581132,N,12304.307952,W,2,57,0.43,5.556,M,-16.815,M,,*45
$GNGGA,225837.000,4910.582278,N,12304.307916,W,2,58,0.43,5.615,M,-16.815,M,,*41
$GNGGA,225838.000,4910.583364,N,12304.308390,W,2,57,0.43,5.617,M,-16.815,M,,*45
$GNGGA,225839.000,4910.584390,N,12304.309296,W,2,57,0.44,5.580,M,-16.814,M,,*45
$GNGGA,225840.000,4910.585290,N,12304.310580,W,2,57,0.43,5.457,M,-16.814,M,,*4F
$GNGGA,225841.000,4910.586124,N,12304.312206,W,2,56,0.43,5.501,M,-16.815,M,,*48
$GNGGA,225842.000,4910.586916,N,12304.314006,W,2,57,0.44,5.440,M,-16.815,M,,*44
$GNGGA,225843.000,4910.587570,N,12304.315812,W,2,55,0.44,5.350,M,-16.814,M,,*41
$GNGGA,225844.000,4910.588368,N,12304.317576,W,2,55,0.44,5.406,M,-16.814,M,,*4F
$GNGGA,225845.000,4910.589334,N,12304.319136,W,2,57,0.43,5.276,M,-16.815,M,,*4D
$GNGGA,225846.000,4910.590276,N,12304.320582,W,2,56,0.43,5.288,M,-16.815,M,,*40
$GNGGA,225847.000,4910.591374,N,12304.321812,W,2,57,0.43,5.121,M,-16.815,M,,*47
$GNGGA,225848.000,4910.592700,N,12304.322820,W,2,58,0.43,5.600,M,-16.814,M,,*44
$GNGGA,225849.000,4910.594266,N,12304.323876,W,2,57,0.43,5.672,M,-16.815,M,,*4F
$GNGGA,225850.000,4910.595706,N,12304.325130,W,2,55,0.44,6.451,M,-16.815,M,,*4D
$GNGGA,225851.000,4910.597284,N,12304.326534,W,2,56,0.43,6.658,M,-16.815,M,,*4D
$GNGGA,225852.000,4910.599000,N,12304.327896,W,2,57,0.43,6.910,M,-16.815,M,,*48
$GNGGA,225853.000,4910.600626,N,12304.329588,W,2,55,0.43,7.322,M,-16.815,M,,*4C
$GNGGA,225854.000,4910.602348,N,12304.331214,W,2,55,0.43,7.333,M,-16.815,M,,*4F
$GNGGA,225855.000,4910.604106,N,12304.332582,W,2,56,0.44,7.410,M,-16.815,M,,*49
$GNGGA,225856.000,4910.605708,N,12304.333950,W,2,58,0.43,7.674,M,-16.815,M,,*48
$GNGGA,225857.000,4910.607214,N,12304.335114,W,2,57,0.44,7.563,M,-16.815,M,,*40
$GNGGA,225858.000,4910.608558,N,12304.336146,W,2,58,0.44,7.490,M,-16.815,M,,*49
$GNGGA,225859.000,4910.609788,N,12304.337088,W,2,56,0.44,7.335,M,-16.815,M,,*42
$GNGGA,225900.000,4910.610940,N,12304.338012,W,2,58,0.43,7.379,M,-16.815,M,,*40
$GNGGA,225901.000,4910.612008,N,12304.338768,W,2,59,0.43,7.201,M,-16.815,M,,*43
$GNGGA,225902.000,4910.613028,N,12304.339578,W,2,58,0.43,7.168,M,-16.814,M,,*4D
$GNGGA,225903.000,4910.614036,N,12304.340268,W,2,58,0.43,7.216,M,-16.814,M,,*46
$GNGGA,225904.000,4910.614972,N,12304.340910,W,2,58,0.44,7.115,M,-16.814,M,,*4B
$GNGGA,225905.000,4910.615968,N,12304.341414,W,2,58,0.43,7.111,M,-16.815,M,,*4A
$GNGGA,225906.000,4910.616994,N,12304.341930,W,2,59,0.43,7.198,M,-16.815,M,,*42
$GNGGA,225907.000,4910.618086,N,12304.342596,W,2,59,0.43,7.213,M,-16.815,M,,*44
$GNGGA,225908.000,4910.619208,N,12304.343358,W,2,58,0.44,7.235,M,-16.815,M,,*49
$GNGGA,225909.000,4910.620318,N,12304.344216,W,2,59,0.43,7.248,M,-16.815,M,,*42
$GNGGA,225910.000,4910.621386,N,12304.345122,W,2,59,0.43,7.313,M,-16.815,M,,*46
$GNGGA,225911.000,4910.622568,N,12304.345998,W,2,58,0.43,7.339,M,-16.815,M,,*42
$GNGGA,225912.000,4910.623816,N,12304.346802,W,2,57,0.44,7.395,M,-16.815,M,,*4B
$GNGGA,225913.000,4910.625040,N,12304.347372,W,2,58,0.43,7.485,M,-16.815,M,,*44
$GNGGA,225914.000,4910.626246,N,12304.347294,W,2,58,0.43,7.565,M,-16.814,M,,*43
$GNGGA,225915.000,4910.627356,N,12304.346544,W,2,59,0.43,7.575,M,-16.815,M,,*49
$GNGGA,225916.000,4910.628214,N,12304.345476,W,2,59,0.43,7.542,M,-16.815,M,,*45
$GNGGA,225917.000,4910.628940,N,12304.344180,W,2,58,0.43,7.325,M,-16.815,M,,*45
$GNGGA,225918.000,4910.629624,N,12304.342632,W,2,59,0.43,7.218,M,-16.815,M,,*40
$GNGGA,225919.000,4910.630308,N,12304.340982,W,2,59,0.43,7.140,M,-16.815,M,,*4A
$GNGGA,225920.000,4910.630974,N,12304.339212,W,2,58,0.43,7.079,M,-16.814,M,,*46
$GNGGA,225921.000,4910.631592,N,12304.337376,W,2,59,0.43,6.994,M,-16.815,M,,*44
$GNGGA,225922.000,4910.632186,N,12304.335558,W,2,59,0.43,6.945,M,-16.815,M,,*41
$GNGGA,225923.000,4910.632738,N,12304.333716,W,2,59,0.43,6.922,M,-16.814,M,,*4D
$GNGGA,225924.000,4910.633218,N,12304.331910,W,2,59,0.43,6.843,M,-16.815,M,,*41
$GNGGA,225925.000,4910.633650,N,12304.330200,W,2,59,0.43,6.845,M,-16.815,M,,*45
$GNGGA,225926.000,4910.634058,N,12304.328496,W,2,59,0.43,6.810,M,-16.815,M,,*4F
$GNGGA,225927.000,4910.634376,N,12304.326714,W,2,59,0.43,6.775,M,-16.815,M,,*4A
$GNGGA,225928.000,4910.634604,N,12304.324992,W,2,59,0.43,6.782,M,-16.815,M,,*4F
$GNGGA,225929.000,4910.634802,N,12304.323330,W,2,59,0.43,6.683,M,-16.815,M,,*43
$GNGGA,225930.000,4910.634964,N,12304.321746,W,2,59,0.43,6.495,M,-16.815,M,,*48
$GNGGA,225931.000,4910.635114,N,12304.320216,W,2,59,0.43,6.358,M,-16.815,M,,*40
$GNGGA,225932.000,4910.635240,N,12304.318638,W,2,59,0.43,6.252,M,-16.814,M,,*48
$GNGGA,225933.000,4910.635354,N,12304.317054,W,2,59,0.43,6.128,M,-16.814,M,,*40
$GNGGA,225934.000,4910.635462,N,12304.315404,W,2,58,0.43,5.976,M,-16.814,M,,*47
$GNGGA,225935.000,4910.635624,N,12304.313640,W,2,58,0.43,5.805,M,-16.814,M,,*47
$GNGGA,225936.000,4910.635840,N,12304.311726,W,2,59,0.43,5.642,M,-16.815,M,,*46
$GNGGA,225937.000,4910.636098,N,12304.309728,W,2,59,0.43,5.545,M,-16.815,M,,*4A
$GNGGA,225938.000,4910.636440,N,12304.307646,W,2,59,0.43,5.438,M,-16.814,M,,*49
$GNGGA,225939.000,4910.636872,N,12304.305618,W,2,59,0.43,5.352,M,-16.815,M,,*46
$GNGGA,225940.000,4910.637352,N,12304.303806,W,2,58,0.43,5.385,M,-16.815,M,,*4C
$GNGGA,225941.000,4910.637766,N,12304.302072,W,2,59,0.43,5.329,M,-16.814,M,,*42
$GNGGA,225942.000,4910.638162,N,12304.300254,W,2,59,0.43,5.218,M,-16.815,M,,*4A
$GNGGA,225943.000,4910.638516,N,12304.298352,W,2,59,0.43,5.290,M,-16.815,M,,*4B
$GNGGA,225944.000,4910.638804,N,12304.296468,W,2,59,0.43,5.266,M,-16.814,M,,*4A
$GNGGA,225945.000,4910.639080,N,12304.294566,W,2,58,0.43,5.181,M,-16.815,M,,*49
$GNGGA,225946.000,4910.639326,N,12304.292670,W,2,58,0.43,4.994,M,-16.814,M,,*4B
$GNGGA,225947.000,4910.639500,N,12304.290840,W,2,58,0.43,4.882,M,-16.814,M,,*41
$GNGGA,225948.000,4910.639590,N,12304.289022,W,2,59,0.43,4.672,M,-16.815,M,,*42
$GNGGA,225949.000,4910.639536,N,12304.287246,W,2,59,0.43,4.387,M,-16.814,M,,*4F
$GNGGA,225950.000,4910.639320,N,12304.285524,W,2,58,0.43,4.207,M,-16.814,M,,*4F
$GNGGA,225951.000,4910.638882,N,12304.284030,W,2,58,0.43,4.014,M,-16.814,M,,*4D
$GNGGA,225952.000,4910.638276,N,12304.282788,W,2,58,0.43,4.109,M,-16.815,M,,*41
$GNGGA,225953.000,4910.637634,N,12304.281948,W,2,58,0.43,4.084,M,-16.815,M,,*48
$GNGGA,225954.000,4910.636998,N,12304.281438,W,2,58,0.43,4.066,M,-16.815,M,,*41
$GNGGA,225955.000,4910.636356,N,12304.281144,W,2,58,0.43,4.073,M,-16.814,M,,*43
$GNGGA,225956.000,4910.635888,N,12304.281006,W,2,58,0.43,4.064,M,-16.815,M,,*4B
$GNGGA,225957.000,4910.635624,N,12304.280922,W,2,58,0.43,3.985,M,-16.815,M,,*4D
$GNGGA,225958.000,4910.635438,N,12304.280892,W,2,59,0.43,3.920,M,-16.814,M,,*48
$GNGGA,225959.000,4910.635312,N,12304.280892,W,2,59,0.43,3.846,M,-16.814,M,,*47
$GNGGA,230000.000,4910.635288,N,12304.280922,W,2,58,0.43,3.785,M,-16.814,M,,*4F
$GNGGA,230001.000,4910.635288,N,12304.280922,W,2,58,0.43,3.785,M,-16.814,M,,*4E
$GNGGA,230002.000,4910.635288,N,12304.280922,W,2,58,0.43,3.785,M,-16.814,M,,*4D
$GNGGA,230003.000,4910.635288,N,12304.280922,W,2,58,0.43,3.785,M,-16.814,M,,*4C
$GNGGA,230004.000,4910.635288,N,12304.280922,W,2,58,0.43,3.785,M,-16.814,M,,*4B
$GNGGA,230005.000,4910.635288,N,12304.280922,W,2,58,0.43,3.785,M,-16.814,M,,*4A
$GNGGA,230006.000,4910.635288,N,12304.280922,W,2,58,0.43,3.785,M,-16.814,M,,*49
$GNGGA,230007.000,4910.635288,N,12304.280922,W,2,59,0.43,3.785,M,-16.814,M,,*49
$GNGGA,230008.000,4910.635288,N,12304.280922,W,2,58,0.43,3.785,M,-16.814,M,,*47
$GNGGA,230009.000,4910.635288,N,12304.280922,W,2,58,0.43,3.785,M,-16.814,M,,*46
$GNGGA,230010.000,4910.635288,N,12304.280922,W,2,58,0.43,3.785,M,-16.814,M,,*4E
$GNGGA,230011.000,4910.635288,N,12304.280922,W,2,58,0.43,3.785,M,-16.814,M,,*4F
$GNGGA,230012.000,4910.635288,N,12304.280922,W,2,58,0.43,3.785,M,-16.814,M,,*4C
$GNGGA,230013.000,4910.635288,N,12304.280922,W,2,59,0.43,3.785,M,-16.814,M,,*4C
$GNGGA,230014.000,4910.635288,N,12304.280922,W,2,59,0.43,3.785,M,-16.814,M,,*4B
$GNGGA,230015.000,4910.635288,N,12304.280922,W,2,59,0.43,3.785,M,-16.814,M,,*4A
$GNGGA,230016.000,4910.635288,N,12304.280922,W,2,59,0.43,3.785,M,-16.814,M,,*49
$GNGGA,230017.000,4910.635288,N,12304.280922,W,2,59,0.43,3.785,M,-16.814,M,,*48
$GNGGA,230018.000,4910.635288,N,12304.280922,W,2,59,0.43,3.785,M,-16.814,M,,*47
$GNGGA,230019.000,4910.635288,N,12304.280922,W,2,59,0.43,3.785,M,-16.814,M,,*46
$GNGGA,230020.000,4910.635288,N,12304.280922,W,2,58,0.43,3.785,M,-16.814,M,,*4D
$GNGGA,230021.000,4910.635288,N,12304.280922,W,2,58,0.43,3.785,M,-16.814,M,,*4C
$GNGGA,230022.000,4910.635288,N,12304.280922,W,2,58,0.43,3.785,M,-16.814,M,,*4F
$GNGGA,230023.000,4910.635288,N,12304.280922,W,2,59,0.43,3.785,M,-16.814,M,,*4F
$GNGGA,230024.000,4910.635288,N,12304.280922,W,2,59,0.43,3.785,M,-16.814,M,,*48
$GNGGA,230025.000,4910.635288,N,12304.280922,W,2,59,0.43,3.785,M,-16.814,M,,*49
$GNGGA,230026.000,4910.635288,N,12304.280922,W,2,59,0.43,3.785,M,-16.814,M,,*4A
$GNGGA,230027.000,4910.635288,N,12304.280922,W,2,59,0.43,3.785,M,-16.814,M,,*4B
$GNGGA,230028.000,4910.635288,N,12304.280922,W,2,61,0.42,3.785,M,-16.814,M,,*4E
$GNGGA,230029.000,4910.635288,N,12304.280922,W,2,61,0.42,3.785,M,-16.814,M,,*4F
$GNGGA,230030.000,4910.635288,N,12304.280922,W,2,59,0.42,3.785,M,-16.814,M,,*4C
$GNGGA,230031.000,4910.635288,N,12304.280922,W,2,60,0.42,3.785,M,-16.814,M,,*47
$GNGGA,230032.000,4910.635288,N,12304.280922,W,2,60,0.43,3.785,M,-16.814,M,,*45
$GNGGA,230033.000,4910.635288,N,12304.280922,W,2,60,0.43,3.785,M,-16.814,M,,*44
$GNGGA,230034.000,4910.635288,N,12304.280922,W,2,60,0.43,3.785,M,-16.814,M,,*43
$GNGGA,230035.000,4910.635288,N,12304.280922,W,2,59,0.43,3.785,M,-16.814,M,,*48
$GNGGA,230036.000,4910.635288,N,12304.280922,W,2,60,0.43,3.785,M,-16.814,M,,*41
$GNGGA,230037.000,4910.635288,N,12304.280922,W,2,59,0.43,3.785,M,-16.814,M,,*4A
$GNGGA,230038.000,4910.635288,N,12304.280922,W,2,59,0.43,3.785,M,-16.814,M,,*45
$GNGGA,230039.000,4910.635288,N,12304.280922,W,2,60,0.43,3.785,M,-16.814,M,,*4E
$GNGGA,230040.000,4910.635288,N,12304.280922,W,2,59,0.43,3.785,M,-16.814,M,,*4A
$GNGGA,230041.000,4910.635288,N,12304.280922,W,2,59,0.43,3.785,M,-16.814,M,,*4B
$GNGGA,230042.000,4910.635288,N,12304.280922,W,2,59,0.43,3.785,M,-16.814,M,,*48
$GNGGA,230043.000,4910.635288,N,12304.280922,W,2,59,0.43,3.785,M,-16.814,M,,*49
$GNGGA,230044.000,4910.635288,N,12304.280922,W,2,60,0.43,3.785,M,-16.814,M,,*44
$GNGGA,230045.000,4910.635288,N,12304.280922,W,2,60,0.43,3.785,M,-16.814,M,,*45
$GNGGA,230046.000,4910.635288,N,12304.280922,W,2,59,0.43,3.785,M,-16.814,M,,*4C
$GNGGA,230047.000,4910.635288,N,12304.280922,W,2,60,0.43,3.785,M,-16.814,M,,*47
$GNGGA,230048.000,4910.635288,N,12304.280922,W,2,59,0.43,3.785,M,-16.814,M,,*42
$GNGGA,230049.000,4910.635288,N,12304.280922,W,2,59,0.43,3.785,M,-16.814,M,,*43
$GNGGA,230050.000,4910.635288,N,12304.280922,W,2,59,0.43,3.785,M,-16.814,M,,*4B
$GNGGA,230051.000,4910.635288,N,12304.280922,W,2,60,0.43,3.785,M,-16.814,M,,*40
$GNGGA,230052.000,4910.635288,N,12304.280922,W,2,59,0.43,3.785,M,-16.814,M,,*49
$GNGGA,230053.000,4910.635288,N,12304.280922,W,2,59,0.43,3.785,M,-16.814,M,,*48
$GNGGA,230054.000,4910.635288,N,12304.280922,W,2,59,0.43,3.785,M,-16.814,M,,*4F
$GNGGA,230055.000,4910.635288,N,12304.280922,W,2,59,0.43,3.785,M,-16.814,M,,*4E
$GNGGA,230056.000,4910.635288,N,12304.280922,W,2,60,0.43,3.785,M,-16.814,M,,*47
$GNGGA,230057.000,4910.635288,N,12304.280922,W,2,61,0.43,3.785,M,-16.814,M,,*47
$GNGGA,230058.000,4910.635288,N,12304.280922,W,2,60,0.43,3.785,M,-16.814,M,,*49
$GNGGA,230059.000,4910.635288,N,12304.280922,W,2,60,0.43,3.785,M,-16.814,M,,*48
$GNGGA,230100.000,4910.635288,N,12304.280922,W,2,61,0.43,3.785,M,-16.814,M,,*44
$GNGGA,230101.000,4910.635288,N,12304.280922,W,2,61,0.43,3.785,M,-16.814,M,,*45
$GNGGA,230102.000,4910.635288,N,12304.280922,W,2,61,0.43,3.785,M,-16.814,M,,*46
$GNGGA,230103.000,4910.635288,N,12304.280922,W,2,61,0.43,3.785,M,-16.814,M,,*47
$GNGGA,230104.000,4910.635288,N,12304.280922,W,2,61,0.43,3.785,M,-16.814,M,,*40
$GNGGA,230105.000,4910.635288,N,12304.280922,W,2,61,0.43,3.785,M,-16.814,M,,*41
$GNGGA,230106.000,4910.635288,N,12304.280922,W,2,61,0.43,3.785,M,-16.814,M,,*42
$GNGGA,230107.000,4910.635288,N,12304.280922,W,2,61,0.43,3.785,M,-16.814,M,,*43
$GNGGA,230108.000,4910.635288,N,12304.280922,W,2,61,0.43,3.785,M,-16.814,M,,*4C
$GNGGA,230109.000,4910.635288,N,12304.280922,W,2,61,0.43,3.785,M,-16.814,M,,*4D
$GNGGA,230110.000,4910.635288,N,12304.280922,W,2,61,0.43,3.785,M,-16.814,M,,*45
$GNGGA,230111.000,4910.635288,N,12304.280922,W,2,61,0.43,3.785,M,-16.814,M,,*44
$GNGGA,230112.000,4910.635288,N,12304.280922,W,2,61,0.43,3.785,M,-16.814,M,,*47
$GNGGA,230113.000,4910.635288,N,12304.280922,W,2,61,0.43,3.785,M,-16.814,M,,*46
$GNGGA,230114.000,4910.635288,N,12304.280922,W,2,60,0.43,3.785,M,-16.814,M,,*40
$GNGGA,230115.000,4910.635288,N,12304.280922,W,2,60,0.43,3.785,M,-16.814,M,,*41
$GNGGA,230116.000,4910.635288,N,12304.280922,W,2,59,0.43,3.785,M,-16.814,M,,*48
$GNGGA,230117.000,4910.635288,N,12304.280922,W,2,59,0.43,3.785,M,-16.814,M,,*49
$GNGGA,230118.000,4910.635288,N,12304.280922,W,2,60,0.43,3.785,M,-16.814,M,,*4C
$GNGGA,230119.000,4910.635288,N,12304.280922,W,2,60,0.43,3.785,M,-16.814,M,,*4D
$GNGGA,230120.000,4910.635288,N,12304.280922,W,2,60,0.43,3.785,M,-16.814,M,,*47
$GNGGA,230121.000,4910.635288,N,12304.280922,W,2,60,0.43,3.785,M,-16.814,M,,*46
$GNGGA,230122.000,4910.635288,N,12304.280922,W,2,60,0.43,3.785,M,-16.814,M,,*45
$GNGGA,230123.000,4910.635288,N,12304.280922,W,2,60,0.43,3.785,M,-16.814,M,,*44
$GNGGA,230124.000,4910.635288,N,12304.280922,W,2,60,0.43,3.785,M,-16.814,M,,*43
$GNGGA,230125.000,4910.635288,N,12304.280922,W,2,60,0.43,3.785,M,-16.814,M,,*42
$GNGGA,230126.000,4910.635288,N,12304.280922,W,2,60,0.43,3.785,M,-16.814,M,,*41
$GNGGA,230127.000,4910.635288,N,12304.280922,W,2,60,0.43,3.785,M,-16.814,M,,*40
$GNGGA,230128.000,4910.635288,N,12304.280922,W,2,60,0.43,3.785,M,-16.814,M,,*4F
$GNGGA,230129.000,4910.635288,N,12304.280922,W,2,60,0.43,3.785,M,-16.814,M,,*4E
$GNGGA,230130.000,4910.635288,N,12304.280922,W,2,60,0.43,3.785,M,-16.814,M,,*46
$GNGGA,230131.000,4910.635288,N,12304.280922,W,2,60,0.43,3.785,M,-16.814,M,,*47
$GNGGA,230132.000,4910.635288,N,12304.280922,W,2,60,0.43,3.785,M,-16.814,M,,*44
$GNGGA,230133.000,4910.635288,N,12304.280922,W,2,60,0.43,3.785,M,-16.814,M,,*45
$GNGGA,230134.000,4910.635288,N,12304.280922,W,2,60,0.43,3.785,M,-16.814,M,,*42
$GNGGA,230135.000,4910.635288,N,12304.280922,W,2,60,0.43,3.785,M,-16.814,M,,*43
$GNGGA,230136.000,4910.635288,N,12304.280922,W,2,61,0.43,3.785,M,-16.814,M,,*41
$GNGGA,230137.000,4910.635288,N,12304.280922,W,2,61,0.43,3.785,M,-16.814,M,,*40
$GNGGA,230138.000,4910.635288,N,12304.280922,W,2,61,0.43,3.785,M,-16.814,M,,*4F
$GNGGA,230139.000,4910.635288,N,12304.280922,W,2,61,0.43,3.785,M,-16.814,M,,*4E
$GNGGA,230140.000,4910.635288,N,12304.280922,W,2,61,0.43,3.785,M,-16.814,M,,*40
$GNGGA,230141.000,4910.635288,N,12304.280922,W,2,61,0.43,3.785,M,-16.814,M,,*41
$GNGGA,230142.000,4910.635288,N,12304.280922,W,2,61,0.43,3.785,M,-16.814,M,,*42
$GNGGA,230143.000,4910.635288,N,12304.280922,W,2,61,0.43,3.785,M,-16.814,M,,*43
$GNGGA,230144.000,4910.635288,N,12304.280922,W,2,61,0.43,3.785,M,-16.814,M,,*44
$GNGGA,230145.000,4910.635288,N,12304.280922,W,2,61,0.43,3.785,M,-16.814,M,,*45
$GNGGA,230146.000,4910.635288,N,12304.280922,W,2,61,0.43,3.785,M,-16.814,M,,*46
$GNGGA,230147.000,4910.635288,N,12304.280922,W,2,61,0.43,3.785,M,-16.814,M,,*47
$GNGGA,230148.000,4910.635288,N,12304.280922,W,2,61,0.43,3.785,M,-16.814,M,,*48
$GNGGA,230149.000,4910.635288,N,12304.280922,W,2,61,0.43,3.785,M,-16.814,M,,*49
$GNGGA,230150.000,4910.635288,N,12304.280922,W,2,60,0.43,3.785,M,-16.814,M,,*40
$GNGGA,230151.000,4910.635288,N,12304.280922,W,2,61,0.43,3.785,M,-16.814,M,,*40
$GNGGA,230152.000,4910.635288,N,12304.280922,W,2,60,0.43,3.785,M,-16.814,M,,*42
$GNGGA,230153.000,4910.635288,N,12304.280922,W,2,60,0.43,3.785,M,-16.814,M,,*43
$GNGGA,230154.000,4910.635288,N,12304.280922,W,2,60,0.43,3.785,M,-16.814,M,,*44
$GNGGA,230155.000,4910.635288,N,12304.280922,W,2,60,0.43,3.785,M,-16.814,M,,*45
$GNGGA,230156.000,4910.635288,N,12304.280922,W,2,60,0.43,3.785,M,-16.814,M,,*46
$GNGGA,230157.000,4910.635288,N,12304.280922,W,2,60,0.43,3.785,M,-16.814,M,,*47
$GNGGA,230158.000,4910.635288,N,12304.280922,W,2,60,0.43,3.785,M,-16.814,M,,*48
$GNGGA,230159.000,4910.635288,N,12304.280922,W,2,60,0.43,3.785,M,-16.814,M,,*49
$GNGGA,230200.000,4910.635288,N,12304.280922,W,2,60,0.43,3.785,M,-16.814,M,,*46
$GNGGA,230201.000,4910.635288,N,12304.280922,W,2,60,0.43,3.785,M,-16.814,M,,*47
$GNGGA,230202.000,4910.635288,N,12304.280922,W,2,60,0.43,3.785,M,-16.814,M,,*44
$GNGGA,230203.000,4910.635288,N,12304.280922,W,2,60,0.43,3.785,M,-16.814,M,,*45
$GNGGA,230204.000,4910.635288,N,12304.280922,W,2,60,0.43,3.785,M,-16.814,M,,*42
$GNGGA,230205.000,4910.635288,N,12304.280922,W,2,60,0.43,3.785,M,-16.814,M,,*43
$GNGGA,230206.000,4910.635288,N,12304.280922,W,2,60,0.43,3.785,M,-16.814,M,,*40
$GNGGA,230207.000,4910.635288,N,12304.280922,W,2,61,0.43,3.785,M,-16.814,M,,*40
$GNGGA,230208.000,4910.635288,N,12304.280922,W,2,61,0.43,3.785,M,-16.814,M,,*4F
$GNGGA,230209.000,4910.635288,N,12304.280922,W,2,61,0.43,3.785,M,-16.814,M,,*4E
$GNGGA,230210.000,4910.635288,N,12304.280922,W,2,61,0.43,3.785,M,-16.814,M,,*46
$GNGGA,230211.000,4910.635288,N,12304.280922,W,2,61,0.43,3.785,M,-16.814,M,,*47
$GNGGA,230212.000,4910.635288,N,12304.280922,W,2,61,0.43,3.785,M,-16.814,M,,*44
$GNGGA,230213.000,4910.635288,N,12304.280922,W,2,61,0.43,3.785,M,-16.814,M,,*45
$GNGGA,230214.000,4910.635288,N,12304.280922,W,2,61,0.43,3.785,M,-16.814,M,,*42
$GNGGA,230215.000,4910.635288,N,12304.280922,W,2,61,0.43,3.785,M,-16.814,M,,*43
$GNGGA,230216.000,4910.635288,N,12304.280922,W,2,61,0.43,3.785,M,-16.814,M,,*40
$GNGGA,230217.000,4910.635288,N,12304.280922,W,2,61,0.43,3.785,M,-16.814,M,,*41
$GNGGA,230218.000,4910.635288,N,12304.280922,W,2,61,0.43,3.785,M,-16.814,M,,*4E
$GNGGA,230219.000,4910.635288,N,12304.280922,W,2,61,0.43,3.785,M,-16.814,M,,*4F
$GNGGA,230220.000,4910.635288,N,12304.280922,W,2,61,0.43,3.785,M,-16.814,M,,*45
$GNGGA,230221.000,4910.635288,N,12304.280922,W,2,61,0.43,3.785,M,-16.814,M,,*44
$GNGGA,230222.000,4910.635288,N,12304.280922,W,2,61,0.43,3.785,M,-16.814,M,,*47
$GNGGA,230223.000,4910.635288,N,12304.280922,W,2,61,0.43,3.785,M,-16.814,M,,*46
$GNGGA,230224.000,4910.635288,N,12304.280922,W,2,61,0.43,3.785,M,-16.814,M,,*41
$GNGGA,230225.000,4910.635288,N,12304.280922,W,2,60,0.43,3.785,M,-16.814,M,,*41
$GNGGA,230226.000,4910.635288,N,12304.280922,W,2,61,0.43,3.785,M,-16.814,M,,*43
$GNGGA,230227.000,4910.635288,N,12304.280922,W,2,61,0.43,3.785,M,-16.814,M,,*42
$GNGGA,230228.000,4910.635288,N,12304.280922,W,2,60,0.43,3.785,M,-16.814,M,,*4C
$GNGGA,230229.000,4910.635288,N,12304.280922,W,2,61,0.43,3.785,M,-16.814,M,,*4C
$GNGGA,230230.000,4910.635288,N,12304.280922,W,2,60,0.43,3.785,M,-16.814,M,,*45
$GNGGA,230231.000,4910.635288,N,12304.280922,W,2,60,0.43,3.785,M,-16.814,M,,*44
$GNGGA,230232.000,4910.635288,N,12304.280922,W,2,61,0.43,3.785,M,-16.814,M,,*46
$GNGGA,230233.000,4910.635288,N,12304.280922,W,2,61,0.43,3.785,M,-16.814,M,,*47
$GNGGA,230234.000,4910.635288,N,12304.280922,W,2,60,0.43,3.785,M,-16.814,M,,*41
$GNGGA,230235.000,4910.635288,N,12304.280922,W,2,60,0.43,3.785,M,-16.814,M,,*40
$GNGGA,230236.000,4910.635288,N,12304.280922,W,2,60,0.43,3.785,M,-16.814,M,,*43
$GNGGA,230237.000,4910.635288,N,12304.280922,W,2,60,0.43,3.785,M,-16.814,M,,*42
$GNGGA,230238.000,4910.635288,N,12304.280922,W,2,60,0.44,3.785,M,-16.814,M,,*4A
$GNGGA,230239.000,4910.635288,N,12304.280922,W,2,59,0.44,3.785,M,-16.814,M,,*41
$GNGGA,230240.000,4910.635288,N,12304.280922,W,2,60,0.44,3.785,M,-16.814,M,,*45
$GNGGA,230241.000,4910.635288,N,12304.280922,W,2,60,0.43,3.785,M,-16.814,M,,*43
$GNGGA,230242.000,4910.635288,N,12304.280922,W,2,60,0.43,3.785,M,-16.814,M,,*40
$GNGGA,230243.000,4910.635288,N,12304.280922,W,2,60,0.43,3.785,M,-16.814,M,,*41
$GNGGA,230244.000,4910.635288,N,12304.280922,W,2,60,0.43,3.785,M,-16.814,M,,*46
$GNGGA,230245.000,4910.635288,N,12304.280922,W,2,60,0.43,3.785,M,-16.814,M,,*47
$GNGGA,230246.000,4910.635288,N,12304.280922,W,2,60,0.43,3.785,M,-16.814,M,,*44
$GNGGA,230247.000,4910.635288,N,12304.280922,W,2,60,0.43,3.785,M,-16.814,M,,*45
$GNGGA,230248.000,4910.635288,N,12304.280922,W,2,60,0.43,3.785,M,-16.814,M,,*4A
$GNGGA,230249.000,4910.635288,N,12304.280922,W,2,61,0.43,3.785,M,-16.814,M,,*4A
$GNGGA,230250.000,4910.635288,N,12304.280922,W,2,60,0.43,3.785,M,-16.814,M,,*43
$GNGGA,230251.000,4910.635288,N,12304.280922,W,2,60,0.43,3.785,M,-16.814,M,,*42
$GNGGA,230252.000,4910.635288,N,12304.280922,W,2,61,0.43,3.785,M,-16.814,M,,*40
$GNGGA,230253.000,4910.635288,N,12304.280922,W,2,60,0.43,3.785,M,-16.814,M,,*40
$GNGGA,230254.000,4910.635288,N,12304.280922,W,2,60,0.43,3.785,M,-16.814,M,,*47
$GNGGA,230255.000,4910.635288,N,12304.280922,W,2,59,0.43,3.785,M,-16.814,M,,*4C
$GNGGA,230256.000,4910.635288,N,12304.280922,W,2,59,0.43,3.785,M,-16.814,M,,*4F
$GNGGA,230257.000,4910.635288,N,12304.280922,W,2,61,0.41,3.785,M,-16.814,M,,*47
$GNGGA,230258.000,4910.635288,N,12304.280922,W,2,62,0.41,3.785,M,-16.814,M,,*4B
$GNGGA,230259.000,4910.635288,N,12304.280922,W,2,61,0.41,3.785,M,-16.814,M,,*49
$GNGGA,230300.000,4910.635288,N,12304.280922,W,2,61,0.41,3.785,M,-16.814,M,,*44
$GNGGA,230301.000,4910.635288,N,12304.280922,W,2,61,0.41,3.785,M,-16.814,M,,*45
$GNGGA,230302.000,4910.635288,N,12304.280922,W,2,61,0.41,3.785,M,-16.814,M,,*46
$GNGGA,230303.000,4910.635288,N,12304.280922,W,2,61,0.41,3.785,M,-16.814,M,,*47
$GNGGA,230304.000,4910.635288,N,12304.280922,W,2,61,0.41,3.785,M,-16.814,M,,*40
$GNGGA,230305.000,4910.635288,N,12304.280922,W,2,61,0.41,3.785,M,-16.814,M,,*41
$GNGGA,230306.000,4910.635288,N,12304.280922,W,2,61,0.41,3.785,M,-16.814,M,,*42
$GNGGA,230307.000,4910.635288,N,12304.280922,W,2,61,0.41,3.785,M,-16.814,M,,*43
$GNGGA,230308.000,4910.635288,N,12304.280922,W,2,61,0.41,3.785,M,-16.814,M,,*4C
$GNGGA,230309.000,4910.635288,N,12304.280922,W,2,60,0.41,3.785,M,-16.814,M,,*4C
$GNGGA,230310.000,4910.635288,N,12304.280922,W,2,62,0.41,3.785,M,-16.814,M,,*46
$GNGGA,230311.000,4910.635288,N,12304.280922,W,2,61,0.41,3.785,M,-16.814,M,,*44
$GNGGA,230312.000,4910.635288,N,12304.280922,W,2,61,0.41,3.785,M,-16.814,M,,*47
$GNGGA,230313.000,4910.635288,N,12304.280922,W,2,62,0.41,3.785,M,-16.814,M,,*45
$GNGGA,230314.000,4910.635288,N,12304.280922,W,2,62,0.41,3.785,M,-16.814,M,,*42
$GNGGA,230315.000,4910.635288,N,12304.280922,W,2,60,0.41,3.785,M,-16.814,M,,*41
$GNGGA,230316.000,4910.635288,N,12304.280922,W,2,62,0.41,3.785,M,-16.814,M,,*40
$GNGGA,230317.000,4910.635288,N,12304.280922,W,2,61,0.41,3.785,M,-16.814,M,,*42
$GNGGA,230318.000,4910.635288,N,12304.280922,W,2,61,0.41,3.785,M,-16.814,M,,*4D
$GNGGA,230319.000,4910.635288,N,12304.280922,W,2,61,0.41,3.785,M,-16.814,M,,*4C
$GNGGA,230320.000,4910.635288,N,12304.280922,W,2,61,0.41,3.785,M,-16.814,M,,*46
$GNGGA,230321.000,4910.635288,N,12304.280922,W,2,62,0.41,3.785,M,-16.814,M,,*44
$GNGGA,230322.000,4910.635288,N,12304.280922,W,2,62,0.41,3.785,M,-16.814,M,,*47
$GNGGA,230323.000,4910.635288,N,12304.280922,W,2,61,0.41,3.785,M,-16.814,M,,*45
$GNGGA,230324.000,4910.635288,N,12304.280922,W,2,61,0.41,3.785,M,-16.814,M,,*42
$GNGGA,230325.000,4910.635288,N,12304.280922,W,2,62,0.41,3.785,M,-16.814,M,,*40
$GNGGA,230326.000,4910.635288,N,12304.280922,W,2,62,0.41,3.785,M,-16.814,M,,*43
$GNGGA,230327.000,4910.635288,N,12304.280922,W,2,61,0.41,3.785,M,-16.814,M,,*41
$GNGGA,230328.000,4910.635288,N,12304.280922,W,2,62,0.41,3.785,M,-16.814,M,,*4D
$GNGGA,230329.000,4910.635288,N,12304.280922,W,2,61,0.41,3.785,M,-16.814,M,,*4F
$GNGGA,230330.000,4910.635288,N,12304.280922,W,2,62,0.41,3.785,M,-16.814,M,,*44
$GNGGA,230331.000,4910.635288,N,12304.280922,W,2,62,0.41,3.785,M,-16.814,M,,*45
$GNGGA,230332.000,4910.635288,N,12304.280922,W,2,62,0.41,3.785,M,-16.814,M,,*46
$GNGGA,230333.000,4910.635288,N,12304.280922,W,2,62,0.41,3.785,M,-16.814,M,,*47
$GNGGA,230334.000,4910.635288,N,12304.280922,W,2,61,0.41,3.785,M,-16.814,M,,*43
$GNGGA,230335.000,4910.635288,N,12304.280922,W,2,61,0.41,3.785,M,-16.814,M,,*42
$GNGGA,230336.000,4910.635288,N,12304.280922,W,2,62,0.41,3.785,M,-16.814,M,,*42
$GNGGA,230337.000,4910.635288,N,12304.280922,W,2,61,0.41,3.785,M,-16.814,M,,*40
$GNGGA,230338.000,4910.635288,N,12304.280922,W,2,61,0.41,3.785,M,-16.814,M,,*4F
$GNGGA,230339.000,4910.635288,N,12304.280922,W,2,62,0.41,3.785,M,-16.814,M,,*4D
$GNGGA,230340.000,4910.635288,N,12304.280922,W,2,61,0.41,3.785,M,-16.814,M,,*40
$GNGGA,230341.000,4910.635288,N,12304.280922,W,2,61,0.41,3.785,M,-16.814,M,,*41
$GNGGA,230342.000,4910.635288,N,12304.280922,W,2,62,0.41,3.785,M,-16.814,M,,*41
$GNGGA,230343.000,4910.635288,N,12304.280922,W,2,63,0.41,3.785,M,-16.814,M,,*41
$GNGGA,230344.000,4910.635288,N,12304.280922,W,2,62,0.41,3.785,M,-16.814,M,,*47
$GNGGA,230345.000,4910.635288,N,12304.280922,W,2,63,0.41,3.785,M,-16.814,M,,*47
$GNGGA,230346.000,4910.635288,N,12304.280922,W,2,63,0.41,3.785,M,-16.814,M,,*44
$GNGGA,230347.000,4910.635288,N,12304.280922,W,2,62,0.41,3.785,M,-16.814,M,,*44
$GNGGA,230348.000,4910.635288,N,12304.280922,W,2,62,0.41,3.785,M,-16.814,M,,*4B
$GNGGA,230349.000,4910.635288,N,12304.280922,W,2,61,0.41,3.785,M,-16.814,M,,*49
$GNGGA,230350.000,4910.635288,N,12304.280922,W,2,61,0.41,3.785,M,-16.814,M,,*41
$GNGGA,230351.000,4910.635288,N,12304.280922,W,2,61,0.41,3.785,M,-16.814,M,,*40
$GNGGA,230352.000,4910.635288,N,12304.280922,W,2,62,0.41,3.785,M,-16.814,M,,*40
$GNGGA,230353.000,4910.635288,N,12304.280922,W,2,62,0.41,3.785,M,-16.814,M,,*41
$GNGGA,230354.000,4910.635288,N,12304.280922,W,2,61,0.41,3.785,M,-16.814,M,,*45
$GNGGA,230355.000,4910.635288,N,12304.280922,W,2,62,0.41,3.785,M,-16.814,M,,*47
$GNGGA,230356.000,4910.635288,N,12304.280922,W,2,61,0.41,3.785,M,-16.814,M,,*47
$GNGGA,230357.000,4910.635288,N,12304.280922,W,2,61,0.41,3.785,M,-16.814,M,,*46
$GNGGA,230358.000,4910.635288,N,12304.280922,W,2,62,0.41,3.785,M,-16.814,M,,*4A
$GNGGA,230359.000,4910.635288,N,12304.280922,W,2,62,0.41,3.785,M,-16.814,M,,*4B
$GNGGA,230400.000,4910.635288,N,12304.280922,W,2,61,0.41,3.785,M,-16.814,M,,*43
$GNGGA,230401.000,4910.635288,N,12304.280922,W,2,60,0.41,3.785,M,-16.814,M,,*43
$GNGGA,230402.000,4910.635288,N,12304.280922,W,2,61,0.41,3.785,M,-16.814,M,,*41
$GNGGA,230403.000,4910.635288,N,12304.280922,W,2,61,0.41,3.785,M,-16.814,M,,*40
$GNGGA,230404.000,4910.635288,N,12304.280922,W,2,62,0.41,3.785,M,-16.814,M,,*44
$GNGGA,230405.000,4910.635288,N,12304.280922,W,2,63,0.41,3.785,M,-16.814,M,,*44
$GNGGA,230406.000,4910.635288,N,12304.280922,W,2,62,0.41,3.785,M,-16.814,M,,*46
$GNGGA,230407.000,4910.635288,N,12304.280922,W,2,61,0.41,3.785,M,-16.814,M,,*44
$GNGGA,230408.000,4910.635288,N,12304.280922,W,2,63,0.41,3.785,M,-16.814,M,,*49
$GNGGA,230409.000,4910.635288,N,12304.280922,W,2,63,0.41,3.785,M,-16.814,M,,*48
$GNGGA,230410.000,4910.635288,N,12304.280922,W,2,62,0.41,3.785,M,-16.814,M,,*41
$GNGGA,230411.000,4910.635288,N,12304.280922,W,2,62,0.41,3.785,M,-16.814,M,,*40
$GNGGA,230412.000,4910.635288,N,12304.280922,W,2,62,0.41,3.785,M,-16.814,M,,*43
$GNGGA,230413.000,4910.635288,N,12304.280922,W,2,62,0.41,3.785,M,-16.814,M,,*42
$GNGGA,230414.000,4910.635288,N,12304.280922,W,2,62,0.41,3.785,M,-16.814,M,,*45
$GNGGA,230415.000,4910.635288,N,12304.280922,W,2,61,0.41,3.785,M,-16.814,M,,*47
$GNGGA,230416.000,4910.635288,N,12304.280922,W,2,62,0.41,3.785,M,-16.814,M,,*47
$GNGGA,230417.000,4910.635288,N,12304.280922,W,2,62,0.41,3.785,M,-16.814,M,,*46
$GNGGA,230418.000,4910.635288,N,12304.280922,W,2,62,0.41,3.785,M,-16.814,M,,*49
$GNGGA,230419.000,4910.635288,N,12304.280922,W,2,62,0.41,3.785,M,-16.814,M,,*48
$GNGGA,230420.000,4910.635288,N,12304.280922,W,2,63,0.41,3.785,M,-16.814,M,,*43
$GNGGA,230421.000,4910.635288,N,12304.280922,W,2,63,0.41,3.785,M,-16.814,M,,*42
$GNGGA,230422.000,4910.635288,N,12304.280922,W,2,63,0.41,3.785,M,-16.814,M,,*41
$GNGGA,230423.000,4910.635288,N,12304.280922,W,2,63,0.41,3.785,M,-16.814,M,,*40
$GNGGA,230424.000,4910.635288,N,12304.280922,W,2,63,0.41,3.785,M,-16.814,M,,*47
$GNGGA,230425.000,4910.635288,N,12304.280922,W,2,63,0.41,3.785,M,-16.814,M,,*46
$GNGGA,230426.000,4910.635288,N,12304.280922,W,2,62,0.41,3.785,M,-16.814,M,,*44
$GNGGA,230427.000,4910.635288,N,12304.280922,W,2,63,0.41,3.785,M,-16.814,M,,*44
$GNGGA,230428.000,4910.635288,N,12304.280922,W,2,63,0.41,3.785,M,-16.814,M,,*4B
$GNGGA,230429.000,4910.635288,N,12304.280922,W,2,63,0.41,3.785,M,-16.814,M,,*4A
$GNGGA,230430.000,4910.635288,N,12304.280922,W,2,62,0.41,3.785,M,-16.814,M,,*43
$GNGGA,230431.000,4910.635288,N,12304.280922,W,2,63,0.41,3.785,M,-16.814,M,,*43
$GNGGA,230432.000,4910.635288,N,12304.280922,W,2,63,0.41,3.785,M,-16.814,M,,*40
$GNGGA,230433.000,4910.635288,N,12304.280922,W,2,62,0.41,3.785,M,-16.814,M,,*40
$GNGGA,230434.000,4910.635288,N,12304.280922,W,2,63,0.41,3.785,M,-16.814,M,,*46
$GNGGA,230435.000,4910.635288,N,12304.280922,W,2,63,0.41,3.785,M,-16.814,M,,*47
$GNGGA,230436.000,4910.635288,N,12304.280922,W,2,63,0.41,3.785,M,-16.814,M,,*44
$GNGGA,230437.000,4910.635288,N,12304.280922,W,2,63,0.41,3.785,M,-16.814,M,,*45
$GNGGA,230438.000,4910.635288,N,12304.280922,W,2,63,0.41,3.785,M,-16.814,M,,*4A
$GNGGA,230439.000,4910.635288,N,12304.280922,W,2,63,0.41,3.785,M,-16.814,M,,*4B
$GNGGA,230440.000,4910.635288,N,12304.280922,W,2,62,0.41,3.785,M,-16.814,M,,*44
$GNGGA,230441.000,4910.635288,N,12304.280922,W,2,62,0.41,3.785,M,-16.814,M,,*45
$GNGGA,230442.000,4910.635288,N,12304.280922,W,2,62,0.41,3.785,M,-16.814,M,,*46
$GNGGA,230443.000,4910.635288,N,12304.280922,W,2,62,0.41,3.785,M,-16.814,M,,*47
$GNGGA,230444.000,4910.635288,N,12304.280922,W,2,62,0.41,3.785,M,-16.814,M,,*40
$GNGGA,230445.000,4910.635288,N,12304.280922,W,2,62,0.41,3.785,M,-16.814,M,,*41
$GNGGA,230446.000,4910.635288,N,12304.280922,W,2,61,0.41,3.785,M,-16.814,M,,*41
$GNGGA,230447.000,4910.635288,N,12304.280922,W,2,61,0.41,3.785,M,-16.814,M,,*40
$GNGGA,230448.000,4910.635288,N,12304.280922,W,2,61,0.41,3.785,M,-16.814,M,,*4F
$GNGGA,230449.000,4910.635288,N,12304.280922,W,2,61,0.41,3.785,M,-16.814,M,,*4E
$GNGGA,230450.000,4910.635288,N,12304.280922,W,2,62,0.41,3.785,M,-16.814,M,,*45
$GNGGA,230451.000,4910.635288,N,12304.280922,W,2,62,0.41,3.785,M,-16.814,M,,*44
$GNGGA,230452.000,4910.635288,N,12304.280922,W,2,61,0.41,3.785,M,-16.814,M,,*44
$GNGGA,230453.000,4910.635288,N,12304.280922,W,2,61,0.41,3.785,M,-16.814,M,,*45
$GNGGA,230454.000,4910.635288,N,12304.280922,W,2,62,0.41,3.785,M,-16.814,M,,*41
$GNGGA,230455.000,4910.635288,N,12304.280922,W,2,61,0.41,3.785,M,-16.814,M,,*43
$GNGGA,230456.000,4910.635288,N,12304.280922,W,2,61,0.41,3.785,M,-16.814,M,,*40
$GNGGA,230457.000,4910.635288,N,12304.280922,W,2,61,0.41,3.785,M,-16.814,M,,*41
$GNGGA,230458.000,4910.635288,N,12304.280922,W,2,61,0.41,3.785,M,-16.814,M,,*4E
$GNGGA,230459.000,4910.635288,N,12304.280922,W,2,61,0.41,3.785,M,-16.814,M,,*4F
$GNGGA,230500.000,4910.635288,N,12304.280922,W,2,61,0.41,3.785,M,-16.814,M,,*42
$GNGGA,230501.000,4910.635288,N,12304.280922,W,2,61,0.41,3.785,M,-16.814,M,,*43
$GNGGA,230502.000,4910.635288,N,12304.280922,W,2,61,0.41,3.785,M,-16.814,M,,*40
$GNGGA,230503.000,4910.635288,N,12304.280922,W,2,61,0.41,3.785,M,-16.814,M,,*41
$GNGGA,230504.000,4910.635288,N,12304.280922,W,2,61,0.41,3.785,M,-16.814,M,,*46
$GNGGA,230505.000,4910.635288,N,12304.280922,W,2,61,0.41,3.785,M,-16.814,M,,*47
$GNGGA,230506.000,4910.635288,N,12304.280922,W,2,62,0.41,3.785,M,-16.814,M,,*47
$GNGGA,230507.000,4910.635288,N,12304.280922,W,2,61,0.41,3.785,M,-16.814,M,,*45
$GNGGA,230508.000,4910.635288,N,12304.280922,W,2,61,0.41,3.785,M,-16.814,M,,*4A
$GNGGA,230509.000,4910.635288,N,12304.280922,W,2,61,0.41,3.785,M,-16.814,M,,*4B
$GNGGA,230510.000,4910.635288,N,12304.280922,W,2,61,0.41,3.785,M,-16.814,M,,*43
$GNGGA,230511.000,4910.635288,N,12304.280922,W,2,61,0.41,3.785,M,-16.814,M,,*42
$GNGGA,230512.000,4910.635288,N,12304.280922,W,2,61,0.41,3.785,M,-16.814,M,,*41
$GNGGA,230513.000,4910.635288,N,12304.280922,W,2,61,0.41,3.785,M,-16.814,M,,*40
$GNGGA,230514.000,4910.635288,N,12304.280922,W,2,61,0.41,3.785,M,-16.814,M,,*47
$GNGGA,230515.000,4910.635288,N,12304.280922,W,2,62,0.41,3.785,M,-16.814,M,,*45
$GNGGA,230516.000,4910.635288,N,12304.280922,W,2,62,0.41,3.785,M,-16.814,M,,*46
$GNGGA,230517.000,4910.635288,N,12304.280922,W,2,61,0.41,3.785,M,-16.814,M,,*44
$GNGGA,230518.000,4910.635288,N,12304.280922,W,2,61,0.41,3.785,M,-16.814,M,,*4B
$GNGGA,230519.000,4910.635288,N,12304.280922,W,2,61,0.41,3.785,M,-16.814,M,,*4A
$GNGGA,230520.000,4910.635288,N,12304.280922,W,2,61,0.41,3.785,M,-16.814,M,,*40
$GNGGA,230521.000,4910.635288,N,12304.280922,W,2,61,0.41,3.785,M,-16.814,M,,*41
$GNGGA,230522.000,4910.635288,N,12304.280922,W,2,61,0.41,3.785,M,-16.814,M,,*42
$GNGGA,230523.000,4910.635288,N,12304.280922,W,2,61,0.41,3.785,M,-16.814,M,,*43
$GNGGA,230524.000,4910.635288,N,12304.280922,W,2,61,0.41,3.785,M,-16.814,M,,*44
$GNGGA,230525.000,4910.635288,N,12304.280922,W,2,61,0.41,3.785,M,-16.814,M,,*45
$GNGGA,230526.000,4910.635288,N,12304.280922,W,2,61,0.41,3.785,M,-16.814,M,,*46
$GNGGA,230527.000,4910.635288,N,12304.280922,W,2,61,0.41,3.785,M,-16.814,M,,*47
$GNGGA,230528.000,4910.635288,N,12304.280922,W,2,61,0.41,3.785,M,-16.814,M,,*48
$GNGGA,230529.000,4910.635288,N,12304.280922,W,2,61,0.41,3.785,M,-16.814,M,,*49
$GNGGA,230530.000,4910.635288,N,12304.280922,W,2,62,0.41,3.785,M,-16.814,M,,*42
$GNGGA,230531.000,4910.635288,N,12304.280922,W,2,61,0.41,3.785,M,-16.814,M,,*40
$GNGGA,230532.000,4910.635288,N,12304.280922,W,2,62,0.41,3.785,M,-16.814,M,,*40
$GNGGA,230533.000,4910.635288,N,12304.280922,W,2,61,0.41,3.785,M,-16.814,M,,*42
$GNGGA,230534.000,4910.635288,N,12304.280922,W,2,61,0.41,3.785,M,-16.814,M,,*45
$GNGGA,230535.000,4910.635288,N,12304.280922,W,2,61,0.41,3.785,M,-16.814,M,,*44
$GNGGA,230536.000,4910.635288,N,12304.280922,W,2,62,0.41,3.785,M,-16.814,M,,*44
$GNGGA,230537.000,4910.635288,N,12304.280922,W,2,62,0.41,3.785,M,-16.814,M,,*45
$GNGGA,230538.000,4910.635288,N,12304.280922,W,2,61,0.41,3.785,M,-16.814,M,,*49
$GNGGA,230539.000,4910.635288,N,12304.280922,W,2,61,0.41,3.785,M,-16.814,M,,*48
$GNGGA,230540.000,4910.635288,N,12304.280922,W,2,61,0.41,3.785,M,-16.814,M,,*46
$GNGGA,230541.000,4910.635288,N,12304.280922,W,2,61,0.41,3.785,M,-16.814,M,,*47
$GNGGA,230542.000,4910.635288,N,12304.280922,W,2,61,0.41,3.785,M,-16.814,M,,*44
$GNGGA,230543.000,4910.635288,N,12304.280922,W,2,61,0.41,3.785,M,-16.814,M,,*45
$GNGGA,230544.000,4910.635288,N,12304.280922,W,2,61,0.41,3.785,M,-16.814,M,,*42
$GNGGA,230545.000,4910.635288,N,12304.280922,W,2,61,0.41,3.785,M,-16.814,M,,*43
$GNGGA,230546.000,4910.635288,N,12304.280922,W,2,60,0.41,3.785,M,-16.814,M,,*41
$GNGGA,230547.000,4910.635288,N,12304.280922,W,2,61,0.41,3.785,M,-16.814,M,,*41
$GNGGA,230548.000,4910.635288,N,12304.280922,W,2,60,0.41,3.785,M,-16.814,M,,*4F
$GNGGA,230549.000,4910.635288,N,12304.280922,W,2,59,0.41,3.785,M,-16.814,M,,*44
$GNGGA,230550.000,4910.635288,N,12304.280922,W,2,59,0.41,3.785,M,-16.814,M,,*4C
$GNGGA,230551.000,4910.635288,N,12304.280922,W,2,60,0.41,3.785,M,-16.814,M,,*47
$GNGGA,230552.000,4910.635288,N,12304.280922,W,2,59,0.41,3.785,M,-16.814,M,,*4E
$GNGGA,230553.000,4910.635288,N,12304.280922,W,2,60,0.41,3.785,M,-16.814,M,,*45
$GNGGA,230554.000,4910.635288,N,12304.280922,W,2,60,0.41,3.785,M,-16.814,M,,*42
$GNGGA,230555.000,4910.635288,N,12304.280922,W,2,60,0.41,3.785,M,-16.814,M,,*43
$GNGGA,230556.000,4910.635288,N,12304.280922,W,2,60,0.41,3.785,M,-16.814,M,,*40
$GNGGA,230557.000,4910.635288,N,12304.280922,W,2,60,0.41,3.785,M,-16.814,M,,*41
$GNGGA,230558.000,4910.635288,N,12304.280922,W,2,60,0.41,3.785,M,-16.814,M,,*4E
$GNGGA,230559.000,4910.635288,N,12304.280922,W,2,61,0.41,3.785,M,-16.814,M,,*4E
$GNGGA,230600.000,4910.635288,N,12304.280922,W,2,61,0.41,3.785,M,-16.814,M,,*41
$GNGGA,230601.000,4910.635288,N,12304.280922,W,2,61,0.41,3.785,M,-16.814,M,,*40
$GNGGA,230602.000,4910.635288,N,12304.280922,W,2,61,0.41,3.785,M,-16.814,M,,*43
$GNGGA,230603.000,4910.635288,N,12304.280922,W,2,61,0.41,3.785,M,-16.814,M,,*42
$GNGGA,230604.000,4910.635288,N,12304.280922,W,2,61,0.41,3.785,M,-16.814,M,,*45
$GNGGA,230605.000,4910.635288,N,12304.280922,W,2,60,0.41,3.785,M,-16.814,M,,*45
$GNGGA,230606.000,4910.635288,N,12304.280922,W,2,60,0.41,3.785,M,-16.814,M,,*46
$GNGGA,230607.000,4910.635288,N,12304.280922,W,2,60,0.41,3.785,M,-16.814,M,,*47
$GNGGA,230608.000,4910.635288,N,12304.280922,W,2,60,0.41,3.785,M,-16.814,M,,*48
$GNGGA,230609.000,4910.635288,N,12304.280922,W,2,61,0.41,3.785,M,-16.814,M,,*48
$GNGGA,230610.000,4910.635288,N,12304.280922,W,2,61,0.41,3.785,M,-16.814,M,,*40
$GNGGA,230611.000,4910.635288,N,12304.280922,W,2,61,0.41,3.785,M,-16.814,M,,*41
$GNGGA,230612.000,4910.635288,N,12304.280922,W,2,61,0.41,3.785,M,-16.814,M,,*42
$GNGGA,230613.000,4910.635288,N,12304.280922,W,2,61,0.41,3.785,M,-16.814,M,,*43
$GNGGA,230614.000,4910.635288,N,12304.280922,W,2,61,0.41,3.785,M,-16.814,M,,*44
$GNGGA,230615.000,4910.635288,N,12304.280922,W,2,61,0.41,3.785,M,-16.814,M,,*45
$GNGGA,230616.000,4910.635288,N,12304.280922,W,2,61,0.41,3.785,M,-16.814,M,,*46
$GNGGA,230617.000,4910.635288,N,12304.280922,W,2,61,0.41,3.785,M,-16.814,M,,*47
$GNGGA,230618.000,4910.635288,N,12304.280922,W,2,61,0.41,3.785,M,-16.814,M,,*48
$GNGGA,230619.000,4910.635288,N,12304.280922,W,2,61,0.41,3.785,M,-16.814,M,,*49
$GNGGA,230620.000,4910.635288,N,12304.280922,W,2,61,0.41,3.785,M,-16.814,M,,*43
$GNGGA,230621.000,4910.635288,N,12304.280922,W,2,61,0.41,3.785,M,-16.814,M,,*42
$GNGGA,230622.000,4910.635288,N,12304.280922,W,2,61,0.41,3.785,M,-16.814,M,,*41
$GNGGA,230623.000,4910.635288,N,12304.280922,W,2,59,0.41,3.785,M,-16.814,M,,*4B
$GNGGA,230624.000,4910.635288,N,12304.280922,W,2,61,0.41,3.785,M,-16.814,M,,*47
$GNGGA,230625.000,4910.635288,N,12304.280922,W,2,61,0.41,3.785,M,-16.814,M,,*46
$GNGGA,230626.000,4910.635288,N,12304.280922,W,2,61,0.41,3.785,M,-16.814,M,,*45
$GNGGA,230627.000,4910.635288,N,12304.280922,W,2,59,0.41,3.785,M,-16.814,M,,*4F
$GNGGA,230628.000,4910.635288,N,12304.280922,W,2,60,0.41,3.785,M,-16.814,M,,*4A
$GNGGA,230629.000,4910.635288,N,12304.280922,W,2,60,0.41,3.785,M,-16.814,M,,*4B
$GNGGA,230630.000,4910.635288,N,12304.280922,W,2,60,0.41,3.785,M,-16.814,M,,*43
$GNGGA,230631.000,4910.635288,N,12304.280922,W,2,60,0.41,3.785,M,-16.814,M,,*42
$GNGGA,230632.000,4910.635288,N,12304.280922,W,2,61,0.41,3.785,M,-16.814,M,,*40
$GNGGA,230633.000,4910.635288,N,12304.280922,W,2,61,0.41,3.785,M,-16.814,M,,*41
$GNGGA,230634.000,4910.635288,N,12304.280922,W,2,61,0.41,3.785,M,-16.814,M,,*46
$GNGGA,230635.000,4910.635288,N,12304.280922,W,2,61,0.41,3.785,M,-16.814,M,,*47
$GNGGA,230636.000,4910.635288,N,12304.280922,W,2,61,0.41,3.785,M,-16.814,M,,*44
$GNGGA,230637.000,4910.635288,N,12304.280922,W,2,61,0.41,3.785,M,-16.814,M,,*45
$GNGGA,230638.000,4910.635288,N,12304.280922,W,2,61,0.41,3.785,M,-16.814,M,,*4A
$GNGGA,230639.000,4910.635288,N,12304.280922,W,2,60,0.41,3.785,M,-16.814,M,,*4A
$GNGGA,230640.000,4910.635288,N,12304.280922,W,2,60,0.41,3.785,M,-16.814,M,,*44
$GNGGA,230641.000,4910.635288,N,12304.280922,W,2,60,0.41,3.785,M,-16.814,M,,*45
$GNGGA,230642.000,4910.635288,N,12304.280922,W,2,60,0.41,3.785,M,-16.814,M,,*46
$GNGGA,230643.000,4910.635288,N,12304.280922,W,2,60,0.41,3.785,M,-16.814,M,,*47
$GNGGA,230644.000,4910.635288,N,12304.280922,W,2,60,0.41,3.785,M,-16.814,M,,*40
$GNGGA,230645.000,4910.635288,N,12304.280922,W,2,60,0.41,3.785,M,-16.814,M,,*41
$GNGGA,230646.000,4910.635288,N,12304.280922,W,2,60,0.41,3.785,M,-16.814,M,,*42
$GNGGA,230647.000,4910.635288,N,12304.280922,W,2,60,0.41,3.785,M,-16.814,M,,*43
$GNGGA,230648.000,4910.635288,N,12304.280922,W,2,60,0.41,3.785,M,-16.814,M,,*4C
$GNGGA,230649.000,4910.635288,N,12304.280922,W,2,60,0.41,3.785,M,-16.814,M,,*4D
$GNGGA,230650.000,4910.635288,N,12304.280922,W,2,60,0.41,3.785,M,-16.814,M,,*45
$GNGGA,230651.000,4910.635288,N,12304.280922,W,2,61,0.41,3.785,M,-16.814,M,,*45
$GNGGA,230652.000,4910.635288,N,12304.280922,W,2,60,0.41,3.785,M,-16.814,M,,*47
$GNGGA,230653.000,4910.635288,N,12304.280922,W,2,60,0.41,3.785,M,-16.814,M,,*46
$GNGGA,230654.000,4910.635288,N,12304.280922,W,2,60,0.41,3.785,M,-16.814,M,,*41
$GNGGA,230655.000,4910.635288,N,12304.280922,W,2,61,0.41,3.785,M,-16.814,M,,*41
$GNGGA,230656.000,4910.635288,N,12304.280922,W,2,60,0.41,3.785,M,-16.814,M,,*43
$GNGGA,230657.000,4910.635288,N,12304.280922,W,2,60,0.41,3.785,M,-16.814,M,,*42
$GNGGA,230658.000,4910.635288,N,12304.280922,W,2,60,0.41,3.785,M,-16.814,M,,*4D
$GNGGA,230659.000,4910.635288,N,12304.280922,W,2,60,0.41,3.785,M,-16.814,M,,*4C
$GNGGA,230700.000,4910.635288,N,12304.280922,W,2,61,0.41,3.785,M,-16.814,M,,*40
$GNGGA,230701.000,4910.635288,N,12304.280922,W,2,61,0.41,3.785,M,-16.814,M,,*41
$GNGGA,230702.000,4910.635288,N,12304.280922,W,2,61,0.41,3.785,M,-16.814,M,,*42
$GNGGA,230703.000,4910.635288,N,12304.280922,W,2,61,0.41,3.785,M,-16.814,M,,*43
$GNGGA,230704.000,4910.635288,N,12304.280922,W,2,61,0.41,3.785,M,-16.814,M,,*44
$GNGGA,230705.000,4910.635288,N,12304.280922,W,2,61,0.41,3.785,M,-16.814,M,,*45
$GNGGA,230706.000,4910.635288,N,12304.280922,W,2,61,0.41,3.785,M,-16.814,M,,*46
$GNGGA,230707.000,4910.635288,N,12304.280922,W,2,61,0.41,3.785,M,-16.814,M,,*47
$GNGGA,230708.000,4910.635288,N,12304.280922,W,2,61,0.41,3.785,M,-16.814,M,,*48
$GNGGA,230709.000,4910.635288,N,12304.280922,W,2,61,0.41,3.785,M,-16.814,M,,*49
$GNGGA,230710.000,4910.635288,N,12304.280922,W,2,61,0.41,3.785,M,-16.814,M,,*41
$GNGGA,230711.000,4910.635288,N,12304.280922,W,2,61,0.41,3.785,M,-16.814,M,,*40
$GNGGA,230712.000,4910.635288,N,12304.280922,W,2,61,0.41,3.785,M,-16.814,M,,*43
$GNGGA,230713.000,4910.635288,N,12304.280922,W,2,61,0.41,3.785,M,-16.814,M,,*42
$GNGGA,230714.000,4910.635288,N,12304.280922,W,2,61,0.41,3.785,M,-16.814,M,,*45
$GNGGA,230715.000,4910.635288,N,12304.280922,W,2,61,0.41,3.785,M,-16.814,M,,*44
$GNGGA,230716.000,4910.635288,N,12304.280922,W,2,61,0.41,3.785,M,-16.814,M,,*47
$GNGGA,230717.000,4910.635288,N,12304.280922,W,2,61,0.41,3.785,M,-16.814,M,,*46
$GNGGA,230718.000,4910.635288,N,12304.280922,W,2,61,0.41,3.785,M,-16.814,M,,*49
$GNGGA,230719.000,4910.635288,N,12304.280922,W,2,60,0.41,3.785,M,-16.814,M,,*49
$GNGGA,230720.000,4910.635288,N,12304.280922,W,2,60,0.41,3.785,M,-16.814,M,,*43
$GNGGA,230721.000,4910.635288,N,12304.280922,W,2,61,0.41,3.785,M,-16.814,M,,*43
$GNGGA,230722.000,4910.635288,N,12304.280922,W,2,61,0.41,3.785,M,-16.814,M,,*40
$GNGGA,230723.000,4910.635288,N,12304.280922,W,2,61,0.41,3.785,M,-16.814,M,,*41
$GNGGA,230724.000,4910.635288,N,12304.280922,W,2,60,0.41,3.785,M,-16.814,M,,*47
$GNGGA,230725.000,4910.635288,N,12304.280922,W,2,61,0.41,3.785,M,-16.814,M,,*47
$GNGGA,230726.000,4910.635288,N,12304.280922,W,2,61,0.41,3.785,M,-16.814,M,,*44
$GNGGA,230727.000,4910.635288,N,12304.280922,W,2,61,0.41,3.785,M,-16.814,M,,*45
$GNGGA,230728.000,4910.635288,N,12304.280922,W,2,61,0.41,3.785,M,-16.814,M,,*4A
$GNGGA,230729.000,4910.635288,N,12304.280922,W,2,61,0.41,3.785,M,-16.814,M,,*4B
$GNGGA,230730.000,4910.635288,N,12304.280922,W,2,60,0.41,3.785,M,-16.814,M,,*42
$GNGGA,230731.000,4910.635288,N,12304.280922,W,2,60,0.41,3.785,M,-16.814,M,,*43
$GNGGA,230732.000,4910.635288,N,12304.280922,W,2,60,0.41,3.785,M,-16.814,M,,*40
$GNGGA,230733.000,4910.635288,N,12304.280922,W,2,61,0.41,3.785,M,-16.814,M,,*40
$GNGGA,230734.000,4910.635288,N,12304.280922,W,2,60,0.41,3.785,M,-16.814,M,,*46
$GNGGA,230735.000,4910.635288,N,12304.280922,W,2,60,0.41,3.785,M,-16.814,M,,*47
$GNGGA,230736.000,4910.635288,N,12304.280922,W,2,61,0.41,3.785,M,-16.814,M,,*45
$GNGGA,230737.000,4910.635288,N,12304.280922,W,2,61,0.41,3.785,M,-16.814,M,,*44
$GNGGA,230738.000,4910.635288,N,12304.280922,W,2,61,0.41,3.785,M,-16.814,M,,*4B
$GNGGA,230739.000,4910.635288,N,12304.280922,W,2,60,0.41,3.785,M,-16.814,M,,*4B
$GNGGA,230740.000,4910.635288,N,12304.280922,W,2,60,0.41,3.785,M,-16.814,M,,*45
$GNGGA,230741.000,4910.635288,N,12304.280922,W,2,61,0.41,3.785,M,-16.814,M,,*45
$GNGGA,230742.000,4910.635288,N,12304.280922,W,2,61,0.41,3.785,M,-16.814,M,,*46
$GNGGA,230743.000,4910.635288,N,12304.280922,W,2,61,0.41,3.785,M,-16.814,M,,*47
$GNGGA,230744.000,4910.635288,N,12304.280922,W,2,61,0.41,3.785,M,-16.814,M,,*40
$GNGGA,230745.000,4910.635288,N,12304.280922,W,2,61,0.41,3.785,M,-16.814,M,,*41
$GNGGA,230746.000,4910.635288,N,12304.280922,W,2,61,0.41,3.785,M,-16.814,M,,*42
$GNGGA,230747.000,4910.635288,N,12304.280922,W,2,60,0.41,3.785,M,-16.814,M,,*42
$GNGGA,230748.000,4910.635288,N,12304.280922,W,2,60,0.41,3.785,M,-16.814,M,,*4D
$GNGGA,230749.000,4910.635288,N,12304.280922,W,2,60,0.41,3.785,M,-16.814,M,,*4C
$GNGGA,230750.000,4910.635288,N,12304.280922,W,2,61,0.41,3.785,M,-16.814,M,,*45
$GNGGA,230751.000,4910.635288,N,12304.280922,W,2,61,0.41,3.785,M,-16.814,M,,*44
$GNGGA,230752.000,4910.635288,N,12304.280922,W,2,61,0.41,3.785,M,-16.814,M,,*47
$GNGGA,230753.000,4910.635288,N,12304.280922,W,2,61,0.41,3.785,M,-16.814,M,,*46
$GNGGA,230754.000,4910.635288,N,12304.280922,W,2,61,0.41,3.785,M,-16.814,M,,*41
$GNGGA,230755.000,4910.635288,N,12304.280922,W,2,61,0.41,3.785,M,-16.814,M,,*40
$GNGGA,230756.000,4910.635288,N,12304.280922,W,2,61,0.41,3.785,M,-16.814,M,,*43
$GNGGA,230757.000,4910.635288,N,12304.280922,W,2,61,0.41,3.785,M,-16.814,M,,*42
$GNGGA,230758.000,4910.635288,N,12304.280922,W,2,61,0.41,3.785,M,-16.814,M,,*4D
$GNGGA,230759.000,4910.635288,N,12304.280922,W,2,61,0.41,3.785,M,-16.814,M,,*4C
$GNGGA,230800.000,4910.635288,N,12304.280922,W,2,61,0.41,3.785,M,-16.814,M,,*4F
$GNGGA,230801.000,4910.635288,N,12304.280922,W,2,61,0.41,3.785,M,-16.814,M,,*4E
$GNGGA,230802.000,4910.635288,N,12304.280922,W,2,61,0.41,3.785,M,-16.814,M,,*4D
$GNGGA,230803.000,4910.635288,N,12304.280922,W,2,61,0.41,3.785,M,-16.814,M,,*4C
$GNGGA,230804.000,4910.635288,N,12304.280922,W,2,61,0.41,3.785,M,-16.814,M,,*4B
$GNGGA,230805.000,4910.635288,N,12304.280922,W,2,61,0.41,3.785,M,-16.814,M,,*4A
$GNGGA,230806.000,4910.635288,N,12304.280922,W,2,60,0.41,3.785,M,-16.814,M,,*48
$GNGGA,230807.000,4910.635288,N,12304.280922,W,2,61,0.41,3.785,M,-16.814,M,,*48
$GNGGA,230808.000,4910.635288,N,12304.280922,W,2,61,0.41,3.785,M,-16.814,M,,*47
$GNGGA,230809.000,4910.635288,N,12304.280922,W,2,61,0.41,3.785,M,-16.814,M,,*46
$GNGGA,230810.000,4910.635288,N,12304.280922,W,2,61,0.41,3.785,M,-16.814,M,,*4E
$GNGGA,230811.000,4910.635288,N,12304.280922,W,2,61,0.41,3.785,M,-16.814,M,,*4F
$GNGGA,230812.000,4910.635288,N,12304.280922,W,2,61,0.41,3.785,M,-16.814,M,,*4C
$GNGGA,230813.000,4910.635288,N,12304.280922,W,2,60,0.41,3.785,M,-16.814,M,,*4C
$GNGGA,230814.000,4910.635288,N,12304.280922,W,2,61,0.41,3.785,M,-16.814,M,,*4A
$GNGGA,230815.000,4910.635288,N,12304.280922,W,2,61,0.41,3.785,M,-16.814,M,,*4B
$GNGGA,230816.000,4910.635288,N,12304.280922,W,2,61,0.41,3.785,M,-16.814,M,,*48
$GNGGA,230817.000,4910.635288,N,12304.280922,W,2,61,0.41,3.785,M,-16.814,M,,*49
$GNGGA,230818.000,4910.635288,N,12304.280922,W,2,61,0.41,3.785,M,-16.814,M,,*46
$GNGGA,230819.000,4910.635288,N,12304.280922,W,2,61,0.41,3.785,M,-16.814,M,,*47
$GNGGA,230820.000,4910.635288,N,12304.280922,W,2,61,0.41,3.785,M,-16.814,M,,*4D
$GNGGA,230821.000,4910.635288,N,12304.280922,W,2,61,0.41,3.785,M,-16.814,M,,*4C
$GNGGA,230822.000,4910.635288,N,12304.280922,W,2,61,0.41,3.785,M,-16.814,M,,*4F
$GNGGA,230823.000,4910.635288,N,12304.280922,W,2,60,0.41,3.785,M,-16.814,M,,*4F
$GNGGA,230824.000,4910.635288,N,12304.280922,W,2,60,0.41,3.785,M,-16.814,M,,*48
$GNGGA,230825.000,4910.635288,N,12304.280922,W,2,61,0.41,3.785,M,-16.814,M,,*48
$GNGGA,230826.000,4910.635288,N,12304.280922,W,2,61,0.41,3.785,M,-16.814,M,,*4B
$GNGGA,230827.000,4910.635288,N,12304.280922,W,2,61,0.41,3.785,M,-16.814,M,,*4A
$GNGGA,230828.000,4910.635288,N,12304.280922,W,2,61,0.41,3.785,M,-16.814,M,,*45
$GNGGA,230829.000,4910.635288,N,12304.280922,W,2,61,0.41,3.785,M,-16.814,M,,*44
$GNGGA,230830.000,4910.635288,N,12304.280922,W,2,61,0.41,3.785,M,-16.814,M,,*4C
$GNGGA,230831.000,4910.635288,N,12304.280922,W,2,61,0.41,3.785,M,-16.814,M,,*4D
$GNGGA,230832.000,4910.635288,N,12304.280922,W,2,61,0.41,3.785,M,-16.814,M,,*4E
$GNGGA,230833.000,4910.635288,N,12304.280922,W,2,61,0.41,3.785,M,-16.814,M,,*4F
$GNGGA,230834.000,4910.635288,N,12304.280922,W,2,61,0.41,3.785,M,-16.814,M,,*48
$GNGGA,230835.000,4910.635288,N,12304.280922,W,2,61,0.41,3.785,M,-16.814,M,,*49
$GNGGA,230836.000,4910.635288,N,12304.280922,W,2,61,0.41,3.785,M,-16.814,M,,*4A
$GNGGA,230837.000,4910.635288,N,12304.280922,W,2,61,0.41,3.785,M,-16.814,M,,*4B
$GNGGA,230838.000,4910.635288,N,12304.280922,W,2,61,0.41,3.785,M,-16.814,M,,*44
$GNGGA,230839.000,4910.635288,N,12304.280922,W,2,61,0.41,3.785,M,-16.814,M,,*45
$GNGGA,230840.000,4910.635288,N,12304.280922,W,2,60,0.41,3.785,M,-16.814,M,,*4A
$GNGGA,230841.000,4910.635288,N,12304.280922,W,2,61,0.41,3.785,M,-16.814,M,,*4A
$GNGGA,230842.000,4910.635288,N,12304.280922,W,2,61,0.41,3.785,M,-16.814,M,,*49
$GNGGA,230843.000,4910.635288,N,12304.280922,W,2,61,0.41,3.785,M,-16.814,M,,*48
$GNGGA,230844.000,4910.635288,N,12304.280922,W,2,60,0.41,3.785,M,-16.814,M,,*4E
$GNGGA,230845.000,4910.635288,N,12304.280922,W,2,60,0.41,3.785,M,-16.814,M,,*4F
$GNGGA,230846.000,4910.635288,N,12304.280922,W,2,60,0.41,3.785,M,-16.814,M,,*4C
$GNGGA,230847.000,4910.635288,N,12304.280922,W,2,60,0.41,3.785,M,-16.814,M,,*4D
$GNGGA,230848.000,4910.635288,N,12304.280922,W,2,60,0.41,3.785,M,-16.814,M,,*42
$GNGGA,230849.000,4910.635288,N,12304.280922,W,2,60,0.41,3.785,M,-16.814,M,,*43
$GNGGA,230850.000,4910.635288,N,12304.280922,W,2,60,0.41,3.785,M,-16.814,M,,*4B
$GNGGA,230851.000,4910.635288,N,12304.280922,W,2,60,0.41,3.785,M,-16.814,M,,*4A
$GNGGA,230852.000,4910.635288,N,12304.280922,W,2,61,0.41,3.785,M,-16.814,M,,*48
$GNGGA,230853.000,4910.635288,N,12304.280922,W,2,61,0.41,3.785,M,-16.814,M,,*49
$GNGGA,230854.000,4910.635288,N,12304.280922,W,2,61,0.41,3.785,M,-16.814,M,,*4E
$GNGGA,230855.000,4910.635288,N,12304.280922,W,2,61,0.41,3.785,M,-16.814,M,,*4F
$GNGGA,230856.000,4910.635288,N,12304.280922,W,2,61,0.41,3.785,M,-16.814,M,,*4C
$GNGGA,230857.000,4910.635288,N,12304.280922,W,2,61,0.41,3.785,M,-16.814,M,,*4D
$GNGGA,230858.000,4910.635288,N,12304.280922,W,2,61,0.41,3.785,M,-16.814,M,,*42
$GNGGA,230859.000,4910.635288,N,12304.280922,W,2,61,0.41,3.785,M,-16.814,M,,*43
$GNGGA,230900.000,4910.635288,N,12304.280922,W,2,61,0.41,3.785,M,-16.814,M,,*4E
$GNGGA,230901.000,4910.635288,N,12304.280922,W,2,61,0.41,3.785,M,-16.814,M,,*4F
$GNGGA,230902.000,4910.635288,N,12304.280922,W,2,61,0.41,3.785,M,-16.814,M,,*4C
$GNGGA,230903.000,4910.635288,N,12304.280922,W,2,61,0.41,3.785,M,-16.814,M,,*4D
$GNGGA,230904.000,4910.635288,N,12304.280922,W,2,61,0.41,3.785,M,-16.814,M,,*4A
$GNGGA,230905.000,4910.635288,N,12304.280922,W,2,61,0.41,3.785,M,-16.814,M,,*4B
$GNGGA,230906.000,4910.635288,N,12304.280922,W,2,61,0.41,3.785,M,-16.814,M,,*48
$GNGGA,230907.000,4910.635288,N,12304.280922,W,2,61,0.41,3.785,M,-16.814,M,,*49
$GNGGA,230908.000,4910.635288,N,12304.280922,W,2,61,0.41,3.785,M,-16.814,M,,*46
$GNGGA,230909.000,4910.635288,N,12304.280922,W,2,61,0.41,3.785,M,-16.814,M,,*47
$GNGGA,230910.000,4910.635288,N,12304.280922,W,2,61,0.41,3.785,M,-16.814,M,,*4F
$GNGGA,230911.000,4910.635288,N,12304.280922,W,2,61,0.41,3.785,M,-16.814,M,,*4E
$GNGGA,230912.000,4910.635288,N,12304.280922,W,2,61,0.41,3.785,M,-16.814,M,,*4D
$GNGGA,230913.000,4910.635288,N,12304.280922,W,2,61,0.41,3.785,M,-16.814,M,,*4C
$GNGGA,230914.000,4910.635288,N,12304.280922,W,2,61,0.41,3.785,M,-16.814,M,,*4B
$GNGGA,230915.000,4910.635288,N,12304.280922,W,2,61,0.41,3.785,M,-16.814,M,,*4A
$GNGGA,230916.000,4910.635288,N,12304.280922,W,2,61,0.41,3.785,M,-16.814,M,,*49
$GNGGA,230917.000,4910.635288,N,12304.280922,W,2,61,0.41,3.785,M,-16.814,M,,*48
$GNGGA,230918.000,4910.635288,N,12304.280922,W,2,61,0.41,3.785,M,-16.814,M,,*47
$GNGGA,230919.000,4910.635288,N,12304.280922,W,2,61,0.41,3.785,M,-16.814,M,,*46
$GNGGA,230920.000,4910.635288,N,12304.280922,W,2,61,0.41,3.785,M,-16.814,M,,*4C
$GNGGA,230921.000,4910.635288,N,12304.280922,W,2,61,0.41,3.785,M,-16.814,M,,*4D
$GNGGA,230922.000,4910.635288,N,12304.280922,W,2,61,0.41,3.785,M,-16.814,M,,*4E
$GNGGA,230923.000,4910.635288,N,12304.280922,W,2,61,0.41,3.785,M,-16.814,M,,*4F
$GNGGA,230924.000,4910.635288,N,12304.280922,W,2,61,0.41,3.785,M,-16.814,M,,*48
$GNGGA,230925.000,4910.635288,N,12304.280922,W,2,61,0.41,3.785,M,-16.814,M,,*49
$GNGGA,230926.000,4910.635288,N,12304.280922,W,2,61,0.41,3.785,M,-16.814,M,,*4A
$GNGGA,230927.000,4910.635288,N,12304.280922,W,2,61,0.41,3.785,M,-16.814,M,,*4B
$GNGGA,230928.000,4910.635288,N,12304.280922,W,2,61,0.41,3.785,M,-16.814,M,,*44
$GNGGA,230929.000,4910.635288,N,12304.280922,W,2,61,0.41,3.785,M,-16.814,M,,*45
$GNGGA,230930.000,4910.635288,N,12304.280922,W,2,61,0.41,3.785,M,-16.814,M,,*4D
$GNGGA,230931.000,4910.635288,N,12304.280922,W,2,61,0.41,3.785,M,-16.814,M,,*4C
$GNGGA,230932.000,4910.635288,N,12304.280922,W,2,61,0.41,3.785,M,-16.814,M,,*4F
$GNGGA,230933.000,4910.635288,N,12304.280922,W,2,61,0.41,3.785,M,-16.814,M,,*4E
$GNGGA,230934.000,4910.635288,N,12304.280922,W,2,61,0.41,3.785,M,-16.814,M,,*49
$GNGGA,230935.000,4910.635288,N,12304.280922,W,2,60,0.41,3.785,M,-16.814,M,,*49
$GNGGA,230936.000,4910.635288,N,12304.280922,W,2,61,0.41,3.785,M,-16.814,M,,*4B
$GNGGA,230937.000,4910.635288,N,12304.280922,W,2,61,0.41,3.785,M,-16.814,M,,*4A
$GNGGA,230938.000,4910.635288,N,12304.280922,W,2,61,0.41,3.785,M,-16.814,M,,*45
$GNGGA,230939.000,4910.635288,N,12304.280922,W,2,61,0.41,3.785,M,-16.814,M,,*44
$GNGGA,230940.000,4910.635288,N,12304.280922,W,2,61,0.41,3.785,M,-16.814,M,,*4A
$GNGGA,230941.000,4910.635288,N,12304.280922,W,2,61,0.41,3.785,M,-16.814,M,,*4B
$GNGGA,230942.000,4910.635288,N,12304.280922,W,2,61,0.41,3.785,M,-16.814,M,,*48
$GNGGA,230943.000,4910.635288,N,12304.280922,W,2,61,0.41,3.785,M,-16.814,M,,*49
$GNGGA,230944.000,4910.635288,N,12304.280922,W,2,61,0.41,3.785,M,-16.814,M,,*4E
$GNGGA,230945.000,4910.635288,N,12304.280922,W,2,61,0.41,3.785,M,-16.814,M,,*4F
$GNGGA,230946.000,4910.635288,N,12304.280922,W,2,61,0.41,3.785,M,-16.814,M,,*4C
$GNGGA,230947.000,4910.635288,N,12304.280922,W,2,61,0.41,3.785,M,-16.814,M,,*4D
$GNGGA,230948.000,4910.635288,N,12304.280922,W,2,61,0.41,3.785,M,-16.814,M,,*42
$GNGGA,230949.000,4910.635288,N,12304.280922,W,2,61,0.41,3.785,M,-16.814,M,,*43
$GNGGA,230950.000,4910.635288,N,12304.280922,W,2,61,0.41,3.785,M,-16.814,M,,*4B
$GNGGA,230951.000,4910.635288,N,12304.280922,W,2,61,0.41,3.785,M,-16.814,M,,*4A
$GNGGA,230952.000,4910.635288,N,12304.280922,W,2,61,0.41,3.785,M,-16.814,M,,*49
$GNGGA,230953.000,4910.635288,N,12304.280922,W,2,61,0.41,3.785,M,-16.814,M,,*48
$GNGGA,230954.000,4910.635288,N,12304.280922,W,2,61,0.41,3.785,M,-16.814,M,,*4F
$GNGGA,230955.000,4910.635288,N,12304.280922,W,2,61,0.41,3.785,M,-16.814,M,,*4E
$GNGGA,230956.000,4910.635288,N,12304.280922,W,2,61,0.41,3.785,M,-16.814,M,,*4D
$GNGGA,230957.000,4910.635288,N,12304.280922,W,2,61,0.41,3.785,M,-16.814,M,,*4C
$GNGGA,230958.000,4910.635288,N,12304.280922,W,2,61,0.41,3.785,M,-16.814,M,,*43
$GNGGA,230959.000,4910.635288,N,12304.280922,W,2,61,0.41,3.785,M,-16.814,M,,*42
$GNGGA,231000.000,4910.635288,N,12304.280922,W,2,61,0.41,3.785,M,-16.814,M,,*46
$GNGGA,231001.000,4910.635288,N,12304.280922,W,2,61,0.41,3.785,M,-16.814,M,,*47
$GNGGA,231002.000,4910.635288,N,12304.280922,W,2,61,0.41,3.785,M,-16.814,M,,*44
$GNGGA,231003.000,4910.635288,N,12304.280922,W,2,61,0.41,3.785,M,-16.814,M,,*45
$GNGGA,231004.000,4910.635288,N,12304.280922,W,2,61,0.41,3.785,M,-16.814,M,,*42
$GNGGA,231005.000,4910.635288,N,12304.280922,W,2,61,0.41,3.785,M,-16.814,M,,*43
$GNGGA,231006.000,4910.635288,N,12304.280922,W,2,61,0.41,3.785,M,-16.814,M,,*40
$GNGGA,231007.000,4910.635288,N,12304.280922,W,2,61,0.41,3.785,M,-16.814,M,,*41
$GNGGA,231008.000,4910.635288,N,12304.280922,W,2,61,0.41,3.785,M,-16.814,M,,*4E
$GNGGA,231009.000,4910.635288,N,12304.280922,W,2,61,0.41,3.785,M,-16.814,M,,*4F
$GNGGA,231010.000,4910.635288,N,12304.280922,W,2,61,0.41,3.785,M,-16.814,M,,*47
$GNGGA,231011.000,4910.635288,N,12304.280922,W,2,61,0.41,3.785,M,-16.814,M,,*46
$GNGGA,231012.000,4910.635288,N,12304.280922,W,2,61,0.41,3.785,M,-16.814,M,,*45
$GNGGA,231013.000,4910.635288,N,12304.280922,W,2,61,0.41,3.785,M,-16.814,M,,*44
$GNGGA,231014.000,4910.635288,N,12304.280922,W,2,61,0.41,3.785,M,-16.814,M,,*43
$GNGGA,231015.000,4910.635288,N,12304.280922,W,2,61,0.41,3.785,M,-16.814,M,,*42
$GNGGA,231016.000,4910.635288,N,12304.280922,W,2,61,0.41,3.785,M,-16.814,M,,*41
$GNGGA,231017.000,4910.635288,N,12304.280922,W,2,61,0.41,3.785,M,-16.814,M,,*40
$GNGGA,231018.000,4910.635288,N,12304.280922,W,2,61,0.41,3.785,M,-16.814,M,,*4F
$GNGGA,231019.000,4910.635288,N,12304.280922,W,2,61,0.41,3.785,M,-16.814,M,,*4E
$GNGGA,231020.000,4910.635288,N,12304.280922,W,2,61,0.41,3.785,M,-16.814,M,,*44
$GNGGA,231021.000,4910.635288,N,12304.280922,W,2,61,0.41,3.785,M,-16.814,M,,*45
$GNGGA,231022.000,4910.635288,N,12304.280922,W,2,61,0.41,3.785,M,-16.814,M,,*46
$GNGGA,231023.000,4910.635288,N,12304.280922,W,2,61,0.41,3.785,M,-16.814,M,,*47
