$GNGGA,225754.00,4910.551302,N,12304.370786,W,1,12,0.5,9.9,M,-19.2,M,,*47
$GNGGA,225755.00,4910.551334,N,12304.368616,W,1,12,0.5,9.6,M,-19.2,M,,*4D
$GNGGA,225756.00,4910.551225,N,12304.366806,W,1,12,0.5,9.6,M,-19.2,M,,*4E
$GNGGA,225757.00,4910.551477,N,12304.364968,W,1,12,0.5,9.6,M,-19.2,M,,*45
$GNGGA,225758.00,4910.551625,N,12304.362977,W,1,12,0.5,9.7,M,-19.2,M,,*46
$GNGGA,225759.00,4910.551806,N,12304.361120,W,1,12,0.5,10.4,M,-19.2,M,,*7A
$GNGGA,225800.00,4910.551945,N,12304.359407,W,1,12,0.5,10.5,M,-19.2,M,,*75
$GNGGA,225801.00,4910.551986,N,12304.357660,W,1,12,0.5,10.4,M,-19.2,M,,*77
$GNGGA,225802.00,4910.552186,N,12304.356365,W,1,12,0.5,10.6,M,-19.2,M,,*7C
$GNGGA,225803.00,4910.552365,N,12304.354712,W,1,12,0.5,10.9,M,-19.2,M,,*7B
$GNGGA,225804.00,4910.552849,N,12304.353381,W,1,12,0.5,11.0,M,-19.2,M,,*78
$GNGGA,225805.00,4910.553438,N,12304.352060,W,1,12,0.5,10.9,M,-19.2,M,,*77
$GNGGA,225806.00,4910.553861,N,12304.350602,W,1,12,0.5,10.8,M,-19.2,M,,*75
$GNGGA,225807.00,4910.554379,N,12304.349308,W,1,12,0.5,11.1,M,-19.2,M,,*7E
$GNGGA,225808.00,4910.555002,N,12304.348351,W,1,12,0.5,11.1,M,-19.2,M,,*72
$GNGGA,225809.00,4910.555627,N,12304.347168,W,1,12,0.5,10.8,M,-19.2,M,,*7D
$GNGGA,225810.00,4910.556633,N,12304.345729,W,1,12,0.5,11.2,M,-19.2,M,,*79
$GNGGA,225811.00,4910.557500,N,12304.344407,W,1,12,0.5,11.9,M,-19.2,M,,*7F
$GNGGA,225812.00,4910.558502,N,12304.342789,W,1,12,0.5,12.3,M,-19.2,M,,*7B
$GNGGA,225813.00,4910.559531,N,12304.341191,W,1,12,0.5,12.4,M,-19.2,M,,*70
$GNGGA,225814.00,4910.560483,N,12304.339797,W,1,12,0.5,12.4,M,-19.2,M,,*7A
$GNGGA,225815.00,4910.561264,N,12304.338367,W,1,12,0.5,12.6,M,-19.2,M,,*7D
$GNGGA,225816.00,4910.562083,N,12304.336942,W,1,12,0.5,12.4,M,-19.2,M,,*77
$GNGGA,225817.00,4910.563367,N,12304.335829,W,1,12,0.5,12.6,M,-19.2,M,,*73
$GNGGA,225818.00,4910.564568,N,12304.334402,W,1,12,0.5,12.6,M,-19.2,M,,*76
$GNGGA,225819.00,4910.565414,N,12304.333027,W,1,12,0.5,12.6,M,-19.2,M,,*78
$GNGGA,225820.00,4910.566596,N,12304.331782,W,1,12,0.5,13.0,M,-19.2,M,,*77
$GNGGA,225821.00,4910.567444,N,12304.330595,W,1,12,0.5,14.5,M,-19.2,M,,*7E
$GNGGA,225822.00,4910.568475,N,12304.329295,W,1,12,0.5,14.5,M,-19.2,M,,*7F
$GNGGA,225823.00,4910.569380,N,12304.327985,W,1,12,0.5,14.9,M,-19.2,M,,*7A
$GNGGA,225824.00,4910.570410,N,12304.326636,W,1,12,0.5,14.5,M,-19.2,M,,*71
$GNGGA,225825.00,4910.571173,N,12304.325143,W,1,12,0.5,14.4,M,-19.2,M,,*76
$GNGGA,225826.00,4910.571749,N,12304.323841,W,1,12,0.5,14.9,M,-19.2,M,,*7A
$GNGGA,225827.00,4910.572701,N,12304.321928,W,1,12,0.5,15.3,M,-19.2,M,,*73
$GNGGA,225828.00,4910.573510,N,12304.320291,W,1,12,0.5,16.0,M,-19.2,M,,*77
$GNGGA,225829.00,4910.574417,N,12304.318998,W,1,12,0.5,16.2,M,-19.2,M,,*7C
$GNGGA,225830.00,4910.575104,N,12304.317568,W,1,12,0.5,16.2,M,-19.2,M,,*7E
$GNGGA,225831.00,4910.575475,N,12304.315518,W,1,12,0.5,16.6,M,-19.2,M,,*7D
$GNGGA,225832.00,4910.575892,N,12304.313869,W,1,12,0.5,16.6,M,-19.2,M,,*76
$GNGGA,225833.00,4910.576882,N,12304.312390,W,1,12,0.5,16.9,M,-19.2,M,,*76
$GNGGA,225834.00,4910.577737,N,12304.311417,W,1,12,0.5,17.1,M,-19.2,M,,*73
$GNGGA,225835.00,4910.578802,N,12304.310491,W,1,12,0.5,17.0,M,-19.2,M,,*7A
$GNGGA,225836.00,4910.579898,N,12304.309942,W,1,12,0.5,16.9,M,-19.2,M,,*78
$GNGGA,225837.00,4910.581140,N,12304.309940,W,1,12,0.5,17.2,M,-19.2,M,,*7A
$GNGGA,225838.00,4910.582129,N,12304.310383,W,1,12,0.5,17.4,M,-19.2,M,,*72
$GNGGA,225839.00,4910.583065,N,12304.311150,W,1,12,0.5,17.8,M,-19.2,M,,*7A
$GNGGA,225840.00,4910.583965,N,12304.312103,W,1,12,0.5,17.7,M,-19.2,M,,*77
$GNGGA,225841.00,4910.584847,N,12304.313861,W,1,12,0.5,17.8,M,-19.2,M,,*73
$GNGGA,225842.00,4910.585449,N,12304.315546,W,1,12,0.5,17.4,M,-19.2,M,,*71
$GNGGA,225843.00,4910.586392,N,12304.317187,W,1,12,0.5,17.5,M,-19.2,M,,*78
$GNGGA,225844.00,4910.587058,N,12304.318793,W,1,12,0.5,17.5,M,-19.2,M,,*77
$GNGGA,225845.00,4910.588064,N,12304.320014,W,1,12,0.5,17.2,M,-19.2,M,,*72
$GNGGA,225846.00,4910.589165,N,12304.321283,W,1,12,0.5,16.7,M,-19.2,M,,*79
$GNGGA,225847.00,4910.590185,N,12304.322530,W,1,12,0.5,17.2,M,-19.2,M,,*76
$GNGGA,225848.00,4910.591531,N,12304.323615,W,1,12,0.5,17.7,M,-19.2,M,,*73
$GNGGA,225849.00,4910.592867,N,12304.324597,W,1,12,0.5,17.9,M,-19.2,M,,*7F
$GNGGA,225850.00,4910.594412,N,12304.325877,W,1,12,0.5,18.3,M,-19.2,M,,*78
$GNGGA,225851.00,4910.595854,N,12304.327243,W,1,12,0.5,18.5,M,-19.2,M,,*7F
$GNGGA,225852.00,4910.597385,N,12304.328660,W,1,12,0.5,18.9,M,-19.2,M,,*7F
$GNGGA,225853.00,4910.599205,N,12304.330246,W,1,12,0.5,19.5,M,-19.2,M,,*7D
$GNGGA,225854.00,4910.600849,N,12304.331810,W,1,12,0.5,20.3,M,-19.2,M,,*7F
$GNGGA,225855.00,4910.602480,N,12304.333268,W,1,12,0.5,20.7,M,-19.2,M,,*76
$GNGGA,225856.00,4910.603947,N,12304.334750,W,1,12,0.5,21.4,M,-19.2,M,,*79
$GNGGA,225857.00,4910.605285,N,12304.335315,W,1,12,0.5,20.8,M,-19.2,M,,*72
$GNGGA,225858.00,4910.606547,N,12304.336649,W,1,12,0.5,21.6,M,-19.2,M,,*77
$GNGGA,225859.00,4910.607759,N,12304.337626,W,1,12,0.5,21.6,M,-19.2,M,,*72
$GNGGA,225900.00,4910.609283,N,12304.338110,W,1,12,0.5,20.0,M,-19.2,M,,*79
$GNGGA,225901.00,4910.610516,N,12304.339096,W,1,12,0.5,19.0,M,-19.2,M,,*7F
$GNGGA,225902.00,4910.611316,N,12304.339709,W,1,12,0.5,18.8,M,-19.2,M,,*73
$GNGGA,225903.00,4910.612472,N,12304.340064,W,1,12,0.5,18.2,M,-19.2,M,,*7C
$GNGGA,225904.00,4910.613472,N,12304.340418,W,1,12,0.5,18.0,M,-19.2,M,,*77
$GNGGA,225905.00,4910.614186,N,12304.340496,W,1,12,0.5,18.3,M,-19.2,M,,*7A
$GNGGA,225906.00,4910.615279,N,12304.341170,W,1,12,0.5,17.6,M,-19.2,M,,*7D
$GNGGA,225907.00,4910.616666,N,12304.342097,W,1,12,0.5,17.0,M,-19.2,M,,*78
$GNGGA,225908.00,4910.617724,N,12304.342843,W,1,12,0.5,17.1,M,-19.2,M,,*71
$GNGGA,225909.00,4910.618834,N,12304.344103,W,1,12,0.5,16.7,M,-19.2,M,,*7D
$GNGGA,225910.00,4910.619851,N,12304.345169,W,1,12,0.5,16.5,M,-19.2,M,,*78
$GNGGA,225911.00,4910.621416,N,12304.345937,W,1,12,0.5,16.2,M,-19.2,M,,*79
$GNGGA,225912.00,4910.622701,N,12304.346695,W,1,12,0.5,15.9,M,-19.2,M,,*70
$GNGGA,225913.00,4910.624009,N,12304.347304,W,1,12,0.5,15.8,M,-19.2,M,,*75
$GNGGA,225914.00,4910.625161,N,12304.347289,W,1,12,0.5,16.2,M,-19.2,M,,*71
$GNGGA,225915.00,4910.626320,N,12304.346537,W,1,12,0.5,15.6,M,-19.2,M,,*70
$GNGGA,225916.00,4910.626946,N,12304.345577,W,1,12,0.5,15.3,M,-19.2,M,,*7B
$GNGGA,225917.00,4910.627762,N,12304.344456,W,1,12,0.5,14.7,M,-19.2,M,,*75
$GNGGA,225918.00,4910.628391,N,12304.343053,W,1,12,0.5,15.0,M,-19.2,M,,*7D
$GNGGA,225919.00,4910.629195,N,12304.341638,W,1,12,0.5,14.7,M,-19.2,M,,*74
$GNGGA,225920.00,4910.629809,N,12304.339958,W,1,12,0.5,14.2,M,-19.2,M,,*71
$GNGGA,225921.00,4910.630451,N,12304.338179,W,1,12,0.5,14.1,M,-19.2,M,,*70
$GNGGA,225922.00,4910.630906,N,12304.336273,W,1,12,0.5,14.0,M,-19.2,M,,*7A
$GNGGA,225923.00,4910.631462,N,12304.334568,W,1,12,0.5,14.0,M,-19.2,M,,*7A
$GNGGA,225924.00,4910.631763,N,12304.332541,W,1,12,0.5,13.6,M,-19.2,M,,*73
$GNGGA,225925.00,4910.632212,N,12304.331038,W,1,12,0.5,13.4,M,-19.2,M,,*78
$GNGGA,225926.00,4910.632799,N,12304.329756,W,1,12,0.5,12.8,M,-19.2,M,,*76
$GNGGA,225927.00,4910.633004,N,12304.328248,W,1,12,0.5,13.0,M,-19.2,M,,*77
$GNGGA,225928.00,4910.633308,N,12304.326720,W,1,12,0.5,12.7,M,-19.2,M,,*74
$GNGGA,225929.00,4910.633460,N,12304.325059,W,1,12,0.5,13.1,M,-19.2,M,,*71
$GNGGA,225930.00,4910.633525,N,12304.323653,W,1,12,0.5,12.8,M,-19.2,M,,*7B
$GNGGA,225931.00,4910.633587,N,12304.322110,W,1,12,0.5,12.5,M,-19.2,M,,*7E
$GNGGA,225932.00,4910.633682,N,12304.320551,W,1,12,0.5,12.1,M,-19.2,M,,*7C
$GNGGA,225933.00,4910.633778,N,12304.318951,W,1,12,0.5,12.0,M,-19.2,M,,*7F
$GNGGA,225934.00,4910.633815,N,12304.317463,W,1,12,0.5,11.8,M,-19.2,M,,*74
$GNGGA,225935.00,4910.633948,N,12304.315703,W,1,12,0.5,11.5,M,-19.2,M,,*76
$GNGGA,225936.00,4910.634191,N,12304.313709,W,1,12,0.5,11.5,M,-19.2,M,,*72
$GNGGA,225937.00,4910.634341,N,12304.311789,W,1,12,0.5,11.0,M,-19.2,M,,*73
$GNGGA,225938.00,4910.634945,N,12304.309522,W,1,12,0.5,11.4,M,-19.2,M,,*7C
$GNGGA,225939.00,4910.635391,N,12304.307645,W,1,12,0.5,11.1,M,-19.2,M,,*76
$GNGGA,225940.00,4910.635964,N,12304.306018,W,1,12,0.5,11.3,M,-19.2,M,,*75
$GNGGA,225941.00,4910.636256,N,12304.304364,W,1,12,0.5,11.0,M,-19.2,M,,*74
$GNGGA,225942.00,4910.636793,N,12304.302616,W,1,12,0.5,11.4,M,-19.2,M,,*79
$GNGGA,225943.00,4910.637281,N,12304.300621,W,1,12,0.5,11.4,M,-19.2,M,,*79
$GNGGA,225944.00,4910.637476,N,12304.298569,W,1,12,0.5,11.5,M,-19.2,M,,*7E
$GNGGA,225945.00,4910.637663,N,12304.296808,W,1,12,0.5,11.6,M,-19.2,M,,*7E
$GNGGA,225946.00,4910.637874,N,12304.294712,W,1,12,0.5,11.3,M,-19.2,M,,*76
$GNGGA,225947.00,4910.638016,N,12304.292851,W,1,12,0.5,11.4,M,-19.2,M,,*7D
$GNGGA,225948.00,4910.638130,N,12304.290943,W,1,12,0.5,11.6,M,-19.2,M,,*75
$GNGGA,225949.00,4910.638124,N,12304.289039,W,1,12,0.5,11.5,M,-19.2,M,,*7E
$GNGGA,225950.00,4910.638058,N,12304.287230,W,1,12,0.5,11.7,M,-19.2,M,,*7B
$GNGGA,225951.00,4910.637627,N,12304.285757,W,1,12,0.5,11.5,M,-19.2,M,,*7F
$GNGGA,225952.00,4910.637064,N,12304.284398,W,1,12,0.5,11.3,M,-19.2,M,,*7D
$GNGGA,225953.00,4910.636580,N,12304.283764,W,1,12,0.5,11.2,M,-19.2,M,,*73
$GNGGA,225954.00,4910.635937,N,12304.283129,W,1,12,0.5,10.8,M,-19.2,M,,*73
$GNGGA,225955.00,4910.635301,N,12304.283060,W,1,12,0.5,10.5,M,-19.2,M,,*7C
$GNGGA,225956.00,4910.635016,N,12304.282862,W,1,12,0.5,10.3,M,-19.2,M,,*77
$GNGGA,225957.00,4910.634714,N,12304.282582,W,1,12,0.5,10.2,M,-19.2,M,,*70
$GNGGA,225958.00,4910.634755,N,12304.282576,W,1,12,0.5,10.0,M,-19.2,M,,*73
$GNGGA,225959.00,4910.634588,N,12304.282663,W,1,12,0.5,9.2,M,-19.2,M,,*4D
$GNGGA,230000.00,4910.634630,N,12304.282730,W,1,12,0.5,8.9,M,-19.2,M,,*41
$GNGGA,230001.00,4910.634735,N,12304.282723,W,1,12,0.5,8.7,M,-19.2,M,,*48
$GNGGA,230002.00,4910.634809,N,12304.282650,W,1,12,0.5,8.8,M,-19.2,M,,*41
$GNGGA,230003.00,4910.634866,N,12304.282607,W,1,12,0.5,9.0,M,-19.2,M,,*42
$GNGGA,230004.00,4910.634944,N,12304.282575,W,1,12,0.5,9.0,M,-19.2,M,,*42
$GNGGA,230005.00,4910.635011,N,12304.282544,W,1,12,0.5,9.1,M,-19.2,M,,*48
$GNGGA,230006.00,4910.635074,N,12304.282510,W,1,12,0.5,9.2,M,-19.2,M,,*4A
$GNGGA,230007.00,4910.635163,N,12304.282477,W,1,12,0.5,9.4,M,-19.2,M,,*4A
$GNGGA,230008.00,4910.635196,N,12304.282466,W,1,12,0.5,9.4,M,-19.2,M,,*4F
$GNGGA,230009.00,4910.635213,N,12304.282463,W,1,12,0.5,9.4,M,-19.2,M,,*45
$GNGGA,230010.00,4910.635208,N,12304.282469,W,1,12,0.5,9.5,M,-19.2,M,,*4C
$GNGGA,230011.00,4910.635205,N,12304.282462,W,1,12,0.5,9.5,M,-19.2,M,,*4B
$GNGGA,230012.00,4910.635191,N,12304.282471,W,1,12,0.5,9.5,M,-19.2,M,,*44
$GNGGA,230013.00,4910.635179,N,12304.282482,W,1,12,0.5,9.5,M,-19.2,M,,*4F
$GNGGA,230014.00,4910.635170,N,12304.282483,W,1,12,0.5,9.5,M,-19.2,M,,*40
$GNGGA,230015.00,4910.635157,N,12304.282486,W,1,12,0.5,9.5,M,-19.2,M,,*41
$GNGGA,230016.00,4910.635146,N,12304.282488,W,1,12,0.5,9.5,M,-19.2,M,,*4C
$GNGGA,230017.00,4910.635136,N,12304.282497,W,1,12,0.5,9.6,M,-19.2,M,,*47
$GNGGA,230018.00,4910.635127,N,12304.282500,W,1,12,0.5,9.6,M,-19.2,M,,*47
$GNGGA,230019.00,4910.635125,N,12304.282499,W,1,12,0.5,9.6,M,-19.2,M,,*45
$GNGGA,230020.00,4910.635127,N,12304.282492,W,1,12,0.5,9.6,M,-19.2,M,,*46
$GNGGA,230021.00,4910.635133,N,12304.282482,W,1,12,0.5,9.6,M,-19.2,M,,*43
$GNGGA,230022.00,4910.635136,N,12304.282473,W,1,12,0.5,9.5,M,-19.2,M,,*48
$GNGGA,230023.00,4910.635138,N,12304.282456,W,1,12,0.5,9.6,M,-19.2,M,,*43
$GNGGA,230024.00,4910.635148,N,12304.282440,W,1,12,0.5,9.6,M,-19.2,M,,*44
$GNGGA,230025.00,4910.635157,N,12304.282429,W,1,12,0.5,9.6,M,-19.2,M,,*44
$GNGGA,230026.00,4910.635169,N,12304.282420,W,1,12,0.5,9.5,M,-19.2,M,,*40
$GNGGA,230027.00,4910.635176,N,12304.282419,W,1,12,0.5,9.5,M,-19.2,M,,*45
$GNGGA,230028.00,4910.635188,N,12304.282405,W,1,12,0.5,9.5,M,-19.2,M,,*46
$GNGGA,230029.00,4910.635200,N,12304.282397,W,1,12,0.5,9.5,M,-19.2,M,,*48
$GNGGA,230030.00,4910.635202,N,12304.282404,W,1,12,0.5,9.5,M,-19.2,M,,*4F
$GNGGA,230031.00,4910.635203,N,12304.282411,W,1,12,0.5,9.4,M,-19.2,M,,*4A
$GNGGA,230032.00,4910.635216,N,12304.282407,W,1,12,0.5,9.4,M,-19.2,M,,*4A
$GNGGA,230033.00,4910.635218,N,12304.282406,W,1,12,0.5,9.4,M,-19.2,M,,*44
$GNGGA,230034.00,4910.635221,N,12304.282409,W,1,12,0.5,9.4,M,-19.2,M,,*46
$GNGGA,230035.00,4910.635222,N,12304.282408,W,1,12,0.5,9.4,M,-19.2,M,,*45
$GNGGA,230036.00,4910.635224,N,12304.282413,W,1,12,0.5,9.4,M,-19.2,M,,*4A
$GNGGA,230037.00,4910.635229,N,12304.282423,W,1,12,0.5,9.4,M,-19.2,M,,*45
$GNGGA,230038.00,4910.635236,N,12304.282424,W,1,12,0.5,9.4,M,-19.2,M,,*43
$GNGGA,230039.00,4910.635243,N,12304.282426,W,1,12,0.5,9.4,M,-19.2,M,,*42
$GNGGA,230040.00,4910.635250,N,12304.282428,W,1,12,0.5,9.4,M,-19.2,M,,*40
$GNGGA,230041.00,4910.635260,N,12304.282424,W,1,12,0.5,9.4,M,-19.2,M,,*4E
$GNGGA,230042.00,4910.635268,N,12304.282426,W,1,12,0.5,9.4,M,-19.2,M,,*47
$GNGGA,230043.00,4910.635275,N,12304.282429,W,1,12,0.5,9.4,M,-19.2,M,,*45
$GNGGA,230044.00,4910.635284,N,12304.282429,W,1,12,0.5,9.4,M,-19.2,M,,*4C
$GNGGA,230045.00,4910.635296,N,12304.282422,W,1,12,0.5,9.4,M,-19.2,M,,*45
$GNGGA,230046.00,4910.635305,N,12304.282421,W,1,12,0.5,9.4,M,-19.2,M,,*4E
$GNGGA,230047.00,4910.635315,N,12304.282426,W,1,12,0.5,9.4,M,-19.2,M,,*49
$GNGGA,230048.00,4910.635325,N,12304.282437,W,1,12,0.5,9.4,M,-19.2,M,,*45
$GNGGA,230049.00,4910.635335,N,12304.282451,W,1,12,0.5,9.4,M,-19.2,M,,*45
$GNGGA,230050.00,4910.635348,N,12304.282462,W,1,12,0.5,9.3,M,-19.2,M,,*40
$GNGGA,230051.00,4910.635366,N,12304.282467,W,1,12,0.5,9.3,M,-19.2,M,,*48
$GNGGA,230052.00,4910.635378,N,12304.282470,W,1,12,0.5,9.3,M,-19.2,M,,*42
$GNGGA,230053.00,4910.635392,N,12304.282469,W,1,12,0.5,9.3,M,-19.2,M,,*4F
$GNGGA,230054.00,4910.635403,N,12304.282470,W,1,12,0.5,9.3,M,-19.2,M,,*4F
$GNGGA,230055.00,4910.635413,N,12304.282473,W,1,12,0.5,9.3,M,-19.2,M,,*4C
$GNGGA,230056.00,4910.635415,N,12304.282489,W,1,12,0.5,9.3,M,-19.2,M,,*4C
$GNGGA,230057.00,4910.635420,N,12304.282498,W,1,12,0.5,9.3,M,-19.2,M,,*4B
$GNGGA,230058.00,4910.635431,N,12304.282498,W,1,12,0.5,9.2,M,-19.2,M,,*45
$GNGGA,230059.00,4910.635439,N,12304.282500,W,1,12,0.5,9.2,M,-19.2,M,,*4C
$GNGGA,230100.00,4910.635450,N,12304.282490,W,1,12,0.5,9.2,M,-19.2,M,,*46
$GNGGA,230101.00,4910.635467,N,12304.282470,W,1,12,0.5,9.2,M,-19.2,M,,*4D
$GNGGA,230102.00,4910.635478,N,12304.282463,W,1,12,0.5,9.2,M,-19.2,M,,*42
$GNGGA,230103.00,4910.635491,N,12304.282457,W,1,12,0.5,9.2,M,-19.2,M,,*43
$GNGGA,230104.00,4910.635506,N,12304.282441,W,1,12,0.5,9.2,M,-19.2,M,,*4C
$GNGGA,230105.00,4910.635524,N,12304.282425,W,1,12,0.5,9.2,M,-19.2,M,,*4F
$GNGGA,230106.00,4910.635536,N,12304.282410,W,1,12,0.5,9.2,M,-19.2,M,,*49
$GNGGA,230107.00,4910.635547,N,12304.282400,W,1,12,0.5,9.2,M,-19.2,M,,*4F
$GNGGA,230108.00,4910.635550,N,12304.282392,W,1,12,0.5,9.1,M,-19.2,M,,*49
$GNGGA,230109.00,4910.635557,N,12304.282379,W,1,12,0.5,9.1,M,-19.2,M,,*4A
$GNGGA,230110.00,4910.635562,N,12304.282369,W,1,12,0.5,9.1,M,-19.2,M,,*45
$GNGGA,230111.00,4910.635567,N,12304.282360,W,1,12,0.5,9.1,M,-19.2,M,,*48
$GNGGA,230112.00,4910.635579,N,12304.282346,W,1,12,0.5,9.1,M,-19.2,M,,*40
$GNGGA,230113.00,4910.635587,N,12304.282337,W,1,12,0.5,9.1,M,-19.2,M,,*46
$GNGGA,230114.00,4910.635589,N,12304.282332,W,1,12,0.5,9.1,M,-19.2,M,,*4A
$GNGGA,230115.00,4910.635599,N,12304.282314,W,1,12,0.5,9.1,M,-19.2,M,,*4E
$GNGGA,230116.00,4910.635605,N,12304.282301,W,1,12,0.5,9.0,M,-19.2,M,,*4E
$GNGGA,230117.00,4910.635607,N,12304.282293,W,1,12,0.5,9.0,M,-19.2,M,,*47
$GNGGA,230118.00,4910.635605,N,12304.282283,W,1,12,0.5,9.0,M,-19.2,M,,*4B
$GNGGA,230119.00,4910.635605,N,12304.282274,W,1,12,0.5,9.0,M,-19.2,M,,*42
$GNGGA,230120.00,4910.635611,N,12304.282259,W,1,12,0.5,9.0,M,-19.2,M,,*42
$GNGGA,230121.00,4910.635616,N,12304.282240,W,1,12,0.5,9.0,M,-19.2,M,,*4C
$GNGGA,230122.00,4910.635617,N,12304.282228,W,1,12,0.5,9.0,M,-19.2,M,,*40
$GNGGA,230123.00,4910.635617,N,12304.282213,W,1,12,0.5,9.0,M,-19.2,M,,*49
$GNGGA,230124.00,4910.635623,N,12304.282196,W,1,12,0.5,9.0,M,-19.2,M,,*47
$GNGGA,230125.00,4910.635623,N,12304.282181,W,1,12,0.5,9.0,M,-19.2,M,,*40
$GNGGA,230126.00,4910.635619,N,12304.282175,W,1,12,0.5,9.0,M,-19.2,M,,*41
$GNGGA,230127.00,4910.635618,N,12304.282159,W,1,12,0.5,9.0,M,-19.2,M,,*4F
$GNGGA,230128.00,4910.635617,N,12304.282151,W,1,12,0.5,9.0,M,-19.2,M,,*47
$GNGGA,230129.00,4910.635615,N,12304.282143,W,1,12,0.5,8.9,M,-19.2,M,,*4F
$GNGGA,230130.00,4910.635615,N,12304.282137,W,1,12,0.5,8.9,M,-19.2,M,,*44
$GNGGA,230131.00,4910.635617,N,12304.282123,W,1,12,0.5,8.9,M,-19.2,M,,*42
$GNGGA,230132.00,4910.635611,N,12304.282126,W,1,12,0.5,8.9,M,-19.2,M,,*42
$GNGGA,230133.00,4910.635606,N,12304.282133,W,1,12,0.5,8.8,M,-19.2,M,,*40
$GNGGA,230134.00,4910.635600,N,12304.282131,W,1,12,0.5,8.8,M,-19.2,M,,*43
$GNGGA,230135.00,4910.635595,N,12304.282130,W,1,12,0.5,8.8,M,-19.2,M,,*4C
$GNGGA,230136.00,4910.635584,N,12304.282134,W,1,12,0.5,8.8,M,-19.2,M,,*4B
$GNGGA,230137.00,4910.635575,N,12304.282141,W,1,12,0.5,8.8,M,-19.2,M,,*46
$GNGGA,230138.00,4910.635567,N,12304.282144,W,1,12,0.5,8.8,M,-19.2,M,,*4F
$GNGGA,230139.00,4910.635554,N,12304.282147,W,1,12,0.5,8.8,M,-19.2,M,,*4D
$GNGGA,230140.00,4910.635546,N,12304.282146,W,1,12,0.5,8.8,M,-19.2,M,,*41
$GNGGA,230141.00,4910.635535,N,12304.282147,W,1,12,0.5,8.8,M,-19.2,M,,*45
$GNGGA,230142.00,4910.635525,N,12304.282136,W,1,12,0.5,8.8,M,-19.2,M,,*41
$GNGGA,230143.00,4910.635508,N,12304.282140,W,1,12,0.5,8.8,M,-19.2,M,,*4E
$GNGGA,230144.00,4910.635502,N,12304.282129,W,1,12,0.5,8.8,M,-19.2,M,,*4C
$GNGGA,230145.00,4910.635490,N,12304.282121,W,1,12,0.5,8.8,M,-19.2,M,,*4F
$GNGGA,230146.00,4910.635482,N,12304.282115,W,1,12,0.5,8.8,M,-19.2,M,,*48
$GNGGA,230147.00,4910.635475,N,12304.282106,W,1,12,0.5,8.8,M,-19.2,M,,*43
$GNGGA,230148.00,4910.635469,N,12304.282092,W,1,12,0.5,8.8,M,-19.2,M,,*4D
$GNGGA,230149.00,4910.635464,N,12304.282081,W,1,12,0.5,8.8,M,-19.2,M,,*43
$GNGGA,230150.00,4910.635459,N,12304.282076,W,1,12,0.5,8.8,M,-19.2,M,,*4D
$GNGGA,230151.00,4910.635458,N,12304.282066,W,1,12,0.5,8.8,M,-19.2,M,,*4C
$GNGGA,230152.00,4910.635457,N,12304.282055,W,1,12,0.5,8.8,M,-19.2,M,,*40
$GNGGA,230153.00,4910.635456,N,12304.282051,W,1,12,0.5,8.8,M,-19.2,M,,*44
$GNGGA,230154.00,4910.635455,N,12304.282049,W,1,12,0.5,8.8,M,-19.2,M,,*49
$GNGGA,230155.00,4910.635451,N,12304.282045,W,1,12,0.5,8.8,M,-19.2,M,,*40
$GNGGA,230156.00,4910.635449,N,12304.282044,W,1,12,0.5,8.8,M,-19.2,M,,*4B
$GNGGA,230157.00,4910.635448,N,12304.282040,W,1,12,0.5,8.8,M,-19.2,M,,*4F
$GNGGA,230158.00,4910.635441,N,12304.282046,W,1,12,0.5,8.8,M,-19.2,M,,*4F
$GNGGA,230159.00,4910.635438,N,12304.282046,W,1,12,0.5,8.8,M,-19.2,M,,*40
$GNGGA,230200.00,4910.635436,N,12304.282050,W,1,12,0.5,8.8,M,-19.2,M,,*46
$GNGGA,230201.00,4910.635433,N,12304.282068,W,1,12,0.5,8.8,M,-19.2,M,,*49
$GNGGA,230202.00,4910.635432,N,12304.282088,W,1,12,0.5,8.8,M,-19.2,M,,*45
$GNGGA,230203.00,4910.635436,N,12304.282095,W,1,12,0.5,8.8,M,-19.2,M,,*4C
$GNGGA,230204.00,4910.635439,N,12304.282103,W,1,12,0.5,8.8,M,-19.2,M,,*4A
$GNGGA,230205.00,4910.635445,N,12304.282117,W,1,12,0.5,8.8,M,-19.2,M,,*45
$GNGGA,230206.00,4910.635454,N,12304.282122,W,1,12,0.5,8.8,M,-19.2,M,,*40
$GNGGA,230207.00,4910.635464,N,12304.282132,W,1,12,0.5,8.8,M,-19.2,M,,*43
$GNGGA,230208.00,4910.635478,N,12304.282128,W,1,12,0.5,8.8,M,-19.2,M,,*4A
$GNGGA,230209.00,4910.635491,N,12304.282136,W,1,12,0.5,8.8,M,-19.2,M,,*43
$GNGGA,230210.00,4910.635505,N,12304.282138,W,1,12,0.5,8.8,M,-19.2,M,,*49
$GNGGA,230211.00,4910.635516,N,12304.282142,W,1,12,0.5,8.8,M,-19.2,M,,*47
$GNGGA,230212.00,4910.635532,N,12304.282142,W,1,12,0.5,8.7,M,-19.2,M,,*4D
$GNGGA,230213.00,4910.635541,N,12304.282156,W,1,12,0.5,8.7,M,-19.2,M,,*4D
$GNGGA,230214.00,4910.635554,N,12304.282167,W,1,12,0.5,8.7,M,-19.2,M,,*4C
$GNGGA,230215.00,4910.635560,N,12304.282176,W,1,12,0.5,8.7,M,-19.2,M,,*4A
$GNGGA,230216.00,4910.635568,N,12304.282177,W,1,12,0.5,8.7,M,-19.2,M,,*40
$GNGGA,230217.00,4910.635570,N,12304.282186,W,1,12,0.5,8.7,M,-19.2,M,,*46
$GNGGA,230218.00,4910.635580,N,12304.282195,W,1,12,0.5,8.7,M,-19.2,M,,*44
$GNGGA,230219.00,4910.635593,N,12304.282201,W,1,12,0.5,8.7,M,-19.2,M,,*49
$GNGGA,230220.00,4910.635602,N,12304.282213,W,1,12,0.5,8.7,M,-19.2,M,,*4B
$GNGGA,230221.00,4910.635607,N,12304.282231,W,1,12,0.5,8.7,M,-19.2,M,,*4F
$GNGGA,230222.00,4910.635616,N,12304.282244,W,1,12,0.5,8.7,M,-19.2,M,,*4E
$GNGGA,230223.00,4910.635617,N,12304.282266,W,1,12,0.5,8.7,M,-19.2,M,,*4E
$GNGGA,230224.00,4910.635619,N,12304.282280,W,1,12,0.5,8.7,M,-19.2,M,,*4F
$GNGGA,230225.00,4910.635619,N,12304.282301,W,1,12,0.5,8.6,M,-19.2,M,,*47
$GNGGA,230226.00,4910.635620,N,12304.282319,W,1,12,0.5,8.6,M,-19.2,M,,*47
$GNGGA,230227.00,4910.635623,N,12304.282328,W,1,12,0.5,8.6,M,-19.2,M,,*47
$GNGGA,230228.00,4910.635629,N,12304.282339,W,1,12,0.5,8.6,M,-19.2,M,,*42
$GNGGA,230229.00,4910.635627,N,12304.282351,W,1,12,0.5,8.6,M,-19.2,M,,*43
$GNGGA,230230.00,4910.635627,N,12304.282369,W,1,12,0.5,8.6,M,-19.2,M,,*40
$GNGGA,230231.00,4910.635632,N,12304.282380,W,1,12,0.5,8.6,M,-19.2,M,,*42
$GNGGA,230232.00,4910.635632,N,12304.282390,W,1,12,0.5,8.5,M,-19.2,M,,*43
$GNGGA,230233.00,4910.635636,N,12304.282399,W,1,12,0.5,8.5,M,-19.2,M,,*4F
$GNGGA,230234.00,4910.635638,N,12304.282409,W,1,12,0.5,8.5,M,-19.2,M,,*48
$GNGGA,230235.00,4910.635640,N,12304.282416,W,1,12,0.5,8.5,M,-19.2,M,,*48
$GNGGA,230236.00,4910.635644,N,12304.282420,W,1,12,0.5,8.5,M,-19.2,M,,*4A
$GNGGA,230237.00,4910.635647,N,12304.282423,W,1,12,0.5,8.5,M,-19.2,M,,*4B
$GNGGA,230238.00,4910.635649,N,12304.282429,W,1,12,0.5,8.5,M,-19.2,M,,*40
$GNGGA,230239.00,4910.635658,N,12304.282426,W,1,12,0.5,8.5,M,-19.2,M,,*4E
$GNGGA,230240.00,4910.635663,N,12304.282429,W,1,12,0.5,8.5,M,-19.2,M,,*47
$GNGGA,230241.00,4910.635667,N,12304.282432,W,1,12,0.5,8.5,M,-19.2,M,,*48
$GNGGA,230242.00,4910.635677,N,12304.282418,W,1,12,0.5,8.5,M,-19.2,M,,*42
$GNGGA,230243.00,4910.635685,N,12304.282409,W,1,12,0.5,8.5,M,-19.2,M,,*4E
$GNGGA,230244.00,4910.635686,N,12304.282403,W,1,12,0.5,8.5,M,-19.2,M,,*40
$GNGGA,230245.00,4910.635686,N,12304.282407,W,1,12,0.5,8.5,M,-19.2,M,,*45
$GNGGA,230246.00,4910.635688,N,12304.282403,W,1,12,0.5,8.5,M,-19.2,M,,*4C
$GNGGA,230247.00,4910.635691,N,12304.282399,W,1,12,0.5,8.5,M,-19.2,M,,*41
$GNGGA,230248.00,4910.635692,N,12304.282402,W,1,12,0.5,8.5,M,-19.2,M,,*48
$GNGGA,230249.00,4910.635688,N,12304.282411,W,1,12,0.5,8.4,M,-19.2,M,,*41
$GNGGA,230250.00,4910.635689,N,12304.282418,W,1,12,0.5,8.4,M,-19.2,M,,*41
$GNGGA,230251.00,4910.635685,N,12304.282427,W,1,12,0.5,8.4,M,-19.2,M,,*40
$GNGGA,230252.00,4910.635682,N,12304.282431,W,1,12,0.5,8.4,M,-19.2,M,,*43
$GNGGA,230253.00,4910.635679,N,12304.282435,W,1,12,0.5,8.3,M,-19.2,M,,*45
$GNGGA,230254.00,4910.635674,N,12304.282442,W,1,12,0.5,8.3,M,-19.2,M,,*4F
$GNGGA,230255.00,4910.635675,N,12304.282447,W,1,12,0.5,8.2,M,-19.2,M,,*4B
$GNGGA,230256.00,4910.635670,N,12304.282454,W,1,12,0.5,8.2,M,-19.2,M,,*4F
$GNGGA,230257.00,4910.635672,N,12304.282453,W,1,12,0.5,8.2,M,-19.2,M,,*4B
$GNGGA,230258.00,4910.635673,N,12304.282458,W,1,12,0.5,8.1,M,-19.2,M,,*4D
$GNGGA,230259.00,4910.635670,N,12304.282460,W,1,12,0.5,8.1,M,-19.2,M,,*44
$GNGGA,230300.00,4910.635671,N,12304.282459,W,1,12,0.5,8.1,M,-19.2,M,,*42
$GNGGA,230301.00,4910.635663,N,12304.282461,W,1,12,0.5,8.0,M,-19.2,M,,*4A
$GNGGA,230302.00,4910.635666,N,12304.282451,W,1,12,0.5,8.0,M,-19.2,M,,*4F
$GNGGA,230303.00,4910.635664,N,12304.282451,W,1,12,0.5,8.0,M,-19.2,M,,*4C
$GNGGA,230304.00,4910.635661,N,12304.282445,W,1,12,0.5,8.0,M,-19.2,M,,*4B
$GNGGA,230305.00,4910.635660,N,12304.282441,W,1,12,0.5,8.0,M,-19.2,M,,*4F
$GNGGA,230306.00,4910.635657,N,12304.282439,W,1,12,0.5,8.0,M,-19.2,M,,*47
$GNGGA,230307.00,4910.635651,N,12304.282441,W,1,12,0.5,8.0,M,-19.2,M,,*4F
$GNGGA,230308.00,4910.635650,N,12304.282442,W,1,12,0.5,7.9,M,-19.2,M,,*44
$GNGGA,230309.00,4910.635644,N,12304.282453,W,1,12,0.5,7.9,M,-19.2,M,,*40
$GNGGA,230310.00,4910.635643,N,12304.282452,W,1,12,0.5,7.9,M,-19.2,M,,*4E
$GNGGA,230311.00,4910.635637,N,12304.282456,W,1,12,0.5,7.9,M,-19.2,M,,*48
$GNGGA,230312.00,4910.635634,N,12304.282455,W,1,12,0.5,7.9,M,-19.2,M,,*4B
$GNGGA,230313.00,4910.635633,N,12304.282455,W,1,12,0.5,7.9,M,-19.2,M,,*4D
$GNGGA,230314.00,4910.635634,N,12304.282453,W,1,12,0.5,7.9,M,-19.2,M,,*4B
$GNGGA,230315.00,4910.635634,N,12304.282451,W,1,12,0.5,7.8,M,-19.2,M,,*49
$GNGGA,230316.00,4910.635633,N,12304.282452,W,1,12,0.5,7.8,M,-19.2,M,,*4E
$GNGGA,230317.00,4910.635629,N,12304.282448,W,1,12,0.5,7.8,M,-19.2,M,,*4F
$GNGGA,230318.00,4910.635625,N,12304.282444,W,1,12,0.5,7.8,M,-19.2,M,,*40
$GNGGA,230319.00,4910.635620,N,12304.282448,W,1,12,0.5,7.8,M,-19.2,M,,*48
$GNGGA,230320.00,4910.635610,N,12304.282454,W,1,12,0.5,7.7,M,-19.2,M,,*43
$GNGGA,230321.00,4910.635601,N,12304.282459,W,1,12,0.5,7.7,M,-19.2,M,,*4F
$GNGGA,230322.00,4910.635591,N,12304.282466,W,1,12,0.5,7.7,M,-19.2,M,,*4A
$GNGGA,230323.00,4910.635581,N,12304.282472,W,1,12,0.5,7.6,M,-19.2,M,,*4E
$GNGGA,230324.00,4910.635576,N,12304.282478,W,1,12,0.5,7.6,M,-19.2,M,,*4B
$GNGGA,230325.00,4910.635568,N,12304.282488,W,1,12,0.5,7.6,M,-19.2,M,,*4A
$GNGGA,230326.00,4910.635562,N,12304.282492,W,1,12,0.5,7.6,M,-19.2,M,,*48
$GNGGA,230327.00,4910.635556,N,12304.282500,W,1,12,0.5,7.5,M,-19.2,M,,*47
$GNGGA,230328.00,4910.635554,N,12304.282499,W,1,12,0.5,7.5,M,-19.2,M,,*4B
$GNGGA,230329.00,4910.635552,N,12304.282497,W,1,12,0.5,7.5,M,-19.2,M,,*42
$GNGGA,230330.00,4910.635550,N,12304.282495,W,1,12,0.5,7.5,M,-19.2,M,,*4A
$GNGGA,230331.00,4910.635553,N,12304.282491,W,1,12,0.5,7.5,M,-19.2,M,,*4C
$GNGGA,230332.00,4910.635556,N,12304.282487,W,1,12,0.5,7.5,M,-19.2,M,,*4D
$GNGGA,230333.00,4910.635558,N,12304.282487,W,1,12,0.5,7.5,M,-19.2,M,,*42
$GNGGA,230334.00,4910.635558,N,12304.282490,W,1,12,0.5,7.5,M,-19.2,M,,*43
$GNGGA,230335.00,4910.635559,N,12304.282498,W,1,12,0.5,7.5,M,-19.2,M,,*4B
$GNGGA,230336.00,4910.635554,N,12304.282509,W,1,12,0.5,7.5,M,-19.2,M,,*4C
$GNGGA,230337.00,4910.635554,N,12304.282513,W,1,12,0.5,7.6,M,-19.2,M,,*45
$GNGGA,230338.00,4910.635556,N,12304.282525,W,1,12,0.5,7.6,M,-19.2,M,,*4D
$GNGGA,230339.00,4910.635557,N,12304.282537,W,1,12,0.5,7.6,M,-19.2,M,,*4E
$GNGGA,230340.00,4910.635559,N,12304.282543,W,1,12,0.5,7.6,M,-19.2,M,,*4D
$GNGGA,230341.00,4910.635558,N,12304.282544,W,1,12,0.5,7.6,M,-19.2,M,,*4A
$GNGGA,230342.00,4910.635560,N,12304.282545,W,1,12,0.5,7.6,M,-19.2,M,,*43
$GNGGA,230343.00,4910.635558,N,12304.282547,W,1,12,0.5,7.6,M,-19.2,M,,*4B
$GNGGA,230344.00,4910.635559,N,12304.282543,W,1,12,0.5,7.6,M,-19.2,M,,*49
$GNGGA,230345.00,4910.635557,N,12304.282544,W,1,12,0.5,7.6,M,-19.2,M,,*41
$GNGGA,230346.00,4910.635559,N,12304.282542,W,1,12,0.5,7.6,M,-19.2,M,,*4A
$GNGGA,230347.00,4910.635562,N,12304.282540,W,1,12,0.5,7.6,M,-19.2,M,,*41
$GNGGA,230348.00,4910.635566,N,12304.282535,W,1,12,0.5,7.6,M,-19.2,M,,*48
$GNGGA,230349.00,4910.635574,N,12304.282532,W,1,12,0.5,7.6,M,-19.2,M,,*4D
$GNGGA,230350.00,4910.635584,N,12304.282526,W,1,12,0.5,7.6,M,-19.2,M,,*4F
$GNGGA,230351.00,4910.635597,N,12304.282522,W,1,12,0.5,7.6,M,-19.2,M,,*48
$GNGGA,230352.00,4910.635607,N,12304.282530,W,1,12,0.5,7.6,M,-19.2,M,,*42
$GNGGA,230353.00,4910.635617,N,12304.282534,W,1,12,0.5,7.6,M,-19.2,M,,*46
$GNGGA,230354.00,4910.635622,N,12304.282547,W,1,12,0.5,7.6,M,-19.2,M,,*43
$GNGGA,230355.00,4910.635634,N,12304.282553,W,1,12,0.5,7.6,M,-19.2,M,,*40
$GNGGA,230356.00,4910.635637,N,12304.282561,W,1,12,0.5,7.6,M,-19.2,M,,*41
$GNGGA,230357.00,4910.635640,N,12304.282569,W,1,12,0.5,7.6,M,-19.2,M,,*48
$GNGGA,230358.00,4910.635641,N,12304.282574,W,1,12,0.5,7.6,M,-19.2,M,,*4A
$GNGGA,230359.00,4910.635652,N,12304.282581,W,1,12,0.5,7.6,M,-19.2,M,,*43
$GNGGA,230400.00,4910.635653,N,12304.282590,W,1,12,0.5,7.6,M,-19.2,M,,*49
$GNGGA,230401.00,4910.635665,N,12304.282592,W,1,12,0.5,7.6,M,-19.2,M,,*4F
$GNGGA,230402.00,4910.635676,N,12304.282591,W,1,12,0.5,7.6,M,-19.2,M,,*4D
$GNGGA,230403.00,4910.635682,N,12304.282595,W,1,12,0.5,7.7,M,-19.2,M,,*42
$GNGGA,230404.00,4910.635689,N,12304.282596,W,1,12,0.5,7.7,M,-19.2,M,,*4D
$GNGGA,230405.00,4910.635698,N,12304.282599,W,1,12,0.5,7.7,M,-19.2,M,,*43
$GNGGA,230406.00,4910.635705,N,12304.282605,W,1,12,0.5,7.7,M,-19.2,M,,*43
$GNGGA,230407.00,4910.635706,N,12304.282611,W,1,12,0.5,7.6,M,-19.2,M,,*45
$GNGGA,230408.00,4910.635710,N,12304.282615,W,1,12,0.5,7.6,M,-19.2,M,,*49
$GNGGA,230409.00,4910.635716,N,12304.282622,W,1,12,0.5,7.6,M,-19.2,M,,*4A
$GNGGA,230410.00,4910.635716,N,12304.282628,W,1,12,0.5,7.6,M,-19.2,M,,*48
$GNGGA,230411.00,4910.635716,N,12304.282640,W,1,12,0.5,7.6,M,-19.2,M,,*47
$GNGGA,230412.00,4910.635714,N,12304.282657,W,1,12,0.5,7.6,M,-19.2,M,,*40
$GNGGA,230413.00,4910.635710,N,12304.282673,W,1,12,0.5,7.5,M,-19.2,M,,*40
$GNGGA,230414.00,4910.635713,N,12304.282683,W,1,12,0.5,7.5,M,-19.2,M,,*4B
$GNGGA,230415.00,4910.635718,N,12304.282692,W,1,12,0.5,7.5,M,-19.2,M,,*41
$GNGGA,230416.00,4910.635722,N,12304.282696,W,1,12,0.5,7.5,M,-19.2,M,,*4F
$GNGGA,230417.00,4910.635728,N,12304.282694,W,1,12,0.5,7.5,M,-19.2,M,,*46
$GNGGA,230418.00,4910.635738,N,12304.282691,W,1,12,0.5,7.5,M,-19.2,M,,*4D
$GNGGA,230419.00,4910.635746,N,12304.282691,W,1,12,0.5,7.5,M,-19.2,M,,*45
$GNGGA,230420.00,4910.635753,N,12304.282688,W,1,12,0.5,7.5,M,-19.2,M,,*43
$GNGGA,230421.00,4910.635758,N,12304.282689,W,1,12,0.5,7.5,M,-19.2,M,,*48
$GNGGA,230422.00,4910.635763,N,12304.282690,W,1,12,0.5,7.5,M,-19.2,M,,*4B
$GNGGA,230423.00,4910.635769,N,12304.282691,W,1,12,0.5,7.5,M,-19.2,M,,*41
$GNGGA,230424.00,4910.635775,N,12304.282698,W,1,12,0.5,7.5,M,-19.2,M,,*42
$GNGGA,230425.00,4910.635783,N,12304.282703,W,1,12,0.5,7.5,M,-19.2,M,,*49
$GNGGA,230426.00,4910.635785,N,12304.282712,W,1,12,0.5,7.6,M,-19.2,M,,*4F
$GNGGA,230427.00,4910.635795,N,12304.282712,W,1,12,0.5,7.6,M,-19.2,M,,*4F
$GNGGA,230428.00,4910.635802,N,12304.282714,W,1,12,0.5,7.6,M,-19.2,M,,*47
$GNGGA,230429.00,4910.635807,N,12304.282732,W,1,12,0.5,7.6,M,-19.2,M,,*47
$GNGGA,230430.00,4910.635817,N,12304.282743,W,1,12,0.5,7.6,M,-19.2,M,,*48
$GNGGA,230431.00,4910.635823,N,12304.282747,W,1,12,0.5,7.6,M,-19.2,M,,*4A
$GNGGA,230432.00,4910.635835,N,12304.282752,W,1,12,0.5,7.6,M,-19.2,M,,*4A
$GNGGA,230433.00,4910.635839,N,12304.282755,W,1,12,0.5,7.6,M,-19.2,M,,*40
$GNGGA,230434.00,4910.635848,N,12304.282760,W,1,12,0.5,7.6,M,-19.2,M,,*47
$GNGGA,230435.00,4910.635848,N,12304.282764,W,1,12,0.5,7.6,M,-19.2,M,,*42
$GNGGA,230436.00,4910.635855,N,12304.282773,W,1,12,0.5,7.6,M,-19.2,M,,*4B
$GNGGA,230437.00,4910.635862,N,12304.282780,W,1,12,0.5,7.6,M,-19.2,M,,*42
$GNGGA,230438.00,4910.635866,N,12304.282790,W,1,12,0.5,7.6,M,-19.2,M,,*48
$GNGGA,230439.00,4910.635872,N,12304.282793,W,1,12,0.5,7.6,M,-19.2,M,,*4F
$GNGGA,230440.00,4910.635878,N,12304.282804,W,1,12,0.5,7.7,M,-19.2,M,,*4B
$GNGGA,230441.00,4910.635881,N,12304.282808,W,1,12,0.5,7.7,M,-19.2,M,,*40
$GNGGA,230442.00,4910.635882,N,12304.282819,W,1,12,0.5,7.7,M,-19.2,M,,*40
$GNGGA,230443.00,4910.635884,N,12304.282834,W,1,12,0.5,7.7,M,-19.2,M,,*48
$GNGGA,230444.00,4910.635883,N,12304.282844,W,1,12,0.5,7.7,M,-19.2,M,,*4F
$GNGGA,230445.00,4910.635881,N,12304.282855,W,1,12,0.5,7.7,M,-19.2,M,,*4C
$GNGGA,230446.00,4910.635883,N,12304.282862,W,1,12,0.5,7.7,M,-19.2,M,,*49
$GNGGA,230447.00,4910.635887,N,12304.282864,W,1,12,0.5,7.7,M,-19.2,M,,*4A
$GNGGA,230448.00,4910.635886,N,12304.282875,W,1,12,0.5,7.8,M,-19.2,M,,*4B
$GNGGA,230449.00,4910.635886,N,12304.282889,W,1,12,0.5,7.8,M,-19.2,M,,*49
$GNGGA,230450.00,4910.635884,N,12304.282894,W,1,12,0.5,7.8,M,-19.2,M,,*4F
$GNGGA,230451.00,4910.635882,N,12304.282900,W,1,12,0.5,7.8,M,-19.2,M,,*44
$GNGGA,230452.00,4910.635887,N,12304.282897,W,1,12,0.5,7.7,M,-19.2,M,,*42
$GNGGA,230453.00,4910.635884,N,12304.282900,W,1,12,0.5,7.7,M,-19.2,M,,*4F
$GNGGA,230454.00,4910.635884,N,12304.282898,W,1,12,0.5,7.7,M,-19.2,M,,*48
$GNGGA,230455.00,4910.635883,N,12304.282902,W,1,12,0.5,7.7,M,-19.2,M,,*4C
$GNGGA,230456.00,4910.635880,N,12304.282909,W,1,12,0.5,7.7,M,-19.2,M,,*47
$GNGGA,230457.00,4910.635884,N,12304.282903,W,1,12,0.5,7.7,M,-19.2,M,,*48
$GNGGA,230458.00,4910.635883,N,12304.282904,W,1,12,0.5,7.6,M,-19.2,M,,*46
$GNGGA,230459.00,4910.635877,N,12304.282904,W,1,12,0.5,7.6,M,-19.2,M,,*4C
$GNGGA,230500.00,4910.635871,N,12304.282904,W,1,12,0.5,7.6,M,-19.2,M,,*47
$GNGGA,230501.00,4910.635861,N,12304.282907,W,1,12,0.5,7.6,M,-19.2,M,,*44
$GNGGA,230502.00,4910.635851,N,12304.282909,W,1,12,0.5,7.5,M,-19.2,M,,*49
$GNGGA,230503.00,4910.635844,N,12304.282914,W,1,12,0.5,7.5,M,-19.2,M,,*40
$GNGGA,230504.00,4910.635844,N,12304.282910,W,1,12,0.5,7.5,M,-19.2,M,,*43
$GNGGA,230505.00,4910.635833,N,12304.282916,W,1,12,0.5,7.4,M,-19.2,M,,*45
$GNGGA,230506.00,4910.635832,N,12304.282923,W,1,12,0.5,7.4,M,-19.2,M,,*41
$GNGGA,230507.00,4910.635829,N,12304.282931,W,1,12,0.5,7.4,M,-19.2,M,,*49
$GNGGA,230508.00,4910.635829,N,12304.282937,W,1,12,0.5,7.3,M,-19.2,M,,*47
$GNGGA,230509.00,4910.635826,N,12304.282939,W,1,12,0.5,7.3,M,-19.2,M,,*47
$GNGGA,230510.00,4910.635824,N,12304.282945,W,1,12,0.5,7.3,M,-19.2,M,,*46
$GNGGA,230511.00,4910.635823,N,12304.282946,W,1,12,0.5,7.3,M,-19.2,M,,*43
$GNGGA,230512.00,4910.635821,N,12304.282948,W,1,12,0.5,7.2,M,-19.2,M,,*4D
$GNGGA,230513.00,4910.635821,N,12304.282952,W,1,12,0.5,7.2,M,-19.2,M,,*47
$GNGGA,230514.00,4910.635821,N,12304.282953,W,1,12,0.5,7.2,M,-19.2,M,,*41
$GNGGA,230515.00,4910.635815,N,12304.282951,W,1,12,0.5,7.2,M,-19.2,M,,*45
$GNGGA,230516.00,4910.635808,N,12304.282949,W,1,12,0.5,7.1,M,-19.2,M,,*40
$GNGGA,230517.00,4910.635804,N,12304.282948,W,1,12,0.5,7.1,M,-19.2,M,,*4C
$GNGGA,230518.00,4910.635802,N,12304.282946,W,1,12,0.5,7.1,M,-19.2,M,,*4B
$GNGGA,230519.00,4910.635802,N,12304.282948,W,1,12,0.5,7.0,M,-19.2,M,,*45
$GNGGA,230520.00,4910.635800,N,12304.282948,W,1,12,0.5,7.0,M,-19.2,M,,*4D
$GNGGA,230521.00,4910.635797,N,12304.282952,W,1,12,0.5,7.0,M,-19.2,M,,*46
$GNGGA,230522.00,4910.635793,N,12304.282958,W,1,12,0.5,7.0,M,-19.2,M,,*4B
$GNGGA,230523.00,4910.635790,N,12304.282963,W,1,12,0.5,7.0,M,-19.2,M,,*41
$GNGGA,230524.00,4910.635785,N,12304.282971,W,1,12,0.5,7.0,M,-19.2,M,,*41
$GNGGA,230525.00,4910.635782,N,12304.282975,W,1,12,0.5,6.9,M,-19.2,M,,*4B
$GNGGA,230526.00,4910.635779,N,12304.282976,W,1,12,0.5,6.9,M,-19.2,M,,*4F
$GNGGA,230527.00,4910.635776,N,12304.282976,W,1,12,0.5,6.9,M,-19.2,M,,*41
$GNGGA,230528.00,4910.635774,N,12304.282982,W,1,12,0.5,6.9,M,-19.2,M,,*47
$GNGGA,230529.00,4910.635774,N,12304.282979,W,1,12,0.5,6.9,M,-19.2,M,,*42
$GNGGA,230530.00,4910.635770,N,12304.282978,W,1,12,0.5,6.9,M,-19.2,M,,*4F
$GNGGA,230531.00,4910.635767,N,12304.282977,W,1,12,0.5,6.9,M,-19.2,M,,*47
$GNGGA,230532.00,4910.635760,N,12304.282976,W,1,12,0.5,6.9,M,-19.2,M,,*42
$GNGGA,230533.00,4910.635755,N,12304.282977,W,1,12,0.5,6.9,M,-19.2,M,,*44
$GNGGA,230534.00,4910.635749,N,12304.282985,W,1,12,0.5,6.9,M,-19.2,M,,*43
$GNGGA,230535.00,4910.635740,N,12304.282995,W,1,12,0.5,6.9,M,-19.2,M,,*4A
$GNGGA,230536.00,4910.635726,N,12304.283005,W,1,12,0.5,6.9,M,-19.2,M,,*48
$GNGGA,230537.00,4910.635718,N,12304.283008,W,1,12,0.5,6.9,M,-19.2,M,,*49
$GNGGA,230538.00,4910.635705,N,12304.283008,W,1,12,0.5,6.8,M,-19.2,M,,*4B
$GNGGA,230539.00,4910.635690,N,12304.283013,W,1,12,0.5,6.8,M,-19.2,M,,*4D
$GNGGA,230540.00,4910.635679,N,12304.283011,W,1,12,0.5,6.8,M,-19.2,M,,*46
$GNGGA,230541.00,4910.635673,N,12304.283012,W,1,12,0.5,6.9,M,-19.2,M,,*4F
$GNGGA,230542.00,4910.635662,N,12304.283005,W,1,12,0.5,6.9,M,-19.2,M,,*4A
$GNGGA,230543.00,4910.635652,N,12304.282999,W,1,12,0.5,6.9,M,-19.2,M,,*45
$GNGGA,230544.00,4910.635641,N,12304.282995,W,1,12,0.5,6.9,M,-19.2,M,,*4C
$GNGGA,230545.00,4910.635626,N,12304.282990,W,1,12,0.5,6.9,M,-19.2,M,,*49
$GNGGA,230546.00,4910.635620,N,12304.282985,W,1,12,0.5,6.9,M,-19.2,M,,*48
$GNGGA,230547.00,4910.635614,N,12304.282988,W,1,12,0.5,6.9,M,-19.2,M,,*43
$GNGGA,230548.00,4910.635602,N,12304.282988,W,1,12,0.5,6.9,M,-19.2,M,,*4B
$GNGGA,230549.00,4910.635597,N,12304.282986,W,1,12,0.5,6.9,M,-19.2,M,,*4B
$GNGGA,230550.00,4910.635585,N,12304.282990,W,1,12,0.5,6.9,M,-19.2,M,,*47
$GNGGA,230551.00,4910.635581,N,12304.282990,W,1,12,0.5,6.9,M,-19.2,M,,*42
$GNGGA,230552.00,4910.635577,N,12304.282996,W,1,12,0.5,6.9,M,-19.2,M,,*4E
$GNGGA,230553.00,4910.635566,N,12304.282997,W,1,12,0.5,6.9,M,-19.2,M,,*4E
$GNGGA,230554.00,4910.635553,N,12304.282993,W,1,12,0.5,6.9,M,-19.2,M,,*4B
$GNGGA,230555.00,4910.635547,N,12304.282992,W,1,12,0.5,6.9,M,-19.2,M,,*4E
$GNGGA,230556.00,4910.635542,N,12304.282987,W,1,12,0.5,6.9,M,-19.2,M,,*4C
$GNGGA,230557.00,4910.635533,N,12304.282982,W,1,12,0.5,6.9,M,-19.2,M,,*4E
$GNGGA,230558.00,4910.635527,N,12304.282980,W,1,12,0.5,6.9,M,-19.2,M,,*46
$GNGGA,230559.00,4910.635518,N,12304.282982,W,1,12,0.5,6.9,M,-19.2,M,,*49
$GNGGA,230600.00,4910.635510,N,12304.282975,W,1,12,0.5,6.9,M,-19.2,M,,*46
$GNGGA,230601.00,4910.635506,N,12304.282964,W,1,12,0.5,6.9,M,-19.2,M,,*40
$GNGGA,230602.00,4910.635502,N,12304.282955,W,1,12,0.5,6.9,M,-19.2,M,,*45
$GNGGA,230603.00,4910.635493,N,12304.282957,W,1,12,0.5,6.9,M,-19.2,M,,*4F
$GNGGA,230604.00,4910.635488,N,12304.282952,W,1,12,0.5,6.9,M,-19.2,M,,*47
$GNGGA,230605.00,4910.635481,N,12304.282955,W,1,12,0.5,6.9,M,-19.2,M,,*48
$GNGGA,230606.00,4910.635476,N,12304.282957,W,1,12,0.5,6.9,M,-19.2,M,,*41
$GNGGA,230607.00,4910.635471,N,12304.282955,W,1,12,0.5,6.9,M,-19.2,M,,*45
$GNGGA,230608.00,4910.635469,N,12304.282957,W,1,12,0.5,6.9,M,-19.2,M,,*41
$GNGGA,230609.00,4910.635466,N,12304.282960,W,1,12,0.5,6.9,M,-19.2,M,,*4B
$GNGGA,230610.00,4910.635467,N,12304.282961,W,1,12,0.5,6.9,M,-19.2,M,,*43
$GNGGA,230611.00,4910.635470,N,12304.282963,W,1,12,0.5,6.9,M,-19.2,M,,*46
$GNGGA,230612.00,4910.635470,N,12304.282964,W,1,12,0.5,6.9,M,-19.2,M,,*42
$GNGGA,230613.00,4910.635469,N,12304.282962,W,1,12,0.5,6.9,M,-19.2,M,,*4D
$GNGGA,230614.00,4910.635464,N,12304.282963,W,1,12,0.5,6.9,M,-19.2,M,,*46
$GNGGA,230615.00,4910.635469,N,12304.282957,W,1,12,0.5,6.9,M,-19.2,M,,*4D
$GNGGA,230616.00,4910.635470,N,12304.282957,W,1,12,0.5,6.9,M,-19.2,M,,*46
$GNGGA,230617.00,4910.635470,N,12304.282959,W,1,12,0.5,6.9,M,-19.2,M,,*49
$GNGGA,230618.00,4910.635467,N,12304.282958,W,1,12,0.5,6.9,M,-19.2,M,,*41
$GNGGA,230619.00,4910.635461,N,12304.282957,W,1,12,0.5,6.9,M,-19.2,M,,*49
$GNGGA,230620.00,4910.635452,N,12304.282963,W,1,12,0.5,6.9,M,-19.2,M,,*44
$GNGGA,230621.00,4910.635446,N,12304.282960,W,1,12,0.5,6.9,M,-19.2,M,,*43
$GNGGA,230622.00,4910.635438,N,12304.282957,W,1,12,0.5,6.9,M,-19.2,M,,*4D
$GNGGA,230623.00,4910.635428,N,12304.282957,W,1,12,0.5,6.9,M,-19.2,M,,*4D
$GNGGA,230624.00,4910.635422,N,12304.282952,W,1,12,0.5,6.8,M,-19.2,M,,*44
$GNGGA,230625.00,4910.635418,N,12304.282948,W,1,12,0.5,6.8,M,-19.2,M,,*47
$GNGGA,230626.00,4910.635410,N,12304.282946,W,1,12,0.5,6.8,M,-19.2,M,,*42
$GNGGA,230627.00,4910.635405,N,12304.282942,W,1,12,0.5,6.8,M,-19.2,M,,*43
$GNGGA,230628.00,4910.635403,N,12304.282940,W,1,12,0.5,6.8,M,-19.2,M,,*48
$GNGGA,230629.00,4910.635399,N,12304.282935,W,1,12,0.5,6.8,M,-19.2,M,,*4F
$GNGGA,230630.00,4910.635394,N,12304.282934,W,1,12,0.5,6.8,M,-19.2,M,,*4B
$GNGGA,230631.00,4910.635392,N,12304.282928,W,1,12,0.5,6.8,M,-19.2,M,,*41
$GNGGA,230632.00,4910.635392,N,12304.282918,W,1,12,0.5,6.8,M,-19.2,M,,*41
$GNGGA,230633.00,4910.635391,N,12304.282917,W,1,12,0.5,6.8,M,-19.2,M,,*4C
$GNGGA,230634.00,4910.635392,N,12304.282915,W,1,12,0.5,6.8,M,-19.2,M,,*4A
$GNGGA,230635.00,4910.635392,N,12304.282918,W,1,12,0.5,6.8,M,-19.2,M,,*46
$GNGGA,230636.00,4910.635391,N,12304.282918,W,1,12,0.5,6.8,M,-19.2,M,,*46
$GNGGA,230637.00,4910.635386,N,12304.282921,W,1,12,0.5,6.7,M,-19.2,M,,*44
$GNGGA,230638.00,4910.635385,N,12304.282917,W,1,12,0.5,6.7,M,-19.2,M,,*4D
$GNGGA,230639.00,4910.635383,N,12304.282912,W,1,12,0.5,6.7,M,-19.2,M,,*4F
$GNGGA,230640.00,4910.635383,N,12304.282904,W,1,12,0.5,6.7,M,-19.2,M,,*46
$GNGGA,230641.00,4910.635379,N,12304.282901,W,1,12,0.5,6.7,M,-19.2,M,,*47
$GNGGA,230642.00,4910.635379,N,12304.282892,W,1,12,0.5,6.7,M,-19.2,M,,*4F
$GNGGA,230643.00,4910.635374,N,12304.282889,W,1,12,0.5,6.7,M,-19.2,M,,*49
$GNGGA,230644.00,4910.635377,N,12304.282880,W,1,12,0.5,6.7,M,-19.2,M,,*44
$GNGGA,230645.00,4910.635375,N,12304.282878,W,1,12,0.5,6.7,M,-19.2,M,,*40
$GNGGA,230646.00,4910.635378,N,12304.282874,W,1,12,0.5,6.7,M,-19.2,M,,*42
$GNGGA,230647.00,4910.635376,N,12304.282865,W,1,12,0.5,6.7,M,-19.2,M,,*4D
$GNGGA,230648.00,4910.635376,N,12304.282858,W,1,12,0.5,6.7,M,-19.2,M,,*4C
$GNGGA,230649.00,4910.635376,N,12304.282850,W,1,12,0.5,6.7,M,-19.2,M,,*45
$GNGGA,230650.00,4910.635377,N,12304.282840,W,1,12,0.5,6.7,M,-19.2,M,,*4D
$GNGGA,230651.00,4910.635377,N,12304.282828,W,1,12,0.5,6.7,M,-19.2,M,,*42
$GNGGA,230652.00,4910.635380,N,12304.282811,W,1,12,0.5,6.7,M,-19.2,M,,*43
$GNGGA,230653.00,4910.635381,N,12304.282802,W,1,12,0.5,6.7,M,-19.2,M,,*41
$GNGGA,230654.00,4910.635380,N,12304.282795,W,1,12,0.5,6.7,M,-19.2,M,,*46
$GNGGA,230655.00,4910.635386,N,12304.282778,W,1,12,0.5,6.7,M,-19.2,M,,*42
$GNGGA,230656.00,4910.635390,N,12304.282760,W,1,12,0.5,6.7,M,-19.2,M,,*4F
$GNGGA,230657.00,4910.635395,N,12304.282748,W,1,12,0.5,6.7,M,-19.2,M,,*41
$GNGGA,230658.00,4910.635397,N,12304.282741,W,1,12,0.5,6.7,M,-19.2,M,,*45
$GNGGA,230659.00,4910.635397,N,12304.282737,W,1,12,0.5,6.6,M,-19.2,M,,*44
$GNGGA,230700.00,4910.635395,N,12304.282730,W,1,12,0.5,6.6,M,-19.2,M,,*4C
$GNGGA,230701.00,4910.635392,N,12304.282727,W,1,12,0.5,6.6,M,-19.2,M,,*4C
$GNGGA,230702.00,4910.635389,N,12304.282730,W,1,12,0.5,6.6,M,-19.2,M,,*43
$GNGGA,230703.00,4910.635386,N,12304.282733,W,1,12,0.5,6.6,M,-19.2,M,,*4E
$GNGGA,230704.00,4910.635383,N,12304.282738,W,1,12,0.5,6.6,M,-19.2,M,,*47
$GNGGA,230705.00,4910.635380,N,12304.282744,W,1,12,0.5,6.6,M,-19.2,M,,*4E
$GNGGA,230706.00,4910.635378,N,12304.282741,W,1,12,0.5,6.6,M,-19.2,M,,*4F
$GNGGA,230707.00,4910.635371,N,12304.282747,W,1,12,0.5,6.6,M,-19.2,M,,*41
$GNGGA,230708.00,4910.635369,N,12304.282750,W,1,12,0.5,6.6,M,-19.2,M,,*41
$GNGGA,230709.00,4910.635368,N,12304.282752,W,1,12,0.5,6.6,M,-19.2,M,,*43
$GNGGA,230710.00,4910.635367,N,12304.282754,W,1,12,0.5,6.5,M,-19.2,M,,*41
$GNGGA,230711.00,4910.635370,N,12304.282753,W,1,12,0.5,6.6,M,-19.2,M,,*42
$GNGGA,230712.00,4910.635371,N,12304.282756,W,1,12,0.5,6.5,M,-19.2,M,,*46
$GNGGA,230713.00,4910.635373,N,12304.282760,W,1,12,0.5,6.5,M,-19.2,M,,*40
$GNGGA,230714.00,4910.635379,N,12304.282761,W,1,12,0.5,6.6,M,-19.2,M,,*4F
$GNGGA,230715.00,4910.635382,N,12304.282766,W,1,12,0.5,6.6,M,-19.2,M,,*4D
$GNGGA,230716.00,4910.635386,N,12304.282774,W,1,12,0.5,6.6,M,-19.2,M,,*49
$GNGGA,230717.00,4910.635392,N,12304.282778,W,1,12,0.5,6.6,M,-19.2,M,,*41
$GNGGA,230718.00,4910.635399,N,12304.282782,W,1,12,0.5,6.6,M,-19.2,M,,*40
$GNGGA,230719.00,4910.635405,N,12304.282787,W,1,12,0.5,6.6,M,-19.2,M,,*46
$GNGGA,230720.00,4910.635412,N,12304.282799,W,1,12,0.5,6.6,M,-19.2,M,,*45
$GNGGA,230721.00,4910.635413,N,12304.282809,W,1,12,0.5,6.6,M,-19.2,M,,*43
$GNGGA,230722.00,4910.635418,N,12304.282816,W,1,12,0.5,6.7,M,-19.2,M,,*44
$GNGGA,230723.00,4910.635422,N,12304.282820,W,1,12,0.5,6.7,M,-19.2,M,,*49
$GNGGA,230724.00,4910.635426,N,12304.282825,W,1,12,0.5,6.7,M,-19.2,M,,*4F
$GNGGA,230725.00,4910.635430,N,12304.282834,W,1,12,0.5,6.7,M,-19.2,M,,*49
$GNGGA,230726.00,4910.635433,N,12304.282844,W,1,12,0.5,6.7,M,-19.2,M,,*4E
$GNGGA,230727.00,4910.635437,N,12304.282848,W,1,12,0.5,6.7,M,-19.2,M,,*47
$GNGGA,230728.00,4910.635443,N,12304.282849,W,1,12,0.5,6.7,M,-19.2,M,,*4A
$GNGGA,230729.00,4910.635449,N,12304.282846,W,1,12,0.5,6.7,M,-19.2,M,,*4E
$GNGGA,230730.00,4910.635457,N,12304.282844,W,1,12,0.5,6.7,M,-19.2,M,,*4B
$GNGGA,230731.00,4910.635460,N,12304.282846,W,1,12,0.5,6.7,M,-19.2,M,,*4C
$GNGGA,230732.00,4910.635463,N,12304.282846,W,1,12,0.5,6.7,M,-19.2,M,,*4C
$GNGGA,230733.00,4910.635464,N,12304.282843,W,1,12,0.5,6.7,M,-19.2,M,,*4F
$GNGGA,230734.00,4910.635466,N,12304.282842,W,1,12,0.5,6.7,M,-19.2,M,,*4B
$GNGGA,230735.00,4910.635468,N,12304.282843,W,1,12,0.5,6.7,M,-19.2,M,,*45
$GNGGA,230736.00,4910.635472,N,12304.282846,W,1,12,0.5,6.7,M,-19.2,M,,*48
$GNGGA,230737.00,4910.635475,N,12304.282845,W,1,12,0.5,6.7,M,-19.2,M,,*4D
$GNGGA,230738.00,4910.635482,N,12304.282844,W,1,12,0.5,6.7,M,-19.2,M,,*4B
$GNGGA,230739.00,4910.635487,N,12304.282841,W,1,12,0.5,6.6,M,-19.2,M,,*4B
$GNGGA,230740.00,4910.635489,N,12304.282840,W,1,12,0.5,6.6,M,-19.2,M,,*4A
$GNGGA,230741.00,4910.635493,N,12304.282837,W,1,12,0.5,6.6,M,-19.2,M,,*40
$GNGGA,230742.00,4910.635494,N,12304.282836,W,1,12,0.5,6.6,M,-19.2,M,,*45
$GNGGA,230743.00,4910.635496,N,12304.282838,W,1,12,0.5,6.6,M,-19.2,M,,*48
$GNGGA,230744.00,4910.635500,N,12304.282834,W,1,12,0.5,6.6,M,-19.2,M,,*4D
$GNGGA,230745.00,4910.635503,N,12304.282836,W,1,12,0.5,6.6,M,-19.2,M,,*4D
$GNGGA,230746.00,4910.635505,N,12304.282837,W,1,12,0.5,6.6,M,-19.2,M,,*49
$GNGGA,230747.00,4910.635505,N,12304.282834,W,1,12,0.5,6.6,M,-19.2,M,,*4B
$GNGGA,230748.00,4910.635502,N,12304.282834,W,1,12,0.5,6.6,M,-19.2,M,,*43
$GNGGA,230749.00,4910.635502,N,12304.282835,W,1,12,0.5,6.6,M,-19.2,M,,*43
$GNGGA,230750.00,4910.635501,N,12304.282838,W,1,12,0.5,6.6,M,-19.2,M,,*45
$GNGGA,230751.00,4910.635499,N,12304.282838,W,1,12,0.5,6.6,M,-19.2,M,,*44
$GNGGA,230752.00,4910.635496,N,12304.282845,W,1,12,0.5,6.6,M,-19.2,M,,*42
$GNGGA,230753.00,4910.635493,N,12304.282849,W,1,12,0.5,6.6,M,-19.2,M,,*4A
$GNGGA,230754.00,4910.635491,N,12304.282853,W,1,12,0.5,6.6,M,-19.2,M,,*44
$GNGGA,230755.00,4910.635486,N,12304.282862,W,1,12,0.5,6.6,M,-19.2,M,,*41
$GNGGA,230756.00,4910.635478,N,12304.282869,W,1,12,0.5,6.5,M,-19.2,M,,*4B
$GNGGA,230757.00,4910.635471,N,12304.282876,W,1,12,0.5,6.5,M,-19.2,M,,*4D
$GNGGA,230758.00,4910.635463,N,12304.282885,W,1,12,0.5,6.5,M,-19.2,M,,*4D
$GNGGA,230759.00,4910.635454,N,12304.282892,W,1,12,0.5,6.5,M,-19.2,M,,*4E
$GNGGA,230800.00,4910.635446,N,12304.282899,W,1,12,0.5,6.5,M,-19.2,M,,*45
$GNGGA,230801.00,4910.635440,N,12304.282904,W,1,12,0.5,6.5,M,-19.2,M,,*47
$GNGGA,230802.00,4910.635434,N,12304.282905,W,1,12,0.5,6.6,M,-19.2,M,,*45
$GNGGA,230803.00,4910.635427,N,12304.282906,W,1,12,0.5,6.6,M,-19.2,M,,*45
$GNGGA,230804.00,4910.635421,N,12304.282906,W,1,12,0.5,6.6,M,-19.2,M,,*44
$GNGGA,230805.00,4910.635419,N,12304.282900,W,1,12,0.5,6.6,M,-19.2,M,,*48
$GNGGA,230806.00,4910.635416,N,12304.282893,W,1,12,0.5,6.6,M,-19.2,M,,*4F
$GNGGA,230807.00,4910.635415,N,12304.282885,W,1,12,0.5,6.6,M,-19.2,M,,*4A
$GNGGA,230808.00,4910.635413,N,12304.282875,W,1,12,0.5,6.6,M,-19.2,M,,*4C
$GNGGA,230809.00,4910.635412,N,12304.282871,W,1,12,0.5,6.6,M,-19.2,M,,*48
$GNGGA,230810.00,4910.635412,N,12304.282862,W,1,12,0.5,6.6,M,-19.2,M,,*42
$GNGGA,230811.00,4910.635413,N,12304.282852,W,1,12,0.5,6.6,M,-19.2,M,,*41
$GNGGA,230812.00,4910.635416,N,12304.282846,W,1,12,0.5,6.6,M,-19.2,M,,*42
$GNGGA,230813.00,4910.635418,N,12304.282841,W,1,12,0.5,6.5,M,-19.2,M,,*49
$GNGGA,230814.00,4910.635416,N,12304.282837,W,1,12,0.5,6.5,M,-19.2,M,,*41
$GNGGA,230815.00,4910.635415,N,12304.282835,W,1,12,0.5,6.5,M,-19.2,M,,*41
$GNGGA,230816.00,4910.635414,N,12304.282832,W,1,12,0.5,6.5,M,-19.2,M,,*44
$GNGGA,230817.00,4910.635413,N,12304.282827,W,1,12,0.5,6.5,M,-19.2,M,,*46
$GNGGA,230818.00,4910.635409,N,12304.282823,W,1,12,0.5,6.5,M,-19.2,M,,*46
$GNGGA,230819.00,4910.635407,N,12304.282822,W,1,12,0.5,6.5,M,-19.2,M,,*48
$GNGGA,230820.00,4910.635406,N,12304.282820,W,1,12,0.5,6.4,M,-19.2,M,,*40
$GNGGA,230821.00,4910.635406,N,12304.282816,W,1,12,0.5,6.4,M,-19.2,M,,*44
$GNGGA,230822.00,4910.635405,N,12304.282814,W,1,12,0.5,6.4,M,-19.2,M,,*46
$GNGGA,230823.00,4910.635405,N,12304.282814,W,1,12,0.5,6.4,M,-19.2,M,,*47
$GNGGA,230824.00,4910.635406,N,12304.282812,W,1,12,0.5,6.4,M,-19.2,M,,*45
$GNGGA,230825.00,4910.635406,N,12304.282810,W,1,12,0.5,6.4,M,-19.2,M,,*46
$GNGGA,230826.00,4910.635407,N,12304.282804,W,1,12,0.5,6.4,M,-19.2,M,,*41
$GNGGA,230827.00,4910.635410,N,12304.282799,W,1,12,0.5,6.4,M,-19.2,M,,*4D
$GNGGA,230828.00,4910.635412,N,12304.282795,W,1,12,0.5,6.4,M,-19.2,M,,*4C
$GNGGA,230829.00,4910.635418,N,12304.282788,W,1,12,0.5,6.4,M,-19.2,M,,*4B
$GNGGA,230830.00,4910.635421,N,12304.282784,W,1,12,0.5,6.4,M,-19.2,M,,*45
$GNGGA,230831.00,4910.635424,N,12304.282778,W,1,12,0.5,6.4,M,-19.2,M,,*42
$GNGGA,230832.00,4910.635428,N,12304.282774,W,1,12,0.5,6.4,M,-19.2,M,,*41
$GNGGA,230833.00,4910.635431,N,12304.282772,W,1,12,0.5,6.4,M,-19.2,M,,*4E
$GNGGA,230834.00,4910.635434,N,12304.282772,W,1,12,0.5,6.5,M,-19.2,M,,*4D
$GNGGA,230835.00,4910.635435,N,12304.282775,W,1,12,0.5,6.5,M,-19.2,M,,*4A
$GNGGA,230836.00,4910.635437,N,12304.282772,W,1,12,0.5,6.5,M,-19.2,M,,*4C
$GNGGA,230837.00,4910.635442,N,12304.282771,W,1,12,0.5,6.5,M,-19.2,M,,*4C
$GNGGA,230838.00,4910.635446,N,12304.282766,W,1,12,0.5,6.5,M,-19.2,M,,*41
$GNGGA,230839.00,4910.635448,N,12304.282770,W,1,12,0.5,6.5,M,-19.2,M,,*49
$GNGGA,230840.00,4910.635451,N,12304.282774,W,1,12,0.5,6.5,M,-19.2,M,,*4B
$GNGGA,230841.00,4910.635451,N,12304.282780,W,1,12,0.5,6.5,M,-19.2,M,,*41
$GNGGA,230842.00,4910.635455,N,12304.282780,W,1,12,0.5,6.6,M,-19.2,M,,*45
$GNGGA,230843.00,4910.635456,N,12304.282780,W,1,12,0.5,6.6,M,-19.2,M,,*47
$GNGGA,230844.00,4910.635457,N,12304.282781,W,1,12,0.5,6.6,M,-19.2,M,,*40
$GNGGA,230845.00,4910.635457,N,12304.282783,W,1,12,0.5,6.6,M,-19.2,M,,*43
$GNGGA,230846.00,4910.635456,N,12304.282790,W,1,12,0.5,6.6,M,-19.2,M,,*43
$GNGGA,230847.00,4910.635457,N,12304.282792,W,1,12,0.5,6.6,M,-19.2,M,,*41
$GNGGA,230848.00,4910.635453,N,12304.282796,W,1,12,0.5,6.7,M,-19.2,M,,*4F
$GNGGA,230849.00,4910.635452,N,12304.282795,W,1,12,0.5,6.7,M,-19.2,M,,*4C
$GNGGA,230850.00,4910.635452,N,12304.282794,W,1,12,0.5,6.7,M,-19.2,M,,*45
$GNGGA,230851.00,4910.635449,N,12304.282793,W,1,12,0.5,6.7,M,-19.2,M,,*49
$GNGGA,230852.00,4910.635450,N,12304.282787,W,1,12,0.5,6.7,M,-19.2,M,,*47
$GNGGA,230853.00,4910.635449,N,12304.282786,W,1,12,0.5,6.7,M,-19.2,M,,*4F
$GNGGA,230854.00,4910.635448,N,12304.282784,W,1,12,0.5,6.8,M,-19.2,M,,*44
$GNGGA,230855.00,4910.635445,N,12304.282789,W,1,12,0.5,6.8,M,-19.2,M,,*45
$GNGGA,230856.00,4910.635445,N,12304.282790,W,1,12,0.5,6.8,M,-19.2,M,,*4E
$GNGGA,230857.00,4910.635444,N,12304.282795,W,1,12,0.5,6.8,M,-19.2,M,,*4B
$GNGGA,230858.00,4910.635443,N,12304.282801,W,1,12,0.5,6.8,M,-19.2,M,,*41
$GNGGA,230859.00,4910.635440,N,12304.282806,W,1,12,0.5,6.8,M,-19.2,M,,*44
$GNGGA,230900.00,4910.635437,N,12304.282810,W,1,12,0.5,6.8,M,-19.2,M,,*4E
$GNGGA,230901.00,4910.635435,N,12304.282816,W,1,12,0.5,6.8,M,-19.2,M,,*4B
$GNGGA,230902.00,4910.635431,N,12304.282822,W,1,12,0.5,6.8,M,-19.2,M,,*4B
$GNGGA,230903.00,4910.635431,N,12304.282826,W,1,12,0.5,6.8,M,-19.2,M,,*4E
$GNGGA,230904.00,4910.635429,N,12304.282830,W,1,12,0.5,6.8,M,-19.2,M,,*47
$GNGGA,230905.00,4910.635428,N,12304.282835,W,1,12,0.5,6.8,M,-19.2,M,,*42
$GNGGA,230906.00,4910.635426,N,12304.282840,W,1,12,0.5,6.8,M,-19.2,M,,*4D
$GNGGA,230907.00,4910.635424,N,12304.282843,W,1,12,0.5,6.8,M,-19.2,M,,*4D
$GNGGA,230908.00,4910.635423,N,12304.282850,W,1,12,0.5,6.8,M,-19.2,M,,*47
$GNGGA,230909.00,4910.635423,N,12304.282850,W,1,12,0.5,6.8,M,-19.2,M,,*46
$GNGGA,230910.00,4910.635425,N,12304.282851,W,1,12,0.5,6.8,M,-19.2,M,,*49
$GNGGA,230911.00,4910.635426,N,12304.282855,W,1,12,0.5,6.8,M,-19.2,M,,*4F
$GNGGA,230912.00,4910.635425,N,12304.282862,W,1,12,0.5,6.8,M,-19.2,M,,*4B
$GNGGA,230913.00,4910.635424,N,12304.282866,W,1,12,0.5,6.8,M,-19.2,M,,*4F
$GNGGA,230914.00,4910.635424,N,12304.282870,W,1,12,0.5,6.7,M,-19.2,M,,*40
$GNGGA,230915.00,4910.635424,N,12304.282873,W,1,12,0.5,6.7,M,-19.2,M,,*42
$GNGGA,230916.00,4910.635421,N,12304.282876,W,1,12,0.5,6.7,M,-19.2,M,,*41
$GNGGA,230917.00,4910.635421,N,12304.282880,W,1,12,0.5,6.7,M,-19.2,M,,*49
$GNGGA,230918.00,4910.635420,N,12304.282882,W,1,12,0.5,6.7,M,-19.2,M,,*45
$GNGGA,230919.00,4910.635419,N,12304.282885,W,1,12,0.5,6.7,M,-19.2,M,,*49
$GNGGA,230920.00,4910.635416,N,12304.282888,W,1,12,0.5,6.7,M,-19.2,M,,*41
$GNGGA,230921.00,4910.635412,N,12304.282897,W,1,12,0.5,6.7,M,-19.2,M,,*4A
$GNGGA,230922.00,4910.635412,N,12304.282900,W,1,12,0.5,6.6,M,-19.2,M,,*47
$GNGGA,230923.00,4910.635409,N,12304.282910,W,1,12,0.5,6.6,M,-19.2,M,,*4D
$GNGGA,230924.00,4910.635406,N,12304.282916,W,1,12,0.5,6.6,M,-19.2,M,,*43
$GNGGA,230925.00,4910.635403,N,12304.282922,W,1,12,0.5,6.6,M,-19.2,M,,*40
$GNGGA,230926.00,4910.635400,N,12304.282934,W,1,12,0.5,6.6,M,-19.2,M,,*47
$GNGGA,230927.00,4910.635399,N,12304.282939,W,1,12,0.5,6.6,M,-19.2,M,,*4C
$GNGGA,230928.00,4910.635396,N,12304.282946,W,1,12,0.5,6.5,M,-19.2,M,,*47
$GNGGA,230929.00,4910.635395,N,12304.282948,W,1,12,0.5,6.5,M,-19.2,M,,*4B
$GNGGA,230930.00,4910.635392,N,12304.282957,W,1,12,0.5,6.5,M,-19.2,M,,*4A
$GNGGA,230931.00,4910.635389,N,12304.282963,W,1,12,0.5,6.5,M,-19.2,M,,*46
$GNGGA,230932.00,4910.635389,N,12304.282962,W,1,12,0.5,6.5,M,-19.2,M,,*44
$GNGGA,230933.00,4910.635388,N,12304.282961,W,1,12,0.5,6.5,M,-19.2,M,,*47
$GNGGA,230934.00,4910.635388,N,12304.282957,W,1,12,0.5,6.5,M,-19.2,M,,*45
$GNGGA,230935.00,4910.635385,N,12304.282957,W,1,12,0.5,6.5,M,-19.2,M,,*49
$GNGGA,230936.00,4910.635382,N,12304.282957,W,1,12,0.5,6.4,M,-19.2,M,,*4C
$GNGGA,230937.00,4910.635379,N,12304.282960,W,1,12,0.5,6.4,M,-19.2,M,,*4D
$GNGGA,230938.00,4910.635379,N,12304.282957,W,1,12,0.5,6.4,M,-19.2,M,,*46
$GNGGA,230939.00,4910.635378,N,12304.282954,W,1,12,0.5,6.4,M,-19.2,M,,*45
$GNGGA,230940.00,4910.635376,N,12304.282958,W,1,12,0.5,6.4,M,-19.2,M,,*49
$GNGGA,230941.00,4910.635374,N,12304.282952,W,1,12,0.5,6.4,M,-19.2,M,,*40
$GNGGA,230942.00,4910.635373,N,12304.282948,W,1,12,0.5,6.4,M,-19.2,M,,*4F
$GNGGA,230943.00,4910.635373,N,12304.282948,W,1,12,0.5,6.4,M,-19.2,M,,*4E
$GNGGA,230944.00,4910.635370,N,12304.282946,W,1,12,0.5,6.4,M,-19.2,M,,*44
$GNGGA,230945.00,4910.635366,N,12304.282952,W,1,12,0.5,6.4,M,-19.2,M,,*47
$GNGGA,230946.00,4910.635362,N,12304.282957,W,1,12,0.5,6.4,M,-19.2,M,,*45
$GNGGA,230947.00,4910.635359,N,12304.282954,W,1,12,0.5,6.4,M,-19.2,M,,*4F
$GNGGA,230948.00,4910.635355,N,12304.282953,W,1,12,0.5,6.4,M,-19.2,M,,*4B
$GNGGA,230949.00,4910.635351,N,12304.282950,W,1,12,0.5,6.4,M,-19.2,M,,*4D
$GNGGA,230950.00,4910.635344,N,12304.282949,W,1,12,0.5,6.4,M,-19.2,M,,*49
$GNGGA,230951.00,4910.635341,N,12304.282949,W,1,12,0.5,6.4,M,-19.2,M,,*4D
$GNGGA,230952.00,4910.635338,N,12304.282946,W,1,12,0.5,6.4,M,-19.2,M,,*4F
$GNGGA,230953.00,4910.635335,N,12304.282943,W,1,12,0.5,6.4,M,-19.2,M,,*46
$GNGGA,230954.00,4910.635332,N,12304.282946,W,1,12,0.5,6.4,M,-19.2,M,,*43
$GNGGA,230955.00,4910.635330,N,12304.282945,W,1,12,0.5,6.3,M,-19.2,M,,*44
$GNGGA,230956.00,4910.635329,N,12304.282943,W,1,12,0.5,6.3,M,-19.2,M,,*49
$GNGGA,230957.00,4910.635326,N,12304.282938,W,1,12,0.5,6.3,M,-19.2,M,,*4B
$GNGGA,230958.00,4910.635325,N,12304.282936,W,1,12,0.5,6.3,M,-19.2,M,,*49
$GNGGA,230959.00,4910.635324,N,12304.282933,W,1,12,0.5,6.3,M,-19.2,M,,*4C
$GNGGA,231000.00,4910.635321,N,12304.282932,W,1,12,0.5,6.3,M,-19.2,M,,*4C
$GNGGA,231001.00,4910.635319,N,12304.282934,W,1,12,0.5,6.3,M,-19.2,M,,*40
$GNGGA,231002.00,4910.635317,N,12304.282934,W,1,12,0.5,6.2,M,-19.2,M,,*4C
$GNGGA,231003.00,4910.635314,N,12304.282933,W,1,12,0.5,6.2,M,-19.2,M,,*49
$GNGGA,231004.00,4910.635313,N,12304.282937,W,1,12,0.5,6.2,M,-19.2,M,,*4D
$GNGGA,231005.00,4910.635312,N,12304.282935,W,1,12,0.5,6.2,M,-19.2,M,,*4F
$GNGGA,231006.00,4910.635313,N,12304.282937,W,1,12,0.5,6.2,M,-19.2,M,,*4F
$GNGGA,231007.00,4910.635310,N,12304.282937,W,1,12,0.5,6.1,M,-19.2,M,,*4E
$GNGGA,231008.00,4910.635308,N,12304.282937,W,1,12,0.5,6.1,M,-19.2,M,,*48
$GNGGA,231009.00,4910.635307,N,12304.282937,W,1,12,0.5,6.1,M,-19.2,M,,*46
$GNGGA,231010.00,4910.635305,N,12304.282937,W,1,12,0.5,6.1,M,-19.2,M,,*4C
$GNGGA,231011.00,4910.635307,N,12304.282937,W,1,12,0.5,6.1,M,-19.2,M,,*4F
$GNGGA,231012.00,4910.635307,N,12304.282936,W,1,12,0.5,6.1,M,-19.2,M,,*4D
$GNGGA,231013.00,4910.635306,N,12304.282939,W,1,12,0.5,6.1,M,-19.2,M,,*42
$GNGGA,231014.00,4910.635307,N,12304.282942,W,1,12,0.5,6.1,M,-19.2,M,,*48
$GNGGA,231015.00,4910.635308,N,12304.282942,W,1,12,0.5,6.0,M,-19.2,M,,*47
$GNGGA,231016.00,4910.635308,N,12304.282948,W,1,12,0.5,6.0,M,-19.2,M,,*4E
$GNGGA,231017.00,4910.635307,N,12304.282953,W,1,12,0.5,6.0,M,-19.2,M,,*4A
$GNGGA,231018.00,4910.635305,N,12304.282961,W,1,12,0.5,6.0,M,-19.2,M,,*46
$GNGGA,231019.00,4910.635305,N,12304.282967,W,1,12,0.5,6.0,M,-19.2,M,,*41
$GNGGA,231020.00,4910.635305,N,12304.282977,W,1,12,0.5,6.0,M,-19.2,M,,*4A
$GNGGA,231021.00,4910.635305,N,12304.282984,W,1,12,0.5,6.0,M,-19.2,M,,*47
$GNGGA,231022.00,4910.635302,N,12304.282991,W,1,12,0.5,5.9,M,-19.2,M,,*4D
$GNGGA,231023.00,4910.635301,N,12304.282999,W,1,12,0.5,5.9,M,-19.2,M,,*47
$GNGGA,231024.00,4910.635300,N,12304.283005,W,1,12,0.5,5.9,M,-19.2,M,,*4C
$GNGGA,231025.00,4910.635299,N,12304.283013,W,1,12,0.5,5.9,M,-19.2,M,,*4B
$GNGGA,231026.00,4910.635298,N,12304.283019,W,1,12,0.5,5.9,M,-19.2,M,,*43
$GNGGA,231027.00,4910.635298,N,12304.283026,W,1,12,0.5,5.9,M,-19.2,M,,*4E
$GNGGA,231028.00,4910.635299,N,12304.283023,W,1,12,0.5,5.9,M,-19.2,M,,*45
$GNGGA,231029.00,4910.635299,N,12304.283022,W,1,12,0.5,5.9,M,-19.2,M,,*45
$GNGGA,231030.00,4910.635299,N,12304.283024,W,1,12,0.5,5.8,M,-19.2,M,,*4A
$GNGGA,231031.00,4910.635299,N,12304.283024,W,1,12,0.5,5.8,M,-19.2,M,,*4B
$GNGGA,231032.00,4910.635298,N,12304.283026,W,1,12,0.5,5.8,M,-19.2,M,,*4B
$GNGGA,231033.00,4910.635298,N,12304.283028,W,1,12,0.5,5.8,M,-19.2,M,,*44
$GNGGA,231034.00,4910.635295,N,12304.283029,W,1,12,0.5,5.8,M,-19.2,M,,*4F
$GNGGA,231035.00,4910.635290,N,12304.283030,W,1,12,0.5,5.8,M,-19.2,M,,*43
$GNGGA,231036.00,4910.635286,N,12304.283032,W,1,12,0.5,5.8,M,-19.2,M,,*45
$GNGGA,231037.00,4910.635280,N,12304.283031,W,1,12,0.5,5.8,M,-19.2,M,,*41
$GNGGA,231038.00,4910.635275,N,12304.283032,W,1,12,0.5,5.8,M,-19.2,M,,*47
$GNGGA,231039.00,4910.635272,N,12304.283030,W,1,12,0.5,5.8,M,-19.2,M,,*43
$GNGGA,231040.00,4910.635268,N,12304.283030,W,1,12,0.5,5.7,M,-19.2,M,,*49
$GNGGA,231041.00,4910.635266,N,12304.283031,W,1,12,0.5,5.7,M,-19.2,M,,*47
$GNGGA,231042.00,4910.635263,N,12304.283028,W,1,12,0.5,5.7,M,-19.2,M,,*49
$GNGGA,231043.00,4910.635260,N,12304.283029,W,1,12,0.5,5.7,M,-19.2,M,,*4A
$GNGGA,231044.00,4910.635258,N,12304.283028,W,1,12,0.5,5.7,M,-19.2,M,,*47
$GNGGA,231045.00,4910.635255,N,12304.283025,W,1,12,0.5,5.7,M,-19.2,M,,*46
$GNGGA,231046.00,4910.635254,N,12304.283030,W,1,12,0.5,5.6,M,-19.2,M,,*41
$GNGGA,231047.00,4910.635250,N,12304.283027,W,1,12,0.5,5.6,M,-19.2,M,,*42
$GNGGA,231048.00,4910.635248,N,12304.283029,W,1,12,0.5,5.6,M,-19.2,M,,*4A
$GNGGA,231049.00,4910.635242,N,12304.283032,W,1,12,0.5,5.5,M,-19.2,M,,*48
$GNGGA,231050.00,4910.635239,N,12304.283036,W,1,12,0.5,5.5,M,-19.2,M,,*48
$GNGGA,231051.00,4910.635235,N,12304.283038,W,1,12,0.5,5.5,M,-19.2,M,,*4B
$GNGGA,231052.00,4910.635232,N,12304.283041,W,1,12,0.5,5.5,M,-19.2,M,,*41
$GNGGA,231053.00,4910.635231,N,12304.283042,W,1,12,0.5,5.5,M,-19.2,M,,*40
$GNGGA,231054.00,4910.635228,N,12304.283042,W,1,12,0.5,5.4,M,-19.2,M,,*4E
$GNGGA,231055.00,4910.635226,N,12304.283042,W,1,12,0.5,5.4,M,-19.2,M,,*41
$GNGGA,231056.00,4910.635225,N,12304.283046,W,1,12,0.5,5.4,M,-19.2,M,,*45
$GNGGA,231057.00,4910.635224,N,12304.283048,W,1,12,0.5,5.4,M,-19.2,M,,*4B
$GNGGA,231058.00,4910.635222,N,12304.283054,W,1,12,0.5,5.4,M,-19.2,M,,*4F
$GNGGA,231059.00,4910.635223,N,12304.283059,W,1,12,0.5,5.4,M,-19.2,M,,*42
$GNGGA,231100.00,4910.635220,N,12304.283067,W,1,12,0.5,5.4,M,-19.2,M,,*41
$GNGGA,231101.00,4910.635221,N,12304.283074,W,1,12,0.5,5.4,M,-19.2,M,,*43
$GNGGA,231102.00,4910.635222,N,12304.283081,W,1,12,0.5,5.3,M,-19.2,M,,*4E
$GNGGA,231103.00,4910.635223,N,12304.283093,W,1,12,0.5,5.4,M,-19.2,M,,*4A
$GNGGA,231104.00,4910.635225,N,12304.283098,W,1,12,0.5,5.4,M,-19.2,M,,*40
$GNGGA,231105.00,4910.635228,N,12304.283100,W,1,12,0.5,5.4,M,-19.2,M,,*4C
$GNGGA,231106.00,4910.635232,N,12304.283102,W,1,12,0.5,5.3,M,-19.2,M,,*41
$GNGGA,231107.00,4910.635231,N,12304.283106,W,1,12,0.5,5.4,M,-19.2,M,,*40
$GNGGA,231108.00,4910.634433,N,12304.282945,W,1,12,0.5,5.2,M,-19.2,M,,*42
$GNGGA,231109.00,4910.633781,N,12304.282507,W,1,12,0.5,5.0,M,-19.2,M,,*46
$GNGGA,231110.00,4910.632958,N,12304.281752,W,1,12,0.5,5.2,M,-19.2,M,,*46
$GNGGA,231111.00,4910.632373,N,12304.280857,W,1,12,0.5,5.5,M,-19.2,M,,*48
$GNGGA,231112.00,4910.631935,N,12304.279346,W,1,12,0.5,5.7,M,-19.2,M,,*4F
$GNGGA,231113.00,4910.631831,N,12304.277705,W,1,12,0.5,5.8,M,-19.2,M,,*49
$GNGGA,231114.00,4910.631661,N,12304.275975,W,1,12,0.5,6.2,M,-19.2,M,,*47
$GNGGA,231115.00,4910.631528,N,12304.274216,W,1,12,0.5,6.7,M,-19.2,M,,*42
$GNGGA,231116.00,4910.631378,N,12304.272288,W,1,12,0.5,6.9,M,-19.2,M,,*4D
$GNGGA,231117.00,4910.631441,N,12304.270930,W,1,12,0.5,7.0,M,-19.2,M,,*43
$GNGGA,231118.00,4910.631476,N,12304.269450,W,1,12,0.5,7.1,M,-19.2,M,,*4A
$GNGGA,231119.00,4910.631391,N,12304.267799,W,1,12,0.5,7.5,M,-19.2,M,,*49
$GNGGA,231120.00,4910.631429,N,12304.266262,W,1,12,0.5,7.3,M,-19.2,M,,*41
$GNGGA,231121.00,4910.631433,N,12304.265074,W,1,12,0.5,7.6,M,-19.2,M,,*48
$GNGGA,231122.00,4910.631512,N,12304.263758,W,1,12,0.5,8.4,M,-19.2,M,,*4B
