$GNGGA,224518.00,4910.448513,N,12304.421698,W,1,12,0.4,8.7,M,-19.2,M,,*40
$GNGGA,224519.00,4910.449641,N,12304.422854,W,1,12,0.4,8.8,M,-19.2,M,,*46
$GNGGA,224520.00,4910.450722,N,12304.424017,W,1,12,0.4,8.7,M,-19.2,M,,*46
$GNGGA,224521.00,4910.451741,N,12304.425188,W,1,12,0.4,8.6,M,-19.2,M,,*44
$GNGGA,224522.00,4910.452863,N,12304.426303,W,1,12,0.4,8.7,M,-19.2,M,,*48
$GNGGA,224523.00,4910.453855,N,12304.427653,W,1,12,0.4,8.8,M,-19.2,M,,*43
$GNGGA,224524.00,4910.454858,N,12304.428844,W,1,12,0.4,8.8,M,-19.2,M,,*49
$GNGGA,224525.00,4910.455675,N,12304.429930,W,1,12,0.4,8.8,M,-19.2,M,,*4B
$GNGGA,224526.00,4910.456821,N,12304.431107,W,1,12,0.4,8.9,M,-19.2,M,,*40
$GNGGA,224527.00,4910.457729,N,12304.432205,W,1,12,0.4,8.8,M,-19.2,M,,*44
$GNGGA,224528.00,4910.458288,N,12304.433195,W,1,12,0.5,9.0,M,-19.2,M,,*49
$GNGGA,224529.00,4910.459226,N,12304.433998,W,1,12,0.5,8.8,M,-19.2,M,,*41
$GNGGA,224530.00,4910.460086,N,12304.434518,W,1,12,0.5,9.0,M,-19.2,M,,*41
$GNGGA,224531.00,4910.461015,N,12304.435166,W,1,12,0.5,8.8,M,-19.2,M,,*4E
$GNGGA,224532.00,4910.462169,N,12304.435346,W,1,12,0.4,9.0,M,-19.2,M,,*4C
$GNGGA,224533.00,4910.463391,N,12304.435506,W,1,12,0.4,8.6,M,-19.2,M,,*4C
$GNGGA,224534.00,4910.464786,N,12304.435561,W,1,12,0.4,8.6,M,-19.2,M,,*4F
$GNGGA,224535.00,4910.466094,N,12304.435387,W,1,12,0.4,8.6,M,-19.2,M,,*46
$GNGGA,224536.00,4910.467043,N,12304.435513,W,1,12,0.4,8.7,M,-19.2,M,,*44
$GNGGA,224537.00,4910.468387,N,12304.435579,W,1,12,0.4,8.7,M,-19.2,M,,*4D
$GNGGA,224538.00,4910.469740,N,12304.435449,W,1,12,0.5,8.6,M,-19.2,M,,*4E
$GNGGA,224539.00,4910.471127,N,12304.435365,W,1,12,0.5,8.4,M,-19.2,M,,*4A
$GNGGA,224540.00,4910.472452,N,12304.435357,W,1,12,0.5,8.4,M,-19.2,M,,*41
$GNGGA,224541.00,4910.473741,N,12304.435360,W,1,12,0.5,8.2,M,-19.2,M,,*42
$GNGGA,224542.00,4910.475041,N,12304.435196,W,1,12,0.5,8.3,M,-19.2,M,,*4A
$GNGGA,224543.00,4910.476216,N,12304.434890,W,1,12,0.5,8.6,M,-19.2,M,,*43
$GNGGA,224544.00,4910.477389,N,12304.434832,W,1,12,0.4,8.2,M,-19.2,M,,*4F
$GNGGA,224545.00,4910.478512,N,12304.434838,W,1,12,0.4,8.5,M,-19.2,M,,*48
$GNGGA,224546.00,4910.479447,N,12304.434672,W,1,12,0.4,8.9,M,-19.2,M,,*47
$GNGGA,224547.00,4910.480558,N,12304.434578,W,1,12,0.4,9.3,M,-19.2,M,,*4D
$GNGGA,224548.00,4910.481608,N,12304.434449,W,1,12,0.4,9.2,M,-19.2,M,,*47
$GNGGA,224549.00,4910.482662,N,12304.434454,W,1,12,0.4,9.6,M,-19.2,M,,*41
$GNGGA,224550.00,4910.483696,N,12304.434329,W,1,12,0.4,9.8,M,-19.2,M,,*40
$GNGGA,224551.00,4910.484927,N,12304.434284,W,1,12,0.4,10.1,M,-19.2,M,,*74
$GNGGA,224552.00,4910.486084,N,12304.434316,W,1,12,0.4,10.3,M,-19.2,M,,*7D
$GNGGA,224553.00,4910.487318,N,12304.434224,W,1,12,0.4,10.5,M,-19.2,M,,*7D
$GNGGA,224554.00,4910.488518,N,12304.434210,W,1,12,0.4,10.8,M,-19.2,M,,*79
$GNGGA,224555.00,4910.489828,N,12304.434317,W,1,12,0.4,10.8,M,-19.2,M,,*71
$GNGGA,224556.00,4910.491167,N,12304.434470,W,1,12,0.4,11.1,M,-19.2,M,,*77
$GNGGA,224557.00,4910.492454,N,12304.434420,W,1,12,0.4,10.8,M,-19.2,M,,*7D
$GNGGA,224558.00,4910.493655,N,12304.434454,W,1,12,0.4,10.5,M,-19.2,M,,*7E
$GNGGA,224559.00,4910.494865,N,12304.434539,W,1,12,0.4,10.3,M,-19.2,M,,*79
$GNGGA,224600.00,4910.495981,N,12304.434605,W,1,12,0.4,10.3,M,-19.2,M,,*70
$GNGGA,224601.00,4910.497212,N,12304.434768,W,1,12,0.4,10.3,M,-19.2,M,,*78
$GNGGA,224602.00,4910.498487,N,12304.434767,W,1,12,0.4,10.3,M,-19.2,M,,*71
$GNGGA,224603.00,4910.499302,N,12304.434797,W,1,12,0.4,10.0,M,-19.2,M,,*77
$GNGGA,224604.00,4910.500068,N,12304.434863,W,1,12,0.4,10.0,M,-19.2,M,,*7A
$GNGGA,224605.00,4910.501135,N,12304.434886,W,1,12,0.4,9.9,M,-19.2,M,,*49
$GNGGA,224606.00,4910.502772,N,12304.435009,W,1,12,0.5,9.8,M,-19.2,M,,*42
$GNGGA,224607.00,4910.504331,N,12304.435027,W,1,12,0.5,9.7,M,-19.2,M,,*45
$GNGGA,224608.00,4910.506151,N,12304.435147,W,1,12,0.5,10.0,M,-19.2,M,,*74
$GNGGA,224609.00,4910.507636,N,12304.435240,W,1,12,0.5,9.9,M,-19.2,M,,*47
$GNGGA,224610.00,4910.509411,N,12304.435379,W,1,12,0.5,9.9,M,-19.2,M,,*4D
$GNGGA,224611.00,4910.511411,N,12304.435550,W,1,12,0.4,9.9,M,-19.2,M,,*49
$GNGGA,224612.00,4910.513328,N,12304.435673,W,1,12,0.4,9.6,M,-19.2,M,,*48
$GNGGA,224613.00,4910.515020,N,12304.435549,W,1,12,0.4,9.5,M,-19.2,M,,*4D
$GNGGA,224614.00,4910.516682,N,12304.435495,W,1,12,0.4,9.4,M,-19.2,M,,*46
$GNGGA,224615.00,4910.518421,N,12304.435358,W,1,12,0.4,9.6,M,-19.2,M,,*46
$GNGGA,224616.00,4910.519952,N,12304.435301,W,1,12,0.4,9.5,M,-19.2,M,,*42
$GNGGA,224617.00,4910.521436,N,12304.435439,W,1,12,0.4,9.4,M,-19.2,M,,*4A
$GNGGA,224618.00,4910.522844,N,12304.435379,W,1,12,0.4,9.4,M,-19.2,M,,*4C
$GNGGA,224619.00,4910.524263,N,12304.435505,W,1,12,0.4,8.8,M,-19.2,M,,*44
$GNGGA,224620.00,4910.525790,N,12304.435313,W,1,12,0.4,8.8,M,-19.2,M,,*47
$GNGGA,224621.00,4910.527340,N,12304.435337,W,1,12,0.4,8.7,M,-19.2,M,,*44
$GNGGA,224622.00,4910.528615,N,12304.435002,W,1,12,0.4,8.7,M,-19.2,M,,*48
$GNGGA,224623.00,4910.529952,N,12304.434743,W,1,12,0.4,8.8,M,-19.2,M,,*48
$GNGGA,224624.00,4910.531292,N,12304.434484,W,1,12,0.4,9.1,M,-19.2,M,,*41
$GNGGA,224625.00,4910.532511,N,12304.434025,W,1,12,0.4,8.7,M,-19.2,M,,*47
$GNGGA,224626.00,4910.533735,N,12304.432990,W,1,12,0.4,8.6,M,-19.2,M,,*41
$GNGGA,224627.00,4910.534853,N,12304.431924,W,1,12,0.4,8.6,M,-19.2,M,,*44
$GNGGA,224628.00,4910.535999,N,12304.430657,W,1,12,0.4,8.6,M,-19.2,M,,*47
$GNGGA,224629.00,4910.537068,N,12304.429165,W,1,12,0.4,8.5,M,-19.2,M,,*4E
$GNGGA,224630.00,4910.538070,N,12304.427506,W,1,12,0.4,8.6,M,-19.2,M,,*4C
$GNGGA,224631.00,4910.539033,N,12304.425991,W,1,12,0.4,8.5,M,-19.2,M,,*48
$GNGGA,224632.00,4910.539882,N,12304.424556,W,1,12,0.4,8.5,M,-19.2,M,,*4F
$GNGGA,224633.00,4910.540904,N,12304.423316,W,1,12,0.4,8.3,M,-19.2,M,,*4C
$GNGGA,224634.00,4910.541877,N,12304.422463,W,1,12,0.4,8.3,M,-19.2,M,,*4B
$GNGGA,224635.00,4910.542902,N,12304.422474,W,1,12,0.4,8.6,M,-19.2,M,,*49
$GNGGA,224636.00,4910.543717,N,12304.422544,W,1,12,0.4,8.6,M,-19.2,M,,*43
$GNGGA,224637.00,4910.544433,N,12304.422991,W,1,12,0.4,8.9,M,-19.2,M,,*4B
$GNGGA,224638.00,4910.544785,N,12304.423523,W,1,12,0.5,8.9,M,-19.2,M,,*4F
$GNGGA,224639.00,4910.544875,N,12304.423818,W,1,12,0.4,8.9,M,-19.2,M,,*4A
$GNGGA,224640.00,4910.544763,N,12304.424014,W,1,12,0.4,8.7,M,-19.2,M,,*41
$GNGGA,224641.00,4910.544731,N,12304.424126,W,1,12,0.4,8.4,M,-19.2,M,,*44
$GNGGA,224642.00,4910.544720,N,12304.424147,W,1,12,0.4,8.2,M,-19.2,M,,*46
$GNGGA,224643.00,4910.544684,N,12304.424193,W,1,12,0.4,7.6,M,-19.2,M,,*4A
$GNGGA,224644.00,4910.544749,N,12304.424198,W,1,12,0.4,7.5,M,-19.2,M,,*45
$GNGGA,224645.00,4910.544720,N,12304.424120,W,1,12,0.4,7.3,M,-19.2,M,,*4E
$GNGGA,224646.00,4910.544764,N,12304.424129,W,1,12,0.4,7.1,M,-19.2,M,,*46
$GNGGA,224647.00,4910.544777,N,12304.424104,W,1,12,0.4,7.0,M,-19.2,M,,*4B
$GNGGA,224648.00,4910.544820,N,12304.424069,W,1,12,0.4,7.0,M,-19.2,M,,*43
$GNGGA,224649.00,4910.544825,N,12304.424051,W,1,12,0.4,7.1,M,-19.2,M,,*4D
$GNGGA,224650.00,4910.544851,N,12304.424044,W,1,12,0.5,7.0,M,-19.2,M,,*42
$GNGGA,224651.00,4910.544865,N,12304.424040,W,1,12,0.5,7.0,M,-19.2,M,,*40
$GNGGA,224652.00,4910.544885,N,12304.424016,W,1,12,0.5,6.9,M,-19.2,M,,*46
$GNGGA,224653.00,4910.544902,N,12304.423997,W,1,12,0.5,6.9,M,-19.2,M,,*4E
$GNGGA,224654.00,4910.544922,N,12304.423975,W,1,12,0.5,6.9,M,-19.2,M,,*47
$GNGGA,224655.00,4910.544941,N,12304.423954,W,1,12,0.5,6.8,M,-19.2,M,,*41
$GNGGA,224656.00,4910.544960,N,12304.423937,W,1,12,0.5,6.8,M,-19.2,M,,*44
$GNGGA,224657.00,4910.544980,N,12304.423918,W,1,12,0.5,6.8,M,-19.2,M,,*46
$GNGGA,224658.00,4910.544996,N,12304.423908,W,1,12,0.4,6.8,M,-19.2,M,,*4E
$GNGGA,224659.00,4910.545013,N,12304.423895,W,1,12,0.4,6.7,M,-19.2,M,,*40
$GNGGA,224700.00,4910.545029,N,12304.423879,W,1,12,0.4,6.7,M,-19.2,M,,*46
$GNGGA,224701.00,4910.545043,N,12304.423868,W,1,12,0.4,6.7,M,-19.2,M,,*4B
$GNGGA,224702.00,4910.545056,N,12304.423857,W,1,12,0.4,6.7,M,-19.2,M,,*40
$GNGGA,224703.00,4910.545061,N,12304.423862,W,1,12,0.4,6.6,M,-19.2,M,,*42
$GNGGA,224704.00,4910.545073,N,12304.423855,W,1,12,0.4,6.6,M,-19.2,M,,*42
$GNGGA,224705.00,4910.545080,N,12304.423861,W,1,12,0.4,6.6,M,-19.2,M,,*48
$GNGGA,224706.00,4910.545088,N,12304.423863,W,1,12,0.4,6.6,M,-19.2,M,,*41
$GNGGA,224707.00,4910.545092,N,12304.423864,W,1,12,0.5,6.6,M,-19.2,M,,*4D
$GNGGA,224708.00,4910.545100,N,12304.423864,W,1,12,0.5,6.6,M,-19.2,M,,*48
$GNGGA,224709.00,4910.545106,N,12304.423866,W,1,12,0.5,6.6,M,-19.2,M,,*4D
$GNGGA,224710.00,4910.545113,N,12304.423865,W,1,12,0.5,6.6,M,-19.2,M,,*42
$GNGGA,224711.00,4910.545123,N,12304.423859,W,1,12,0.5,6.5,M,-19.2,M,,*4C
$GNGGA,224712.00,4910.545128,N,12304.423865,W,1,12,0.5,6.5,M,-19.2,M,,*4B
$GNGGA,224713.00,4910.545139,N,12304.423864,W,1,12,0.5,6.5,M,-19.2,M,,*4B
$GNGGA,224714.00,4910.545146,N,12304.423873,W,1,12,0.5,6.5,M,-19.2,M,,*42
$GNGGA,224715.00,4910.545155,N,12304.423872,W,1,12,0.5,6.4,M,-19.2,M,,*41
$GNGGA,224716.00,4910.545163,N,12304.423877,W,1,12,0.5,6.4,M,-19.2,M,,*42
$GNGGA,224717.00,4910.545168,N,12304.423885,W,1,12,0.5,6.4,M,-19.2,M,,*45
$GNGGA,224718.00,4910.545177,N,12304.423888,W,1,12,0.5,6.4,M,-19.2,M,,*49
$GNGGA,224719.00,4910.545184,N,12304.423898,W,1,12,0.5,6.4,M,-19.2,M,,*45
$GNGGA,224720.00,4910.545191,N,12304.423901,W,1,12,0.5,6.4,M,-19.2,M,,*4A
$GNGGA,224721.00,4910.545197,N,12304.423902,W,1,12,0.5,6.3,M,-19.2,M,,*49
$GNGGA,224722.00,4910.545207,N,12304.423901,W,1,12,0.5,6.3,M,-19.2,M,,*43
$GNGGA,224723.00,4910.545212,N,12304.423904,W,1,12,0.5,6.3,M,-19.2,M,,*43
$GNGGA,224724.00,4910.545217,N,12304.423903,W,1,12,0.5,6.3,M,-19.2,M,,*46
$GNGGA,224725.00,4910.545221,N,12304.423903,W,1,12,0.5,6.3,M,-19.2,M,,*42
$GNGGA,224726.00,4910.545228,N,12304.423897,W,1,12,0.5,6.3,M,-19.2,M,,*44
$GNGGA,224727.00,4910.545233,N,12304.423894,W,1,12,0.5,6.3,M,-19.2,M,,*4C
$GNGGA,224728.00,4910.545241,N,12304.423887,W,1,12,0.5,6.2,M,-19.2,M,,*45
$GNGGA,224729.00,4910.545250,N,12304.423879,W,1,12,0.5,6.2,M,-19.2,M,,*45
$GNGGA,224730.00,4910.545257,N,12304.423873,W,1,12,0.5,6.2,M,-19.2,M,,*40
$GNGGA,224731.00,4910.545265,N,12304.423864,W,1,12,0.5,6.2,M,-19.2,M,,*46
$GNGGA,224732.00,4910.545270,N,12304.423860,W,1,12,0.5,6.1,M,-19.2,M,,*46
$GNGGA,224733.00,4910.545272,N,12304.423855,W,1,12,0.5,6.1,M,-19.2,M,,*43
$GNGGA,224734.00,4910.545275,N,12304.423853,W,1,12,0.5,6.1,M,-19.2,M,,*45
$GNGGA,224735.00,4910.545279,N,12304.423851,W,1,12,0.5,6.1,M,-19.2,M,,*4A
$GNGGA,224736.00,4910.545275,N,12304.423853,W,1,12,0.5,6.1,M,-19.2,M,,*47
$GNGGA,224737.00,4910.545273,N,12304.423855,W,1,12,0.5,6.1,M,-19.2,M,,*46
$GNGGA,224738.00,4910.545270,N,12304.423853,W,1,12,0.5,6.1,M,-19.2,M,,*4C
$GNGGA,224739.00,4910.545269,N,12304.423847,W,1,12,0.5,6.2,M,-19.2,M,,*43
$GNGGA,224740.00,4910.545268,N,12304.423840,W,1,12,0.5,6.2,M,-19.2,M,,*4B
$GNGGA,224741.00,4910.545264,N,12304.423842,W,1,12,0.5,6.2,M,-19.2,M,,*44
$GNGGA,224742.00,4910.545264,N,12304.423831,W,1,12,0.5,6.2,M,-19.2,M,,*43
$GNGGA,224743.00,4910.545260,N,12304.423826,W,1,12,0.5,6.2,M,-19.2,M,,*40
$GNGGA,224744.00,4910.545260,N,12304.423822,W,1,12,0.5,6.2,M,-19.2,M,,*43
$GNGGA,224745.00,4910.545263,N,12304.423808,W,1,12,0.5,6.3,M,-19.2,M,,*48
$GNGGA,224746.00,4910.545266,N,12304.423795,W,1,12,0.5,6.3,M,-19.2,M,,*45
$GNGGA,224747.00,4910.545266,N,12304.423786,W,1,12,0.5,6.3,M,-19.2,M,,*46
$GNGGA,224748.00,4910.545270,N,12304.423769,W,1,12,0.5,6.3,M,-19.2,M,,*4F
$GNGGA,224749.00,4910.545276,N,12304.423751,W,1,12,0.5,6.3,M,-19.2,M,,*43
$GNGGA,224750.00,4910.545281,N,12304.423732,W,1,12,0.5,6.3,M,-19.2,M,,*46
$GNGGA,224751.00,4910.545282,N,12304.423720,W,1,12,0.5,6.3,M,-19.2,M,,*47
$GNGGA,224752.00,4910.545286,N,12304.423706,W,1,12,0.5,6.3,M,-19.2,M,,*44
$GNGGA,224753.00,4910.545293,N,12304.423690,W,1,12,0.5,6.2,M,-19.2,M,,*4E
$GNGGA,224754.00,4910.545298,N,12304.423670,W,1,12,0.5,6.2,M,-19.2,M,,*4C
$GNGGA,224755.00,4910.545303,N,12304.423651,W,1,12,0.5,6.2,M,-19.2,M,,*4D
$GNGGA,224756.00,4910.545308,N,12304.423635,W,1,12,0.5,6.2,M,-19.2,M,,*47
$GNGGA,224757.00,4910.545314,N,12304.423614,W,1,12,0.5,6.2,M,-19.2,M,,*48
$GNGGA,224758.00,4910.545314,N,12304.423603,W,1,12,0.5,6.2,M,-19.2,M,,*41
$GNGGA,224759.00,4910.545314,N,12304.423598,W,1,12,0.5,6.2,M,-19.2,M,,*41
$GNGGA,224800.00,4910.545314,N,12304.423592,W,1,12,0.5,6.1,M,-19.2,M,,*4B
$GNGGA,224801.00,4910.545317,N,12304.423588,W,1,12,0.5,6.1,M,-19.2,M,,*42
$GNGGA,224802.00,4910.545319,N,12304.423588,W,1,12,0.5,6.1,M,-19.2,M,,*4F
$GNGGA,224803.00,4910.545319,N,12304.423585,W,1,12,0.5,6.1,M,-19.2,M,,*43
$GNGGA,224804.00,4910.545320,N,12304.423584,W,1,12,0.5,6.1,M,-19.2,M,,*4F
$GNGGA,224805.00,4910.545322,N,12304.423583,W,1,12,0.5,6.1,M,-19.2,M,,*4B
$GNGGA,224806.00,4910.545322,N,12304.423580,W,1,12,0.5,6.1,M,-19.2,M,,*4B
$GNGGA,224807.00,4910.545328,N,12304.423570,W,1,12,0.5,6.0,M,-19.2,M,,*4E
$GNGGA,224808.00,4910.545332,N,12304.423560,W,1,12,0.5,6.0,M,-19.2,M,,*4B
$GNGGA,224809.00,4910.545339,N,12304.423555,W,1,12,0.5,6.0,M,-19.2,M,,*47
$GNGGA,224810.00,4910.545349,N,12304.423544,W,1,12,0.5,6.0,M,-19.2,M,,*48
$GNGGA,224811.00,4910.545355,N,12304.423541,W,1,12,0.5,6.0,M,-19.2,M,,*41
$GNGGA,224812.00,4910.545362,N,12304.423538,W,1,12,0.5,5.9,M,-19.2,M,,*42
$GNGGA,224813.00,4910.545364,N,12304.423540,W,1,12,0.5,5.9,M,-19.2,M,,*4A
$GNGGA,224814.00,4910.545365,N,12304.423541,W,1,12,0.5,5.9,M,-19.2,M,,*4D
$GNGGA,224815.00,4910.545367,N,12304.423537,W,1,12,0.5,5.9,M,-19.2,M,,*4F
$GNGGA,224816.00,4910.545366,N,12304.423538,W,1,12,0.5,5.9,M,-19.2,M,,*42
$GNGGA,224817.00,4910.545365,N,12304.423536,W,1,12,0.5,5.9,M,-19.2,M,,*4E
$GNGGA,224818.00,4910.545365,N,12304.423533,W,1,12,0.5,5.9,M,-19.2,M,,*44
$GNGGA,224819.00,4910.545361,N,12304.423536,W,1,12,0.5,5.9,M,-19.2,M,,*44
$GNGGA,224820.00,4910.545364,N,12304.423535,W,1,12,0.5,5.9,M,-19.2,M,,*48
$GNGGA,224821.00,4910.545362,N,12304.423536,W,1,12,0.5,5.9,M,-19.2,M,,*4C
$GNGGA,224822.00,4910.545360,N,12304.423541,W,1,12,0.5,5.9,M,-19.2,M,,*4D
$GNGGA,224823.00,4910.545356,N,12304.423549,W,1,12,0.5,5.9,M,-19.2,M,,*41
$GNGGA,224824.00,4910.545354,N,12304.423554,W,1,12,0.5,5.9,M,-19.2,M,,*48
$GNGGA,224825.00,4910.545351,N,12304.423559,W,1,12,0.5,5.9,M,-19.2,M,,*41
$GNGGA,224826.00,4910.545347,N,12304.423566,W,1,12,0.5,5.9,M,-19.2,M,,*49
$GNGGA,224827.00,4910.545346,N,12304.423572,W,1,12,0.5,5.9,M,-19.2,M,,*4C
$GNGGA,224828.00,4910.545340,N,12304.423580,W,1,12,0.5,5.9,M,-19.2,M,,*48
$GNGGA,224829.00,4910.545335,N,12304.423589,W,1,12,0.5,5.9,M,-19.2,M,,*42
$GNGGA,224830.00,4910.545331,N,12304.423596,W,1,12,0.5,6.0,M,-19.2,M,,*4A
$GNGGA,224831.00,4910.545326,N,12304.423604,W,1,12,0.5,6.0,M,-19.2,M,,*45
$GNGGA,224832.00,4910.545318,N,12304.423615,W,1,12,0.5,6.0,M,-19.2,M,,*4B
$GNGGA,224833.00,4910.545311,N,12304.423626,W,1,12,0.5,6.0,M,-19.2,M,,*43
$GNGGA,224834.00,4910.545304,N,12304.423639,W,1,12,0.5,6.0,M,-19.2,M,,*4E
$GNGGA,224835.00,4910.545300,N,12304.423648,W,1,12,0.5,6.0,M,-19.2,M,,*4D
$GNGGA,224836.00,4910.545295,N,12304.423657,W,1,12,0.5,6.0,M,-19.2,M,,*4D
$GNGGA,224837.00,4910.545291,N,12304.423661,W,1,12,0.5,6.0,M,-19.2,M,,*4D
$GNGGA,224838.00,4910.545285,N,12304.423666,W,1,12,0.5,6.0,M,-19.2,M,,*40
$GNGGA,224839.00,4910.545280,N,12304.423672,W,1,12,0.5,6.1,M,-19.2,M,,*40
$GNGGA,224840.00,4910.545273,N,12304.423676,W,1,12,0.5,6.1,M,-19.2,M,,*46
$GNGGA,224841.00,4910.545269,N,12304.423675,W,1,12,0.5,6.1,M,-19.2,M,,*4F
$GNGGA,224842.00,4910.545265,N,12304.423677,W,1,12,0.5,6.1,M,-19.2,M,,*42
$GNGGA,224843.00,4910.545260,N,12304.423678,W,1,12,0.5,6.1,M,-19.2,M,,*49
$GNGGA,224844.00,4910.545257,N,12304.423681,W,1,12,0.5,6.0,M,-19.2,M,,*4D
$GNGGA,224845.00,4910.545255,N,12304.423681,W,1,12,0.5,6.0,M,-19.2,M,,*4E
$GNGGA,224846.00,4910.545251,N,12304.423684,W,1,12,0.5,6.0,M,-19.2,M,,*4C
$GNGGA,224847.00,4910.545247,N,12304.423693,W,1,12,0.5,6.0,M,-19.2,M,,*4C
$GNGGA,224848.00,4910.545244,N,12304.423700,W,1,12,0.5,6.0,M,-19.2,M,,*4B
$GNGGA,224849.00,4910.545241,N,12304.423705,W,1,12,0.5,6.0,M,-19.2,M,,*4A
$GNGGA,224850.00,4910.545239,N,12304.423711,W,1,12,0.5,5.9,M,-19.2,M,,*42
$GNGGA,224851.00,4910.545235,N,12304.423722,W,1,12,0.5,5.9,M,-19.2,M,,*4F
$GNGGA,224852.00,4910.545235,N,12304.423722,W,1,12,0.5,5.9,M,-19.2,M,,*4C
$GNGGA,224853.00,4910.545233,N,12304.423725,W,1,12,0.5,5.9,M,-19.2,M,,*4C
$GNGGA,224854.00,4910.545230,N,12304.423725,W,1,12,0.5,5.8,M,-19.2,M,,*49
$GNGGA,224855.00,4910.545230,N,12304.423723,W,1,12,0.5,5.8,M,-19.2,M,,*4E
$GNGGA,224856.00,4910.545227,N,12304.423724,W,1,12,0.5,5.8,M,-19.2,M,,*4C
$GNGGA,224857.00,4910.545229,N,12304.423719,W,1,12,0.5,5.8,M,-19.2,M,,*4D
$GNGGA,224858.00,4910.545224,N,12304.423720,W,1,12,0.5,5.8,M,-19.2,M,,*45
$GNGGA,224859.00,4910.545224,N,12304.423714,W,1,12,0.5,5.8,M,-19.2,M,,*43
$GNGGA,224900.00,4910.545224,N,12304.423709,W,1,12,0.5,5.8,M,-19.2,M,,*42
$GNGGA,224901.00,4910.545222,N,12304.423702,W,1,12,0.5,5.7,M,-19.2,M,,*41
$GNGGA,224902.00,4910.545223,N,12304.423693,W,1,12,0.5,5.7,M,-19.2,M,,*4A
$GNGGA,224903.00,4910.545227,N,12304.423680,W,1,12,0.5,5.7,M,-19.2,M,,*4D
$GNGGA,224904.00,4910.545227,N,12304.423675,W,1,12,0.5,5.7,M,-19.2,M,,*40
$GNGGA,224905.00,4910.545232,N,12304.423663,W,1,12,0.5,5.7,M,-19.2,M,,*42
$GNGGA,224906.00,4910.545239,N,12304.423650,W,1,12,0.5,5.7,M,-19.2,M,,*4A
$GNGGA,224907.00,4910.545241,N,12304.423650,W,1,12,0.5,5.7,M,-19.2,M,,*44
$GNGGA,224908.00,4910.545242,N,12304.423649,W,1,12,0.5,5.7,M,-19.2,M,,*40
$GNGGA,224909.00,4910.545249,N,12304.423638,W,1,12,0.5,5.6,M,-19.2,M,,*4D
$GNGGA,224910.00,4910.545256,N,12304.423628,W,1,12,0.5,5.6,M,-19.2,M,,*4A
$GNGGA,224911.00,4910.545258,N,12304.423626,W,1,12,0.5,5.6,M,-19.2,M,,*4B
$GNGGA,224912.00,4910.545262,N,12304.423621,W,1,12,0.5,5.6,M,-19.2,M,,*46
$GNGGA,224913.00,4910.545263,N,12304.423619,W,1,12,0.5,5.6,M,-19.2,M,,*4D
$GNGGA,224914.00,4910.545271,N,12304.423607,W,1,12,0.5,5.6,M,-19.2,M,,*46
$GNGGA,224915.00,4910.545274,N,12304.423603,W,1,12,0.5,5.6,M,-19.2,M,,*46
$GNGGA,224916.00,4910.545283,N,12304.423594,W,1,12,0.5,5.5,M,-19.2,M,,*43
$GNGGA,224917.00,4910.545286,N,12304.423590,W,1,12,0.5,5.5,M,-19.2,M,,*43
$GNGGA,224918.00,4910.545296,N,12304.423580,W,1,12,0.5,5.5,M,-19.2,M,,*4C
$GNGGA,224919.00,4910.545305,N,12304.423570,W,1,12,0.5,5.5,M,-19.2,M,,*49
$GNGGA,224920.00,4910.545313,N,12304.423562,W,1,12,0.5,5.5,M,-19.2,M,,*47
$GNGGA,224921.00,4910.545320,N,12304.423556,W,1,12,0.5,5.5,M,-19.2,M,,*41
$GNGGA,224922.00,4910.545322,N,12304.423552,W,1,12,0.5,5.5,M,-19.2,M,,*44
$GNGGA,224923.00,4910.545327,N,12304.423550,W,1,12,0.5,5.5,M,-19.2,M,,*42
$GNGGA,224924.00,4910.545329,N,12304.423549,W,1,12,0.5,5.5,M,-19.2,M,,*43
$GNGGA,224925.00,4910.545333,N,12304.423547,W,1,12,0.5,5.5,M,-19.2,M,,*47
$GNGGA,224926.00,4910.545338,N,12304.423547,W,1,12,0.5,5.5,M,-19.2,M,,*4F
$GNGGA,224927.00,4910.545341,N,12304.423546,W,1,12,0.5,5.5,M,-19.2,M,,*41
$GNGGA,224928.00,4910.545344,N,12304.423546,W,1,12,0.5,5.5,M,-19.2,M,,*4B
$GNGGA,224929.00,4910.545349,N,12304.423542,W,1,12,0.5,5.5,M,-19.2,M,,*43
$GNGGA,224930.00,4910.545355,N,12304.423535,W,1,12,0.5,5.5,M,-19.2,M,,*46
$GNGGA,224931.00,4910.545359,N,12304.423528,W,1,12,0.5,5.5,M,-19.2,M,,*47
$GNGGA,224932.00,4910.545361,N,12304.423522,W,1,12,0.5,5.5,M,-19.2,M,,*45
$GNGGA,224933.00,4910.545362,N,12304.423516,W,1,12,0.5,5.5,M,-19.2,M,,*40
$GNGGA,224934.00,4910.545362,N,12304.423517,W,1,12,0.5,5.5,M,-19.2,M,,*46
$GNGGA,224935.00,4910.545364,N,12304.423510,W,1,12,0.5,5.5,M,-19.2,M,,*46
$GNGGA,224936.00,4910.545367,N,12304.423508,W,1,12,0.5,5.5,M,-19.2,M,,*4F
$GNGGA,224937.00,4910.545369,N,12304.423504,W,1,12,0.4,5.5,M,-19.2,M,,*4D
$GNGGA,224938.00,4910.545367,N,12304.423503,W,1,12,0.4,5.5,M,-19.2,M,,*4B
$GNGGA,224939.00,4910.545368,N,12304.423501,W,1,12,0.4,5.5,M,-19.2,M,,*47
$GNGGA,224940.00,4910.545365,N,12304.423501,W,1,12,0.4,5.5,M,-19.2,M,,*44
$GNGGA,224941.00,4910.545361,N,12304.423507,W,1,12,0.4,5.6,M,-19.2,M,,*44
$GNGGA,224942.00,4910.545355,N,12304.423510,W,1,12,0.4,5.6,M,-19.2,M,,*46
$GNGGA,224943.00,4910.545349,N,12304.423514,W,1,12,0.4,5.6,M,-19.2,M,,*4E
$GNGGA,224944.00,4910.545340,N,12304.423514,W,1,12,0.4,5.6,M,-19.2,M,,*40
$GNGGA,224945.00,4910.545332,N,12304.423516,W,1,12,0.5,5.6,M,-19.2,M,,*47
$GNGGA,224946.00,4910.545327,N,12304.423517,W,1,12,0.5,5.6,M,-19.2,M,,*41
$GNGGA,224947.00,4910.545323,N,12304.423516,W,1,12,0.4,5.6,M,-19.2,M,,*44
$GNGGA,224948.00,4910.545319,N,12304.423511,W,1,12,0.4,5.6,M,-19.2,M,,*45
$GNGGA,224949.00,4910.545315,N,12304.423509,W,1,12,0.4,5.6,M,-19.2,M,,*41
$GNGGA,224950.00,4910.545313,N,12304.423504,W,1,12,0.4,5.6,M,-19.2,M,,*42
$GNGGA,224951.00,4910.545307,N,12304.423501,W,1,12,0.4,5.5,M,-19.2,M,,*40
$GNGGA,224952.00,4910.545302,N,12304.423492,W,1,12,0.4,5.5,M,-19.2,M,,*4D
$GNGGA,224953.00,4910.545296,N,12304.423484,W,1,12,0.4,5.5,M,-19.2,M,,*47
$GNGGA,224954.00,4910.545291,N,12304.423476,W,1,12,0.4,5.5,M,-19.2,M,,*4A
$GNGGA,224955.00,4910.545290,N,12304.423463,W,1,12,0.4,5.5,M,-19.2,M,,*4E
$GNGGA,224956.00,4910.545286,N,12304.423454,W,1,12,0.5,5.4,M,-19.2,M,,*4E
$GNGGA,224957.00,4910.545285,N,12304.423443,W,1,12,0.5,5.4,M,-19.2,M,,*4A
$GNGGA,224958.00,4910.545283,N,12304.423438,W,1,12,0.5,5.4,M,-19.2,M,,*4F
$GNGGA,224959.00,4910.545280,N,12304.423428,W,1,12,0.5,5.4,M,-19.2,M,,*4C
$GNGGA,225000.00,4910.545277,N,12304.423424,W,1,12,0.5,5.4,M,-19.2,M,,*4C
$GNGGA,225001.00,4910.545274,N,12304.423417,W,1,12,0.5,5.4,M,-19.2,M,,*4E
$GNGGA,225002.00,4910.545269,N,12304.423415,W,1,12,0.5,5.4,M,-19.2,M,,*43
$GNGGA,225003.00,4910.545262,N,12304.423415,W,1,12,0.4,5.4,M,-19.2,M,,*48
$GNGGA,225004.00,4910.545259,N,12304.423414,W,1,12,0.5,5.4,M,-19.2,M,,*47
$GNGGA,225005.00,4910.545254,N,12304.423411,W,1,12,0.5,5.4,M,-19.2,M,,*4E
$GNGGA,225006.00,4910.545247,N,12304.423408,W,1,12,0.5,5.4,M,-19.2,M,,*47
$GNGGA,225007.00,4910.545240,N,12304.423406,W,1,12,0.4,5.4,M,-19.2,M,,*4E
$GNGGA,225008.00,4910.545232,N,12304.423408,W,1,12,0.4,5.4,M,-19.2,M,,*4A
$GNGGA,225009.00,4910.545226,N,12304.423407,W,1,12,0.4,5.5,M,-19.2,M,,*40
$GNGGA,225010.00,4910.545219,N,12304.423406,W,1,12,0.4,5.5,M,-19.2,M,,*45
$GNGGA,225011.00,4910.545215,N,12304.423406,W,1,12,0.4,5.5,M,-19.2,M,,*48
$GNGGA,225012.00,4910.545211,N,12304.423402,W,1,12,0.4,5.5,M,-19.2,M,,*4B
$GNGGA,225013.00,4910.545208,N,12304.423403,W,1,12,0.4,5.5,M,-19.2,M,,*43
$GNGGA,225014.00,4910.545205,N,12304.423407,W,1,12,0.4,5.5,M,-19.2,M,,*4D
$GNGGA,225015.00,4910.545205,N,12304.423411,W,1,12,0.4,5.5,M,-19.2,M,,*4B
$GNGGA,225016.00,4910.545203,N,12304.423415,W,1,12,0.4,5.5,M,-19.2,M,,*4A
$GNGGA,225017.00,4910.545199,N,12304.423419,W,1,12,0.4,5.5,M,-19.2,M,,*47
$GNGGA,225018.00,4910.545199,N,12304.423429,W,1,12,0.4,5.5,M,-19.2,M,,*4B
$GNGGA,225019.00,4910.545197,N,12304.423436,W,1,12,0.4,5.5,M,-19.2,M,,*4A
$GNGGA,225020.00,4910.545197,N,12304.423442,W,1,12,0.4,5.6,M,-19.2,M,,*40
$GNGGA,225021.00,4910.545196,N,12304.423445,W,1,12,0.4,5.6,M,-19.2,M,,*47
$GNGGA,225022.00,4910.545194,N,12304.423455,W,1,12,0.4,5.6,M,-19.2,M,,*47
$GNGGA,225023.00,4910.545194,N,12304.423461,W,1,12,0.4,5.6,M,-19.2,M,,*41
$GNGGA,225024.00,4910.545194,N,12304.423468,W,1,12,0.4,5.6,M,-19.2,M,,*4F
$GNGGA,225025.00,4910.545196,N,12304.423475,W,1,12,0.4,5.6,M,-19.2,M,,*40
$GNGGA,225026.00,4910.545195,N,12304.423483,W,1,12,0.4,5.7,M,-19.2,M,,*48
$GNGGA,225027.00,4910.545194,N,12304.423493,W,1,12,0.4,5.7,M,-19.2,M,,*49
$GNGGA,225028.00,4910.545194,N,12304.423501,W,1,12,0.5,5.7,M,-19.2,M,,*4D
$GNGGA,225029.00,4910.545197,N,12304.423505,W,1,12,0.5,5.7,M,-19.2,M,,*4B
$GNGGA,225030.00,4910.545198,N,12304.423509,W,1,12,0.5,5.8,M,-19.2,M,,*4F
$GNGGA,225031.00,4910.545199,N,12304.423515,W,1,12,0.5,5.8,M,-19.2,M,,*42
$GNGGA,225032.00,4910.545206,N,12304.423521,W,1,12,0.4,5.8,M,-19.2,M,,*42
$GNGGA,225033.00,4910.545210,N,12304.423526,W,1,12,0.4,5.8,M,-19.2,M,,*43
$GNGGA,225034.00,4910.545215,N,12304.423533,W,1,12,0.4,5.8,M,-19.2,M,,*45
$GNGGA,225035.00,4910.545222,N,12304.423536,W,1,12,0.4,5.8,M,-19.2,M,,*45
$GNGGA,225036.00,4910.545226,N,12304.423541,W,1,12,0.4,5.8,M,-19.2,M,,*42
$GNGGA,225037.00,4910.545229,N,12304.423544,W,1,12,0.4,5.8,M,-19.2,M,,*49
$GNGGA,225038.00,4910.545237,N,12304.423545,W,1,12,0.5,5.8,M,-19.2,M,,*49
$GNGGA,225039.00,4910.545243,N,12304.423550,W,1,12,0.4,5.8,M,-19.2,M,,*4E
$GNGGA,225040.00,4910.545244,N,12304.423557,W,1,12,0.4,5.8,M,-19.2,M,,*40
$GNGGA,225041.00,4910.545249,N,12304.423560,W,1,12,0.4,5.8,M,-19.2,M,,*48
$GNGGA,225042.00,4910.545253,N,12304.423567,W,1,12,0.4,5.8,M,-19.2,M,,*47
$GNGGA,225043.00,4910.545257,N,12304.423570,W,1,12,0.4,5.8,M,-19.2,M,,*44
$GNGGA,225044.00,4910.545263,N,12304.423575,W,1,12,0.4,5.8,M,-19.2,M,,*41
$GNGGA,225045.00,4910.545268,N,12304.423580,W,1,12,0.4,5.8,M,-19.2,M,,*41
$GNGGA,225046.00,4910.545273,N,12304.423585,W,1,12,0.4,5.8,M,-19.2,M,,*4D
$GNGGA,225047.00,4910.545278,N,12304.423589,W,1,12,0.4,5.8,M,-19.2,M,,*4B
$GNGGA,225048.00,4910.545281,N,12304.423595,W,1,12,0.4,5.7,M,-19.2,M,,*40
$GNGGA,225049.00,4910.545286,N,12304.423597,W,1,12,0.4,5.7,M,-19.2,M,,*44
$GNGGA,225050.00,4910.545287,N,12304.423598,W,1,12,0.4,5.7,M,-19.2,M,,*42
$GNGGA,225051.00,4910.545289,N,12304.423599,W,1,12,0.4,5.7,M,-19.2,M,,*4C
$GNGGA,225052.00,4910.545290,N,12304.423606,W,1,12,0.4,5.7,M,-19.2,M,,*42
$GNGGA,225053.00,4910.545295,N,12304.423607,W,1,12,0.4,5.7,M,-19.2,M,,*47
$GNGGA,225054.00,4910.545298,N,12304.423609,W,1,12,0.4,5.7,M,-19.2,M,,*43
$GNGGA,225055.00,4910.545298,N,12304.423613,W,1,12,0.4,5.7,M,-19.2,M,,*49
$GNGGA,225056.00,4910.545297,N,12304.423615,W,1,12,0.4,5.7,M,-19.2,M,,*43
$GNGGA,225057.00,4910.545293,N,12304.423618,W,1,12,0.4,5.7,M,-19.2,M,,*4B
$GNGGA,225058.00,4910.545293,N,12304.423618,W,1,12,0.4,5.6,M,-19.2,M,,*45
$GNGGA,225059.00,4910.545292,N,12304.423620,W,1,12,0.4,5.6,M,-19.2,M,,*4E
$GNGGA,225100.00,4910.545292,N,12304.423619,W,1,12,0.4,5.6,M,-19.2,M,,*49
$GNGGA,225101.00,4910.545294,N,12304.423616,W,1,12,0.4,5.6,M,-19.2,M,,*41
$GNGGA,225102.00,4910.545296,N,12304.423611,W,1,12,0.4,5.5,M,-19.2,M,,*44
$GNGGA,225103.00,4910.545298,N,12304.423608,W,1,12,0.4,5.5,M,-19.2,M,,*43
$GNGGA,225104.00,4910.545299,N,12304.423609,W,1,12,0.4,5.5,M,-19.2,M,,*44
$GNGGA,225105.00,4910.545301,N,12304.423602,W,1,12,0.4,5.5,M,-19.2,M,,*4E
$GNGGA,225106.00,4910.545306,N,12304.423595,W,1,12,0.5,5.5,M,-19.2,M,,*46
$GNGGA,225107.00,4910.545311,N,12304.423587,W,1,12,0.5,5.4,M,-19.2,M,,*43
$GNGGA,225108.00,4910.545315,N,12304.423578,W,1,12,0.4,5.4,M,-19.2,M,,*49
$GNGGA,225109.00,4910.545319,N,12304.423569,W,1,12,0.4,5.4,M,-19.2,M,,*44
$GNGGA,225110.00,4910.545323,N,12304.423561,W,1,12,0.4,5.4,M,-19.2,M,,*4D
$GNGGA,225111.00,4910.545327,N,12304.423550,W,1,12,0.4,5.3,M,-19.2,M,,*4D
$GNGGA,225112.00,4910.545330,N,12304.423543,W,1,12,0.4,5.3,M,-19.2,M,,*4A
$GNGGA,225113.00,4910.545332,N,12304.423537,W,1,12,0.4,5.3,M,-19.2,M,,*4A
$GNGGA,225114.00,4910.545331,N,12304.423536,W,1,12,0.5,5.3,M,-19.2,M,,*4E
$GNGGA,225115.00,4910.545329,N,12304.423536,W,1,12,0.5,5.3,M,-19.2,M,,*46
$GNGGA,225116.00,4910.545330,N,12304.423535,W,1,12,0.5,5.3,M,-19.2,M,,*4E
$GNGGA,225117.00,4910.545331,N,12304.423534,W,1,12,0.5,5.3,M,-19.2,M,,*4F
$GNGGA,225118.00,4910.545330,N,12304.423537,W,1,12,0.4,5.3,M,-19.2,M,,*43
$GNGGA,225119.00,4910.545329,N,12304.423542,W,1,12,0.4,5.3,M,-19.2,M,,*48
$GNGGA,225120.00,4910.545328,N,12304.423544,W,1,12,0.4,5.3,M,-19.2,M,,*45
$GNGGA,225121.00,4910.545327,N,12304.423549,W,1,12,0.4,5.3,M,-19.2,M,,*46
$GNGGA,225122.00,4910.545326,N,12304.423556,W,1,12,0.4,5.3,M,-19.2,M,,*4A
$GNGGA,225123.00,4910.545326,N,12304.423562,W,1,12,0.4,5.3,M,-19.2,M,,*4C
$GNGGA,225124.00,4910.545325,N,12304.423561,W,1,12,0.4,5.3,M,-19.2,M,,*4B
$GNGGA,225125.00,4910.545323,N,12304.423564,W,1,12,0.4,5.3,M,-19.2,M,,*49
$GNGGA,225126.00,4910.545323,N,12304.423565,W,1,12,0.4,5.3,M,-19.2,M,,*4B
$GNGGA,225127.00,4910.545322,N,12304.423567,W,1,12,0.4,5.3,M,-19.2,M,,*49
$GNGGA,225128.00,4910.545323,N,12304.423567,W,1,12,0.4,5.3,M,-19.2,M,,*47
$GNGGA,225129.00,4910.545325,N,12304.423568,W,1,12,0.4,5.3,M,-19.2,M,,*4F
$GNGGA,225130.00,4910.545327,N,12304.423567,W,1,12,0.4,5.3,M,-19.2,M,,*4A
$GNGGA,225131.00,4910.545328,N,12304.423568,W,1,12,0.4,5.3,M,-19.2,M,,*4B
$GNGGA,225132.00,4910.545329,N,12304.423573,W,1,12,0.4,5.3,M,-19.2,M,,*43
$GNGGA,225133.00,4910.545329,N,12304.423578,W,1,12,0.4,5.3,M,-19.2,M,,*49
$GNGGA,225134.00,4910.545329,N,12304.423583,W,1,12,0.4,5.3,M,-19.2,M,,*4A
$GNGGA,225135.00,4910.545331,N,12304.423589,W,1,12,0.4,5.3,M,-19.2,M,,*48
$GNGGA,225136.00,4910.545332,N,12304.423597,W,1,12,0.4,5.4,M,-19.2,M,,*40
$GNGGA,225137.00,4910.545333,N,12304.423605,W,1,12,0.5,5.4,M,-19.2,M,,*49
$GNGGA,225138.00,4910.545333,N,12304.423613,W,1,12,0.5,5.4,M,-19.2,M,,*41
$GNGGA,225139.00,4910.545334,N,12304.423617,W,1,12,0.5,5.4,M,-19.2,M,,*43
$GNGGA,225140.00,4910.545337,N,12304.423620,W,1,12,0.5,5.4,M,-19.2,M,,*4A
$GNGGA,225141.00,4910.545339,N,12304.423625,W,1,12,0.5,5.4,M,-19.2,M,,*40
$GNGGA,225142.00,4910.545340,N,12304.423628,W,1,12,0.5,5.4,M,-19.2,M,,*40
$GNGGA,225143.00,4910.545341,N,12304.423634,W,1,12,0.5,5.5,M,-19.2,M,,*4C
$GNGGA,225144.00,4910.545347,N,12304.423636,W,1,12,0.5,5.5,M,-19.2,M,,*4F
$GNGGA,225145.00,4910.545352,N,12304.423640,W,1,12,0.5,5.5,M,-19.2,M,,*4B
$GNGGA,225146.00,4910.545358,N,12304.423645,W,1,12,0.5,5.5,M,-19.2,M,,*47
$GNGGA,225147.00,4910.545365,N,12304.423646,W,1,12,0.5,5.5,M,-19.2,M,,*4B
$GNGGA,225148.00,4910.545371,N,12304.423648,W,1,12,0.5,5.5,M,-19.2,M,,*4F
$GNGGA,225149.00,4910.545377,N,12304.423651,W,1,12,0.5,5.5,M,-19.2,M,,*40
$GNGGA,225150.00,4910.545383,N,12304.423653,W,1,12,0.5,5.6,M,-19.2,M,,*42
$GNGGA,225151.00,4910.545389,N,12304.423654,W,1,12,0.5,5.6,M,-19.2,M,,*4E
$GNGGA,225152.00,4910.545395,N,12304.423656,W,1,12,0.5,5.6,M,-19.2,M,,*42
$GNGGA,225153.00,4910.545397,N,12304.423661,W,1,12,0.5,5.6,M,-19.2,M,,*45
$GNGGA,225154.00,4910.545401,N,12304.423662,W,1,12,0.5,5.7,M,-19.2,M,,*48
$GNGGA,225155.00,4910.545404,N,12304.423666,W,1,12,0.5,5.7,M,-19.2,M,,*48
$GNGGA,225156.00,4910.545409,N,12304.423668,W,1,12,0.5,5.7,M,-19.2,M,,*48
$GNGGA,225157.00,4910.545411,N,12304.423676,W,1,12,0.5,5.7,M,-19.2,M,,*4F
$GNGGA,225158.00,4910.545415,N,12304.423675,W,1,12,0.5,5.7,M,-19.2,M,,*47
$GNGGA,225159.00,4910.545415,N,12304.423679,W,1,12,0.5,5.7,M,-19.2,M,,*4A
$GNGGA,225200.00,4910.545418,N,12304.423684,W,1,12,0.5,5.8,M,-19.2,M,,*45
$GNGGA,225201.00,4910.545421,N,12304.423685,W,1,12,0.5,5.8,M,-19.2,M,,*4F
$GNGGA,225202.00,4910.545423,N,12304.423686,W,1,12,0.5,5.8,M,-19.2,M,,*4D
$GNGGA,225203.00,4910.545426,N,12304.423684,W,1,12,0.5,5.8,M,-19.2,M,,*4B
$GNGGA,225204.00,4910.545430,N,12304.423682,W,1,12,0.5,5.8,M,-19.2,M,,*4D
$GNGGA,225205.00,4910.545434,N,12304.423681,W,1,12,0.5,5.8,M,-19.2,M,,*4B
$GNGGA,225206.00,4910.545436,N,12304.423677,W,1,12,0.5,5.8,M,-19.2,M,,*43
$GNGGA,225207.00,4910.545438,N,12304.423675,W,1,12,0.5,5.8,M,-19.2,M,,*4E
$GNGGA,225208.00,4910.545437,N,12304.423673,W,1,12,0.5,5.9,M,-19.2,M,,*49
$GNGGA,225209.00,4910.545440,N,12304.423669,W,1,12,0.5,5.9,M,-19.2,M,,*43
$GNGGA,225210.00,4910.545444,N,12304.423663,W,1,12,0.5,5.9,M,-19.2,M,,*45
$GNGGA,225211.00,4910.545446,N,12304.423661,W,1,12,0.5,5.9,M,-19.2,M,,*44
$GNGGA,225212.00,4910.545449,N,12304.423664,W,1,12,0.5,5.9,M,-19.2,M,,*4D
$GNGGA,225213.00,4910.545452,N,12304.423666,W,1,12,0.5,5.9,M,-19.2,M,,*44
$GNGGA,225214.00,4910.545452,N,12304.423669,W,1,12,0.5,5.9,M,-19.2,M,,*4C
$GNGGA,225215.00,4910.545454,N,12304.423671,W,1,12,0.5,5.9,M,-19.2,M,,*42
$GNGGA,225216.00,4910.545454,N,12304.423675,W,1,12,0.5,5.9,M,-19.2,M,,*45
$GNGGA,225217.00,4910.545451,N,12304.423679,W,1,12,0.5,5.9,M,-19.2,M,,*4D
$GNGGA,225218.00,4910.545452,N,12304.423679,W,1,12,0.5,5.9,M,-19.2,M,,*41
$GNGGA,225219.00,4910.545451,N,12304.423681,W,1,12,0.5,5.9,M,-19.2,M,,*44
$GNGGA,225220.00,4910.545451,N,12304.423682,W,1,12,0.5,5.9,M,-19.2,M,,*4D
$GNGGA,225221.00,4910.545452,N,12304.423683,W,1,12,0.5,5.9,M,-19.2,M,,*4E
$GNGGA,225222.00,4910.545454,N,12304.423677,W,1,12,0.5,5.9,M,-19.2,M,,*40
$GNGGA,225223.00,4910.545455,N,12304.423674,W,1,12,0.5,5.9,M,-19.2,M,,*43
$GNGGA,225224.00,4910.545460,N,12304.423670,W,1,12,0.5,5.9,M,-19.2,M,,*46
$GNGGA,225225.00,4910.545463,N,12304.423667,W,1,12,0.5,5.9,M,-19.2,M,,*42
$GNGGA,225226.00,4910.545466,N,12304.423662,W,1,12,0.5,5.9,M,-19.2,M,,*41
$GNGGA,225227.00,4910.545466,N,12304.423660,W,1,12,0.5,5.9,M,-19.2,M,,*42
$GNGGA,225228.00,4910.545467,N,12304.423657,W,1,12,0.5,5.9,M,-19.2,M,,*48
$GNGGA,225229.00,4910.545469,N,12304.423655,W,1,12,0.5,5.9,M,-19.2,M,,*45
$GNGGA,225230.00,4910.545470,N,12304.423651,W,1,12,0.5,5.9,M,-19.2,M,,*41
$GNGGA,225231.00,4910.545468,N,12304.423649,W,1,12,0.5,5.9,M,-19.2,M,,*40
$GNGGA,225232.00,4910.545466,N,12304.423651,W,1,12,0.5,5.9,M,-19.2,M,,*44
$GNGGA,225233.00,4910.545466,N,12304.423648,W,1,12,0.5,5.9,M,-19.2,M,,*4D
$GNGGA,225234.00,4910.545466,N,12304.423645,W,1,12,0.5,5.9,M,-19.2,M,,*47
$GNGGA,225235.00,4910.545466,N,12304.423642,W,1,12,0.5,5.9,M,-19.2,M,,*41
$GNGGA,225236.00,4910.545466,N,12304.423641,W,1,12,0.5,5.9,M,-19.2,M,,*41
$GNGGA,225237.00,4910.545469,N,12304.423636,W,1,12,0.5,5.9,M,-19.2,M,,*4F
$GNGGA,225238.00,4910.545467,N,12304.423631,W,1,12,0.5,6.0,M,-19.2,M,,*43
$GNGGA,225239.00,4910.545467,N,12304.423628,W,1,12,0.5,6.0,M,-19.2,M,,*4A
$GNGGA,225240.00,4910.545469,N,12304.423625,W,1,12,0.5,6.0,M,-19.2,M,,*47
$GNGGA,225241.00,4910.545471,N,12304.423621,W,1,12,0.5,6.0,M,-19.2,M,,*4B
$GNGGA,225242.00,4910.545472,N,12304.423617,W,1,12,0.5,6.0,M,-19.2,M,,*4E
$GNGGA,225243.00,4910.545472,N,12304.423615,W,1,12,0.5,6.0,M,-19.2,M,,*4D
$GNGGA,225244.00,4910.545475,N,12304.423612,W,1,12,0.5,6.1,M,-19.2,M,,*4B
$GNGGA,225245.00,4910.545478,N,12304.423606,W,1,12,0.5,6.1,M,-19.2,M,,*42
$GNGGA,225246.00,4910.545479,N,12304.423604,W,1,12,0.5,6.1,M,-19.2,M,,*42
$GNGGA,225247.00,4910.545481,N,12304.423601,W,1,12,0.5,6.1,M,-19.2,M,,*41
$GNGGA,225248.00,4910.545483,N,12304.423598,W,1,12,0.5,6.1,M,-19.2,M,,*4F
$GNGGA,225249.00,4910.545487,N,12304.423591,W,1,12,0.5,6.1,M,-19.2,M,,*43
$GNGGA,225250.00,4910.545490,N,12304.423590,W,1,12,0.5,6.1,M,-19.2,M,,*4C
$GNGGA,225251.00,4910.545490,N,12304.423588,W,1,12,0.5,6.2,M,-19.2,M,,*47
$GNGGA,225252.00,4910.545493,N,12304.423582,W,1,12,0.5,6.2,M,-19.2,M,,*4D
$GNGGA,225253.00,4910.545493,N,12304.423581,W,1,12,0.5,6.2,M,-19.2,M,,*4F
$GNGGA,225254.00,4910.545494,N,12304.423578,W,1,12,0.5,6.2,M,-19.2,M,,*49
$GNGGA,225255.00,4910.545494,N,12304.423576,W,1,12,0.5,6.2,M,-19.2,M,,*46
$GNGGA,225256.00,4910.545494,N,12304.423571,W,1,12,0.5,6.2,M,-19.2,M,,*42
$GNGGA,225257.00,4910.545493,N,12304.423568,W,1,12,0.5,6.2,M,-19.2,M,,*4C
$GNGGA,225258.00,4910.545493,N,12304.423563,W,1,12,0.5,6.2,M,-19.2,M,,*48
$GNGGA,225259.00,4910.545493,N,12304.423561,W,1,12,0.5,6.2,M,-19.2,M,,*4B
$GNGGA,225300.00,4910.545494,N,12304.423557,W,1,12,0.5,6.2,M,-19.2,M,,*44
$GNGGA,225301.00,4910.545496,N,12304.423555,W,1,12,0.5,6.2,M,-19.2,M,,*45
$GNGGA,225302.00,4910.545497,N,12304.423551,W,1,12,0.5,6.2,M,-19.2,M,,*43
$GNGGA,225303.00,4910.545502,N,12304.423547,W,1,12,0.5,6.2,M,-19.2,M,,*48
$GNGGA,225304.00,4910.545505,N,12304.423542,W,1,12,0.5,6.2,M,-19.2,M,,*4D
$GNGGA,225305.00,4910.545510,N,12304.423538,W,1,12,0.5,6.2,M,-19.2,M,,*45
$GNGGA,225306.00,4910.545515,N,12304.423536,W,1,12,0.5,6.2,M,-19.2,M,,*4D
$GNGGA,225307.00,4910.545518,N,12304.423535,W,1,12,0.5,6.2,M,-19.2,M,,*42
$GNGGA,225308.00,4910.545523,N,12304.423532,W,1,12,0.5,6.2,M,-19.2,M,,*42
$GNGGA,225309.00,4910.545528,N,12304.423531,W,1,12,0.5,6.2,M,-19.2,M,,*4B
$GNGGA,225310.00,4910.545533,N,12304.423532,W,1,12,0.5,6.2,M,-19.2,M,,*4A
$GNGGA,225311.00,4910.545537,N,12304.423527,W,1,12,0.5,6.2,M,-19.2,M,,*4B
$GNGGA,225312.00,4910.545541,N,12304.423525,W,1,12,0.5,6.2,M,-19.2,M,,*4B
$GNGGA,225313.00,4910.545545,N,12304.423521,W,1,12,0.5,6.2,M,-19.2,M,,*4A
$GNGGA,225314.00,4910.545548,N,12304.423517,W,1,12,0.5,6.2,M,-19.2,M,,*45
$GNGGA,225315.00,4910.545553,N,12304.423513,W,1,12,0.5,6.2,M,-19.2,M,,*4A
$GNGGA,225316.00,4910.545554,N,12304.423510,W,1,12,0.5,6.2,M,-19.2,M,,*4D
$GNGGA,225317.00,4910.545559,N,12304.423505,W,1,12,0.5,6.2,M,-19.2,M,,*45
$GNGGA,225318.00,4910.545562,N,12304.423500,W,1,12,0.5,6.1,M,-19.2,M,,*44
$GNGGA,225319.00,4910.545563,N,12304.423495,W,1,12,0.5,6.1,M,-19.2,M,,*49
$GNGGA,225320.00,4910.545566,N,12304.423489,W,1,12,0.5,6.1,M,-19.2,M,,*4B
$GNGGA,225321.00,4910.545565,N,12304.423488,W,1,12,0.5,6.1,M,-19.2,M,,*48
$GNGGA,225322.00,4910.545567,N,12304.423484,W,1,12,0.5,6.1,M,-19.2,M,,*45
$GNGGA,225323.00,4910.545570,N,12304.423478,W,1,12,0.5,6.1,M,-19.2,M,,*41
$GNGGA,225324.00,4910.545571,N,12304.423476,W,1,12,0.5,6.1,M,-19.2,M,,*49
$GNGGA,225325.00,4910.545572,N,12304.423470,W,1,12,0.5,6.1,M,-19.2,M,,*4D
$GNGGA,225326.00,4910.545571,N,12304.423465,W,1,12,0.5,6.1,M,-19.2,M,,*49
$GNGGA,225327.00,4910.545572,N,12304.423462,W,1,12,0.5,6.1,M,-19.2,M,,*4C
$GNGGA,225328.00,4910.545574,N,12304.423460,W,1,12,0.5,6.1,M,-19.2,M,,*47
$GNGGA,225329.00,4910.545575,N,12304.423460,W,1,12,0.5,6.1,M,-19.2,M,,*47
$GNGGA,225330.00,4910.545577,N,12304.423464,W,1,12,0.5,6.0,M,-19.2,M,,*48
$GNGGA,225331.00,4910.545578,N,12304.423463,W,1,12,0.5,6.1,M,-19.2,M,,*40
$GNGGA,225332.00,4910.545577,N,12304.423463,W,1,12,0.5,6.0,M,-19.2,M,,*4D
$GNGGA,225333.00,4910.545574,N,12304.423467,W,1,12,0.5,6.1,M,-19.2,M,,*4A
$GNGGA,225334.00,4910.545574,N,12304.423468,W,1,12,0.5,6.1,M,-19.2,M,,*42
$GNGGA,225335.00,4910.545571,N,12304.423470,W,1,12,0.5,6.1,M,-19.2,M,,*4F
$GNGGA,225336.00,4910.545568,N,12304.423471,W,1,12,0.5,6.1,M,-19.2,M,,*45
$GNGGA,225337.00,4910.545565,N,12304.423473,W,1,12,0.5,6.1,M,-19.2,M,,*4B
$GNGGA,225338.00,4910.545563,N,12304.423473,W,1,12,0.5,6.0,M,-19.2,M,,*43
$GNGGA,225339.00,4910.545562,N,12304.423473,W,1,12,0.5,6.0,M,-19.2,M,,*43
$GNGGA,225340.00,4910.545562,N,12304.423475,W,1,12,0.5,6.0,M,-19.2,M,,*4B
$GNGGA,225341.00,4910.545561,N,12304.423478,W,1,12,0.5,6.0,M,-19.2,M,,*44
$GNGGA,225342.00,4910.545563,N,12304.423480,W,1,12,0.5,6.0,M,-19.2,M,,*42
$GNGGA,225343.00,4910.545563,N,12304.423480,W,1,12,0.5,6.0,M,-19.2,M,,*43
$GNGGA,225344.00,4910.545565,N,12304.423484,W,1,12,0.5,6.0,M,-19.2,M,,*46
$GNGGA,225345.00,4910.545565,N,12304.423486,W,1,12,0.5,6.0,M,-19.2,M,,*45
$GNGGA,225346.00,4910.545566,N,12304.423490,W,1,12,0.5,6.0,M,-19.2,M,,*42
$GNGGA,225347.00,4910.545567,N,12304.423492,W,1,12,0.5,6.0,M,-19.2,M,,*40
$GNGGA,225348.00,4910.545572,N,12304.423493,W,1,12,0.5,6.0,M,-19.2,M,,*4A
$GNGGA,225349.00,4910.545575,N,12304.423496,W,1,12,0.5,6.1,M,-19.2,M,,*48
$GNGGA,225350.00,4910.545578,N,12304.423499,W,1,12,0.5,6.1,M,-19.2,M,,*42
$GNGGA,225351.00,4910.545581,N,12304.423500,W,1,12,0.5,6.1,M,-19.2,M,,*44
$GNGGA,225352.00,4910.545584,N,12304.423502,W,1,12,0.5,6.1,M,-19.2,M,,*40
$GNGGA,225353.00,4910.545584,N,12304.423504,W,1,12,0.5,6.1,M,-19.2,M,,*47
$GNGGA,225354.00,4910.545583,N,12304.423505,W,1,12,0.5,6.1,M,-19.2,M,,*46
$GNGGA,225355.00,4910.545580,N,12304.423507,W,1,12,0.5,6.1,M,-19.2,M,,*46
$GNGGA,225356.00,4910.545577,N,12304.423510,W,1,12,0.5,6.1,M,-19.2,M,,*4B
$GNGGA,225357.00,4910.545575,N,12304.423513,W,1,12,0.5,6.1,M,-19.2,M,,*4B
$GNGGA,225358.00,4910.545572,N,12304.423518,W,1,12,0.5,6.2,M,-19.2,M,,*4B
$GNGGA,225359.00,4910.545570,N,12304.423520,W,1,12,0.5,6.2,M,-19.2,M,,*43
$GNGGA,225400.00,4910.545569,N,12304.423524,W,1,12,0.5,6.2,M,-19.2,M,,*44
$GNGGA,225401.00,4910.545569,N,12304.423528,W,1,12,0.5,6.2,M,-19.2,M,,*49
$GNGGA,225402.00,4910.545568,N,12304.423529,W,1,12,0.5,6.2,M,-19.2,M,,*4A
$GNGGA,225403.00,4910.545569,N,12304.423530,W,1,12,0.5,6.2,M,-19.2,M,,*42
$GNGGA,225404.00,4910.545566,N,12304.423537,W,1,12,0.5,6.2,M,-19.2,M,,*4D
$GNGGA,225405.00,4910.545565,N,12304.423542,W,1,12,0.5,6.2,M,-19.2,M,,*4D
$GNGGA,225406.00,4910.545565,N,12304.423548,W,1,12,0.5,6.2,M,-19.2,M,,*44
$GNGGA,225407.00,4910.545565,N,12304.423553,W,1,12,0.5,6.2,M,-19.2,M,,*4F
$GNGGA,225408.00,4910.545566,N,12304.423558,W,1,12,0.5,6.2,M,-19.2,M,,*48
$GNGGA,225409.00,4910.545565,N,12304.423562,W,1,12,0.5,6.2,M,-19.2,M,,*43
$GNGGA,225410.00,4910.545564,N,12304.423565,W,1,12,0.5,6.2,M,-19.2,M,,*4D
$GNGGA,225411.00,4910.545563,N,12304.423570,W,1,12,0.5,6.2,M,-19.2,M,,*4F
$GNGGA,225412.00,4910.545564,N,12304.423574,W,1,12,0.5,6.2,M,-19.2,M,,*4F
$GNGGA,225413.00,4910.545566,N,12304.423578,W,1,12,0.5,6.2,M,-19.2,M,,*40
$GNGGA,225414.00,4910.545563,N,12304.423582,W,1,12,0.5,6.2,M,-19.2,M,,*47
$GNGGA,225415.00,4910.545563,N,12304.423585,W,1,12,0.5,6.1,M,-19.2,M,,*42
$GNGGA,225416.00,4910.545562,N,12304.423588,W,1,12,0.5,6.1,M,-19.2,M,,*4D
$GNGGA,225417.00,4910.545560,N,12304.423595,W,1,12,0.5,6.1,M,-19.2,M,,*42
$GNGGA,225418.00,4910.545558,N,12304.423596,W,1,12,0.5,6.1,M,-19.2,M,,*45
$GNGGA,225419.00,4910.545557,N,12304.423597,W,1,12,0.5,6.1,M,-19.2,M,,*4A
$GNGGA,225420.00,4910.545557,N,12304.423596,W,1,12,0.5,6.1,M,-19.2,M,,*41
$GNGGA,225421.00,4910.545556,N,12304.423595,W,1,12,0.5,6.1,M,-19.2,M,,*42
$GNGGA,225422.00,4910.545556,N,12304.423594,W,1,12,0.5,6.0,M,-19.2,M,,*41
$GNGGA,225423.00,4910.545558,N,12304.423591,W,1,12,0.5,6.0,M,-19.2,M,,*4B
$GNGGA,225424.00,4910.545558,N,12304.423590,W,1,12,0.5,6.0,M,-19.2,M,,*4D
$GNGGA,225425.00,4910.545557,N,12304.423591,W,1,12,0.5,6.0,M,-19.2,M,,*42
$GNGGA,225426.00,4910.545558,N,12304.423591,W,1,12,0.5,6.0,M,-19.2,M,,*4E
$GNGGA,225427.00,4910.545556,N,12304.423592,W,1,12,0.5,6.0,M,-19.2,M,,*42
$GNGGA,225428.00,4910.545553,N,12304.423594,W,1,12,0.5,6.0,M,-19.2,M,,*4E
$GNGGA,225429.00,4910.545550,N,12304.423597,W,1,12,0.5,6.0,M,-19.2,M,,*4F
$GNGGA,225430.00,4910.545549,N,12304.423598,W,1,12,0.5,6.0,M,-19.2,M,,*40
$GNGGA,225431.00,4910.545546,N,12304.423600,W,1,12,0.5,6.0,M,-19.2,M,,*4C
$GNGGA,225432.00,4910.545544,N,12304.423601,W,1,12,0.5,6.0,M,-19.2,M,,*4C
$GNGGA,225433.00,4910.545543,N,12304.423601,W,1,12,0.5,5.9,M,-19.2,M,,*40
$GNGGA,225434.00,4910.545543,N,12304.423602,W,1,12,0.5,5.9,M,-19.2,M,,*44
$GNGGA,225435.00,4910.545543,N,12304.423601,W,1,12,0.5,5.9,M,-19.2,M,,*46
$GNGGA,225436.00,4910.545542,N,12304.423601,W,1,12,0.5,5.9,M,-19.2,M,,*44
$GNGGA,225437.00,4910.545542,N,12304.423601,W,1,12,0.5,5.9,M,-19.2,M,,*45
$GNGGA,225438.00,4910.545541,N,12304.423600,W,1,12,0.5,5.9,M,-19.2,M,,*48
$GNGGA,225439.00,4910.545540,N,12304.423601,W,1,12,0.5,5.9,M,-19.2,M,,*49
$GNGGA,225440.00,4910.545538,N,12304.423598,W,1,12,0.5,5.8,M,-19.2,M,,*4A
$GNGGA,225441.00,4910.545536,N,12304.423594,W,1,12,0.5,5.8,M,-19.2,M,,*49
$GNGGA,225442.00,4910.545535,N,12304.423589,W,1,12,0.5,5.8,M,-19.2,M,,*45
$GNGGA,225443.00,4910.545532,N,12304.423586,W,1,12,0.5,5.8,M,-19.2,M,,*4C
$GNGGA,225444.00,4910.545530,N,12304.423585,W,1,12,0.5,5.8,M,-19.2,M,,*4A
$GNGGA,225445.00,4910.545529,N,12304.423582,W,1,12,0.5,5.8,M,-19.2,M,,*44
$GNGGA,225446.00,4910.545526,N,12304.423579,W,1,12,0.5,5.8,M,-19.2,M,,*4C
$GNGGA,225447.00,4910.545525,N,12304.423575,W,1,12,0.5,5.8,M,-19.2,M,,*42
$GNGGA,225448.00,4910.545525,N,12304.423570,W,1,12,0.5,5.8,M,-19.2,M,,*48
$GNGGA,225449.00,4910.545524,N,12304.423564,W,1,12,0.5,5.7,M,-19.2,M,,*42
$GNGGA,225450.00,4910.545522,N,12304.423560,W,1,12,0.5,5.7,M,-19.2,M,,*48
$GNGGA,225451.00,4910.545521,N,12304.423555,W,1,12,0.5,5.7,M,-19.2,M,,*4C
$GNGGA,225452.00,4910.545522,N,12304.423552,W,1,12,0.5,5.7,M,-19.2,M,,*4B
$GNGGA,225453.00,4910.545522,N,12304.423548,W,1,12,0.5,5.7,M,-19.2,M,,*41
$GNGGA,225454.00,4910.545523,N,12304.423545,W,1,12,0.5,5.7,M,-19.2,M,,*4A
$GNGGA,225455.00,4910.545524,N,12304.423543,W,1,12,0.5,5.7,M,-19.2,M,,*4A
$GNGGA,225456.00,4910.545524,N,12304.423538,W,1,12,0.5,5.7,M,-19.2,M,,*45
$GNGGA,225457.00,4910.545523,N,12304.423538,W,1,12,0.5,5.7,M,-19.2,M,,*43
$GNGGA,225458.00,4910.545523,N,12304.423535,W,1,12,0.5,5.7,M,-19.2,M,,*41
$GNGGA,225459.00,4910.545524,N,12304.423531,W,1,12,0.5,5.7,M,-19.2,M,,*43
$GNGGA,225500.00,4910.545524,N,12304.423528,W,1,12,0.5,5.6,M,-19.2,M,,*47
$GNGGA,225501.00,4910.545524,N,12304.423528,W,1,12,0.5,5.6,M,-19.2,M,,*46
$GNGGA,225502.00,4910.545521,N,12304.423525,W,1,12,0.5,5.6,M,-19.2,M,,*4D
$GNGGA,225503.00,4910.545520,N,12304.423525,W,1,12,0.5,5.6,M,-19.2,M,,*4D
$GNGGA,225504.00,4910.545519,N,12304.423525,W,1,12,0.5,5.6,M,-19.2,M,,*40
$GNGGA,225505.00,4910.545518,N,12304.423524,W,1,12,0.5,5.6,M,-19.2,M,,*41
$GNGGA,225506.00,4910.545518,N,12304.423523,W,1,12,0.5,5.6,M,-19.2,M,,*45
$GNGGA,225507.00,4910.545518,N,12304.423524,W,1,12,0.5,5.6,M,-19.2,M,,*43
$GNGGA,225508.00,4910.545519,N,12304.423525,W,1,12,0.5,5.6,M,-19.2,M,,*4C
$GNGGA,225509.00,4910.545520,N,12304.423528,W,1,12,0.5,5.6,M,-19.2,M,,*4A
$GNGGA,225510.00,4910.545522,N,12304.423529,W,1,12,0.5,5.6,M,-19.2,M,,*41
$GNGGA,225511.00,4910.545523,N,12304.423531,W,1,12,0.5,5.6,M,-19.2,M,,*48
$GNGGA,225512.00,4910.545524,N,12304.423534,W,1,12,0.5,5.6,M,-19.2,M,,*49
$GNGGA,225513.00,4910.545525,N,12304.423538,W,1,12,0.5,5.6,M,-19.2,M,,*45
$GNGGA,225514.00,4910.545528,N,12304.423540,W,1,12,0.5,5.6,M,-19.2,M,,*40
$GNGGA,225515.00,4910.545530,N,12304.423541,W,1,12,0.5,5.5,M,-19.2,M,,*4A
$GNGGA,225516.00,4910.545531,N,12304.423542,W,1,12,0.5,5.5,M,-19.2,M,,*4B
$GNGGA,225517.00,4910.545533,N,12304.423542,W,1,12,0.5,5.5,M,-19.2,M,,*48
$GNGGA,225518.00,4910.545534,N,12304.423540,W,1,12,0.5,5.5,M,-19.2,M,,*42
$GNGGA,225519.00,4910.545535,N,12304.423543,W,1,12,0.5,5.5,M,-19.2,M,,*41
$GNGGA,225520.00,4910.545536,N,12304.423542,W,1,12,0.5,5.5,M,-19.2,M,,*49
$GNGGA,225521.00,4910.545539,N,12304.423544,W,1,12,0.5,5.5,M,-19.2,M,,*41
$GNGGA,225522.00,4910.545541,N,12304.423548,W,1,12,0.5,5.5,M,-19.2,M,,*41
$GNGGA,225523.00,4910.545542,N,12304.423554,W,1,12,0.5,5.5,M,-19.2,M,,*4E
$GNGGA,225524.00,4910.545545,N,12304.423558,W,1,12,0.5,5.5,M,-19.2,M,,*42
$GNGGA,225525.00,4910.545550,N,12304.423560,W,1,12,0.5,5.5,M,-19.2,M,,*4C
$GNGGA,225526.00,4910.545551,N,12304.423567,W,1,12,0.5,5.5,M,-19.2,M,,*49
$GNGGA,225527.00,4910.545555,N,12304.423574,W,1,12,0.5,5.5,M,-19.2,M,,*4E
$GNGGA,225528.00,4910.545559,N,12304.423580,W,1,12,0.5,5.5,M,-19.2,M,,*46
$GNGGA,225529.00,4910.545562,N,12304.423583,W,1,12,0.5,5.5,M,-19.2,M,,*4C
$GNGGA,225530.00,4910.545566,N,12304.423588,W,1,12,0.5,5.5,M,-19.2,M,,*4B
$GNGGA,225531.00,4910.545569,N,12304.423592,W,1,12,0.5,5.5,M,-19.2,M,,*4E
$GNGGA,225532.00,4910.545571,N,12304.423595,W,1,12,0.5,5.5,M,-19.2,M,,*43
$GNGGA,225533.00,4910.545574,N,12304.423601,W,1,12,0.5,5.5,M,-19.2,M,,*49
$GNGGA,225534.00,4910.545577,N,12304.423607,W,1,12,0.5,5.5,M,-19.2,M,,*4B
$GNGGA,225535.00,4910.545581,N,12304.423609,W,1,12,0.5,5.5,M,-19.2,M,,*4D
$GNGGA,225536.00,4910.545584,N,12304.423613,W,1,12,0.5,5.5,M,-19.2,M,,*40
$GNGGA,225537.00,4910.545590,N,12304.423613,W,1,12,0.5,5.5,M,-19.2,M,,*44
$GNGGA,225538.00,4910.545596,N,12304.423616,W,1,12,0.5,5.5,M,-19.2,M,,*48
$GNGGA,225539.00,4910.545599,N,12304.423619,W,1,12,0.5,5.5,M,-19.2,M,,*49
$GNGGA,225540.00,4910.545603,N,12304.423622,W,1,12,0.5,5.5,M,-19.2,M,,*4F
$GNGGA,225541.00,4910.545607,N,12304.423624,W,1,12,0.5,5.5,M,-19.2,M,,*4C
$GNGGA,225542.00,4910.545612,N,12304.423625,W,1,12,0.5,5.5,M,-19.2,M,,*4A
$GNGGA,225543.00,4910.545617,N,12304.423628,W,1,12,0.5,5.5,M,-19.2,M,,*43
$GNGGA,225544.00,4910.545622,N,12304.423628,W,1,12,0.5,5.5,M,-19.2,M,,*42
$GNGGA,225545.00,4910.545626,N,12304.423630,W,1,12,0.5,5.5,M,-19.2,M,,*4E
$GNGGA,225546.00,4910.545631,N,12304.423632,W,1,12,0.5,5.5,M,-19.2,M,,*49
$GNGGA,225547.00,4910.545633,N,12304.423635,W,1,12,0.5,5.5,M,-19.2,M,,*4D
$GNGGA,225548.00,4910.545636,N,12304.423639,W,1,12,0.5,5.5,M,-19.2,M,,*4B
$GNGGA,225549.00,4910.545638,N,12304.423640,W,1,12,0.5,5.6,M,-19.2,M,,*49
$GNGGA,225550.00,4910.545641,N,12304.423641,W,1,12,0.5,5.6,M,-19.2,M,,*4E
$GNGGA,225551.00,4910.545645,N,12304.423642,W,1,12,0.5,5.6,M,-19.2,M,,*48
$GNGGA,225552.00,4910.545650,N,12304.423640,W,1,12,0.5,5.6,M,-19.2,M,,*4D
$GNGGA,225553.00,4910.545653,N,12304.423641,W,1,12,0.5,5.6,M,-19.2,M,,*4E
$GNGGA,225554.00,4910.545655,N,12304.423641,W,1,12,0.5,5.6,M,-19.2,M,,*4F
$GNGGA,225555.00,4910.545659,N,12304.423639,W,1,12,0.5,5.6,M,-19.2,M,,*4D
$GNGGA,225556.00,4910.545662,N,12304.423640,W,1,12,0.5,5.6,M,-19.2,M,,*48
$GNGGA,225557.00,4910.545664,N,12304.423642,W,1,12,0.5,5.6,M,-19.2,M,,*4D
$GNGGA,225558.00,4910.545666,N,12304.423640,W,1,12,0.5,5.7,M,-19.2,M,,*43
$GNGGA,225559.00,4910.545668,N,12304.423640,W,1,12,0.5,5.7,M,-19.2,M,,*4C
$GNGGA,225600.00,4910.545671,N,12304.423639,W,1,12,0.5,5.7,M,-19.2,M,,*45
$GNGGA,225601.00,4910.545671,N,12304.423642,W,1,12,0.5,5.7,M,-19.2,M,,*48
$GNGGA,225602.00,4910.545673,N,12304.423644,W,1,12,0.5,5.7,M,-19.2,M,,*4F
$GNGGA,225603.00,4910.545675,N,12304.423646,W,1,12,0.5,5.7,M,-19.2,M,,*4A
$GNGGA,225604.00,4910.545676,N,12304.423648,W,1,12,0.5,5.8,M,-19.2,M,,*4F
$GNGGA,225605.00,4910.545676,N,12304.423650,W,1,12,0.5,5.8,M,-19.2,M,,*47
$GNGGA,225606.00,4910.545677,N,12304.423651,W,1,12,0.5,5.8,M,-19.2,M,,*44
$GNGGA,225607.00,4910.545676,N,12304.423654,W,1,12,0.5,5.8,M,-19.2,M,,*41
$GNGGA,225608.00,4910.545672,N,12304.423657,W,1,12,0.5,5.8,M,-19.2,M,,*49
$GNGGA,225609.00,4910.545668,N,12304.423660,W,1,12,0.5,5.8,M,-19.2,M,,*47
$GNGGA,225610.00,4910.545666,N,12304.423665,W,1,12,0.5,5.8,M,-19.2,M,,*44
$GNGGA,225611.00,4910.545664,N,12304.423672,W,1,12,0.5,5.8,M,-19.2,M,,*41
$GNGGA,225612.00,4910.545662,N,12304.423675,W,1,12,0.5,5.8,M,-19.2,M,,*43
$GNGGA,225613.00,4910.545659,N,12304.423681,W,1,12,0.5,5.8,M,-19.2,M,,*41
$GNGGA,225614.00,4910.545658,N,12304.423685,W,1,12,0.5,5.8,M,-19.2,M,,*43
$GNGGA,225615.00,4910.545655,N,12304.423690,W,1,12,0.5,5.8,M,-19.2,M,,*4B
$GNGGA,225616.00,4910.545652,N,12304.423693,W,1,12,0.5,5.8,M,-19.2,M,,*4C
$GNGGA,225617.00,4910.545649,N,12304.423696,W,1,12,0.5,5.8,M,-19.2,M,,*42
$GNGGA,225618.00,4910.545647,N,12304.423701,W,1,12,0.5,5.8,M,-19.2,M,,*4C
$GNGGA,225619.00,4910.545646,N,12304.423705,W,1,12,0.5,5.8,M,-19.2,M,,*48
$GNGGA,225620.00,4910.545646,N,12304.423712,W,1,12,0.5,5.8,M,-19.2,M,,*44
$GNGGA,225621.00,4910.545643,N,12304.423717,W,1,12,0.5,5.8,M,-19.2,M,,*45
$GNGGA,225622.00,4910.545640,N,12304.423725,W,1,12,0.5,5.9,M,-19.2,M,,*45
$GNGGA,225623.00,4910.545638,N,12304.423732,W,1,12,0.5,5.9,M,-19.2,M,,*4D
$GNGGA,225624.00,4910.545636,N,12304.423738,W,1,12,0.5,5.9,M,-19.2,M,,*4E
$GNGGA,225625.00,4910.545632,N,12304.423743,W,1,12,0.5,5.9,M,-19.2,M,,*47
$GNGGA,225626.00,4910.545629,N,12304.423749,W,1,12,0.5,5.9,M,-19.2,M,,*44
$GNGGA,225627.00,4910.545626,N,12304.423754,W,1,12,0.5,5.9,M,-19.2,M,,*46
$GNGGA,225628.00,4910.545622,N,12304.423759,W,1,12,0.5,5.9,M,-19.2,M,,*40
$GNGGA,225629.00,4910.545620,N,12304.423763,W,1,12,0.5,5.9,M,-19.2,M,,*4A
$GNGGA,225630.00,4910.545619,N,12304.423767,W,1,12,0.5,5.9,M,-19.2,M,,*4C
$GNGGA,225631.00,4910.545619,N,12304.423769,W,1,12,0.5,5.9,M,-19.2,M,,*43
$GNGGA,225632.00,4910.545618,N,12304.423772,W,1,12,0.5,5.8,M,-19.2,M,,*4A
$GNGGA,225633.00,4910.545620,N,12304.423770,W,1,12,0.5,5.8,M,-19.2,M,,*42
$GNGGA,225634.00,4910.545620,N,12304.423774,W,1,12,0.5,5.8,M,-19.2,M,,*41
$GNGGA,225635.00,4910.545621,N,12304.423774,W,1,12,0.5,5.8,M,-19.2,M,,*41
$GNGGA,225636.00,4910.545623,N,12304.423772,W,1,12,0.5,5.9,M,-19.2,M,,*47
$GNGGA,225637.00,4910.545622,N,12304.423772,W,1,12,0.5,5.8,M,-19.2,M,,*46
$GNGGA,225638.00,4910.545622,N,12304.423768,W,1,12,0.5,5.8,M,-19.2,M,,*42
$GNGGA,225639.00,4910.545621,N,12304.423768,W,1,12,0.5,5.8,M,-19.2,M,,*40
$GNGGA,225640.00,4910.545621,N,12304.423764,W,1,12,0.5,5.8,M,-19.2,M,,*42
$GNGGA,225641.00,4910.545621,N,12304.423760,W,1,12,0.5,5.8,M,-19.2,M,,*47
$GNGGA,225642.00,4910.545620,N,12304.423759,W,1,12,0.5,5.8,M,-19.2,M,,*4F
$GNGGA,225643.00,4910.545620,N,12304.423753,W,1,12,0.5,5.8,M,-19.2,M,,*44
$GNGGA,225644.00,4910.545622,N,12304.423748,W,1,12,0.5,5.8,M,-19.2,M,,*4B
$GNGGA,225645.00,4910.545621,N,12304.423744,W,1,12,0.5,5.8,M,-19.2,M,,*45
$GNGGA,225646.00,4910.545621,N,12304.423739,W,1,12,0.5,5.8,M,-19.2,M,,*4C
$GNGGA,225647.00,4910.545621,N,12304.423733,W,1,12,0.5,5.8,M,-19.2,M,,*47
$GNGGA,225648.00,4910.545620,N,12304.423730,W,1,12,0.5,5.8,M,-19.2,M,,*4A
$GNGGA,225649.00,4910.545622,N,12304.423723,W,1,12,0.5,5.8,M,-19.2,M,,*4B
$GNGGA,225650.00,4910.545623,N,12304.423718,W,1,12,0.5,5.8,M,-19.2,M,,*4A
$GNGGA,225651.00,4910.545625,N,12304.423711,W,1,12,0.5,5.8,M,-19.2,M,,*44
$GNGGA,225652.00,4910.545624,N,12304.423710,W,1,12,0.5,5.8,M,-19.2,M,,*47
$GNGGA,225653.00,4910.545623,N,12304.423706,W,1,12,0.5,5.8,M,-19.2,M,,*46
$GNGGA,225654.00,4910.545625,N,12304.423702,W,1,12,0.5,5.8,M,-19.2,M,,*43
$GNGGA,225655.00,4910.545626,N,12304.423697,W,1,12,0.5,5.8,M,-19.2,M,,*4C
$GNGGA,225656.00,4910.545626,N,12304.423693,W,1,12,0.5,5.8,M,-19.2,M,,*4B
$GNGGA,225657.00,4910.545627,N,12304.423687,W,1,12,0.5,5.8,M,-19.2,M,,*4E
$GNGGA,225658.00,4910.545625,N,12304.423680,W,1,12,0.5,5.7,M,-19.2,M,,*4B
$GNGGA,225659.00,4910.545623,N,12304.423672,W,1,12,0.5,5.7,M,-19.2,M,,*41
$GNGGA,225700.00,4910.545622,N,12304.423667,W,1,12,0.5,5.7,M,-19.2,M,,*49
$GNGGA,225701.00,4910.545620,N,12304.423660,W,1,12,0.5,5.7,M,-19.2,M,,*4D
$GNGGA,225702.00,4910.545618,N,12304.423654,W,1,12,0.5,5.7,M,-19.2,M,,*42
$GNGGA,225703.00,4910.545614,N,12304.423650,W,1,12,0.5,5.7,M,-19.2,M,,*4B
$GNGGA,225704.00,4910.545611,N,12304.423646,W,1,12,0.5,5.7,M,-19.2,M,,*4E
$GNGGA,225705.00,4910.545608,N,12304.423642,W,1,12,0.5,5.7,M,-19.2,M,,*43
$GNGGA,225706.00,4910.545606,N,12304.423639,W,1,12,0.5,5.7,M,-19.2,M,,*42
$GNGGA,225707.00,4910.545604,N,12304.423639,W,1,12,0.5,5.7,M,-19.2,M,,*41
$GNGGA,225708.00,4910.545601,N,12304.423637,W,1,12,0.5,5.7,M,-19.2,M,,*45
$GNGGA,225709.00,4910.545599,N,12304.423639,W,1,12,0.5,5.7,M,-19.2,M,,*48
$GNGGA,225710.00,4910.545597,N,12304.423643,W,1,12,0.5,5.7,M,-19.2,M,,*43
$GNGGA,225711.00,4910.545595,N,12304.423646,W,1,12,0.5,5.7,M,-19.2,M,,*45
$GNGGA,225712.00,4910.545593,N,12304.423651,W,1,12,0.5,5.7,M,-19.2,M,,*46
$GNGGA,225713.00,4910.545592,N,12304.423651,W,1,12,0.5,5.7,M,-19.2,M,,*46
$GNGGA,225714.00,4910.545181,N,12304.423386,W,1,12,0.5,5.9,M,-19.2,M,,*46
$GNGGA,225715.00,4910.544693,N,12304.423013,W,1,12,0.5,6.0,M,-19.2,M,,*47
$GNGGA,225716.00,4910.544358,N,12304.422674,W,1,12,0.5,6.2,M,-19.2,M,,*42
$GNGGA,225717.00,4910.543963,N,12304.422420,W,1,12,0.5,6.3,M,-19.2,M,,*44
$GNGGA,225718.00,4910.543450,N,12304.422188,W,1,12,0.5,6.5,M,-19.2,M,,*47
$GNGGA,225719.00,4910.542997,N,12304.422094,W,1,12,0.5,6.7,M,-19.2,M,,*4F
$GNGGA,225720.00,4910.542766,N,12304.422179,W,1,12,0.5,7.0,M,-19.2,M,,*41
$GNGGA,225721.00,4910.542789,N,12304.422289,W,1,12,0.5,7.0,M,-19.2,M,,*4D
$GNGGA,225722.00,4910.542829,N,12304.422235,W,1,12,0.5,7.1,M,-19.2,M,,*4D
$GNGGA,225723.00,4910.543180,N,12304.422172,W,1,12,0.5,7.3,M,-19.2,M,,*45
$GNGGA,225724.00,4910.544038,N,12304.421671,W,1,12,0.5,7.2,M,-19.2,M,,*41
$GNGGA,225725.00,4910.544636,N,12304.420798,W,1,12,0.5,7.3,M,-19.2,M,,*4E
$GNGGA,225726.00,4910.545403,N,12304.419661,W,1,12,0.5,7.6,M,-19.2,M,,*40
$GNGGA,225727.00,4910.546082,N,12304.418060,W,1,12,0.5,7.8,M,-19.2,M,,*47
$GNGGA,225728.00,4910.546718,N,12304.416457,W,1,12,0.5,7.8,M,-19.2,M,,*42
$GNGGA,225729.00,4910.547272,N,12304.414565,W,1,12,0.5,8.0,M,-19.2,M,,*4E
$GNGGA,225730.00,4910.547879,N,12304.412881,W,1,12,0.5,8.3,M,-19.2,M,,*45
$GNGGA,225731.00,4910.548529,N,12304.411273,W,1,12,0.5,8.6,M,-19.2,M,,*42
$GNGGA,225732.00,4910.549220,N,12304.409622,W,1,12,0.5,8.7,M,-19.2,M,,*46
$GNGGA,225733.00,4910.549832,N,12304.408463,W,1,12,0.5,8.8,M,-19.2,M,,*47
$GNGGA,225734.00,4910.550551,N,12304.407027,W,1,12,0.5,9.0,M,-19.2,M,,*42
$GNGGA,225735.00,4910.551140,N,12304.405703,W,1,12,0.5,9.4,M,-19.2,M,,*41