$GNGGA,225754.000,4910.552386,N,12304.368332,W,4,39,0.46,0.8,M,-16.8,M,2.0,0569*6A
$GNGGA,225754.100,4910.552382,N,12304.368125,W,4,39,0.46,0.8,M,-16.8,M,2.1,0569*6A
$GNGGA,225754.200,4910.552385,N,12304.367911,W,4,39,0.46,0.8,M,-16.8,M,2.2,0569*6D
$GNGGA,225754.300,4910.552383,N,12304.367703,W,4,39,0.46,0.8,M,-16.8,M,2.3,0569*66
$GNGGA,225754.400,4910.552392,N,12304.367510,W,4,39,0.45,0.8,M,-16.8,M,1.4,0569*66
$GNGGA,225754.500,4910.552391,N,12304.367306,W,4,39,0.45,0.8,M,-16.8,M,1.5,0569*64
$GNGGA,225754.600,4910.552393,N,12304.367098,W,4,39,0.45,0.7,M,-16.8,M,1.6,0569*6D
$GNGGA,225754.700,4910.552393,N,12304.366890,W,4,39,0.45,0.7,M,-16.8,M,1.7,0569*6C
$GNGGA,225754.800,4910.552390,N,12304.366688,W,4,39,0.45,0.8,M,-16.8,M,1.8,0569*67
$GNGGA,225754.900,4910.552393,N,12304.366479,W,4,39,0.45,0.7,M,-16.8,M,1.9,0569*67
$GNGGA,225755.000,4910.552396,N,12304.366272,W,4,39,0.45,0.7,M,-16.8,M,2.0,0569*6D
$GNGGA,225755.100,4910.552392,N,12304.366074,W,4,39,0.45,0.7,M,-16.8,M,2.1,0569*6D
$GNGGA,225755.200,4910.552390,N,12304.365867,W,4,39,0.45,0.7,M,-16.8,M,2.2,0569*66
$GNGGA,225755.300,4910.552389,N,12304.365651,W,4,39,0.45,0.7,M,-16.8,M,2.3,0569*65
$GNGGA,225755.400,4910.552385,N,12304.365448,W,4,39,0.47,0.7,M,-16.8,M,1.4,0569*62
$GNGGA,225755.500,4910.552385,N,12304.365247,W,4,39,0.47,0.7,M,-16.8,M,1.5,0569*6B
$GNGGA,225755.600,4910.552391,N,12304.365039,W,4,39,0.47,0.7,M,-16.8,M,1.6,0569*65
$GNGGA,225755.700,4910.552395,N,12304.364827,W,4,39,0.47,0.7,M,-16.8,M,1.7,0569*67
$GNGGA,225755.800,4910.552393,N,12304.364619,W,4,39,0.47,0.7,M,-16.8,M,1.8,0569*62
$GNGGA,225755.900,4910.552399,N,12304.364415,W,4,39,0.47,0.7,M,-16.8,M,1.9,0569*66
$GNGGA,225756.000,4910.552404,N,12304.364217,W,4,39,0.47,0.7,M,-16.8,M,2.0,0569*61
$GNGGA,225756.100,4910.552401,N,12304.364008,W,4,39,0.47,0.7,M,-16.8,M,2.1,0569*68
$GNGGA,225756.200,4910.552413,N,12304.363802,W,4,39,0.47,0.7,M,-16.8,M,2.2,0569*6E
$GNGGA,225756.300,4910.552422,N,12304.363597,W,4,39,0.47,0.7,M,-16.8,M,2.3,0569*6D
$GNGGA,225756.400,4910.552415,N,12304.363394,W,4,39,0.46,0.7,M,-16.8,M,1.4,0569*6E
$GNGGA,225756.500,4910.552427,N,12304.363194,W,4,39,0.46,0.7,M,-16.8,M,1.5,0569*6D
$GNGGA,225756.600,4910.552442,N,12304.362984,W,4,39,0.46,0.7,M,-16.8,M,1.6,0569*66
$GNGGA,225756.700,4910.552447,N,12304.362785,W,4,39,0.46,0.7,M,-16.8,M,1.7,0569*6C
$GNGGA,225756.800,4910.552461,N,12304.362587,W,4,39,0.46,0.7,M,-16.8,M,1.8,0569*68
$GNGGA,225756.900,4910.552474,N,12304.362383,W,4,39,0.46,0.7,M,-16.8,M,1.9,0569*6E
$GNGGA,225757.000,4910.552479,N,12304.362193,W,4,39,0.46,0.7,M,-16.8,M,2.0,0569*62
$GNGGA,225757.100,4910.552502,N,12304.361977,W,4,39,0.46,0.6,M,-16.8,M,2.1,0569*6F
$GNGGA,225757.200,4910.552512,N,12304.361781,W,4,39,0.46,0.7,M,-16.8,M,2.2,0569*68
$GNGGA,225757.300,4910.552520,N,12304.361585,W,4,39,0.46,0.6,M,-16.8,M,2.3,0569*6E
$GNGGA,225757.400,4910.552531,N,12304.361383,W,4,39,0.47,0.6,M,-16.8,M,1.4,0569*6C
$GNGGA,225757.500,4910.552551,N,12304.361174,W,4,39,0.47,0.6,M,-16.8,M,1.5,0569*60
$GNGGA,225757.600,4910.552566,N,12304.360982,W,4,39,0.47,0.6,M,-16.8,M,1.6,0569*64
$GNGGA,225757.700,4910.552580,N,12304.360788,W,4,39,0.47,0.6,M,-16.8,M,1.7,0569*68
$GNGGA,225757.800,4910.552596,N,12304.360585,W,4,39,0.47,0.6,M,-16.8,M,1.8,0569*60
$GNGGA,225757.900,4910.552605,N,12304.360376,W,4,39,0.47,0.6,M,-16.8,M,1.9,0569*63
$GNGGA,225758.000,4910.552628,N,12304.360178,W,4,39,0.47,0.6,M,-16.8,M,2.0,0569*6C
$GNGGA,225758.100,4910.552647,N,12304.359983,W,4,39,0.47,0.6,M,-16.8,M,2.1,0569*63
$GNGGA,225758.200,4910.552665,N,12304.359785,W,4,39,0.47,0.6,M,-16.8,M,2.2,0569*6B
$GNGGA,225758.300,4910.552680,N,12304.359590,W,4,39,0.47,0.6,M,-16.8,M,2.3,0569*66
$GNGGA,225758.400,4910.552695,N,12304.359390,W,4,39,0.47,0.6,M,-16.8,M,1.4,0569*67
$GNGGA,225758.500,4910.552697,N,12304.359197,W,4,39,0.47,0.6,M,-16.8,M,1.5,0569*60
$GNGGA,225758.600,4910.552714,N,12304.359006,W,4,39,0.47,0.6,M,-16.8,M,1.6,0569*63
$GNGGA,225758.700,4910.552725,N,12304.358820,W,4,39,0.47,0.6,M,-16.8,M,1.7,0569*6C
$GNGGA,225758.800,4910.552742,N,12304.358630,W,4,39,0.47,0.6,M,-16.8,M,1.8,0569*62
$GNGGA,225758.900,4910.552762,N,12304.358435,W,4,39,0.47,0.6,M,-16.8,M,1.9,0569*67
$GNGGA,225759.000,4910.552773,N,12304.358241,W,4,39,0.47,0.6,M,-16.8,M,2.0,0569*60
$GNGGA,225759.100,4910.552776,N,12304.358062,W,4,39,0.47,0.6,M,-16.8,M,2.1,0569*66
$GNGGA,225759.200,4910.552785,N,12304.357867,W,4,39,0.47,0.6,M,-16.8,M,2.2,0569*68
$GNGGA,225759.300,4910.552799,N,12304.357694,W,4,39,0.47,0.6,M,-16.8,M,2.3,0569*67
$GNGGA,225759.400,4910.552803,N,12304.357505,W,4,39,0.51,0.6,M,-16.8,M,1.4,0569*64
$GNGGA,225759.500,4910.552814,N,12304.357311,W,4,39,0.51,0.6,M,-16.8,M,1.5,0569*61
$GNGGA,225759.600,4910.552816,N,12304.357121,W,4,39,0.51,0.6,M,-16.8,M,1.6,0569*62
$GNGGA,225759.700,4910.552819,N,12304.356942,W,4,39,0.51,0.6,M,-16.8,M,1.7,0569*61
$GNGGA,225759.800,4910.552828,N,12304.356756,W,4,39,0.51,0.6,M,-16.8,M,1.8,0569*68
$GNGGA,225759.900,4910.552839,N,12304.356570,W,4,39,0.51,0.6,M,-16.8,M,1.9,0569*6E
$GNGGA,225800.000,4910.552847,N,12304.356390,W,4,39,0.51,0.6,M,-16.8,M,2.0,0569*6F
$GNGGA,225800.100,4910.552856,N,12304.356209,W,4,39,0.51,0.6,M,-16.8,M,2.1,0569*6E
$GNGGA,225800.200,4910.552862,N,12304.356030,W,4,39,0.51,0.6,M,-16.8,M,2.2,0569*61
$GNGGA,225800.300,4910.552863,N,12304.355858,W,4,39,0.51,0.6,M,-16.8,M,2.3,0569*65
$GNGGA,225800.400,4910.552865,N,12304.355675,W,4,39,0.47,0.6,M,-16.8,M,1.4,0569*66
$GNGGA,225800.500,4910.552877,N,12304.355501,W,4,39,0.47,0.6,M,-16.8,M,1.5,0569*65
$GNGGA,225800.600,4910.552889,N,12304.355320,W,4,39,0.47,0.6,M,-16.8,M,1.6,0569*61
$GNGGA,225800.700,4910.552889,N,12304.355143,W,4,39,0.47,0.6,M,-16.8,M,1.7,0569*66
$GNGGA,225800.800,4910.552894,N,12304.354969,W,4,39,0.47,0.6,M,-16.8,M,1.8,0569*6B
$GNGGA,225800.900,4910.552894,N,12304.354787,W,4,39,0.47,0.6,M,-16.8,M,1.9,0569*65
$GNGGA,225801.000,4910.552911,N,12304.354629,W,4,39,0.47,0.6,M,-16.8,M,2.0,0569*6E
$GNGGA,225801.100,4910.552921,N,12304.354454,W,4,39,0.47,0.6,M,-16.8,M,2.1,0569*65
$GNGGA,225801.200,4910.552936,N,12304.354271,W,4,39,0.47,0.6,M,-16.8,M,2.2,0569*62
$GNGGA,225801.300,4910.552945,N,12304.354104,W,4,39,0.47,0.6,M,-16.8,M,2.3,0569*67
$GNGGA,225801.400,4910.552956,N,12304.353928,W,4,39,0.47,0.6,M,-16.8,M,1.4,0569*67
$GNGGA,225801.500,4910.552964,N,12304.353751,W,4,39,0.47,0.6,M,-16.8,M,1.5,0569*66
$GNGGA,225801.600,4910.552981,N,12304.353586,W,4,39,0.47,0.6,M,-16.8,M,1.6,0569*65
$GNGGA,225801.700,4910.553001,N,12304.353424,W,4,39,0.47,0.6,M,-16.8,M,1.7,0569*6C
$GNGGA,225801.800,4910.553014,N,12304.353254,W,4,39,0.47,0.6,M,-16.8,M,1.8,0569*69
$GNGGA,225801.900,4910.553030,N,12304.353082,W,4,39,0.47,0.6,M,-16.8,M,1.9,0569*66
$GNGGA,225802.000,4910.553055,N,12304.352915,W,4,39,0.47,0.6,M,-16.8,M,2.0,0569*63
$GNGGA,225802.100,4910.553065,N,12304.352747,W,4,39,0.47,0.7,M,-16.8,M,2.1,0569*68
$GNGGA,225802.200,4910.553092,N,12304.352592,W,4,39,0.47,0.6,M,-16.8,M,2.2,0569*6B
$GNGGA,225802.300,4910.553114,N,12304.352434,W,4,39,0.47,0.6,M,-16.8,M,2.3,0569*69
$GNGGA,225802.400,4910.553141,N,12304.352253,W,4,39,0.48,0.6,M,-16.8,M,1.4,0569*62
$GNGGA,225802.500,4910.553165,N,12304.352099,W,4,39,0.48,0.6,M,-16.8,M,1.5,0569*60
$GNGGA,225802.600,4910.553206,N,12304.351941,W,4,39,0.48,0.6,M,-16.8,M,1.6,0569*69
$GNGGA,225802.700,4910.553233,N,12304.351781,W,4,39,0.48,0.6,M,-16.8,M,1.7,0569*6D
$GNGGA,225802.800,4910.553268,N,12304.351624,W,4,39,0.48,0.6,M,-16.8,M,1.8,0569*6D
$GNGGA,225802.900,4910.553288,N,12304.351474,W,4,39,0.48,0.6,M,-16.8,M,1.9,0569*64
$GNGGA,225803.000,4910.553336,N,12304.351325,W,4,39,0.48,0.6,M,-16.8,M,2.0,0569*61
$GNGGA,225803.100,4910.553368,N,12304.351169,W,4,39,0.48,0.6,M,-16.8,M,2.1,0569*60
$GNGGA,225803.200,4910.553406,N,12304.351031,W,4,39,0.48,0.6,M,-16.8,M,2.2,0569*63
$GNGGA,225803.300,4910.553449,N,12304.350878,W,4,39,0.48,0.6,M,-16.8,M,2.3,0569*6C
$GNGGA,225803.400,4910.553487,N,12304.350738,W,4,39,0.48,0.6,M,-16.8,M,1.4,0569*66
$GNGGA,225803.500,4910.553528,N,12304.350600,W,4,39,0.48,0.6,M,-16.8,M,1.5,0569*68
$GNGGA,225803.600,4910.553572,N,12304.350448,W,4,39,0.48,0.6,M,-16.8,M,1.6,0569*69
$GNGGA,225803.700,4910.553614,N,12304.350323,W,4,39,0.48,0.7,M,-16.8,M,1.7,0569*61
$GNGGA,225803.800,4910.553660,N,12304.350175,W,4,39,0.48,0.7,M,-16.8,M,1.8,0569*63
$GNGGA,225803.900,4910.553714,N,12304.350044,W,4,39,0.48,0.7,M,-16.8,M,1.9,0569*62
$GNGGA,225804.000,4910.553754,N,12304.349906,W,4,39,0.48,0.7,M,-16.8,M,2.0,0569*65
$GNGGA,225804.100,4910.553799,N,12304.349769,W,4,39,0.48,0.7,M,-16.8,M,2.1,0569*63
$GNGGA,225804.200,4910.553849,N,12304.349637,W,4,39,0.48,0.6,M,-16.8,M,2.2,0569*6A
$GNGGA,225804.300,4910.553901,N,12304.349505,W,4,39,0.48,0.7,M,-16.8,M,2.3,0569*64
$GNGGA,225804.400,4910.553962,N,12304.349368,W,4,39,0.49,0.6,M,-16.8,M,1.4,0569*6F
$GNGGA,225804.500,4910.554019,N,12304.349239,W,4,39,0.49,0.6,M,-16.8,M,1.5,0569*68
$GNGGA,225804.600,4910.554064,N,12304.349104,W,4,39,0.49,0.7,M,-16.8,M,1.6,0569*6E
$GNGGA,225804.700,4910.554120,N,12304.348976,W,4,39,0.49,0.7,M,-16.8,M,1.7,0569*63
$GNGGA,225804.800,4910.554173,N,12304.348855,W,4,39,0.49,0.7,M,-16.8,M,1.8,0569*65
$GNGGA,225804.900,4910.554232,N,12304.348724,W,4,39,0.49,0.7,M,-16.8,M,1.9,0569*6A
$GNGGA,225805.000,4910.554295,N,12304.348598,W,4,39,0.49,0.7,M,-16.8,M,2.0,0569*60
$GNGGA,225805.100,4910.554354,N,12304.348472,W,4,39,0.49,0.7,M,-16.8,M,2.1,0569*69
$GNGGA,225805.200,4910.554423,N,12304.348351,W,4,39,0.49,0.7,M,-16.8,M,2.2,0569*68
$GNGGA,225805.300,4910.554491,N,12304.348234,W,4,39,0.49,0.7,M,-16.8,M,2.3,0569*63
$GNGGA,225805.400,4910.554543,N,12304.348106,W,4,39,0.51,0.7,M,-16.8,M,1.4,0569*65
$GNGGA,225805.500,4910.554599,N,12304.347974,W,4,39,0.51,0.7,M,-16.8,M,1.5,0569*60
$GNGGA,225805.600,4910.554668,N,12304.347854,W,4,39,0.51,0.7,M,-16.8,M,1.6,0569*6E
$GNGGA,225805.700,4910.554730,N,12304.347730,W,4,39,0.51,0.7,M,-16.8,M,1.7,0569*6F
$GNGGA,225805.800,4910.554788,N,12304.347602,W,4,39,0.51,0.8,M,-16.8,M,1.8,0569*63
$GNGGA,225805.900,4910.554864,N,12304.347492,W,4,39,0.51,0.7,M,-16.8,M,1.9,0569*6A
$GNGGA,225806.000,4910.554921,N,12304.347361,W,4,39,0.51,0.7,M,-16.8,M,2.0,0569*61
$GNGGA,225806.100,4910.554989,N,12304.347238,W,4,39,0.51,0.8,M,-16.8,M,2.1,0569*61
$GNGGA,225806.200,4910.555059,N,12304.347123,W,4,39,0.51,0.8,M,-16.8,M,2.2,0569*6D
$GNGGA,225806.300,4910.555130,N,12304.346999,W,4,39,0.51,0.8,M,-16.8,M,2.3,0569*6B
$GNGGA,225806.400,4910.555201,N,12304.346884,W,4,39,0.51,0.8,M,-16.8,M,1.4,0569*64
$GNGGA,225806.500,4910.555270,N,12304.346763,W,4,39,0.51,0.8,M,-16.8,M,1.5,0569*64
$GNGGA,225806.600,4910.555343,N,12304.346648,W,4,39,0.51,0.7,M,-16.8,M,1.6,0569*62
$GNGGA,225806.700,4910.555416,N,12304.346525,W,4,39,0.51,0.8,M,-16.8,M,1.7,0569*62
$GNGGA,225806.800,4910.555484,N,12304.346415,W,4,39,0.51,0.8,M,-16.8,M,1.8,0569*6B
$GNGGA,225806.900,4910.555558,N,12304.346295,W,4,39,0.51,0.8,M,-16.8,M,1.9,0569*65
$GNGGA,225807.000,4910.555631,N,12304.346176,W,4,39,0.51,0.8,M,-16.8,M,2.0,0569*65
$GNGGA,225807.100,4910.555707,N,12304.346057,W,4,39,0.51,0.8,M,-16.8,M,2.1,0569*63
$GNGGA,225807.200,4910.555775,N,12304.345936,W,4,39,0.51,0.8,M,-16.8,M,2.2,0569*6B
$GNGGA,225807.300,4910.555852,N,12304.345822,W,4,39,0.51,0.8,M,-16.8,M,2.3,0569*65
$GNGGA,225807.400,4910.555920,N,12304.345701,W,4,39,0.54,0.8,M,-16.8,M,1.4,0569*69
$GNGGA,225807.500,4910.555997,N,12304.345582,W,4,39,0.54,0.8,M,-16.8,M,1.5,0569*6C
$GNGGA,225807.600,4910.556073,N,12304.345468,W,4,39,0.54,0.8,M,-16.8,M,1.6,0569*69
$GNGGA,225807.700,4910.556153,N,12304.345350,W,4,39,0.54,0.8,M,-16.8,M,1.7,0569*66
$GNGGA,225807.800,4910.556226,N,12304.345230,W,4,39,0.54,0.8,M,-16.8,M,1.8,0569*60
$GNGGA,225807.900,4910.556305,N,12304.345111,W,4,39,0.54,0.8,M,-16.8,M,1.9,0569*60
$GNGGA,225808.000,4910.556384,N,12304.344990,W,4,39,0.54,0.8,M,-16.8,M,2.0,0569*65
$GNGGA,225808.100,4910.556457,N,12304.344867,W,4,39,0.54,0.8,M,-16.8,M,2.1,0569*65
$GNGGA,225808.200,4910.556541,N,12304.344753,W,4,39,0.54,0.8,M,-16.8,M,2.2,0569*6B
$GNGGA,225808.300,4910.556622,N,12304.344627,W,4,39,0.54,0.8,M,-16.8,M,2.3,0569*6F
$GNGGA,225808.400,4910.556703,N,12304.344502,W,4,38,0.66,0.8,M,-16.8,M,1.4,0569*6A
$GNGGA,225808.500,4910.556785,N,12304.344377,W,4,39,0.66,0.8,M,-16.8,M,1.5,0569*61
$GNGGA,225808.600,4910.556863,N,12304.344251,W,4,39,0.66,0.8,M,-16.8,M,1.6,0569*63
$GNGGA,225808.700,4910.556946,N,12304.344123,W,4,39,0.66,0.8,M,-16.8,M,1.7,0569*63
$GNGGA,225808.800,4910.557039,N,12304.344009,W,4,39,0.66,0.7,M,-16.8,M,1.8,0569*65
$GNGGA,225808.900,4910.557122,N,12304.343883,W,4,39,0.66,0.8,M,-16.8,M,1.9,0569*6C
$GNGGA,225809.000,4910.557209,N,12304.343758,W,4,38,0.66,0.7,M,-16.8,M,2.0,0569*63
$GNGGA,225809.100,4910.557294,N,12304.343621,W,4,39,0.66,0.7,M,-16.8,M,2.1,0569*69
$GNGGA,225809.200,4910.557385,N,12304.343499,W,4,38,0.66,0.7,M,-16.8,M,2.2,0569*68
$GNGGA,225809.300,4910.557471,N,12304.343369,W,4,38,0.66,0.7,M,-16.8,M,2.3,0569*6C
$GNGGA,225809.400,4910.557555,N,12304.343250,W,4,38,0.62,0.8,M,-16.8,M,1.4,0569*68
$GNGGA,225809.500,4910.557647,N,12304.343104,W,4,39,0.62,0.7,M,-16.8,M,1.5,0569*64
$GNGGA,225809.600,4910.557737,N,12304.342981,W,4,39,0.62,0.7,M,-16.8,M,1.6,0569*66
$GNGGA,225809.700,4910.557821,N,12304.342844,W,4,38,0.62,0.7,M,-16.8,M,1.7,0569*67
$GNGGA,225809.800,4910.557915,N,12304.342717,W,4,39,0.62,0.7,M,-16.8,M,1.8,0569*69
$GNGGA,225809.900,4910.558003,N,12304.342581,W,4,38,0.62,0.7,M,-16.8,M,1.9,0569*64
$GNGGA,225810.000,4910.558097,N,12304.342453,W,4,38,0.62,0.7,M,-16.8,M,2.0,0569*6C
$GNGGA,225810.100,4910.558188,N,12304.342317,W,4,39,0.62,0.7,M,-16.8,M,2.1,0569*65
$GNGGA,225810.200,4910.558288,N,12304.342187,W,4,39,0.62,0.7,M,-16.8,M,2.2,0569*6D
$GNGGA,225810.300,4910.558370,N,12304.342046,W,4,39,0.62,0.7,M,-16.8,M,2.3,0569*67
$GNGGA,225810.400,4910.558468,N,12304.341915,W,4,39,0.85,0.7,M,-16.8,M,1.4,0569*6F
$GNGGA,225810.500,4910.558572,N,12304.341776,W,4,39,0.85,0.7,M,-16.8,M,1.5,0569*6E
$GNGGA,225810.600,4910.558654,N,12304.341631,W,4,39,0.85,0.7,M,-16.8,M,1.6,0569*6B
$GNGGA,225810.700,4910.558757,N,12304.341500,W,4,39,0.85,0.7,M,-16.8,M,1.7,0569*68
$GNGGA,225810.800,4910.558852,N,12304.341359,W,4,39,0.85,0.7,M,-16.8,M,1.8,0569*68
$GNGGA,225810.900,4910.558947,N,12304.341225,W,4,39,0.85,0.7,M,-16.8,M,1.9,0569*67
$GNGGA,225811.000,4910.559042,N,12304.341079,W,4,39,0.85,0.7,M,-16.8,M,2.0,0569*63
$GNGGA,225811.100,4910.559157,N,12304.340961,W,4,39,0.85,0.6,M,-16.8,M,2.1,0569*66
$GNGGA,225811.200,4910.559256,N,12304.340822,W,4,39,0.85,0.7,M,-16.8,M,2.2,0569*63
$GNGGA,225811.300,4910.559354,N,12304.340682,W,4,39,0.85,0.6,M,-16.8,M,2.3,0569*65
$GNGGA,225811.400,4910.559460,N,12304.340550,W,4,39,0.61,0.6,M,-16.8,M,1.4,0569*60
$GNGGA,225811.500,4910.559554,N,12304.340408,W,4,39,0.61,0.6,M,-16.8,M,1.5,0569*6A
$GNGGA,225811.600,4910.559658,N,12304.340267,W,4,39,0.61,0.6,M,-16.8,M,1.6,0569*6A
$GNGGA,225811.700,4910.559756,N,12304.340130,W,4,39,0.61,0.6,M,-16.8,M,1.7,0569*64
$GNGGA,225811.800,4910.559858,N,12304.339995,W,4,39,0.61,0.6,M,-16.8,M,1.8,0569*6C
$GNGGA,225811.900,4910.559960,N,12304.339852,W,4,39,0.61,0.6,M,-16.8,M,1.9,0569*6C
$GNGGA,225812.000,4910.560061,N,12304.339712,W,4,39,0.61,0.6,M,-16.8,M,2.0,0569*65
$GNGGA,225812.100,4910.560156,N,12304.339570,W,4,39,0.61,0.6,M,-16.8,M,2.1,0569*66
$GNGGA,225812.200,4910.560254,N,12304.339433,W,4,39,0.61,0.6,M,-16.8,M,2.2,0569*61
$GNGGA,225812.300,4910.560353,N,12304.339292,W,4,38,0.61,0.6,M,-16.8,M,2.3,0569*6B
$GNGGA,225812.400,4910.560458,N,12304.339153,W,4,38,0.61,0.6,M,-16.8,M,1.4,0569*6A
$GNGGA,225812.500,4910.560551,N,12304.339007,W,4,38,0.61,0.6,M,-16.8,M,1.5,0569*62
$GNGGA,225812.600,4910.560654,N,12304.338872,W,4,38,0.61,0.6,M,-16.8,M,1.6,0569*6F
$GNGGA,225812.700,4910.560756,N,12304.338732,W,4,37,0.61,0.6,M,-16.8,M,1.7,0569*68
$GNGGA,225812.800,4910.560853,N,12304.338588,W,4,38,0.61,0.6,M,-16.8,M,1.8,0569*6E
$GNGGA,225812.900,4910.560954,N,12304.338453,W,4,38,0.61,0.6,M,-16.8,M,1.9,0569*6F
$GNGGA,225813.000,4910.561054,N,12304.338308,W,4,38,0.61,0.6,M,-16.8,M,2.0,0569*6C
$GNGGA,225813.100,4910.561151,N,12304.338172,W,4,38,0.61,0.6,M,-16.8,M,2.1,0569*67
$GNGGA,225813.200,4910.561247,N,12304.338033,W,4,37,0.61,0.6,M,-16.8,M,2.2,0569*68
$GNGGA,225813.300,4910.561348,N,12304.337891,W,4,39,0.61,0.6,M,-16.8,M,2.3,0569*67
$GNGGA,225813.400,4910.561449,N,12304.337751,W,4,38,0.64,0.6,M,-16.8,M,1.4,0569*65
$GNGGA,225813.500,4910.561551,N,12304.337614,W,4,39,0.64,0.6,M,-16.8,M,1.5,0569*6C
$GNGGA,225813.600,4910.561646,N,12304.337471,W,4,39,0.64,0.6,M,-16.8,M,1.6,0569*68
$GNGGA,225813.700,4910.561742,N,12304.337332,W,4,39,0.64,0.6,M,-16.8,M,1.7,0569*6D
$GNGGA,225813.800,4910.561835,N,12304.337192,W,4,39,0.64,0.6,M,-16.8,M,1.8,0569*6A
$GNGGA,225813.900,4910.561931,N,12304.337053,W,4,39,0.64,0.6,M,-16.8,M,1.9,0569*63
$GNGGA,225814.000,4910.562021,N,12304.336925,W,4,39,0.64,0.6,M,-16.8,M,2.0,0569*65
$GNGGA,225814.100,4910.562119,N,12304.336785,W,4,39,0.64,0.6,M,-16.8,M,2.1,0569*6B
$GNGGA,225814.200,4910.562215,N,12304.336644,W,4,39,0.64,0.6,M,-16.8,M,2.2,0569*68
$GNGGA,225814.300,4910.562309,N,12304.336501,W,4,38,0.64,0.6,M,-16.8,M,2.3,0569*67
$GNGGA,225814.400,4910.562415,N,12304.336375,W,4,38,0.68,0.6,M,-16.8,M,1.4,0569*67
$GNGGA,225814.500,4910.562505,N,12304.336238,W,4,39,0.68,0.6,M,-16.8,M,1.5,0569*6E
$GNGGA,225814.600,4910.562598,N,12304.336102,W,4,39,0.68,0.6,M,-16.8,M,1.6,0569*60
$GNGGA,225814.700,4910.562694,N,12304.335962,W,4,37,0.68,0.6,M,-16.8,M,1.7,0569*6C
$GNGGA,225814.800,4910.562786,N,12304.335824,W,4,38,0.68,0.6,M,-16.8,M,1.8,0569*62
$GNGGA,225814.900,4910.562876,N,12304.335688,W,4,37,0.68,0.6,M,-16.8,M,1.9,0569*65
$GNGGA,225815.000,4910.562973,N,12304.335551,W,4,38,0.68,0.6,M,-16.8,M,2.0,0569*6B
$GNGGA,225815.100,4910.563065,N,12304.335417,W,4,38,0.68,0.6,M,-16.8,M,2.1,0569*67
$GNGGA,225815.200,4910.563158,N,12304.335279,W,4,38,0.68,0.6,M,-16.8,M,2.2,0569*66
$GNGGA,225815.300,4910.563249,N,12304.335141,W,4,38,0.68,0.6,M,-16.8,M,2.3,0569*6D
$GNGGA,225815.400,4910.563330,N,12304.335013,W,4,39,0.59,0.7,M,-16.8,M,1.4,0569*65
$GNGGA,225815.500,4910.563414,N,12304.334887,W,4,39,0.59,0.7,M,-16.8,M,1.5,0569*60
$GNGGA,225815.600,4910.563512,N,12304.334752,W,4,39,0.59,0.6,M,-16.8,M,1.6,0569*61
$GNGGA,225815.700,4910.563598,N,12304.334610,W,4,39,0.59,0.6,M,-16.8,M,1.7,0569*64
$GNGGA,225815.800,4910.563686,N,12304.334484,W,4,38,0.59,0.6,M,-16.8,M,1.8,0569*66
$GNGGA,225815.900,4910.563774,N,12304.334345,W,4,39,0.59,0.6,M,-16.8,M,1.9,0569*61
$GNGGA,225816.000,4910.563860,N,12304.334214,W,4,39,0.59,0.6,M,-16.8,M,2.0,0569*6E
$GNGGA,225816.100,4910.563957,N,12304.334089,W,4,39,0.59,0.6,M,-16.8,M,2.1,0569*6D
$GNGGA,225816.200,4910.564036,N,12304.333949,W,4,39,0.59,0.6,M,-16.8,M,2.2,0569*66
$GNGGA,225816.300,4910.564126,N,12304.333824,W,4,39,0.59,0.6,M,-16.8,M,2.3,0569*6C
$GNGGA,225816.400,4910.564208,N,12304.333691,W,4,39,0.61,0.6,M,-16.8,M,1.4,0569*6B
$GNGGA,225816.500,4910.564299,N,12304.333563,W,4,39,0.61,0.6,M,-16.8,M,1.5,0569*6D
$GNGGA,225816.600,4910.564387,N,12304.333431,W,4,39,0.61,0.6,M,-16.8,M,1.6,0569*65
$GNGGA,225816.700,4910.564479,N,12304.333293,W,4,39,0.61,0.6,M,-16.8,M,1.7,0569*6D
$GNGGA,225816.800,4910.564574,N,12304.333154,W,4,38,0.61,0.7,M,-16.8,M,1.8,0569*69
$GNGGA,225816.900,4910.564663,N,12304.333004,W,4,39,0.61,0.6,M,-16.8,M,1.9,0569*68
$GNGGA,225817.000,4910.564757,N,12304.332859,W,4,39,0.61,0.6,M,-16.8,M,2.0,0569*6D
$GNGGA,225817.100,4910.564854,N,12304.332708,W,4,39,0.61,0.6,M,-16.8,M,2.1,0569*6A
$GNGGA,225817.200,4910.564953,N,12304.332555,W,4,39,0.61,0.7,M,-16.8,M,2.2,0569*67
$GNGGA,225817.300,4910.565069,N,12304.332414,W,4,39,0.61,0.7,M,-16.8,M,2.3,0569*62
$GNGGA,225817.400,4910.565148,N,12304.332273,W,4,39,0.63,0.7,M,-16.8,M,1.4,0569*66
$GNGGA,225817.500,4910.565259,N,12304.332107,W,4,39,0.63,0.7,M,-16.8,M,1.5,0569*65
$GNGGA,225817.600,4910.565351,N,12304.331955,W,4,39,0.63,0.7,M,-16.8,M,1.6,0569*60
$GNGGA,225817.700,4910.565455,N,12304.331817,W,4,39,0.63,0.8,M,-16.8,M,1.7,0569*6B
$GNGGA,225817.800,4910.565550,N,12304.331649,W,4,39,0.63,0.7,M,-16.8,M,1.8,0569*65
$GNGGA,225817.900,4910.565651,N,12304.331516,W,4,39,0.63,0.8,M,-16.8,M,1.9,0569*61
$GNGGA,225818.000,4910.565752,N,12304.331364,W,4,39,0.63,0.7,M,-16.8,M,2.0,0569*63
$GNGGA,225818.100,4910.565855,N,12304.331193,W,4,39,0.63,0.6,M,-16.8,M,2.1,0569*60
$GNGGA,225818.200,4910.565937,N,12304.331065,W,4,39,0.63,0.7,M,-16.8,M,2.2,0569*6C
$GNGGA,225818.300,4910.566035,N,12304.330916,W,4,39,0.63,0.7,M,-16.8,M,2.3,0569*68
$GNGGA,225818.400,4910.566129,N,12304.330765,W,4,39,0.59,0.6,M,-16.8,M,1.4,0569*65
$GNGGA,225818.500,4910.566222,N,12304.330630,W,4,39,0.59,0.7,M,-16.8,M,1.5,0569*6D
$GNGGA,225818.600,4910.566310,N,12304.330481,W,4,39,0.59,0.7,M,-16.8,M,1.6,0569*65
$GNGGA,225818.700,4910.566401,N,12304.330347,W,4,39,0.59,0.7,M,-16.8,M,1.7,0569*6F
$GNGGA,225818.800,4910.566502,N,12304.330208,W,4,39,0.59,0.7,M,-16.8,M,1.8,0569*67
$GNGGA,225818.900,4910.566593,N,12304.330073,W,4,39,0.59,0.7,M,-16.8,M,1.9,0569*61
$GNGGA,225819.000,4910.566685,N,12304.329945,W,4,39,0.59,0.7,M,-16.8,M,2.0,0569*63
$GNGGA,225819.100,4910.566771,N,12304.329803,W,4,39,0.59,0.7,M,-16.8,M,2.1,0569*6A
$GNGGA,225819.200,4910.566867,N,12304.329669,W,4,39,0.59,0.7,M,-16.8,M,2.2,0569*60
$GNGGA,225819.300,4910.566951,N,12304.329536,W,4,39,0.59,0.7,M,-16.8,M,2.3,0569*6D
$GNGGA,225819.400,4910.567048,N,12304.329421,W,4,39,0.69,0.7,M,-16.8,M,1.4,0569*6A
$GNGGA,225819.500,4910.567146,N,12304.329284,W,4,39,0.69,0.7,M,-16.8,M,1.5,0569*6C
$GNGGA,225819.600,4910.567236,N,12304.329158,W,4,39,0.69,0.7,M,-16.8,M,1.6,0569*6A
$GNGGA,225819.700,4910.567326,N,12304.329027,W,4,39,0.69,0.7,M,-16.8,M,1.7,0569*63
$GNGGA,225819.800,4910.567407,N,12304.328899,W,4,39,0.69,0.7,M,-16.8,M,1.8,0569*6B
$GNGGA,225819.900,4910.567498,N,12304.328773,W,4,39,0.69,0.7,M,-16.8,M,1.9,0569*66
$GNGGA,225820.000,4910.567583,N,12304.328642,W,4,39,0.69,0.7,M,-16.8,M,2.0,0569*67
$GNGGA,225820.100,4910.567666,N,12304.328514,W,4,39,0.69,0.7,M,-16.8,M,2.1,0569*6F
$GNGGA,225820.200,4910.567745,N,12304.328379,W,4,39,0.69,0.7,M,-16.8,M,2.2,0569*62
$GNGGA,225820.300,4910.567834,N,12304.328260,W,4,39,0.69,0.7,M,-16.8,M,2.3,0569*62
$GNGGA,225820.400,4910.567936,N,12304.328151,W,4,39,0.61,0.8,M,-16.8,M,1.4,0569*64
$GNGGA,225820.500,4910.568019,N,12304.328024,W,4,39,0.61,0.8,M,-16.8,M,1.5,0569*6C
$GNGGA,225820.600,4910.568104,N,12304.327898,W,4,39,0.61,0.8,M,-16.8,M,1.6,0569*61
$GNGGA,225820.700,4910.568189,N,12304.327771,W,4,39,0.61,0.8,M,-16.8,M,1.7,0569*6C
$GNGGA,225820.800,4910.568283,N,12304.327649,W,4,39,0.61,0.8,M,-16.8,M,1.8,0569*6F
$GNGGA,225820.900,4910.568379,N,12304.327515,W,4,39,0.61,0.8,M,-16.8,M,1.9,0569*61
$GNGGA,225821.000,4910.568466,N,12304.327383,W,4,39,0.61,0.8,M,-16.8,M,2.0,0569*63
$GNGGA,225821.100,4910.568560,N,12304.327251,W,4,39,0.61,0.8,M,-16.8,M,2.1,0569*6A
$GNGGA,225821.200,4910.568653,N,12304.327109,W,4,39,0.61,0.8,M,-16.8,M,2.2,0569*67
$GNGGA,225821.300,4910.568751,N,12304.326962,W,4,39,0.61,0.8,M,-16.8,M,2.3,0569*60
$GNGGA,225821.400,4910.568855,N,12304.326830,W,4,39,0.66,0.8,M,-16.8,M,1.4,0569*69
$GNGGA,225821.500,4910.568959,N,12304.326678,W,4,39,0.66,0.8,M,-16.8,M,1.5,0569*66
$GNGGA,225821.600,4910.569062,N,12304.326535,W,4,39,0.66,0.8,M,-16.8,M,1.6,0569*6C
$GNGGA,225821.700,4910.569164,N,12304.326387,W,4,39,0.66,0.8,M,-16.8,M,1.7,0569*64
$GNGGA,225821.800,4910.569265,N,12304.326248,W,4,39,0.66,0.8,M,-16.8,M,1.8,0569*64
$GNGGA,225821.900,4910.569360,N,12304.326102,W,4,39,0.66,0.8,M,-16.8,M,1.9,0569*6D
$GNGGA,225822.000,4910.569450,N,12304.325956,W,4,39,0.66,0.8,M,-16.8,M,2.0,0569*63
$GNGGA,225822.100,4910.569548,N,12304.325820,W,4,39,0.66,0.8,M,-16.8,M,2.1,0569*6B
$GNGGA,225822.200,4910.569637,N,12304.325680,W,4,39,0.66,0.8,M,-16.8,M,2.2,0569*64
$GNGGA,225822.300,4910.569729,N,12304.325546,W,4,39,0.66,0.8,M,-16.8,M,2.3,0569*63
$GNGGA,225822.400,4910.569820,N,12304.325424,W,4,39,0.66,0.8,M,-16.8,M,1.4,0569*63
$GNGGA,225822.500,4910.569917,N,12304.325301,W,4,39,0.66,0.8,M,-16.8,M,1.5,0569*66
$GNGGA,225822.600,4910.570018,N,12304.325169,W,4,39,0.66,0.8,M,-16.8,M,1.6,0569*64
$GNGGA,225822.700,4910.570105,N,12304.325026,W,4,39,0.66,0.8,M,-16.8,M,1.7,0569*63
$GNGGA,225822.800,4910.570194,N,12304.324891,W,4,39,0.66,0.8,M,-16.8,M,1.8,0569*6E
$GNGGA,225822.900,4910.570291,N,12304.324762,W,4,39,0.66,0.8,M,-16.8,M,1.9,0569*6B
$GNGGA,225823.000,4910.570383,N,12304.324627,W,4,38,0.66,0.8,M,-16.8,M,2.0,0569*6A
$GNGGA,225823.100,4910.570474,N,12304.324484,W,4,37,0.66,0.8,M,-16.8,M,2.1,0569*61
$GNGGA,225823.200,4910.570567,N,12304.324351,W,4,38,0.66,0.9,M,-16.8,M,2.2,0569*63
$GNGGA,225823.300,4910.570659,N,12304.324220,W,4,38,0.66,0.8,M,-16.8,M,2.3,0569*6B
$GNGGA,225823.400,4910.570751,N,12304.324088,W,4,39,0.65,0.9,M,-16.8,M,1.4,0569*62
$GNGGA,225823.500,4910.570847,N,12304.323955,W,4,39,0.65,0.8,M,-16.8,M,1.5,0569*65
$GNGGA,225823.600,4910.570942,N,12304.323835,W,4,38,0.65,0.9,M,-16.8,M,1.6,0569*66
$GNGGA,225823.700,4910.571038,N,12304.323705,W,4,39,0.65,0.8,M,-16.8,M,1.7,0569*6F
$GNGGA,225823.800,4910.571124,N,12304.323584,W,4,38,0.65,0.9,M,-16.8,M,1.8,0569*68
$GNGGA,225823.900,4910.571209,N,12304.323451,W,4,38,0.65,0.8,M,-16.8,M,1.9,0569*6C
$GNGGA,225824.000,4910.571299,N,12304.323329,W,4,38,0.65,0.9,M,-16.8,M,2.0,0569*68
$GNGGA,225824.100,4910.571394,N,12304.323211,W,4,39,0.65,0.9,M,-16.8,M,2.1,0569*6F
$GNGGA,225824.200,4910.571480,N,12304.323084,W,4,38,0.65,0.9,M,-16.8,M,2.2,0569*62
$GNGGA,225824.300,4910.571565,N,12304.322960,W,4,39,0.65,0.9,M,-16.8,M,2.3,0569*6B
$GNGGA,225824.400,4910.571666,N,12304.322834,W,4,39,0.63,0.9,M,-16.8,M,1.4,0569*6E
$GNGGA,225824.500,4910.571750,N,12304.322710,W,4,39,0.63,0.9,M,-16.8,M,1.5,0569*63
$GNGGA,225824.600,4910.571838,N,12304.322584,W,4,38,0.63,0.9,M,-16.8,M,1.6,0569*6C
$GNGGA,225824.700,4910.571930,N,12304.322462,W,4,39,0.63,0.9,M,-16.8,M,1.7,0569*6D
$GNGGA,225824.800,4910.572024,N,12304.322339,W,4,39,0.63,0.9,M,-16.8,M,1.8,0569*6B
$GNGGA,225824.900,4910.572111,N,12304.322192,W,4,39,0.63,0.9,M,-16.8,M,1.9,0569*6F
$GNGGA,225825.000,4910.572205,N,12304.322054,W,4,39,0.63,0.8,M,-16.8,M,2.0,0569*61
$GNGGA,225825.100,4910.572302,N,12304.321930,W,4,39,0.63,0.8,M,-16.8,M,2.1,0569*6F
$GNGGA,225825.200,4910.572388,N,12304.321808,W,4,39,0.63,0.8,M,-16.8,M,2.2,0569*67
$GNGGA,225825.300,4910.572487,N,12304.321696,W,4,39,0.63,0.9,M,-16.8,M,2.3,0569*67
$GNGGA,225825.400,4910.572556,N,12304.321582,W,4,39,0.66,1.0,M,-16.8,M,1.4,0569*62
$GNGGA,225825.500,4910.572650,N,12304.321448,W,4,39,0.66,1.0,M,-16.8,M,1.5,0569*60
$GNGGA,225825.600,4910.572733,N,12304.321317,W,4,39,0.66,1.0,M,-16.8,M,1.6,0569*69
$GNGGA,225825.700,4910.572822,N,12304.321198,W,4,39,0.66,1.0,M,-16.8,M,1.7,0569*63
$GNGGA,225825.800,4910.572910,N,12304.321086,W,4,39,0.66,1.0,M,-16.8,M,1.8,0569*6D
$GNGGA,225825.900,4910.572995,N,12304.320934,W,4,39,0.66,1.0,M,-16.8,M,1.9,0569*61
$GNGGA,225826.000,4910.573087,N,12304.320813,W,4,39,0.66,0.9,M,-16.8,M,2.0,0569*66
$GNGGA,225826.100,4910.573189,N,12304.320675,W,4,39,0.66,1.0,M,-16.8,M,2.1,0569*6F
$GNGGA,225826.200,4910.573272,N,12304.320526,W,4,39,0.66,0.9,M,-16.8,M,2.2,0569*65
$GNGGA,225826.300,4910.573362,N,12304.320389,W,4,39,0.66,1.0,M,-16.8,M,2.3,0569*6E
$GNGGA,225826.400,4910.573458,N,12304.320227,W,4,39,0.63,0.9,M,-16.8,M,1.4,0569*6B
$GNGGA,225826.500,4910.573534,N,12304.320085,W,4,39,0.63,1.0,M,-16.8,M,1.5,0569*62
$GNGGA,225826.600,4910.573634,N,12304.319923,W,4,39,0.63,0.9,M,-16.8,M,1.6,0569*66
$GNGGA,225826.700,4910.573718,N,12304.319765,W,4,39,0.63,1.0,M,-16.8,M,1.7,0569*6D
$GNGGA,225826.800,4910.573819,N,12304.319610,W,4,39,0.63,0.9,M,-16.8,M,1.8,0569*68
$GNGGA,225826.900,4910.573902,N,12304.319434,W,4,39,0.63,0.9,M,-16.8,M,1.9,0569*67
$GNGGA,225827.000,4910.573989,N,12304.319278,W,4,39,0.63,1.0,M,-16.8,M,2.0,0569*60
$GNGGA,225827.100,4910.574080,N,12304.319116,W,4,39,0.63,1.0,M,-16.8,M,2.1,0569*6C
$GNGGA,225827.200,4910.574168,N,12304.318951,W,4,39,0.63,1.0,M,-16.8,M,2.2,0569*61
$GNGGA,225827.300,4910.574240,N,12304.318764,W,4,39,0.63,1.0,M,-16.8,M,2.3,0569*60
$GNGGA,225827.400,4910.574333,N,12304.318601,W,4,39,0.61,0.9,M,-16.8,M,1.4,0569*6E
$GNGGA,225827.500,4910.574407,N,12304.318429,W,4,39,0.61,1.0,M,-16.8,M,1.5,0569*6E
$GNGGA,225827.600,4910.574499,N,12304.318266,W,4,39,0.61,1.0,M,-16.8,M,1.6,0569*64
$GNGGA,225827.700,4910.574564,N,12304.318090,W,4,39,0.61,1.0,M,-16.8,M,1.7,0569*6C
$GNGGA,225827.800,4910.574624,N,12304.317908,W,4,39,0.61,0.9,M,-16.8,M,1.8,0569*64
$GNGGA,225827.900,4910.574695,N,12304.317739,W,4,39,0.61,0.9,M,-16.8,M,1.9,0569*62
$GNGGA,225828.000,4910.574776,N,12304.317574,W,4,39,0.61,0.9,M,-16.8,M,2.0,0569*69
$GNGGA,225828.100,4910.574834,N,12304.317401,W,4,39,0.61,0.9,M,-16.8,M,2.1,0569*63
$GNGGA,225828.200,4910.574905,N,12304.317232,W,4,39,0.61,0.9,M,-16.8,M,2.2,0569*66
$GNGGA,225828.300,4910.574968,N,12304.317059,W,4,39,0.61,0.9,M,-16.8,M,2.3,0569*62
$GNGGA,225828.400,4910.575037,N,12304.316880,W,4,39,0.66,0.9,M,-16.8,M,1.4,0569*69
$GNGGA,225828.500,4910.575101,N,12304.316691,W,4,39,0.66,0.9,M,-16.8,M,1.5,0569*63
$GNGGA,225828.600,4910.575172,N,12304.316512,W,4,39,0.66,0.9,M,-16.8,M,1.6,0569*6F
$GNGGA,225828.700,4910.575236,N,12304.316324,W,4,39,0.66,1.0,M,-16.8,M,1.7,0569*67
$GNGGA,225828.800,4910.575293,N,12304.316123,W,4,39,0.66,0.9,M,-16.8,M,1.8,0569*65
$GNGGA,225828.900,4910.575359,N,12304.315941,W,4,39,0.66,0.9,M,-16.8,M,1.9,0569*6D
$GNGGA,225829.000,4910.575405,N,12304.315736,W,4,39,0.66,0.9,M,-16.8,M,2.0,0569*6F
$GNGGA,225829.100,4910.575467,N,12304.315536,W,4,39,0.66,0.9,M,-16.8,M,2.1,0569*69
$GNGGA,225829.200,4910.575520,N,12304.315326,W,4,39,0.66,0.9,M,-16.8,M,2.2,0569*6C
$GNGGA,225829.300,4910.575588,N,12304.315130,W,4,39,0.66,0.9,M,-16.8,M,2.3,0569*6B
$GNGGA,225829.400,4910.575640,N,12304.314938,W,4,39,0.76,1.0,M,-16.8,M,1.4,0569*67
$GNGGA,225829.500,4910.575696,N,12304.314728,W,4,39,0.76,1.0,M,-16.8,M,1.5,0569*63
$GNGGA,225829.600,4910.575761,N,12304.314529,W,4,39,0.76,0.9,M,-16.8,M,1.6,0569*61
$GNGGA,225829.700,4910.575811,N,12304.314331,W,4,39,0.76,0.9,M,-16.8,M,1.7,0569*66
$GNGGA,225829.800,4910.575868,N,12304.314134,W,4,39,0.76,1.0,M,-16.8,M,1.8,0569*67
$GNGGA,225829.900,4910.575926,N,12304.313936,W,4,39,0.76,0.9,M,-16.8,M,1.9,0569*69
$GNGGA,225830.000,4910.575970,N,12304.313740,W,4,39,0.76,0.9,M,-16.8,M,2.0,0569*6E
$GNGGA,225830.100,4910.576012,N,12304.313545,W,4,39,0.76,1.0,M,-16.8,M,2.1,0569*6F
$GNGGA,225830.200,4910.576063,N,12304.313349,W,4,39,0.76,1.0,M,-16.8,M,2.2,0569*63
$GNGGA,225830.300,4910.576111,N,12304.313154,W,4,39,0.76,1.0,M,-16.8,M,2.3,0569*69
$GNGGA,225830.400,4910.576165,N,12304.312954,W,4,39,0.64,0.9,M,-16.8,M,1.4,0569*6B
$GNGGA,225830.500,4910.576221,N,12304.312761,W,4,39,0.64,0.9,M,-16.8,M,1.5,0569*60
$GNGGA,225830.600,4910.576265,N,12304.312571,W,4,39,0.64,1.0,M,-16.8,M,1.6,0569*6B
$GNGGA,225830.700,4910.576314,N,12304.312382,W,4,39,0.64,1.0,M,-16.8,M,1.7,0569*66
$GNGGA,225830.800,4910.576371,N,12304.312195,W,4,39,0.64,0.9,M,-16.8,M,1.8,0569*69
$GNGGA,225830.900,4910.576429,N,12304.312013,W,4,39,0.64,1.0,M,-16.8,M,1.9,0569*64
$GNGGA,225831.000,4910.576469,N,12304.311822,W,4,39,0.64,1.0,M,-16.8,M,2.0,0569*6B
$GNGGA,225831.100,4910.576518,N,12304.311630,W,4,39,0.64,1.0,M,-16.8,M,2.1,0569*61
$GNGGA,225831.200,4910.576573,N,12304.311451,W,4,39,0.64,1.0,M,-16.8,M,2.2,0569*69
$GNGGA,225831.300,4910.576626,N,12304.311268,W,4,39,0.64,1.0,M,-16.8,M,2.3,0569*66
$GNGGA,225831.400,4910.576673,N,12304.311091,W,4,39,0.70,1.0,M,-16.8,M,1.4,0569*64
$GNGGA,225831.500,4910.576731,N,12304.310904,W,4,39,0.70,1.0,M,-16.8,M,1.5,0569*67
$GNGGA,225831.600,4910.576789,N,12304.310719,W,4,39,0.70,1.0,M,-16.8,M,1.6,0569*66
$GNGGA,225831.700,4910.576852,N,12304.310542,W,4,39,0.70,1.0,M,-16.8,M,1.7,0569*63
$GNGGA,225831.800,4910.576902,N,12304.310366,W,4,39,0.70,1.0,M,-16.8,M,1.8,0569*67
$GNGGA,225831.900,4910.576963,N,12304.310180,W,4,39,0.70,1.0,M,-16.8,M,1.9,0569*6A
$GNGGA,225832.000,4910.577029,N,12304.310009,W,4,39,0.70,1.0,M,-16.8,M,2.0,0569*6C
$GNGGA,225832.100,4910.577095,N,12304.309841,W,4,39,0.70,1.0,M,-16.8,M,2.1,0569*67
$GNGGA,225832.200,4910.577159,N,12304.309661,W,4,39,0.70,1.0,M,-16.8,M,2.2,0569*6A
$GNGGA,225832.300,4910.577222,N,12304.309492,W,4,39,0.70,1.0,M,-16.8,M,2.3,0569*6B
$GNGGA,225832.400,4910.577293,N,12304.309325,W,4,39,0.55,1.0,M,-16.8,M,1.4,0569*6E
$GNGGA,225832.500,4910.577365,N,12304.309163,W,4,39,0.55,1.0,M,-16.8,M,1.5,0569*66
$GNGGA,225832.600,4910.577430,N,12304.308995,W,4,39,0.55,0.9,M,-16.8,M,1.6,0569*69
$GNGGA,225832.700,4910.577503,N,12304.308841,W,4,39,0.55,1.0,M,-16.8,M,1.7,0569*68
$GNGGA,225832.800,4910.577587,N,12304.308698,W,4,39,0.55,1.0,M,-16.8,M,1.8,0569*6E
$GNGGA,225832.900,4910.577667,N,12304.308543,W,4,39,0.55,0.9,M,-16.8,M,1.9,0569*6E
$GNGGA,225833.000,4910.577742,N,12304.308397,W,4,39,0.55,0.9,M,-16.8,M,2.0,0569*65
$GNGGA,225833.100,4910.577828,N,12304.308250,W,4,39,0.55,0.9,M,-16.8,M,2.1,0569*6C
$GNGGA,225833.200,4910.577905,N,12304.308105,W,4,39,0.55,0.9,M,-16.8,M,2.2,0569*61
$GNGGA,225833.300,4910.577995,N,12304.307971,W,4,39,0.55,1.0,M,-16.8,M,2.3,0569*64
$GNGGA,225833.400,4910.578082,N,12304.307848,W,4,39,0.53,1.0,M,-16.8,M,1.4,0569*6A
$GNGGA,225833.500,4910.578180,N,12304.307703,W,4,39,0.53,0.9,M,-16.8,M,1.5,0569*61
$GNGGA,225833.600,4910.578271,N,12304.307578,W,4,39,0.53,1.0,M,-16.8,M,1.6,0569*6A
$GNGGA,225833.700,4910.578363,N,12304.307461,W,4,39,0.53,0.9,M,-16.8,M,1.7,0569*69
$GNGGA,225833.800,4910.578452,N,12304.307336,W,4,39,0.53,0.9,M,-16.8,M,1.8,0569*69
$GNGGA,225833.900,4910.578554,N,12304.307229,W,4,39,0.53,1.0,M,-16.8,M,1.9,0569*69
$GNGGA,225834.000,4910.578658,N,12304.307104,W,4,39,0.53,0.9,M,-16.8,M,2.0,0569*66
$GNGGA,225834.100,4910.578759,N,12304.306996,W,4,39,0.53,0.9,M,-16.8,M,2.1,0569*64
$GNGGA,225834.200,4910.578863,N,12304.306895,W,4,39,0.53,0.9,M,-16.8,M,2.2,0569*60
$GNGGA,225834.300,4910.578965,N,12304.306804,W,4,39,0.53,1.0,M,-16.8,M,2.3,0569*67
$GNGGA,225834.400,4910.579069,N,12304.306729,W,4,39,0.58,1.0,M,-16.8,M,1.4,0569*6B
$GNGGA,225834.500,4910.579182,N,12304.306634,W,4,38,0.58,1.0,M,-16.8,M,1.5,0569*63
$GNGGA,225834.600,4910.579289,N,12304.306544,W,4,38,0.58,1.0,M,-16.8,M,1.6,0569*6F
$GNGGA,225834.700,4910.579392,N,12304.306459,W,4,38,0.58,1.0,M,-16.8,M,1.7,0569*69
$GNGGA,225834.800,4910.579509,N,12304.306387,W,4,38,0.58,1.0,M,-16.8,M,1.8,0569*69
$GNGGA,225834.900,4910.579621,N,12304.306313,W,4,38,0.58,1.0,M,-16.8,M,1.9,0569*6D
$GNGGA,225835.000,4910.579742,N,12304.306244,W,4,38,0.58,1.0,M,-16.8,M,2.0,0569*68
$GNGGA,225835.100,4910.579844,N,12304.306176,W,4,38,0.58,1.0,M,-16.8,M,2.1,0569*63
$GNGGA,225835.200,4910.579957,N,12304.306112,W,4,38,0.58,1.0,M,-16.8,M,2.2,0569*62
$GNGGA,225835.300,4910.580085,N,12304.306059,W,4,38,0.58,1.0,M,-16.8,M,2.3,0569*6C
$GNGGA,225835.400,4910.580200,N,12304.306001,W,4,39,0.64,1.0,M,-16.8,M,1.4,0569*63
$GNGGA,225835.500,4910.580323,N,12304.305968,W,4,39,0.64,1.0,M,-16.8,M,1.5,0569*66
$GNGGA,225835.600,4910.580441,N,12304.305928,W,4,39,0.64,1.0,M,-16.8,M,1.6,0569*61
$GNGGA,225835.700,4910.580553,N,12304.305883,W,4,39,0.64,1.0,M,-16.8,M,1.7,0569*63
$GNGGA,225835.800,4910.580670,N,12304.305848,W,4,39,0.64,1.0,M,-16.8,M,1.8,0569*66
$GNGGA,225835.900,4910.580786,N,12304.305820,W,4,39,0.64,1.0,M,-16.8,M,1.9,0569*60
$GNGGA,225836.000,4910.580910,N,12304.305803,W,4,38,0.64,1.0,M,-16.8,M,2.0,0569*61
$GNGGA,225836.100,4910.581032,N,12304.305787,W,4,38,0.64,0.9,M,-16.8,M,2.1,0569*62
$GNGGA,225836.200,4910.581154,N,12304.305771,W,4,38,0.64,0.9,M,-16.8,M,2.2,0569*6A
$GNGGA,225836.300,4910.581269,N,12304.305762,W,4,39,0.64,0.9,M,-16.8,M,2.3,0569*64
$GNGGA,225836.400,4910.581381,N,12304.305757,W,4,39,0.53,1.0,M,-16.8,M,1.4,0569*6A
$GNGGA,225836.500,4910.581503,N,12304.305763,W,4,39,0.53,1.0,M,-16.8,M,1.5,0569*61
$GNGGA,225836.600,4910.581612,N,12304.305772,W,4,39,0.53,0.9,M,-16.8,M,1.6,0569*6A
$GNGGA,225836.700,4910.581731,N,12304.305779,W,4,39,0.53,0.9,M,-16.8,M,1.7,0569*61
$GNGGA,225836.800,4910.581843,N,12304.305794,W,4,39,0.53,0.9,M,-16.8,M,1.8,0569*68
$GNGGA,225836.900,4910.581967,N,12304.305813,W,4,39,0.53,1.0,M,-16.8,M,1.9,0569*67
$GNGGA,225837.000,4910.582078,N,12304.305837,W,4,39,0.53,1.0,M,-16.8,M,2.0,0569*67
$GNGGA,225837.100,4910.582188,N,12304.305880,W,4,38,0.53,1.0,M,-16.8,M,2.1,0569*64
$GNGGA,225837.200,4910.582303,N,12304.305906,W,4,38,0.53,1.0,M,-16.8,M,2.2,0569*6A
$GNGGA,225837.300,4910.582418,N,12304.305939,W,4,38,0.53,1.0,M,-16.8,M,2.3,0569*6B
$GNGGA,225837.400,4910.582523,N,12304.305990,W,4,38,0.51,1.0,M,-16.8,M,1.4,0569*60
$GNGGA,225837.500,4910.582617,N,12304.306024,W,4,38,0.51,0.9,M,-16.8,M,1.5,0569*69
$GNGGA,225837.600,4910.582722,N,12304.306070,W,4,39,0.51,0.9,M,-16.8,M,1.6,0569*6E
$GNGGA,225837.700,4910.582831,N,12304.306120,W,4,37,0.51,0.9,M,-16.8,M,1.7,0569*69
$GNGGA,225837.800,4910.582941,N,12304.306170,W,4,37,0.51,0.9,M,-16.8,M,1.8,0569*6A
$GNGGA,225837.900,4910.583047,N,12304.306230,W,4,39,0.51,0.9,M,-16.8,M,1.9,0569*6D
$GNGGA,225838.000,4910.583148,N,12304.306300,W,4,38,0.51,0.9,M,-16.8,M,2.0,0569*6C
$GNGGA,225838.100,4910.583255,N,12304.306369,W,4,39,0.51,0.9,M,-16.8,M,2.1,0569*6D
$GNGGA,225838.200,4910.583367,N,12304.306446,W,4,39,0.51,0.9,M,-16.8,M,2.2,0569*67
$GNGGA,225838.300,4910.583480,N,12304.306533,W,4,39,0.51,1.0,M,-16.8,M,2.3,0569*62
$GNGGA,225838.400,4910.583589,N,12304.306616,W,4,39,0.53,1.0,M,-16.8,M,1.4,0569*6F
$GNGGA,225838.500,4910.583701,N,12304.306702,W,4,38,0.53,1.0,M,-16.8,M,1.5,0569*68
$GNGGA,225838.600,4910.583808,N,12304.306800,W,4,39,0.53,1.0,M,-16.8,M,1.6,0569*62
$GNGGA,225838.700,4910.583919,N,12304.306915,W,4,39,0.53,1.0,M,-16.8,M,1.7,0569*66
$GNGGA,225838.800,4910.584023,N,12304.306999,W,4,39,0.53,1.0,M,-16.8,M,1.8,0569*65
$GNGGA,225838.900,4910.584129,N,12304.307112,W,4,39,0.53,1.0,M,-16.8,M,1.9,0569*64
$GNGGA,225839.000,4910.584227,N,12304.307211,W,4,39,0.53,0.9,M,-16.8,M,2.0,0569*63
$GNGGA,225839.100,4910.584328,N,12304.307329,W,4,39,0.53,0.9,M,-16.8,M,2.1,0569*67
$GNGGA,225839.200,4910.584430,N,12304.307453,W,4,39,0.53,0.9,M,-16.8,M,2.2,0569*63
$GNGGA,225839.300,4910.584524,N,12304.307577,W,4,39,0.53,0.9,M,-16.8,M,2.3,0569*60
$GNGGA,225839.400,4910.584627,N,12304.307713,W,4,39,0.63,1.0,M,-16.8,M,1.4,0569*68
$GNGGA,225839.500,4910.584708,N,12304.307830,W,4,39,0.63,0.9,M,-16.8,M,1.5,0569*62
$GNGGA,225839.600,4910.584808,N,12304.307955,W,4,39,0.63,0.9,M,-16.8,M,1.6,0569*6F
$GNGGA,225839.700,4910.584897,N,12304.308095,W,4,39,0.63,1.0,M,-16.8,M,1.7,0569*6B
$GNGGA,225839.800,4910.584978,N,12304.308231,W,4,39,0.63,1.0,M,-16.8,M,1.8,0569*67
$GNGGA,225839.900,4910.585060,N,12304.308374,W,4,39,0.63,1.0,M,-16.8,M,1.9,0569*66
$GNGGA,225840.000,4910.585144,N,12304.308513,W,4,39,0.63,1.0,M,-16.8,M,2.0,0569*6B
$GNGGA,225840.100,4910.585229,N,12304.308658,W,4,39,0.63,1.0,M,-16.8,M,2.1,0569*6F
$GNGGA,225840.200,4910.585310,N,12304.308809,W,4,38,0.63,1.0,M,-16.8,M,2.2,0569*6F
$GNGGA,225840.300,4910.585400,N,12304.308978,W,4,38,0.63,1.0,M,-16.8,M,2.3,0569*6E
$GNGGA,225840.400,4910.585481,N,12304.309136,W,4,38,0.62,0.9,M,-16.8,M,1.4,0569*6E
$GNGGA,225840.500,4910.585568,N,12304.309303,W,4,38,0.62,0.9,M,-16.8,M,1.5,0569*6C
$GNGGA,225840.600,4910.585658,N,12304.309479,W,4,38,0.62,0.9,M,-16.8,M,1.6,0569*66
$GNGGA,225840.700,4910.585740,N,12304.309658,W,4,39,0.62,0.9,M,-16.8,M,1.7,0569*6E
$GNGGA,225840.800,4910.585824,N,12304.309839,W,4,39,0.62,0.9,M,-16.8,M,1.8,0569*6A
$GNGGA,225840.900,4910.585914,N,12304.310035,W,4,39,0.62,0.9,M,-16.8,M,1.9,0569*64
$GNGGA,225841.000,4910.585993,N,12304.310215,W,4,39,0.62,0.9,M,-16.8,M,2.0,0569*69
$GNGGA,225841.100,4910.586073,N,12304.310402,W,4,39,0.62,0.9,M,-16.8,M,2.1,0569*6D
$GNGGA,225841.200,4910.586148,N,12304.310579,W,4,39,0.62,0.9,M,-16.8,M,2.2,0569*69
$GNGGA,225841.300,4910.586239,N,12304.310770,W,4,39,0.62,1.0,M,-16.8,M,2.3,0569*6F
$GNGGA,225841.400,4910.586313,N,12304.310957,W,4,39,0.63,0.9,M,-16.8,M,1.4,0569*67
$GNGGA,225841.500,4910.586391,N,12304.311140,W,4,39,0.63,0.9,M,-16.8,M,1.5,0569*62
$GNGGA,225841.600,4910.586473,N,12304.311320,W,4,39,0.63,0.9,M,-16.8,M,1.6,0569*6D
$GNGGA,225841.700,4910.586545,N,12304.311506,W,4,39,0.63,0.9,M,-16.8,M,1.7,0569*6B
$GNGGA,225841.800,4910.586614,N,12304.311694,W,4,39,0.63,0.9,M,-16.8,M,1.8,0569*64
$GNGGA,225841.900,4910.586692,N,12304.311869,W,4,39,0.63,0.9,M,-16.8,M,1.9,0569*66
$GNGGA,225842.000,4910.586770,N,12304.312056,W,4,38,0.63,0.9,M,-16.8,M,2.0,0569*6D
$GNGGA,225842.100,4910.586849,N,12304.312236,W,4,39,0.63,0.9,M,-16.8,M,2.1,0569*6D
$GNGGA,225842.200,4910.586923,N,12304.312420,W,4,39,0.63,0.9,M,-16.8,M,2.2,0569*61
$GNGGA,225842.300,4910.586992,N,12304.312603,W,4,38,0.63,1.0,M,-16.8,M,2.3,0569*61
$GNGGA,225842.400,4910.587066,N,12304.312784,W,4,38,0.62,0.9,M,-16.8,M,1.4,0569*66
$GNGGA,225842.500,4910.587145,N,12304.312965,W,4,38,0.62,0.9,M,-16.8,M,1.5,0569*67
$GNGGA,225842.600,4910.587220,N,12304.313145,W,4,38,0.62,0.9,M,-16.8,M,1.6,0569*6C
$GNGGA,225842.700,4910.587297,N,12304.313319,W,4,38,0.62,0.9,M,-16.8,M,1.7,0569*6B
$GNGGA,225842.800,4910.587373,N,12304.313500,W,4,38,0.62,1.0,M,-16.8,M,1.8,0569*66
$GNGGA,225842.900,4910.587449,N,12304.313683,W,4,39,0.62,0.9,M,-16.8,M,1.9,0569*69
$GNGGA,225843.000,4910.587528,N,12304.313861,W,4,38,0.62,0.9,M,-16.8,M,2.0,0569*6E
$GNGGA,225843.100,4910.587605,N,12304.314033,W,4,39,0.62,0.9,M,-16.8,M,2.1,0569*6B
$GNGGA,225843.200,4910.587684,N,12304.314201,W,4,39,0.62,0.9,M,-16.8,M,2.2,0569*61
$GNGGA,225843.300,4910.587767,N,12304.314378,W,4,39,0.62,1.0,M,-16.8,M,2.3,0569*6A
$GNGGA,225843.400,4910.587854,N,12304.314545,W,4,39,0.62,0.9,M,-16.8,M,1.4,0569*66
$GNGGA,225843.500,4910.587943,N,12304.314722,W,4,39,0.62,0.9,M,-16.8,M,1.5,0569*62
$GNGGA,225843.600,4910.588024,N,12304.314894,W,4,39,0.62,0.9,M,-16.8,M,1.6,0569*67
$GNGGA,225843.700,4910.588106,N,12304.315058,W,4,39,0.62,0.9,M,-16.8,M,1.7,0569*6F
$GNGGA,225843.800,4910.588197,N,12304.315229,W,4,39,0.62,0.9,M,-16.8,M,1.8,0569*63
$GNGGA,225843.900,4910.588285,N,12304.315397,W,4,39,0.62,0.9,M,-16.8,M,1.9,0569*67
$GNGGA,225844.000,4910.588370,N,12304.315563,W,4,39,0.62,0.9,M,-16.8,M,2.0,0569*65
$GNGGA,225844.100,4910.588463,N,12304.315721,W,4,39,0.62,0.9,M,-16.8,M,2.1,0569*64
$GNGGA,225844.200,4910.588572,N,12304.315893,W,4,39,0.62,0.9,M,-16.8,M,2.2,0569*63
$GNGGA,225844.300,4910.588667,N,12304.316052,W,4,39,0.62,0.9,M,-16.8,M,2.3,0569*62
$GNGGA,225844.400,4910.588772,N,12304.316202,W,4,39,0.60,0.9,M,-16.8,M,1.4,0569*61
$GNGGA,225844.500,4910.588883,N,12304.316360,W,4,39,0.60,0.9,M,-16.8,M,1.5,0569*65
$GNGGA,225844.600,4910.588971,N,12304.316511,W,4,39,0.60,0.9,M,-16.8,M,1.6,0569*69
$GNGGA,225844.700,4910.589089,N,12304.316673,W,4,38,0.60,0.8,M,-16.8,M,1.7,0569*61
$GNGGA,225844.800,4910.589191,N,12304.316830,W,4,38,0.60,0.9,M,-16.8,M,1.8,0569*61
$GNGGA,225844.900,4910.589299,N,12304.316996,W,4,39,0.60,0.8,M,-16.8,M,1.9,0569*67
$GNGGA,225845.000,4910.589403,N,12304.317148,W,4,39,0.60,0.8,M,-16.8,M,2.0,0569*6A
$GNGGA,225845.100,4910.589513,N,12304.317294,W,4,39,0.60,0.8,M,-16.8,M,2.1,0569*68
$GNGGA,225845.200,4910.589623,N,12304.317433,W,4,39,0.60,0.8,M,-16.8,M,2.2,0569*63
$GNGGA,225845.300,4910.589735,N,12304.317573,W,4,38,0.60,0.8,M,-16.8,M,2.3,0569*61
$GNGGA,225845.400,4910.589849,N,12304.317716,W,4,39,0.60,0.8,M,-16.8,M,1.4,0569*66
$GNGGA,225845.500,4910.589961,N,12304.317852,W,4,38,0.60,0.8,M,-16.8,M,1.5,0569*63
$GNGGA,225845.600,4910.590070,N,12304.317990,W,4,39,0.60,0.8,M,-16.8,M,1.6,0569*6C
$GNGGA,225845.700,4910.590180,N,12304.318124,W,4,39,0.60,0.8,M,-16.8,M,1.7,0569*6A
$GNGGA,225845.800,4910.590294,N,12304.318262,W,4,39,0.60,0.8,M,-16.8,M,1.8,0569*6D
$GNGGA,225845.900,4910.590410,N,12304.318396,W,4,39,0.60,0.8,M,-16.8,M,1.9,0569*6D
$GNGGA,225846.000,4910.590519,N,12304.318523,W,4,39,0.60,0.8,M,-16.8,M,2.0,0569*6D
$GNGGA,225846.100,4910.590642,N,12304.318656,W,4,39,0.60,0.8,M,-16.8,M,2.1,0569*61
$GNGGA,225846.200,4910.590775,N,12304.318785,W,4,39,0.60,0.7,M,-16.8,M,2.2,0569*64
$GNGGA,225846.300,4910.590893,N,12304.318909,W,4,39,0.60,0.7,M,-16.8,M,2.3,0569*69
$GNGGA,225846.400,4910.591021,N,12304.319043,W,4,39,0.81,0.7,M,-16.8,M,1.4,0569*63
$GNGGA,225846.500,4910.591147,N,12304.319182,W,4,39,0.81,0.7,M,-16.8,M,1.5,0569*6E
$GNGGA,225846.600,4910.591268,N,12304.319303,W,4,39,0.81,0.8,M,-16.8,M,1.6,0569*64
$GNGGA,225846.700,4910.591400,N,12304.319438,W,4,39,0.81,0.8,M,-16.8,M,1.7,0569*63
$GNGGA,225846.800,4910.591523,N,12304.319561,W,4,39,0.81,0.8,M,-16.8,M,1.8,0569*6E
$GNGGA,225846.900,4910.591675,N,12304.319682,W,4,39,0.81,0.9,M,-16.8,M,1.9,0569*61
$GNGGA,225847.000,4910.591804,N,12304.319801,W,4,39,0.81,0.8,M,-16.8,M,2.0,0569*6F
$GNGGA,225847.100,4910.591961,N,12304.319954,W,4,39,0.81,0.8,M,-16.8,M,2.1,0569*6C
$GNGGA,225847.200,4910.592085,N,12304.320091,W,4,39,0.81,0.8,M,-16.8,M,2.2,0569*66
$GNGGA,225847.300,4910.592217,N,12304.320178,W,4,39,0.81,1.0,M,-16.8,M,2.3,0569*60
$GNGGA,225847.400,4910.592369,N,12304.320305,W,4,39,0.81,0.8,M,-16.8,M,1.4,0569*6A
$GNGGA,225847.500,4910.592523,N,12304.320448,W,4,39,0.81,0.8,M,-16.8,M,1.5,0569*6C
$GNGGA,225847.600,4910.592654,N,12304.320571,W,4,39,0.81,0.7,M,-16.8,M,1.6,0569*6B
$GNGGA,225847.700,4910.592774,N,12304.320693,W,4,39,0.81,0.8,M,-16.8,M,1.7,0569*68
$GNGGA,225847.800,4910.592924,N,12304.320795,W,4,39,0.81,0.6,M,-16.8,M,1.8,0569*6A
$GNGGA,225847.900,4910.593110,N,12304.320871,W,4,39,0.81,0.5,M,-16.8,M,1.9,0569*62
$GNGGA,225848.000,4910.593270,N,12304.320989,W,4,39,0.81,0.5,M,-16.8,M,2.0,0569*6D
$GNGGA,225848.100,4910.593418,N,12304.321097,W,4,39,0.81,0.6,M,-16.8,M,2.1,0569*61
$GNGGA,225848.200,4910.593576,N,12304.321192,W,4,39,0.81,0.6,M,-16.8,M,2.2,0569*6C
$GNGGA,225848.300,4910.593703,N,12304.321278,W,4,39,0.81,0.5,M,-16.8,M,2.3,0569*68
$GNGGA,225848.400,4910.593849,N,12304.321384,W,5,39,0.65,0.5,M,-16.8,M,1.4,0569*63
$GNGGA,225848.500,4910.593997,N,12304.321498,W,5,39,0.65,0.5,M,-16.8,M,1.5,0569*6B
$GNGGA,225848.600,4910.594147,N,12304.321620,W,5,38,0.65,0.5,M,-16.8,M,1.6,0569*69
$GNGGA,225848.700,4910.594302,N,12304.321748,W,5,39,0.65,0.5,M,-16.8,M,1.7,0569*64
$GNGGA,225848.800,4910.594459,N,12304.321879,W,5,39,0.65,0.5,M,-16.8,M,1.8,0569*60
$GNGGA,225848.900,4910.594616,N,12304.322007,W,5,39,0.65,0.5,M,-16.8,M,1.9,0569*6B
$GNGGA,225849.000,4910.594775,N,12304.322136,W,5,39,0.65,0.5,M,-16.8,M,2.0,0569*6E
$GNGGA,225849.100,4910.594934,N,12304.322267,W,5,39,0.65,0.5,M,-16.8,M,2.1,0569*62
$GNGGA,225849.200,4910.595095,N,12304.322401,W,5,39,0.65,0.5,M,-16.8,M,2.2,0569*67
$GNGGA,225849.300,4910.595256,N,12304.322537,W,5,39,0.65,0.5,M,-16.8,M,2.3,0569*6E
$GNGGA,225849.400,4910.595383,N,12304.322636,W,5,39,0.82,0.5,M,-16.8,M,1.4,0569*6F
$GNGGA,225849.500,4910.595511,N,12304.322739,W,5,38,0.82,0.4,M,-16.8,M,1.5,0569*6C
$GNGGA,225849.600,4910.595641,N,12304.322852,W,5,38,0.82,0.4,M,-16.8,M,1.6,0569*68
$GNGGA,225849.700,4910.595774,N,12304.322968,W,5,39,0.82,0.4,M,-16.8,M,1.7,0569*66
$GNGGA,225849.800,4910.595911,N,12304.323085,W,5,39,0.82,0.4,M,-16.8,M,1.8,0569*60
$GNGGA,225849.900,4910.596051,N,12304.323204,W,5,39,0.82,0.4,M,-16.8,M,1.9,0569*65
$GNGGA,225850.000,4910.596193,N,12304.323324,W,5,39,0.82,0.4,M,-16.8,M,2.0,0569*62
$GNGGA,225850.100,4910.596338,N,12304.323445,W,5,39,0.82,0.4,M,-16.8,M,2.1,0569*61
$GNGGA,225850.200,4910.596485,N,12304.323567,W,5,39,0.82,0.3,M,-16.8,M,2.2,0569*66
$GNGGA,225850.300,4910.596633,N,12304.323691,W,5,39,0.82,0.3,M,-16.8,M,2.3,0569*63
$GNGGA,225850.400,4910.596793,N,12304.323845,W,5,39,0.69,0.4,M,-16.8,M,1.4,0569*6E
$GNGGA,225850.500,4910.596953,N,12304.323997,W,5,39,0.69,0.4,M,-16.8,M,1.5,0569*62
$GNGGA,225850.600,4910.597113,N,12304.324149,W,5,39,0.69,0.5,M,-16.8,M,1.6,0569*62
$GNGGA,225850.700,4910.597274,N,12304.324299,W,5,39,0.69,0.6,M,-16.8,M,1.7,0569*6D
$GNGGA,225850.800,4910.597436,N,12304.324448,W,5,39,0.69,0.6,M,-16.8,M,1.8,0569*67
$GNGGA,225850.900,4910.597600,N,12304.324596,W,5,39,0.69,0.6,M,-16.8,M,1.9,0569*62
$GNGGA,225851.000,4910.597765,N,12304.324743,W,5,39,0.69,0.7,M,-16.8,M,2.0,0569*69
$GNGGA,225851.100,4910.597930,N,12304.324889,W,5,39,0.69,0.7,M,-16.8,M,2.1,0569*6E
$GNGGA,225851.200,4910.598095,N,12304.325033,W,5,39,0.69,0.7,M,-16.8,M,2.2,0569*6F
$GNGGA,225851.300,4910.598261,N,12304.325174,W,5,39,0.69,0.8,M,-16.8,M,2.3,0569*6B
$GNGGA,225851.400,4910.598432,N,12304.325319,W,5,38,0.68,0.8,M,-16.8,M,1.4,0569*61
$GNGGA,225851.500,4910.598604,N,12304.325463,W,5,38,0.68,0.8,M,-16.8,M,1.5,0569*6C
$GNGGA,225851.600,4910.598776,N,12304.325607,W,5,39,0.68,0.8,M,-16.8,M,1.6,0569*69
$GNGGA,225851.700,4910.598948,N,12304.325754,W,5,39,0.68,0.9,M,-16.8,M,1.7,0569*6C
$GNGGA,225851.800,4910.599121,N,12304.325903,W,5,39,0.68,0.9,M,-16.8,M,1.8,0569*66
$GNGGA,225851.900,4910.599294,N,12304.326050,W,5,39,0.68,0.9,M,-16.8,M,1.9,0569*67
$GNGGA,225852.000,4910.599469,N,12304.326197,W,5,39,0.68,0.9,M,-16.8,M,2.0,0569*69
$GNGGA,225852.100,4910.599643,N,12304.326344,W,5,39,0.68,0.9,M,-16.8,M,2.1,0569*6F
$GNGGA,225852.200,4910.599818,N,12304.326492,W,5,39,0.68,1.0,M,-16.8,M,2.2,0569*6B
$GNGGA,225852.300,4910.599994,N,12304.326640,W,5,39,0.68,1.0,M,-16.8,M,2.3,0569*63
$GNGGA,225852.400,4910.600243,N,12304.326830,W,4,39,0.59,0.9,M,-16.8,M,1.4,0569*60
$GNGGA,225852.500,4910.600415,N,12304.326966,W,4,39,0.59,0.9,M,-16.8,M,1.5,0569*67
$GNGGA,225852.600,4910.600592,N,12304.327113,W,4,38,0.59,0.9,M,-16.8,M,1.6,0569*63
$GNGGA,225852.700,4910.600759,N,12304.327263,W,4,39,0.59,0.9,M,-16.8,M,1.7,0569*63
$GNGGA,225852.800,4910.600925,N,12304.327400,W,4,39,0.59,0.9,M,-16.8,M,1.8,0569*65
$GNGGA,225852.900,4910.601100,N,12304.327518,W,4,39,0.59,0.9,M,-16.8,M,1.9,0569*63
$GNGGA,225853.000,4910.601292,N,12304.327640,W,4,39,0.59,0.9,M,-16.8,M,2.0,0569*67
$GNGGA,225853.100,4910.601463,N,12304.327787,W,4,39,0.59,0.9,M,-16.8,M,2.1,0569*65
$GNGGA,225853.200,4910.601645,N,12304.327927,W,4,39,0.59,0.9,M,-16.8,M,2.2,0569*67
$GNGGA,225853.300,4910.601817,N,12304.328054,W,4,39,0.59,0.9,M,-16.8,M,2.3,0569*6C
$GNGGA,225853.400,4910.602002,N,12304.328197,W,4,39,0.59,0.9,M,-16.8,M,1.4,0569*6E
$GNGGA,225853.500,4910.602175,N,12304.328338,W,4,39,0.59,0.9,M,-16.8,M,1.5,0569*68
$GNGGA,225853.600,4910.602355,N,12304.328477,W,4,39,0.59,0.9,M,-16.8,M,1.6,0569*64
$GNGGA,225853.700,4910.602535,N,12304.328624,W,4,39,0.59,0.9,M,-16.8,M,1.7,0569*60
$GNGGA,225853.800,4910.602715,N,12304.328770,W,4,39,0.59,1.0,M,-16.8,M,1.8,0569*68
$GNGGA,225853.900,4910.602881,N,12304.328900,W,4,39,0.59,0.9,M,-16.8,M,1.9,0569*6B
$GNGGA,225854.000,4910.603062,N,12304.329037,W,4,39,0.59,1.0,M,-16.8,M,2.0,0569*6F
$GNGGA,225854.100,4910.603237,N,12304.329176,W,4,39,0.59,1.0,M,-16.8,M,2.1,0569*69
$GNGGA,225854.200,4910.603409,N,12304.329307,W,4,39,0.59,0.9,M,-16.8,M,2.2,0569*6E
$GNGGA,225854.300,4910.603584,N,12304.329454,W,4,39,0.59,1.0,M,-16.8,M,2.3,0569*63
$GNGGA,225854.400,4910.603752,N,12304.329573,W,4,39,0.58,1.0,M,-16.8,M,1.4,0569*6C
$GNGGA,225854.500,4910.603925,N,12304.329713,W,4,39,0.58,1.0,M,-16.8,M,1.5,0569*66
$GNGGA,225854.600,4910.604091,N,12304.329847,W,4,38,0.58,1.0,M,-16.8,M,1.6,0569*68
$GNGGA,225854.700,4910.604254,N,12304.329977,W,4,38,0.58,1.0,M,-16.8,M,1.7,0569*61
$GNGGA,225854.800,4910.604420,N,12304.330105,W,4,38,0.58,1.0,M,-16.8,M,1.8,0569*61
$GNGGA,225854.900,4910.604577,N,12304.330227,W,4,38,0.58,1.0,M,-16.8,M,1.9,0569*61
$GNGGA,225855.000,4910.604735,N,12304.330362,W,4,38,0.58,1.0,M,-16.8,M,2.0,0569*67
$GNGGA,225855.100,4910.604894,N,12304.330481,W,4,38,0.58,1.0,M,-16.8,M,2.1,0569*69
$GNGGA,225855.200,4910.605061,N,12304.330609,W,4,38,0.58,1.0,M,-16.8,M,2.2,0569*68
$GNGGA,225855.300,4910.605223,N,12304.330729,W,4,38,0.58,1.0,M,-16.8,M,2.3,0569*6F
$GNGGA,225855.400,4910.605385,N,12304.330856,W,4,38,0.58,1.1,M,-16.8,M,1.4,0569*67
$GNGGA,225855.500,4910.605545,N,12304.330979,W,4,38,0.58,1.1,M,-16.8,M,1.5,0569*61
$GNGGA,225855.600,4910.605701,N,12304.331087,W,4,38,0.58,1.1,M,-16.8,M,1.6,0569*6A
$GNGGA,225855.700,4910.605850,N,12304.331205,W,4,39,0.58,1.1,M,-16.8,M,1.7,0569*68
$GNGGA,225855.800,4910.605999,N,12304.331323,W,4,39,0.58,1.1,M,-16.8,M,1.8,0569*69
$GNGGA,225855.900,4910.606147,N,12304.331440,W,4,39,0.58,1.1,M,-16.8,M,1.9,0569*63
$GNGGA,225856.000,4910.606301,N,12304.331542,W,4,39,0.58,1.1,M,-16.8,M,2.0,0569*60
$GNGGA,225856.100,4910.606437,N,12304.331668,W,4,39,0.58,1.1,M,-16.8,M,2.1,0569*69
$GNGGA,225856.200,4910.606588,N,12304.331778,W,4,39,0.58,1.1,M,-16.8,M,2.2,0569*6C
$GNGGA,225856.300,4910.606716,N,12304.331889,W,4,39,0.58,1.0,M,-16.8,M,2.3,0569*69
$GNGGA,225856.400,4910.606860,N,12304.331999,W,4,39,0.58,1.0,M,-16.8,M,1.4,0569*64
$GNGGA,225856.500,4910.606990,N,12304.332091,W,4,38,0.58,1.0,M,-16.8,M,1.5,0569*69
$GNGGA,225856.600,4910.607130,N,12304.332197,W,4,39,0.58,1.0,M,-16.8,M,1.6,0569*6C
$GNGGA,225856.700,4910.607261,N,12304.332295,W,4,39,0.58,1.0,M,-16.8,M,1.7,0569*6A
$GNGGA,225856.800,4910.607417,N,12304.332404,W,4,39,0.58,1.0,M,-16.8,M,1.8,0569*63
$GNGGA,225856.900,4910.607554,N,12304.332527,W,4,39,0.58,1.0,M,-16.8,M,1.9,0569*65
$GNGGA,225857.000,4910.607690,N,12304.332642,W,4,39,0.58,1.0,M,-16.8,M,2.0,0569*6C
$GNGGA,225857.100,4910.607823,N,12304.332748,W,4,39,0.58,1.0,M,-16.8,M,2.1,0569*61
$GNGGA,225857.200,4910.607956,N,12304.332859,W,4,39,0.58,1.1,M,-16.8,M,2.2,0569*6C
$GNGGA,225857.300,4910.608089,N,12304.332965,W,4,39,0.58,1.1,M,-16.8,M,2.3,0569*66
$GNGGA,225857.400,4910.608219,N,12304.333056,W,4,39,0.58,1.1,M,-16.8,M,1.4,0569*66
$GNGGA,225857.500,4910.608345,N,12304.333165,W,4,39,0.58,1.1,M,-16.8,M,1.5,0569*6F
$GNGGA,225857.600,4910.608476,N,12304.333270,W,4,39,0.58,1.1,M,-16.8,M,1.6,0569*6F
$GNGGA,225857.700,4910.608609,N,12304.333376,W,4,38,0.58,1.1,M,-16.8,M,1.7,0569*63
$GNGGA,225857.800,4910.608730,N,12304.333478,W,4,39,0.58,1.1,M,-16.8,M,1.8,0569*60
$GNGGA,225857.900,4910.608852,N,12304.333580,W,4,38,0.58,1.1,M,-16.8,M,1.9,0569*6C
$GNGGA,225858.000,4910.608976,N,12304.333682,W,4,38,0.58,1.1,M,-16.8,M,2.0,0569*66
$GNGGA,225858.100,4910.609088,N,12304.333778,W,4,39,0.58,1.1,M,-16.8,M,2.1,0569*6A
$GNGGA,225858.200,4910.609213,N,12304.333874,W,4,39,0.58,1.1,M,-16.8,M,2.2,0569*69
$GNGGA,225858.300,4910.609324,N,12304.333980,W,4,39,0.58,1.1,M,-16.8,M,2.3,0569*66
$GNGGA,225858.400,4910.609444,N,12304.334095,W,4,39,0.61,1.1,M,-16.8,M,1.4,0569*64
$GNGGA,225858.500,4910.609554,N,12304.334187,W,4,39,0.61,1.1,M,-16.8,M,1.5,0569*66
$GNGGA,225858.600,4910.609676,N,12304.334279,W,4,39,0.61,1.1,M,-16.8,M,1.6,0569*67
$GNGGA,225858.700,4910.609789,N,12304.334379,W,4,39,0.61,1.1,M,-16.8,M,1.7,0569*67
$GNGGA,225858.800,4910.609906,N,12304.334443,W,4,39,0.61,1.1,M,-16.8,M,1.8,0569*60
$GNGGA,225858.900,4910.610027,N,12304.334539,W,4,39,0.61,1.1,M,-16.8,M,1.9,0569*6E
$GNGGA,225859.000,4910.610142,N,12304.334624,W,4,39,0.61,1.1,M,-16.8,M,2.0,0569*61
$GNGGA,225859.100,4910.610252,N,12304.334722,W,4,38,0.61,1.2,M,-16.8,M,2.1,0569*66
$GNGGA,225859.200,4910.610362,N,12304.334804,W,4,38,0.61,1.2,M,-16.8,M,2.2,0569*6F
$GNGGA,225859.300,4910.610473,N,12304.334891,W,4,39,0.61,1.2,M,-16.8,M,2.3,0569*65
$GNGGA,225859.400,4910.610576,N,12304.334989,W,4,39,0.61,1.2,M,-16.8,M,1.4,0569*6A
$GNGGA,225859.500,4910.610681,N,12304.335078,W,4,39,0.61,1.2,M,-16.8,M,1.5,0569*67
$GNGGA,225859.600,4910.610787,N,12304.335170,W,4,39,0.61,1.1,M,-16.8,M,1.6,0569*6A
$GNGGA,225859.700,4910.610890,N,12304.335260,W,4,39,0.61,1.1,M,-16.8,M,1.7,0569*61
$GNGGA,225859.800,4910.611001,N,12304.335343,W,4,39,0.61,1.2,M,-16.8,M,1.8,0569*63
$GNGGA,225859.900,4910.611107,N,12304.335443,W,4,39,0.61,1.2,M,-16.8,M,1.9,0569*63
$GNGGA,225900.000,4910.611200,N,12304.335512,W,4,39,0.61,1.1,M,-16.8,M,2.0,0569*6F
$GNGGA,225900.100,4910.611306,N,12304.335602,W,4,39,0.61,1.1,M,-16.8,M,2.1,0569*6A
$GNGGA,225900.200,4910.611410,N,12304.335693,W,4,39,0.61,1.2,M,-16.8,M,2.2,0569*61
$GNGGA,225900.300,4910.611519,N,12304.335784,W,4,39,0.61,1.2,M,-16.8,M,2.3,0569*6E
$GNGGA,225900.400,4910.611618,N,12304.335856,W,4,39,0.61,1.1,M,-16.8,M,1.4,0569*6C
$GNGGA,225900.500,4910.611710,N,12304.335935,W,4,37,0.61,1.1,M,-16.8,M,1.5,0569*6F
$GNGGA,225900.600,4910.611811,N,12304.336025,W,4,38,0.61,1.1,M,-16.8,M,1.6,0569*65
$GNGGA,225900.700,4910.611913,N,12304.336110,W,4,39,0.61,1.2,M,-16.8,M,1.7,0569*63
$GNGGA,225900.800,4910.612017,N,12304.336191,W,4,38,0.61,1.1,M,-16.8,M,1.8,0569*66
$GNGGA,225900.900,4910.612111,N,12304.336279,W,4,38,0.61,1.2,M,-16.8,M,1.9,0569*67
$GNGGA,225901.000,4910.612204,N,12304.336363,W,4,37,0.61,1.1,M,-16.8,M,2.0,0569*64
$GNGGA,225901.100,4910.612310,N,12304.336453,W,4,38,0.61,1.2,M,-16.8,M,2.1,0569*68
$GNGGA,225901.200,4910.612412,N,12304.336542,W,4,39,0.61,1.2,M,-16.8,M,2.2,0569*6D
$GNGGA,225901.300,4910.612505,N,12304.336613,W,4,39,0.61,1.2,M,-16.8,M,2.3,0569*6D
$GNGGA,225901.400,4910.612606,N,12304.336701,W,4,39,0.61,1.2,M,-16.8,M,1.4,0569*6C
$GNGGA,225901.500,4910.612700,N,12304.336784,W,4,39,0.61,1.2,M,-16.8,M,1.5,0569*66
$GNGGA,225901.600,4910.612792,N,12304.336858,W,4,39,0.61,1.2,M,-16.8,M,1.6,0569*63
$GNGGA,225901.700,4910.612895,N,12304.336917,W,4,39,0.61,1.2,M,-16.8,M,1.7,0569*61
$GNGGA,225901.800,4910.612990,N,12304.337005,W,4,39,0.61,1.2,M,-16.8,M,1.8,0569*6E
$GNGGA,225901.900,4910.613090,N,12304.337080,W,4,39,0.61,1.2,M,-16.8,M,1.9,0569*6B
$GNGGA,225902.000,4910.613176,N,12304.337177,W,4,39,0.61,1.2,M,-16.8,M,2.0,0569*6B
$GNGGA,225902.100,4910.613267,N,12304.337263,W,4,39,0.61,1.2,M,-16.8,M,2.1,0569*6E
$GNGGA,225902.200,4910.613353,N,12304.337313,W,4,39,0.61,1.2,M,-16.8,M,2.2,0569*6E
$GNGGA,225902.300,4910.613464,N,12304.337396,W,4,39,0.61,1.2,M,-16.8,M,2.3,0569*60
$GNGGA,225902.400,4910.613559,N,12304.337464,W,4,39,0.61,1.2,M,-16.8,M,1.4,0569*66
$GNGGA,225902.500,4910.613660,N,12304.337540,W,4,39,0.61,1.2,M,-16.8,M,1.5,0569*68
$GNGGA,225902.600,4910.613759,N,12304.337606,W,4,39,0.61,1.2,M,-16.8,M,1.6,0569*62
$GNGGA,225902.700,4910.613847,N,12304.337676,W,4,39,0.61,1.2,M,-16.8,M,1.7,0569*65
$GNGGA,225902.800,4910.613948,N,12304.337752,W,4,38,0.61,1.2,M,-16.8,M,1.8,0569*6D
$GNGGA,225902.900,4910.614040,N,12304.337819,W,4,39,0.61,1.2,M,-16.8,M,1.9,0569*6A
$GNGGA,225903.000,4910.614128,N,12304.337887,W,4,39,0.61,1.2,M,-16.8,M,2.0,0569*60
$GNGGA,225903.100,4910.614219,N,12304.337945,W,4,39,0.61,1.2,M,-16.8,M,2.1,0569*6E
$GNGGA,225903.200,4910.614317,N,12304.338018,W,4,38,0.61,1.2,M,-16.8,M,2.2,0569*6E
$GNGGA,225903.300,4910.614410,N,12304.338089,W,4,38,0.61,1.2,M,-16.8,M,2.3,0569*66
$GNGGA,225903.400,4910.614506,N,12304.338189,W,4,39,0.61,1.3,M,-16.8,M,1.4,0569*62
$GNGGA,225903.500,4910.614602,N,12304.338249,W,4,39,0.61,1.2,M,-16.8,M,1.5,0569*6B
$GNGGA,225903.600,4910.614692,N,12304.338307,W,4,38,0.61,1.2,M,-16.8,M,1.6,0569*68
$GNGGA,225903.700,4910.614779,N,12304.338363,W,4,39,0.61,1.2,M,-16.8,M,1.7,0569*6F
$GNGGA,225903.800,4910.614880,N,12304.338446,W,4,39,0.61,1.2,M,-16.8,M,1.8,0569*66
$GNGGA,225903.900,4910.614966,N,12304.338508,W,4,39,0.61,1.2,M,-16.8,M,1.9,0569*64
$GNGGA,225904.000,4910.615063,N,12304.338576,W,4,38,0.61,1.2,M,-16.8,M,2.0,0569*65
$GNGGA,225904.100,4910.615160,N,12304.338638,W,4,38,0.61,1.2,M,-16.8,M,2.1,0569*6E
$GNGGA,225904.200,4910.615255,N,12304.338702,W,4,38,0.61,1.2,M,-16.8,M,2.2,0569*63
$GNGGA,225904.300,4910.615346,N,12304.338768,W,4,39,0.61,1.2,M,-16.8,M,2.3,0569*6D
$GNGGA,225904.400,4910.615430,N,12304.338823,W,4,38,0.57,1.2,M,-16.8,M,1.4,0569*6C
$GNGGA,225904.500,4910.615522,N,12304.338892,W,4,38,0.57,1.2,M,-16.8,M,1.5,0569*64
$GNGGA,225904.600,4910.615623,N,12304.338955,W,4,38,0.57,1.3,M,-16.8,M,1.6,0569*6D
$GNGGA,225904.700,4910.615710,N,12304.339013,W,4,38,0.57,1.3,M,-16.8,M,1.7,0569*66
$GNGGA,225904.800,4910.615802,N,12304.339078,W,4,38,0.57,1.3,M,-16.8,M,1.8,0569*67
$GNGGA,225904.900,4910.615899,N,12304.339140,W,4,38,0.57,1.3,M,-16.8,M,1.9,0569*6F
$GNGGA,225905.000,4910.615992,N,12304.339185,W,4,39,0.57,1.2,M,-16.8,M,2.0,0569*6E
$GNGGA,225905.100,4910.616088,N,12304.339244,W,4,39,0.57,1.2,M,-16.8,M,2.1,0569*61
$GNGGA,225905.200,4910.616182,N,12304.339297,W,4,38,0.57,1.2,M,-16.8,M,2.2,0569*65
$GNGGA,225905.300,4910.616275,N,12304.339366,W,4,38,0.57,1.3,M,-16.8,M,2.3,0569*60
$GNGGA,225905.400,4910.616369,N,12304.339419,W,4,38,0.54,1.2,M,-16.8,M,1.4,0569*62
$GNGGA,225905.500,4910.616461,N,12304.339471,W,4,38,0.54,1.2,M,-16.8,M,1.5,0569*63
$GNGGA,225905.600,4910.616558,N,12304.339521,W,4,39,0.54,1.2,M,-16.8,M,1.6,0569*6D
$GNGGA,225905.700,4910.616647,N,12304.339576,W,4,39,0.54,1.2,M,-16.8,M,1.7,0569*62
$GNGGA,225905.800,4910.616744,N,12304.339645,W,4,39,0.54,1.2,M,-16.8,M,1.8,0569*63
$GNGGA,225905.900,4910.616842,N,12304.339706,W,4,39,0.54,1.2,M,-16.8,M,1.9,0569*6C
$GNGGA,225906.000,4910.616948,N,12304.339761,W,4,39,0.54,1.2,M,-16.8,M,2.0,0569*66
$GNGGA,225906.100,4910.617048,N,12304.339831,W,4,39,0.54,1.2,M,-16.8,M,2.1,0569*64
