$GNGGA,224518.00,4910.447976,N,12304.422382,W,1,12,0.5,11.4,M,-19.2,M,,*77
$GNGGA,224519.00,4910.448899,N,12304.423774,W,1,12,0.5,11.3,M,-19.2,M,,*72
$GNGGA,224520.00,4910.449899,N,12304.424965,W,1,12,0.5,11.0,M,-19.2,M,,*73
$GNGGA,224521.00,4910.450900,N,12304.426165,W,1,12,0.5,10.8,M,-19.2,M,,*78
$GNGGA,224522.00,4910.451902,N,12304.427364,W,1,12,0.5,10.6,M,-19.2,M,,*74
$GNGGA,224523.00,4910.452980,N,12304.428686,W,1,12,0.5,11.0,M,-19.2,M,,*7D
$GNGGA,224524.00,4910.454080,N,12304.430023,W,1,12,0.5,11.1,M,-19.2,M,,*74
$GNGGA,224525.00,4910.455064,N,12304.431210,W,1,12,0.5,10.9,M,-19.2,M,,*74
$GNGGA,224526.00,4910.456000,N,12304.432376,W,1,12,0.5,10.8,M,-19.2,M,,*75
$GNGGA,224527.00,4910.456887,N,12304.433476,W,1,12,0.5,10.7,M,-19.2,M,,*7A
$GNGGA,224528.00,4910.457669,N,12304.434377,W,1,12,0.5,10.9,M,-19.2,M,,*75
$GNGGA,224529.00,4910.458489,N,12304.435220,W,1,12,0.5,10.8,M,-19.2,M,,*74
$GNGGA,224530.00,4910.459365,N,12304.435907,W,1,12,0.5,10.9,M,-19.2,M,,*77
$GNGGA,224531.00,4910.460366,N,12304.436412,W,1,12,0.5,11.1,M,-19.2,M,,*7C
$GNGGA,224532.00,4910.461466,N,12304.436730,W,1,12,0.5,11.3,M,-19.2,M,,*78
$GNGGA,224533.00,4910.462646,N,12304.436807,W,1,12,0.5,11.1,M,-19.2,M,,*73
$GNGGA,224534.00,4910.463929,N,12304.436740,W,1,12,0.5,10.9,M,-19.2,M,,*76
$GNGGA,224535.00,4910.465261,N,12304.436605,W,1,12,0.5,11.1,M,-19.2,M,,*7F
$GNGGA,224536.00,4910.466569,N,12304.436437,W,1,12,0.5,10.9,M,-19.2,M,,*7A
$GNGGA,224537.00,4910.467809,N,12304.436239,W,1,12,0.5,11.0,M,-19.2,M,,*71
$GNGGA,224538.00,4910.469138,N,12304.436051,W,1,12,0.5,10.8,M,-19.2,M,,*7E
$GNGGA,224539.00,4910.470500,N,12304.435838,W,1,12,0.5,11.0,M,-19.2,M,,*75
$GNGGA,224540.00,4910.471822,N,12304.435664,W,1,12,0.5,10.8,M,-19.2,M,,*79
$GNGGA,224541.00,4910.473137,N,12304.435498,W,1,12,0.5,10.5,M,-19.2,M,,*7B
$GNGGA,224542.00,4910.474420,N,12304.435291,W,1,12,0.5,10.5,M,-19.2,M,,*73
$GNGGA,224543.00,4910.475653,N,12304.435048,W,1,12,0.5,10.5,M,-19.2,M,,*73
$GNGGA,224544.00,4910.476827,N,12304.434864,W,1,12,0.5,10.8,M,-19.2,M,,*70
$GNGGA,224545.00,4910.477969,N,12304.434721,W,1,12,0.5,10.8,M,-19.2,M,,*75
$GNGGA,224546.00,4910.479056,N,12304.434584,W,1,12,0.5,11.0,M,-19.2,M,,*79
$GNGGA,224547.00,4910.480128,N,12304.434511,W,1,12,0.5,11.2,M,-19.2,M,,*78
$GNGGA,224548.00,4910.481173,N,12304.434478,W,1,12,0.5,11.4,M,-19.2,M,,*70
$GNGGA,224549.00,4910.482238,N,12304.434440,W,1,12,0.5,11.9,M,-19.2,M,,*78
$GNGGA,224550.00,4910.483333,N,12304.434298,W,1,12,0.5,12.0,M,-19.2,M,,*72
$GNGGA,224551.00,4910.484354,N,12304.434169,W,1,12,0.5,12.1,M,-19.2,M,,*79
$GNGGA,224552.00,4910.485385,N,12304.434116,W,1,12,0.5,12.2,M,-19.2,M,,*7C
$GNGGA,224553.00,4910.486515,N,12304.434097,W,1,12,0.5,12.5,M,-19.2,M,,*7E
$GNGGA,224554.00,4910.487663,N,12304.434167,W,1,12,0.5,12.7,M,-19.2,M,,*76
$GNGGA,224555.00,4910.488861,N,12304.434227,W,1,12,0.5,13.0,M,-19.2,M,,*75
$GNGGA,224556.00,4910.490139,N,12304.434311,W,1,12,0.5,13.1,M,-19.2,M,,*7E
$GNGGA,224557.00,4910.491424,N,12304.434387,W,1,12,0.5,13.3,M,-19.2,M,,*7A
$GNGGA,224558.00,4910.492659,N,12304.434466,W,1,12,0.5,13.3,M,-19.2,M,,*76
$GNGGA,224559.00,4910.493873,N,12304.434524,W,1,12,0.5,13.1,M,-19.2,M,,*75
$GNGGA,224600.00,4910.495082,N,12304.434571,W,1,12,0.5,12.9,M,-19.2,M,,*73
$GNGGA,224601.00,4910.496243,N,12304.434628,W,1,12,0.5,12.9,M,-19.2,M,,*71
$GNGGA,224602.00,4910.497385,N,12304.434760,W,1,12,0.5,13.3,M,-19.2,M,,*7E
$GNGGA,224603.00,4910.498384,N,12304.434871,W,1,12,0.5,13.2,M,-19.2,M,,*7F
$GNGGA,224604.00,4910.499175,N,12304.434940,W,1,12,0.5,12.8,M,-19.2,M,,*7D
$GNGGA,224605.00,4910.500039,N,12304.435022,W,1,12,0.5,12.7,M,-19.2,M,,*77
$GNGGA,224606.00,4910.501341,N,12304.435114,W,1,12,0.5,12.8,M,-19.2,M,,*72
$GNGGA,224607.00,4910.502892,N,12304.435207,W,1,12,0.5,12.8,M,-19.2,M,,*74
$GNGGA,224608.00,4910.504568,N,12304.435302,W,1,12,0.5,12.7,M,-19.2,M,,*7E
$GNGGA,224609.00,4910.506368,N,12304.435411,W,1,12,0.5,12.8,M,-19.2,M,,*71
$GNGGA,224610.00,4910.508164,N,12304.435498,W,1,12,0.5,12.8,M,-19.2,M,,*78
$GNGGA,224611.00,4910.510069,N,12304.435624,W,1,12,0.5,12.8,M,-19.2,M,,*79
$GNGGA,224612.00,4910.512034,N,12304.435758,W,1,12,0.5,12.4,M,-19.2,M,,*76
$GNGGA,224613.00,4910.513925,N,12304.435844,W,1,12,0.5,12.3,M,-19.2,M,,*7A
$GNGGA,224614.00,4910.515713,N,12304.435843,W,1,12,0.5,12.0,M,-19.2,M,,*74
$GNGGA,224615.00,4910.517427,N,12304.435802,W,1,12,0.5,11.9,M,-19.2,M,,*7C
$GNGGA,224616.00,4910.519051,N,12304.435771,W,1,12,0.5,11.6,M,-19.2,M,,*70
$GNGGA,224617.00,4910.520584,N,12304.435762,W,1,12,0.5,11.5,M,-19.2,M,,*77
$GNGGA,224618.00,4910.522015,N,12304.435776,W,1,12,0.5,11.6,M,-19.2,M,,*71
$GNGGA,224619.00,4910.523443,N,12304.435813,W,1,12,0.5,11.2,M,-19.2,M,,*7E
$GNGGA,224620.00,4910.524973,N,12304.435784,W,1,12,0.5,11.2,M,-19.2,M,,*7C
$GNGGA,224621.00,4910.526500,N,12304.435749,W,1,12,0.5,11.1,M,-19.2,M,,*75
$GNGGA,224622.00,4910.527919,N,12304.435630,W,1,12,0.5,11.1,M,-19.2,M,,*7C
$GNGGA,224623.00,4910.529211,N,12304.435431,W,1,12,0.5,11.2,M,-19.2,M,,*70
$GNGGA,224624.00,4910.530490,N,12304.435084,W,1,12,0.5,11.2,M,-19.2,M,,*7A
$GNGGA,224625.00,4910.531774,N,12304.434509,W,1,12,0.5,11.2,M,-19.2,M,,*72
$GNGGA,224626.00,4910.532995,N,12304.433677,W,1,12,0.5,11.1,M,-19.2,M,,*7D
$GNGGA,224627.00,4910.534099,N,12304.432615,W,1,12,0.5,11.0,M,-19.2,M,,*7B
$GNGGA,224628.00,4910.535138,N,12304.431328,W,1,12,0.5,11.3,M,-19.2,M,,*74
$GNGGA,224629.00,4910.536139,N,12304.429831,W,1,12,0.5,11.1,M,-19.2,M,,*7F
$GNGGA,224630.00,4910.537105,N,12304.428217,W,1,12,0.5,11.0,M,-19.2,M,,*77
$GNGGA,224631.00,4910.538019,N,12304.426616,W,1,12,0.5,10.9,M,-19.2,M,,*76
$GNGGA,224632.00,4910.538879,N,12304.425110,W,1,12,0.5,11.1,M,-19.2,M,,*70
$GNGGA,224633.00,4910.539751,N,12304.423834,W,1,12,0.5,11.2,M,-19.2,M,,*7F
$GNGGA,224634.00,4910.540682,N,12304.422989,W,1,12,0.5,11.4,M,-19.2,M,,*79
$GNGGA,224635.00,4910.541657,N,12304.422658,W,1,12,0.5,11.6,M,-19.2,M,,*70
$GNGGA,224636.00,4910.542604,N,12304.422753,W,1,12,0.5,11.8,M,-19.2,M,,*72
$GNGGA,224637.00,4910.543396,N,12304.423198,W,1,12,0.5,11.9,M,-19.2,M,,*7D
$GNGGA,224638.00,4910.543960,N,12304.423731,W,1,12,0.5,12.0,M,-19.2,M,,*7E
$GNGGA,224639.00,4910.544266,N,12304.424171,W,1,12,0.5,12.1,M,-19.2,M,,*71
$GNGGA,224640.00,4910.544264,N,12304.424476,W,1,12,0.5,11.9,M,-19.2,M,,*74
$GNGGA,224641.00,4910.544219,N,12304.424654,W,1,12,0.5,11.7,M,-19.2,M,,*73
$GNGGA,224642.00,4910.544255,N,12304.424759,W,1,12,0.5,11.7,M,-19.2,M,,*74
$GNGGA,224643.00,4910.544295,N,12304.424911,W,1,12,0.5,11.3,M,-19.2,M,,*7F
$GNGGA,224644.00,4910.544362,N,12304.424978,W,1,12,0.5,11.2,M,-19.2,M,,*7F
$GNGGA,224645.00,4910.544418,N,12304.424976,W,1,12,0.5,11.3,M,-19.2,M,,*7B
$GNGGA,224646.00,4910.544473,N,12304.424929,W,1,12,0.5,11.3,M,-19.2,M,,*7F
$GNGGA,224647.00,4910.544509,N,12304.424905,W,1,12,0.5,11.2,M,-19.2,M,,*7D
$GNGGA,224648.00,4910.544536,N,12304.424878,W,1,12,0.5,11.2,M,-19.2,M,,*75
$GNGGA,224649.00,4910.544568,N,12304.424854,W,1,12,0.5,11.3,M,-19.2,M,,*70
$GNGGA,224650.00,4910.544600,N,12304.424842,W,1,12,0.5,11.3,M,-19.2,M,,*72
$GNGGA,224651.00,4910.544616,N,12304.424836,W,1,12,0.5,11.3,M,-19.2,M,,*77
$GNGGA,224652.00,4910.544624,N,12304.424834,W,1,12,0.5,11.3,M,-19.2,M,,*77
$GNGGA,224653.00,4910.544627,N,12304.424833,W,1,12,0.5,11.3,M,-19.2,M,,*72
$GNGGA,224654.00,4910.544629,N,12304.424831,W,1,12,0.5,11.3,M,-19.2,M,,*79
$GNGGA,224655.00,4910.544630,N,12304.424830,W,1,12,0.5,11.3,M,-19.2,M,,*71
$GNGGA,224656.00,4910.544631,N,12304.424829,W,1,12,0.5,11.3,M,-19.2,M,,*7B
$GNGGA,224657.00,4910.544631,N,12304.424828,W,1,12,0.5,11.3,M,-19.2,M,,*7B
$GNGGA,224658.00,4910.544632,N,12304.424827,W,1,12,0.5,11.3,M,-19.2,M,,*78
$GNGGA,224659.00,4910.544632,N,12304.424827,W,1,12,0.5,11.3,M,-19.2,M,,*79
$GNGGA,224700.00,4910.544632,N,12304.424826,W,1,12,0.5,11.3,M,-19.2,M,,*75
$GNGGA,224701.00,4910.544632,N,12304.424824,W,1,12,0.5,11.3,M,-19.2,M,,*76
$GNGGA,224702.00,4910.544632,N,12304.424825,W,1,12,0.5,11.3,M,-19.2,M,,*74
$GNGGA,224703.00,4910.544633,N,12304.424825,W,1,12,0.5,11.3,M,-19.2,M,,*74
$GNGGA,224704.00,4910.544635,N,12304.424827,W,1,12,0.5,11.4,M,-19.2,M,,*70
$GNGGA,224705.00,4910.544635,N,12304.424827,W,1,12,0.5,11.4,M,-19.2,M,,*71
$GNGGA,224706.00,4910.544632,N,12304.424821,W,1,12,0.5,11.3,M,-19.2,M,,*74
$GNGGA,224707.00,4910.544632,N,12304.424819,W,1,12,0.5,11.3,M,-19.2,M,,*7E
$GNGGA,224708.00,4910.544632,N,12304.424818,W,1,12,0.5,11.3,M,-19.2,M,,*70
$GNGGA,224709.00,4910.544632,N,12304.424816,W,1,12,0.5,11.3,M,-19.2,M,,*7F
$GNGGA,224710.00,4910.544632,N,12304.424815,W,1,12,0.5,11.3,M,-19.2,M,,*74
$GNGGA,224711.00,4910.544633,N,12304.424815,W,1,12,0.5,11.4,M,-19.2,M,,*73
$GNGGA,224712.00,4910.544633,N,12304.424814,W,1,12,0.5,11.4,M,-19.2,M,,*71
$GNGGA,224713.00,4910.544635,N,12304.424813,W,1,12,0.5,11.4,M,-19.2,M,,*71
$GNGGA,224714.00,4910.544635,N,12304.424813,W,1,12,0.5,11.4,M,-19.2,M,,*76
$GNGGA,224715.00,4910.544636,N,12304.424812,W,1,12,0.5,11.4,M,-19.2,M,,*75
$GNGGA,224716.00,4910.544637,N,12304.424811,W,1,12,0.5,11.4,M,-19.2,M,,*74
$GNGGA,224717.00,4910.544638,N,12304.424810,W,1,12,0.5,11.4,M,-19.2,M,,*7B
$GNGGA,224718.00,4910.544638,N,12304.424809,W,1,12,0.5,11.4,M,-19.2,M,,*7C
$GNGGA,224719.00,4910.544639,N,12304.424809,W,1,12,0.5,11.4,M,-19.2,M,,*7C
$GNGGA,224720.00,4910.544640,N,12304.424809,W,1,12,0.5,11.4,M,-19.2,M,,*78
$GNGGA,224721.00,4910.544641,N,12304.424808,W,1,12,0.5,11.4,M,-19.2,M,,*79
$GNGGA,224722.00,4910.544641,N,12304.424808,W,1,12,0.5,11.4,M,-19.2,M,,*7A
$GNGGA,224723.00,4910.544642,N,12304.424808,W,1,12,0.5,11.4,M,-19.2,M,,*78
$GNGGA,224724.00,4910.544642,N,12304.424808,W,1,12,0.5,11.4,M,-19.2,M,,*7F
$GNGGA,224725.00,4910.544643,N,12304.424807,W,1,12,0.5,11.4,M,-19.2,M,,*70
$GNGGA,224726.00,4910.544644,N,12304.424807,W,1,12,0.5,11.4,M,-19.2,M,,*74
$GNGGA,224727.00,4910.544644,N,12304.424806,W,1,12,0.5,11.4,M,-19.2,M,,*74
$GNGGA,224728.00,4910.544645,N,12304.424806,W,1,12,0.5,11.4,M,-19.2,M,,*7A
$GNGGA,224729.00,4910.544645,N,12304.424806,W,1,12,0.5,11.4,M,-19.2,M,,*7B
$GNGGA,224730.00,4910.544646,N,12304.424807,W,1,12,0.5,11.4,M,-19.2,M,,*71
$GNGGA,224731.00,4910.544647,N,12304.424807,W,1,12,0.5,11.4,M,-19.2,M,,*71
$GNGGA,224732.00,4910.544648,N,12304.424807,W,1,12,0.5,11.4,M,-19.2,M,,*7D
$GNGGA,224733.00,4910.544648,N,12304.424807,W,1,12,0.5,11.4,M,-19.2,M,,*7C
$GNGGA,224734.00,4910.544648,N,12304.424807,W,1,12,0.5,11.4,M,-19.2,M,,*7B
$GNGGA,224735.00,4910.544648,N,12304.424808,W,1,12,0.5,11.4,M,-19.2,M,,*75
$GNGGA,224736.00,4910.544647,N,12304.424809,W,1,12,0.5,11.4,M,-19.2,M,,*78
$GNGGA,224737.00,4910.544647,N,12304.424809,W,1,12,0.5,11.4,M,-19.2,M,,*79
$GNGGA,224738.00,4910.544646,N,12304.424810,W,1,12,0.5,11.4,M,-19.2,M,,*7F
$GNGGA,224739.00,4910.544645,N,12304.424810,W,1,12,0.5,11.4,M,-19.2,M,,*7D
$GNGGA,224740.00,4910.544645,N,12304.424810,W,1,12,0.5,11.4,M,-19.2,M,,*73
$GNGGA,224741.00,4910.544644,N,12304.424811,W,1,12,0.5,11.4,M,-19.2,M,,*72
$GNGGA,224742.00,4910.544644,N,12304.424810,W,1,12,0.5,11.4,M,-19.2,M,,*70
$GNGGA,224743.00,4910.544642,N,12304.424810,W,1,12,0.5,11.4,M,-19.2,M,,*77
$GNGGA,224744.00,4910.544642,N,12304.424810,W,1,12,0.5,11.4,M,-19.2,M,,*70
$GNGGA,224745.00,4910.544641,N,12304.424809,W,1,12,0.5,11.4,M,-19.2,M,,*7A
$GNGGA,224746.00,4910.544641,N,12304.424809,W,1,12,0.5,11.4,M,-19.2,M,,*79
$GNGGA,224747.00,4910.544641,N,12304.424809,W,1,12,0.5,11.4,M,-19.2,M,,*78
$GNGGA,224748.00,4910.544641,N,12304.424809,W,1,12,0.5,11.4,M,-19.2,M,,*77
$GNGGA,224749.00,4910.544641,N,12304.424808,W,1,12,0.5,11.4,M,-19.2,M,,*77
$GNGGA,224750.00,4910.544641,N,12304.424807,W,1,12,0.5,11.4,M,-19.2,M,,*70
$GNGGA,224751.00,4910.544642,N,12304.424806,W,1,12,0.5,11.4,M,-19.2,M,,*73
$GNGGA,224752.00,4910.544642,N,12304.424806,W,1,12,0.5,11.4,M,-19.2,M,,*70
$GNGGA,224753.00,4910.544642,N,12304.424806,W,1,12,0.5,11.4,M,-19.2,M,,*71
$GNGGA,224754.00,4910.544642,N,12304.424805,W,1,12,0.5,11.4,M,-19.2,M,,*75
$GNGGA,224755.00,4910.544642,N,12304.424804,W,1,12,0.5,11.4,M,-19.2,M,,*75
$GNGGA,224756.00,4910.544642,N,12304.424803,W,1,12,0.5,11.4,M,-19.2,M,,*71
$GNGGA,224757.00,4910.544642,N,12304.424803,W,1,12,0.5,11.4,M,-19.2,M,,*70
$GNGGA,224758.00,4910.544641,N,12304.424801,W,1,12,0.5,11.4,M,-19.2,M,,*7E
$GNGGA,224759.00,4910.544641,N,12304.424801,W,1,12,0.5,11.4,M,-19.2,M,,*7F
$GNGGA,224800.00,4910.544641,N,12304.424800,W,1,12,0.5,11.4,M,-19.2,M,,*7D
$GNGGA,224801.00,4910.544641,N,12304.424800,W,1,12,0.5,11.4,M,-19.2,M,,*7C
$GNGGA,224802.00,4910.544641,N,12304.424800,W,1,12,0.5,11.4,M,-19.2,M,,*7F
$GNGGA,224803.00,4910.544640,N,12304.424800,W,1,12,0.5,11.4,M,-19.2,M,,*7F
$GNGGA,224804.00,4910.544639,N,12304.424800,W,1,12,0.5,11.4,M,-19.2,M,,*76
$GNGGA,224805.00,4910.544639,N,12304.424800,W,1,12,0.5,11.4,M,-19.2,M,,*77
$GNGGA,224806.00,4910.544638,N,12304.424800,W,1,12,0.5,11.4,M,-19.2,M,,*75
$GNGGA,224807.00,4910.544637,N,12304.424799,W,1,12,0.5,11.4,M,-19.2,M,,*74
$GNGGA,224808.00,4910.544636,N,12304.424799,W,1,12,0.5,11.4,M,-19.2,M,,*7A
$GNGGA,224809.00,4910.544636,N,12304.424799,W,1,12,0.5,11.4,M,-19.2,M,,*7B
$GNGGA,224810.00,4910.544635,N,12304.424799,W,1,12,0.5,11.4,M,-19.2,M,,*70
$GNGGA,224811.00,4910.544635,N,12304.424799,W,1,12,0.5,11.4,M,-19.2,M,,*71
$GNGGA,224812.00,4910.544633,N,12304.424799,W,1,12,0.5,11.4,M,-19.2,M,,*74
$GNGGA,224813.00,4910.544633,N,12304.424800,W,1,12,0.5,11.4,M,-19.2,M,,*7A
$GNGGA,224814.00,4910.544632,N,12304.424800,W,1,12,0.5,11.4,M,-19.2,M,,*7C
$GNGGA,224815.00,4910.544631,N,12304.424801,W,1,12,0.5,11.4,M,-19.2,M,,*7F
$GNGGA,224816.00,4910.544630,N,12304.424801,W,1,12,0.5,11.4,M,-19.2,M,,*7D
$GNGGA,224817.00,4910.544630,N,12304.424801,W,1,12,0.5,11.4,M,-19.2,M,,*7C
$GNGGA,224818.00,4910.544629,N,12304.424802,W,1,12,0.5,11.4,M,-19.2,M,,*78
$GNGGA,224819.00,4910.544629,N,12304.424802,W,1,12,0.5,11.4,M,-19.2,M,,*79
$GNGGA,224820.00,4910.544628,N,12304.424803,W,1,12,0.5,11.4,M,-19.2,M,,*73
$GNGGA,224821.00,4910.544628,N,12304.424803,W,1,12,0.5,11.4,M,-19.2,M,,*72
$GNGGA,224822.00,4910.544627,N,12304.424803,W,1,12,0.5,11.4,M,-19.2,M,,*7E
$GNGGA,224823.00,4910.544627,N,12304.424803,W,1,12,0.5,11.4,M,-19.2,M,,*7F
$GNGGA,224824.00,4910.544627,N,12304.424804,W,1,12,0.5,11.4,M,-19.2,M,,*7F
$GNGGA,224825.00,4910.544627,N,12304.424804,W,1,12,0.5,11.4,M,-19.2,M,,*7E
$GNGGA,224826.00,4910.544627,N,12304.424805,W,1,12,0.5,11.4,M,-19.2,M,,*7C
$GNGGA,224827.00,4910.544626,N,12304.424806,W,1,12,0.5,11.4,M,-19.2,M,,*7F
$GNGGA,224828.00,4910.544626,N,12304.424807,W,1,12,0.5,11.5,M,-19.2,M,,*70
$GNGGA,224829.00,4910.544626,N,12304.424809,W,1,12,0.5,11.5,M,-19.2,M,,*7F
$GNGGA,224830.00,4910.544626,N,12304.424809,W,1,12,0.5,11.5,M,-19.2,M,,*77
$GNGGA,224831.00,4910.544625,N,12304.424810,W,1,12,0.5,11.5,M,-19.2,M,,*7D
$GNGGA,224832.00,4910.544624,N,12304.424811,W,1,12,0.5,11.5,M,-19.2,M,,*7E
$GNGGA,224833.00,4910.544624,N,12304.424812,W,1,12,0.5,11.5,M,-19.2,M,,*7C
$GNGGA,224834.00,4910.544623,N,12304.424813,W,1,12,0.5,11.5,M,-19.2,M,,*7D
$GNGGA,224835.00,4910.544622,N,12304.424813,W,1,12,0.5,11.5,M,-19.2,M,,*7D
$GNGGA,224836.00,4910.544622,N,12304.424814,W,1,12,0.5,11.5,M,-19.2,M,,*79
$GNGGA,224837.00,4910.544621,N,12304.424814,W,1,12,0.5,11.5,M,-19.2,M,,*7B
$GNGGA,224838.00,4910.544621,N,12304.424814,W,1,12,0.5,11.5,M,-19.2,M,,*74
$GNGGA,224839.00,4910.544620,N,12304.424813,W,1,12,0.5,11.5,M,-19.2,M,,*73
$GNGGA,224840.00,4910.544619,N,12304.424813,W,1,12,0.5,11.5,M,-19.2,M,,*77
$GNGGA,224841.00,4910.544618,N,12304.424813,W,1,12,0.5,11.5,M,-19.2,M,,*77
$GNGGA,224842.00,4910.544617,N,12304.424813,W,1,12,0.5,11.5,M,-19.2,M,,*7B
$GNGGA,224843.00,4910.544615,N,12304.424812,W,1,12,0.5,11.5,M,-19.2,M,,*79
$GNGGA,224844.00,4910.544614,N,12304.424812,W,1,12,0.5,11.5,M,-19.2,M,,*7F
$GNGGA,224845.00,4910.544612,N,12304.424812,W,1,12,0.5,11.5,M,-19.2,M,,*78
$GNGGA,224846.00,4910.544611,N,12304.424811,W,1,12,0.5,11.5,M,-19.2,M,,*7B
$GNGGA,224847.00,4910.544610,N,12304.424811,W,1,12,0.5,11.5,M,-19.2,M,,*7B
$GNGGA,224848.00,4910.544609,N,12304.424810,W,1,12,0.5,11.5,M,-19.2,M,,*7D
$GNGGA,224849.00,4910.544608,N,12304.424810,W,1,12,0.5,11.5,M,-19.2,M,,*7D
$GNGGA,224850.00,4910.544606,N,12304.424810,W,1,12,0.5,11.5,M,-19.2,M,,*7B
$GNGGA,224851.00,4910.544605,N,12304.424809,W,1,12,0.5,11.5,M,-19.2,M,,*71
$GNGGA,224852.00,4910.544604,N,12304.424809,W,1,12,0.5,11.5,M,-19.2,M,,*73
$GNGGA,224853.00,4910.544603,N,12304.424809,W,1,12,0.5,11.5,M,-19.2,M,,*75
$GNGGA,224854.00,4910.544602,N,12304.424810,W,1,12,0.5,11.5,M,-19.2,M,,*7B
$GNGGA,224855.00,4910.544600,N,12304.424810,W,1,12,0.5,11.6,M,-19.2,M,,*7B
$GNGGA,224856.00,4910.544599,N,12304.424810,W,1,12,0.5,11.6,M,-19.2,M,,*7B
$GNGGA,224857.00,4910.544597,N,12304.424810,W,1,12,0.5,11.6,M,-19.2,M,,*74
$GNGGA,224858.00,4910.544596,N,12304.424810,W,1,12,0.5,11.6,M,-19.2,M,,*7A
$GNGGA,224859.00,4910.544594,N,12304.424810,W,1,12,0.5,11.6,M,-19.2,M,,*79
$GNGGA,224900.00,4910.544593,N,12304.424811,W,1,12,0.5,11.6,M,-19.2,M,,*72
$GNGGA,224901.00,4910.544591,N,12304.424811,W,1,12,0.5,11.6,M,-19.2,M,,*71
$GNGGA,224902.00,4910.544591,N,12304.424812,W,1,12,0.5,11.6,M,-19.2,M,,*71
$GNGGA,224903.00,4910.544590,N,12304.424812,W,1,12,0.5,11.6,M,-19.2,M,,*71
$GNGGA,224904.00,4910.544588,N,12304.424813,W,1,12,0.5,11.6,M,-19.2,M,,*7E
$GNGGA,224905.00,4910.544587,N,12304.424814,W,1,12,0.5,11.6,M,-19.2,M,,*77
$GNGGA,224906.00,4910.544586,N,12304.424815,W,1,12,0.5,11.6,M,-19.2,M,,*74
$GNGGA,224907.00,4910.544585,N,12304.424816,W,1,12,0.5,11.6,M,-19.2,M,,*75
$GNGGA,224908.00,4910.544584,N,12304.424817,W,1,12,0.5,11.6,M,-19.2,M,,*7A
$GNGGA,224909.00,4910.544583,N,12304.424818,W,1,12,0.5,11.6,M,-19.2,M,,*73
$GNGGA,224910.00,4910.544582,N,12304.424819,W,1,12,0.5,11.6,M,-19.2,M,,*7B
$GNGGA,224911.00,4910.544581,N,12304.424821,W,1,12,0.5,11.6,M,-19.2,M,,*72
$GNGGA,224912.00,4910.544580,N,12304.424822,W,1,12,0.5,11.6,M,-19.2,M,,*73
$GNGGA,224913.00,4910.544579,N,12304.424824,W,1,12,0.5,11.6,M,-19.2,M,,*72
$GNGGA,224914.00,4910.544579,N,12304.424826,W,1,12,0.5,11.6,M,-19.2,M,,*77
$GNGGA,224915.00,4910.544578,N,12304.424828,W,1,12,0.5,11.6,M,-19.2,M,,*79
$GNGGA,224916.00,4910.544578,N,12304.424831,W,1,12,0.5,11.6,M,-19.2,M,,*72
$GNGGA,224917.00,4910.544577,N,12304.424833,W,1,12,0.5,11.6,M,-19.2,M,,*7E
$GNGGA,224918.00,4910.544576,N,12304.424835,W,1,12,0.5,11.6,M,-19.2,M,,*76
$GNGGA,224919.00,4910.544576,N,12304.424837,W,1,12,0.5,11.6,M,-19.2,M,,*75
$GNGGA,224920.00,4910.544576,N,12304.424838,W,1,12,0.5,11.6,M,-19.2,M,,*70
$GNGGA,224921.00,4910.544576,N,12304.424839,W,1,12,0.5,11.6,M,-19.2,M,,*70
$GNGGA,224922.00,4910.544575,N,12304.424840,W,1,12,0.5,11.6,M,-19.2,M,,*7E
$GNGGA,224923.00,4910.544575,N,12304.424840,W,1,12,0.5,11.6,M,-19.2,M,,*7F
$GNGGA,224924.00,4910.544575,N,12304.424840,W,1,12,0.5,11.7,M,-19.2,M,,*79
$GNGGA,224925.00,4910.544575,N,12304.424839,W,1,12,0.5,11.7,M,-19.2,M,,*76
$GNGGA,224926.00,4910.544575,N,12304.424839,W,1,12,0.5,11.7,M,-19.2,M,,*75
$GNGGA,224927.00,4910.544575,N,12304.424839,W,1,12,0.5,11.7,M,-19.2,M,,*74
$GNGGA,224928.00,4910.544574,N,12304.424838,W,1,12,0.5,11.7,M,-19.2,M,,*7B
$GNGGA,224929.00,4910.544574,N,12304.424837,W,1,12,0.5,11.7,M,-19.2,M,,*75
$GNGGA,224930.00,4910.544574,N,12304.424837,W,1,12,0.5,11.7,M,-19.2,M,,*7D
$GNGGA,224931.00,4910.544574,N,12304.424837,W,1,12,0.5,11.7,M,-19.2,M,,*7C
$GNGGA,224932.00,4910.544573,N,12304.424836,W,1,12,0.5,11.7,M,-19.2,M,,*79
$GNGGA,224933.00,4910.544573,N,12304.424836,W,1,12,0.5,11.7,M,-19.2,M,,*78
$GNGGA,224934.00,4910.544572,N,12304.424836,W,1,12,0.5,11.7,M,-19.2,M,,*7E
$GNGGA,224935.00,4910.544572,N,12304.424837,W,1,12,0.5,11.7,M,-19.2,M,,*7E
$GNGGA,224936.00,4910.544572,N,12304.424837,W,1,12,0.5,11.7,M,-19.2,M,,*7D
$GNGGA,224937.00,4910.544570,N,12304.424839,W,1,12,0.5,11.7,M,-19.2,M,,*70
$GNGGA,224938.00,4910.544569,N,12304.424840,W,1,12,0.5,11.7,M,-19.2,M,,*79
$GNGGA,224939.00,4910.544568,N,12304.424842,W,1,12,0.5,11.7,M,-19.2,M,,*7B
$GNGGA,224940.00,4910.544566,N,12304.424843,W,1,12,0.5,11.7,M,-19.2,M,,*7A
$GNGGA,224941.00,4910.544564,N,12304.424845,W,1,12,0.5,11.7,M,-19.2,M,,*7F
$GNGGA,224942.00,4910.544563,N,12304.424847,W,1,12,0.5,11.7,M,-19.2,M,,*79
$GNGGA,224943.00,4910.544561,N,12304.424849,W,1,12,0.5,11.7,M,-19.2,M,,*74
$GNGGA,224944.00,4910.544559,N,12304.424851,W,1,12,0.5,11.7,M,-19.2,M,,*71
$GNGGA,224945.00,4910.544557,N,12304.424853,W,1,12,0.5,11.7,M,-19.2,M,,*7C
$GNGGA,224946.00,4910.544555,N,12304.424855,W,1,12,0.5,11.7,M,-19.2,M,,*7B
$GNGGA,224947.00,4910.544554,N,12304.424856,W,1,12,0.5,11.7,M,-19.2,M,,*78
$GNGGA,224948.00,4910.544552,N,12304.424858,W,1,12,0.5,11.7,M,-19.2,M,,*7F
$GNGGA,224949.00,4910.544551,N,12304.424860,W,1,12,0.5,11.7,M,-19.2,M,,*76
$GNGGA,224950.00,4910.544549,N,12304.424861,W,1,12,0.5,11.7,M,-19.2,M,,*76
$GNGGA,224951.00,4910.544548,N,12304.424862,W,1,12,0.5,11.7,M,-19.2,M,,*75
$GNGGA,224952.00,4910.544546,N,12304.424864,W,1,12,0.5,11.7,M,-19.2,M,,*7E
$GNGGA,224953.00,4910.544545,N,12304.424866,W,1,12,0.5,11.7,M,-19.2,M,,*7E
$GNGGA,224954.00,4910.544543,N,12304.424867,W,1,12,0.5,11.7,M,-19.2,M,,*7E
$GNGGA,224955.00,4910.544542,N,12304.424869,W,1,12,0.5,11.6,M,-19.2,M,,*71
$GNGGA,224956.00,4910.544542,N,12304.424870,W,1,12,0.5,11.6,M,-19.2,M,,*7A
$GNGGA,224957.00,4910.544542,N,12304.424871,W,1,12,0.5,11.6,M,-19.2,M,,*7A
$GNGGA,224958.00,4910.544542,N,12304.424872,W,1,12,0.5,11.6,M,-19.2,M,,*76
$GNGGA,224959.00,4910.544542,N,12304.424872,W,1,12,0.5,11.6,M,-19.2,M,,*77
$GNGGA,225000.00,4910.544541,N,12304.424873,W,1,12,0.5,11.6,M,-19.2,M,,*71
$GNGGA,225001.00,4910.544540,N,12304.424874,W,1,12,0.5,11.6,M,-19.2,M,,*76
$GNGGA,225002.00,4910.544540,N,12304.424875,W,1,12,0.5,11.6,M,-19.2,M,,*74
$GNGGA,225003.00,4910.544539,N,12304.424877,W,1,12,0.5,11.6,M,-19.2,M,,*79
$GNGGA,225004.00,4910.544538,N,12304.424878,W,1,12,0.5,11.6,M,-19.2,M,,*70
$GNGGA,225005.00,4910.544537,N,12304.424880,W,1,12,0.5,11.6,M,-19.2,M,,*79
$GNGGA,225006.00,4910.544536,N,12304.424881,W,1,12,0.5,11.6,M,-19.2,M,,*7A
$GNGGA,225007.00,4910.544535,N,12304.424881,W,1,12,0.5,11.6,M,-19.2,M,,*78
$GNGGA,225008.00,4910.544534,N,12304.424882,W,1,12,0.5,11.6,M,-19.2,M,,*75
$GNGGA,225009.00,4910.544534,N,12304.424883,W,1,12,0.5,11.6,M,-19.2,M,,*75
$GNGGA,225010.00,4910.544534,N,12304.424885,W,1,12,0.5,11.6,M,-19.2,M,,*7B
$GNGGA,225011.00,4910.544533,N,12304.424886,W,1,12,0.5,11.6,M,-19.2,M,,*7E
$GNGGA,225012.00,4910.544533,N,12304.424887,W,1,12,0.5,11.6,M,-19.2,M,,*7C
$GNGGA,225013.00,4910.544533,N,12304.424888,W,1,12,0.5,11.6,M,-19.2,M,,*72
$GNGGA,225014.00,4910.544533,N,12304.424890,W,1,12,0.5,11.6,M,-19.2,M,,*7C
$GNGGA,225015.00,4910.544532,N,12304.424891,W,1,12,0.5,11.6,M,-19.2,M,,*7D
$GNGGA,225016.00,4910.544532,N,12304.424893,W,1,12,0.5,11.6,M,-19.2,M,,*7C
$GNGGA,225017.00,4910.544531,N,12304.424894,W,1,12,0.5,11.6,M,-19.2,M,,*79
$GNGGA,225018.00,4910.544530,N,12304.424896,W,1,12,0.5,11.6,M,-19.2,M,,*75
$GNGGA,225019.00,4910.544530,N,12304.424897,W,1,12,0.5,11.6,M,-19.2,M,,*75
$GNGGA,225020.00,4910.544529,N,12304.424898,W,1,12,0.5,11.6,M,-19.2,M,,*78
$GNGGA,225021.00,4910.544528,N,12304.424899,W,1,12,0.5,11.6,M,-19.2,M,,*79
$GNGGA,225022.00,4910.544528,N,12304.424900,W,1,12,0.5,11.6,M,-19.2,M,,*7B
$GNGGA,225023.00,4910.544528,N,12304.424901,W,1,12,0.5,11.6,M,-19.2,M,,*7B
$GNGGA,225024.00,4910.544528,N,12304.424902,W,1,12,0.5,11.6,M,-19.2,M,,*7F
$GNGGA,225025.00,4910.544527,N,12304.424902,W,1,12,0.5,11.6,M,-19.2,M,,*71
$GNGGA,225026.00,4910.544527,N,12304.424903,W,1,12,0.5,11.6,M,-19.2,M,,*73
$GNGGA,225027.00,4910.544525,N,12304.424903,W,1,12,0.5,11.6,M,-19.2,M,,*70
$GNGGA,225028.00,4910.544525,N,12304.424905,W,1,12,0.5,11.6,M,-19.2,M,,*79
$GNGGA,225029.00,4910.544526,N,12304.424906,W,1,12,0.5,11.6,M,-19.2,M,,*78
$GNGGA,225030.00,4910.544525,N,12304.424907,W,1,12,0.5,11.6,M,-19.2,M,,*72
$GNGGA,225031.00,4910.544526,N,12304.424908,W,1,12,0.5,11.6,M,-19.2,M,,*7F
$GNGGA,225032.00,4910.544525,N,12304.424909,W,1,12,0.5,11.6,M,-19.2,M,,*7E
$GNGGA,225033.00,4910.544525,N,12304.424910,W,1,12,0.5,11.6,M,-19.2,M,,*77
$GNGGA,225034.00,4910.544527,N,12304.424911,W,1,12,0.5,11.6,M,-19.2,M,,*73
$GNGGA,225035.00,4910.544527,N,12304.424912,W,1,12,0.5,11.6,M,-19.2,M,,*71
$GNGGA,225036.00,4910.544528,N,12304.424912,W,1,12,0.5,11.6,M,-19.2,M,,*7D
$GNGGA,225037.00,4910.544528,N,12304.424912,W,1,12,0.5,11.6,M,-19.2,M,,*7C
$GNGGA,225038.00,4910.544530,N,12304.424913,W,1,12,0.5,11.6,M,-19.2,M,,*7B
$GNGGA,225039.00,4910.544531,N,12304.424913,W,1,12,0.5,11.6,M,-19.2,M,,*7B
$GNGGA,225040.00,4910.544531,N,12304.424913,W,1,12,0.5,11.6,M,-19.2,M,,*75
$GNGGA,225041.00,4910.544531,N,12304.424913,W,1,12,0.5,11.6,M,-19.2,M,,*74
$GNGGA,225042.00,4910.544533,N,12304.424913,W,1,12,0.5,11.6,M,-19.2,M,,*75
$GNGGA,225043.00,4910.544534,N,12304.424914,W,1,12,0.5,11.6,M,-19.2,M,,*74
$GNGGA,225044.00,4910.544536,N,12304.424914,W,1,12,0.5,11.6,M,-19.2,M,,*71
$GNGGA,225045.00,4910.544537,N,12304.424914,W,1,12,0.5,11.6,M,-19.2,M,,*71
$GNGGA,225046.00,4910.544538,N,12304.424915,W,1,12,0.5,11.6,M,-19.2,M,,*7C
$GNGGA,225047.00,4910.544538,N,12304.424915,W,1,12,0.5,11.6,M,-19.2,M,,*7D
$GNGGA,225048.00,4910.544538,N,12304.424915,W,1,12,0.5,11.6,M,-19.2,M,,*72
$GNGGA,225049.00,4910.544539,N,12304.424916,W,1,12,0.5,11.6,M,-19.2,M,,*71
$GNGGA,225050.00,4910.544540,N,12304.424917,W,1,12,0.5,11.6,M,-19.2,M,,*76
$GNGGA,225051.00,4910.544540,N,12304.424917,W,1,12,0.5,11.6,M,-19.2,M,,*77
$GNGGA,225052.00,4910.544542,N,12304.424918,W,1,12,0.5,11.6,M,-19.2,M,,*79
$GNGGA,225053.00,4910.544542,N,12304.424918,W,1,12,0.5,11.6,M,-19.2,M,,*78
$GNGGA,225054.00,4910.544542,N,12304.424918,W,1,12,0.5,11.6,M,-19.2,M,,*7F
$GNGGA,225055.00,4910.544541,N,12304.424919,W,1,12,0.5,11.6,M,-19.2,M,,*7C
$GNGGA,225056.00,4910.544541,N,12304.424920,W,1,12,0.5,11.6,M,-19.2,M,,*75
$GNGGA,225057.00,4910.544540,N,12304.424920,W,1,12,0.5,11.6,M,-19.2,M,,*75
$GNGGA,225058.00,4910.544540,N,12304.424920,W,1,12,0.5,11.6,M,-19.2,M,,*7A
$GNGGA,225059.00,4910.544540,N,12304.424921,W,1,12,0.5,11.6,M,-19.2,M,,*7A
$GNGGA,225100.00,4910.544540,N,12304.424921,W,1,12,0.5,11.5,M,-19.2,M,,*74
$GNGGA,225101.00,4910.544540,N,12304.424922,W,1,12,0.5,11.5,M,-19.2,M,,*76
$GNGGA,225102.00,4910.544540,N,12304.424923,W,1,12,0.5,11.5,M,-19.2,M,,*74
$GNGGA,225103.00,4910.544540,N,12304.424924,W,1,12,0.5,11.5,M,-19.2,M,,*72
$GNGGA,225104.00,4910.544540,N,12304.424925,W,1,12,0.5,11.5,M,-19.2,M,,*74
$GNGGA,225105.00,4910.544540,N,12304.424927,W,1,12,0.5,11.5,M,-19.2,M,,*77
$GNGGA,225106.00,4910.544539,N,12304.424928,W,1,12,0.5,11.5,M,-19.2,M,,*75
$GNGGA,225107.00,4910.544539,N,12304.424929,W,1,12,0.5,11.5,M,-19.2,M,,*75
$GNGGA,225108.00,4910.544539,N,12304.424929,W,1,12,0.5,11.5,M,-19.2,M,,*7A
$GNGGA,225109.00,4910.544539,N,12304.424930,W,1,12,0.5,11.5,M,-19.2,M,,*73
$GNGGA,225110.00,4910.544539,N,12304.424930,W,1,12,0.5,11.5,M,-19.2,M,,*7B
$GNGGA,225111.00,4910.544539,N,12304.424932,W,1,12,0.5,11.5,M,-19.2,M,,*78
$GNGGA,225112.00,4910.544539,N,12304.424933,W,1,12,0.5,11.5,M,-19.2,M,,*7A
$GNGGA,225113.00,4910.544538,N,12304.424933,W,1,12,0.5,11.5,M,-19.2,M,,*7A
$GNGGA,225114.00,4910.544538,N,12304.424934,W,1,12,0.5,11.5,M,-19.2,M,,*7A
$GNGGA,225115.00,4910.544537,N,12304.424935,W,1,12,0.5,11.5,M,-19.2,M,,*75
$GNGGA,225116.00,4910.544537,N,12304.424935,W,1,12,0.5,11.5,M,-19.2,M,,*76
$GNGGA,225117.00,4910.544537,N,12304.424935,W,1,12,0.5,11.5,M,-19.2,M,,*77
$GNGGA,225118.00,4910.544536,N,12304.424936,W,1,12,0.5,11.5,M,-19.2,M,,*7A
$GNGGA,225119.00,4910.544536,N,12304.424936,W,1,12,0.5,11.5,M,-19.2,M,,*7B
$GNGGA,225120.00,4910.544535,N,12304.424936,W,1,12,0.5,11.5,M,-19.2,M,,*72
$GNGGA,225121.00,4910.544534,N,12304.424937,W,1,12,0.5,11.5,M,-19.2,M,,*73
$GNGGA,225122.00,4910.544533,N,12304.424938,W,1,12,0.5,11.5,M,-19.2,M,,*78
$GNGGA,225123.00,4910.544533,N,12304.424938,W,1,12,0.5,11.5,M,-19.2,M,,*79
$GNGGA,225124.00,4910.544531,N,12304.424938,W,1,12,0.5,11.5,M,-19.2,M,,*7C
$GNGGA,225125.00,4910.544531,N,12304.424938,W,1,12,0.5,11.5,M,-19.2,M,,*7D
$GNGGA,225126.00,4910.544530,N,12304.424938,W,1,12,0.5,11.5,M,-19.2,M,,*7F
$GNGGA,225127.00,4910.544530,N,12304.424938,W,1,12,0.5,11.5,M,-19.2,M,,*7E
$GNGGA,225128.00,4910.544528,N,12304.424937,W,1,12,0.5,11.5,M,-19.2,M,,*77
$GNGGA,225129.00,4910.544528,N,12304.424937,W,1,12,0.5,11.5,M,-19.2,M,,*76
$GNGGA,225130.00,4910.544528,N,12304.424937,W,1,12,0.5,11.5,M,-19.2,M,,*7E
$GNGGA,225131.00,4910.544527,N,12304.424938,W,1,12,0.5,11.5,M,-19.2,M,,*7F
$GNGGA,225132.00,4910.544527,N,12304.424938,W,1,12,0.5,11.5,M,-19.2,M,,*7C
$GNGGA,225133.00,4910.544526,N,12304.424938,W,1,12,0.5,11.5,M,-19.2,M,,*7C
$GNGGA,225134.00,4910.544525,N,12304.424938,W,1,12,0.5,11.5,M,-19.2,M,,*78
$GNGGA,225135.00,4910.544524,N,12304.424938,W,1,12,0.5,11.5,M,-19.2,M,,*78
$GNGGA,225136.00,4910.544522,N,12304.424939,W,1,12,0.5,11.5,M,-19.2,M,,*7C
$GNGGA,225137.00,4910.544521,N,12304.424939,W,1,12,0.5,11.5,M,-19.2,M,,*7E
$GNGGA,225138.00,4910.544520,N,12304.424939,W,1,12,0.5,11.5,M,-19.2,M,,*70
$GNGGA,225139.00,4910.544519,N,12304.424939,W,1,12,0.5,11.5,M,-19.2,M,,*7B
$GNGGA,225140.00,4910.544519,N,12304.424939,W,1,12,0.5,11.5,M,-19.2,M,,*75
$GNGGA,225141.00,4910.544518,N,12304.424939,W,1,12,0.5,11.5,M,-19.2,M,,*75
$GNGGA,225142.00,4910.544518,N,12304.424939,W,1,12,0.5,11.5,M,-19.2,M,,*76
$GNGGA,225143.00,4910.544518,N,12304.424939,W,1,12,0.5,11.5,M,-19.2,M,,*77
$GNGGA,225144.00,4910.544517,N,12304.424939,W,1,12,0.5,11.5,M,-19.2,M,,*7F
$GNGGA,225145.00,4910.544516,N,12304.424939,W,1,12,0.5,11.5,M,-19.2,M,,*7F
$GNGGA,225146.00,4910.544516,N,12304.424939,W,1,12,0.5,11.5,M,-19.2,M,,*7C
$GNGGA,225147.00,4910.544516,N,12304.424939,W,1,12,0.5,11.5,M,-19.2,M,,*7D
$GNGGA,225148.00,4910.544516,N,12304.424939,W,1,12,0.5,11.5,M,-19.2,M,,*72
$GNGGA,225149.00,4910.544515,N,12304.424939,W,1,12,0.5,11.5,M,-19.2,M,,*70
$GNGGA,225150.00,4910.544515,N,12304.424939,W,1,12,0.5,11.5,M,-19.2,M,,*78
$GNGGA,225151.00,4910.544515,N,12304.424939,W,1,12,0.5,11.5,M,-19.2,M,,*79
$GNGGA,225152.00,4910.544515,N,12304.424940,W,1,12,0.5,11.5,M,-19.2,M,,*74
$GNGGA,225153.00,4910.544515,N,12304.424940,W,1,12,0.5,11.5,M,-19.2,M,,*75
$GNGGA,225154.00,4910.544515,N,12304.424941,W,1,12,0.5,11.5,M,-19.2,M,,*73
$GNGGA,225155.00,4910.544515,N,12304.424942,W,1,12,0.5,11.4,M,-19.2,M,,*70
$GNGGA,225156.00,4910.544515,N,12304.424943,W,1,12,0.5,11.4,M,-19.2,M,,*72
$GNGGA,225157.00,4910.544516,N,12304.424944,W,1,12,0.5,11.4,M,-19.2,M,,*77
$GNGGA,225158.00,4910.544516,N,12304.424945,W,1,12,0.5,11.4,M,-19.2,M,,*79
$GNGGA,225159.00,4910.544516,N,12304.424945,W,1,12,0.5,11.4,M,-19.2,M,,*78
$GNGGA,225200.00,4910.544516,N,12304.424947,W,1,12,0.5,11.4,M,-19.2,M,,*75
$GNGGA,225201.00,4910.544517,N,12304.424948,W,1,12,0.5,11.4,M,-19.2,M,,*7A
$GNGGA,225202.00,4910.544517,N,12304.424948,W,1,12,0.5,11.4,M,-19.2,M,,*79
$GNGGA,225203.00,4910.544517,N,12304.424950,W,1,12,0.5,11.4,M,-19.2,M,,*71
$GNGGA,225204.00,4910.544518,N,12304.424950,W,1,12,0.5,11.4,M,-19.2,M,,*79
$GNGGA,225205.00,4910.544518,N,12304.424951,W,1,12,0.5,11.4,M,-19.2,M,,*79
$GNGGA,225206.00,4910.544518,N,12304.424951,W,1,12,0.5,11.4,M,-19.2,M,,*7A
$GNGGA,225207.00,4910.544518,N,12304.424951,W,1,12,0.5,11.4,M,-19.2,M,,*7B
$GNGGA,225208.00,4910.544518,N,12304.424951,W,1,12,0.5,11.4,M,-19.2,M,,*74
$GNGGA,225209.00,4910.544518,N,12304.424951,W,1,12,0.5,11.4,M,-19.2,M,,*75
$GNGGA,225210.00,4910.544517,N,12304.424951,W,1,12,0.5,11.4,M,-19.2,M,,*72
$GNGGA,225211.00,4910.544517,N,12304.424951,W,1,12,0.5,11.4,M,-19.2,M,,*73
$GNGGA,225212.00,4910.544516,N,12304.424951,W,1,12,0.5,11.4,M,-19.2,M,,*71
$GNGGA,225213.00,4910.544516,N,12304.424951,W,1,12,0.5,11.4,M,-19.2,M,,*70
$GNGGA,225214.00,4910.544516,N,12304.424952,W,1,12,0.5,11.4,M,-19.2,M,,*74
$GNGGA,225215.00,4910.544516,N,12304.424953,W,1,12,0.5,11.4,M,-19.2,M,,*74
$GNGGA,225216.00,4910.544515,N,12304.424953,W,1,12,0.5,11.4,M,-19.2,M,,*74
$GNGGA,225217.00,4910.544515,N,12304.424954,W,1,12,0.5,11.4,M,-19.2,M,,*72
$GNGGA,225218.00,4910.544514,N,12304.424954,W,1,12,0.5,11.4,M,-19.2,M,,*7C
$GNGGA,225219.00,4910.544514,N,12304.424956,W,1,12,0.5,11.4,M,-19.2,M,,*7F
$GNGGA,225220.00,4910.544513,N,12304.424957,W,1,12,0.5,11.4,M,-19.2,M,,*73
$GNGGA,225221.00,4910.544513,N,12304.424958,W,1,12,0.5,11.4,M,-19.2,M,,*7D
$GNGGA,225222.00,4910.544513,N,12304.424959,W,1,12,0.5,11.4,M,-19.2,M,,*7F
$GNGGA,225223.00,4910.544512,N,12304.424960,W,1,12,0.5,11.4,M,-19.2,M,,*75
$GNGGA,225224.00,4910.544511,N,12304.424960,W,1,12,0.5,11.4,M,-19.2,M,,*71
$GNGGA,225225.00,4910.544510,N,12304.424962,W,1,12,0.5,11.4,M,-19.2,M,,*73
$GNGGA,225226.00,4910.544509,N,12304.424962,W,1,12,0.5,11.4,M,-19.2,M,,*78
$GNGGA,225227.00,4910.544508,N,12304.424963,W,1,12,0.5,11.4,M,-19.2,M,,*79
$GNGGA,225228.00,4910.544507,N,12304.424965,W,1,12,0.5,11.4,M,-19.2,M,,*7F
$GNGGA,225229.00,4910.544506,N,12304.424966,W,1,12,0.5,11.4,M,-19.2,M,,*7C
$GNGGA,225230.00,4910.544506,N,12304.424966,W,1,12,0.5,11.4,M,-19.2,M,,*74
$GNGGA,225231.00,4910.544504,N,12304.424968,W,1,12,0.5,11.4,M,-19.2,M,,*79
$GNGGA,225232.00,4910.544503,N,12304.424969,W,1,12,0.5,11.4,M,-19.2,M,,*7C
$GNGGA,225233.00,4910.544502,N,12304.424971,W,1,12,0.5,11.4,M,-19.2,M,,*75
$GNGGA,225234.00,4910.544501,N,12304.424971,W,1,12,0.5,11.4,M,-19.2,M,,*71
$GNGGA,225235.00,4910.544500,N,12304.424972,W,1,12,0.5,11.4,M,-19.2,M,,*72
$GNGGA,225236.00,4910.544498,N,12304.424974,W,1,12,0.5,11.4,M,-19.2,M,,*77
$GNGGA,225237.00,4910.544497,N,12304.424974,W,1,12,0.5,11.4,M,-19.2,M,,*79
$GNGGA,225238.00,4910.544495,N,12304.424975,W,1,12,0.5,11.4,M,-19.2,M,,*75
$GNGGA,225239.00,4910.544494,N,12304.424975,W,1,12,0.5,11.4,M,-19.2,M,,*75
$GNGGA,225240.00,4910.544493,N,12304.424977,W,1,12,0.5,11.4,M,-19.2,M,,*7E
$GNGGA,225241.00,4910.544492,N,12304.424977,W,1,12,0.5,11.4,M,-19.2,M,,*7E
$GNGGA,225242.00,4910.544491,N,12304.424977,W,1,12,0.5,11.4,M,-19.2,M,,*7E
$GNGGA,225243.00,4910.544490,N,12304.424978,W,1,12,0.5,11.4,M,-19.2,M,,*71
$GNGGA,225244.00,4910.544488,N,12304.424978,W,1,12,0.5,11.4,M,-19.2,M,,*7F
$GNGGA,225245.00,4910.544487,N,12304.424978,W,1,12,0.5,11.4,M,-19.2,M,,*71
$GNGGA,225246.00,4910.544486,N,12304.424978,W,1,12,0.5,11.4,M,-19.2,M,,*73
$GNGGA,225247.00,4910.544485,N,12304.424979,W,1,12,0.5,11.4,M,-19.2,M,,*70
$GNGGA,225248.00,4910.544483,N,12304.424980,W,1,12,0.5,11.4,M,-19.2,M,,*7F
$GNGGA,225249.00,4910.544483,N,12304.424980,W,1,12,0.5,11.4,M,-19.2,M,,*7E
$GNGGA,225250.00,4910.544482,N,12304.424981,W,1,12,0.5,11.4,M,-19.2,M,,*76
$GNGGA,225251.00,4910.544481,N,12304.424981,W,1,12,0.5,11.4,M,-19.2,M,,*74
$GNGGA,225252.00,4910.544480,N,12304.424982,W,1,12,0.5,11.4,M,-19.2,M,,*75
$GNGGA,225253.00,4910.544480,N,12304.424983,W,1,12,0.5,11.4,M,-19.2,M,,*75
$GNGGA,225254.00,4910.544479,N,12304.424983,W,1,12,0.5,11.4,M,-19.2,M,,*74
$GNGGA,225255.00,4910.544477,N,12304.424984,W,1,12,0.5,11.4,M,-19.2,M,,*7C
$GNGGA,225256.00,4910.544476,N,12304.424984,W,1,12,0.5,11.4,M,-19.2,M,,*7E
$GNGGA,225257.00,4910.544475,N,12304.424984,W,1,12,0.5,11.4,M,-19.2,M,,*7C
$GNGGA,225258.00,4910.544474,N,12304.424985,W,1,12,0.5,11.4,M,-19.2,M,,*73
$GNGGA,225259.00,4910.544473,N,12304.424986,W,1,12,0.5,11.4,M,-19.2,M,,*76
$GNGGA,225300.00,4910.544471,N,12304.424986,W,1,12,0.5,11.4,M,-19.2,M,,*79
$GNGGA,225301.00,4910.544471,N,12304.424987,W,1,12,0.5,11.4,M,-19.2,M,,*79
$GNGGA,225302.00,4910.544470,N,12304.424988,W,1,12,0.5,11.4,M,-19.2,M,,*74
$GNGGA,225303.00,4910.544468,N,12304.424989,W,1,12,0.5,11.4,M,-19.2,M,,*7D
$GNGGA,225304.00,4910.544467,N,12304.424989,W,1,12,0.5,11.4,M,-19.2,M,,*75
$GNGGA,225305.00,4910.544466,N,12304.424990,W,1,12,0.5,11.4,M,-19.2,M,,*7D
$GNGGA,225306.00,4910.544465,N,12304.424991,W,1,12,0.5,11.4,M,-19.2,M,,*7C
$GNGGA,225307.00,4910.544464,N,12304.424992,W,1,12,0.5,11.4,M,-19.2,M,,*7F
$GNGGA,225308.00,4910.544463,N,12304.424993,W,1,12,0.5,11.4,M,-19.2,M,,*76
$GNGGA,225309.00,4910.544462,N,12304.424995,W,1,12,0.5,11.4,M,-19.2,M,,*70
$GNGGA,225310.00,4910.544461,N,12304.424996,W,1,12,0.5,11.4,M,-19.2,M,,*78
$GNGGA,225311.00,4910.544461,N,12304.424998,W,1,12,0.5,11.4,M,-19.2,M,,*77
$GNGGA,225312.00,4910.544460,N,12304.424999,W,1,12,0.5,11.4,M,-19.2,M,,*74
$GNGGA,225313.00,4910.544459,N,12304.425001,W,1,12,0.5,11.4,M,-19.2,M,,*76
$GNGGA,225314.00,4910.544459,N,12304.425002,W,1,12,0.5,11.4,M,-19.2,M,,*72
$GNGGA,225315.00,4910.544458,N,12304.425002,W,1,12,0.5,11.4,M,-19.2,M,,*72
$GNGGA,225316.00,4910.544457,N,12304.425003,W,1,12,0.5,11.4,M,-19.2,M,,*7F
$GNGGA,225317.00,4910.544456,N,12304.425004,W,1,12,0.5,11.4,M,-19.2,M,,*78
$GNGGA,225318.00,4910.544455,N,12304.425005,W,1,12,0.5,11.4,M,-19.2,M,,*75
$GNGGA,225319.00,4910.544455,N,12304.425005,W,1,12,0.5,11.4,M,-19.2,M,,*74
$GNGGA,225320.00,4910.544453,N,12304.425006,W,1,12,0.5,11.4,M,-19.2,M,,*7B
$GNGGA,225321.00,4910.544452,N,12304.425007,W,1,12,0.5,11.4,M,-19.2,M,,*7A
$GNGGA,225322.00,4910.544452,N,12304.425007,W,1,12,0.5,11.4,M,-19.2,M,,*79
$GNGGA,225323.00,4910.544451,N,12304.425008,W,1,12,0.5,11.4,M,-19.2,M,,*74
$GNGGA,225324.00,4910.544450,N,12304.425008,W,1,12,0.5,11.4,M,-19.2,M,,*72
$GNGGA,225325.00,4910.544449,N,12304.425008,W,1,12,0.5,11.4,M,-19.2,M,,*7B
$GNGGA,225326.00,4910.544448,N,12304.425009,W,1,12,0.5,11.4,M,-19.2,M,,*78
$GNGGA,225327.00,4910.544447,N,12304.425009,W,1,12,0.5,11.4,M,-19.2,M,,*76
$GNGGA,225328.00,4910.544446,N,12304.425010,W,1,12,0.5,11.4,M,-19.2,M,,*70
$GNGGA,225329.00,4910.544446,N,12304.425011,W,1,12,0.5,11.4,M,-19.2,M,,*70
$GNGGA,225330.00,4910.544444,N,12304.425011,W,1,12,0.5,11.4,M,-19.2,M,,*7A
$GNGGA,225331.00,4910.544444,N,12304.425013,W,1,12,0.5,11.4,M,-19.2,M,,*79
$GNGGA,225332.00,4910.544443,N,12304.425013,W,1,12,0.5,11.4,M,-19.2,M,,*7D
$GNGGA,225333.00,4910.544442,N,12304.425014,W,1,12,0.5,11.4,M,-19.2,M,,*7A
$GNGGA,225334.00,4910.544441,N,12304.425014,W,1,12,0.5,11.4,M,-19.2,M,,*7E
$GNGGA,225335.00,4910.544440,N,12304.425016,W,1,12,0.5,11.4,M,-19.2,M,,*7C
$GNGGA,225336.00,4910.544438,N,12304.425016,W,1,12,0.5,11.4,M,-19.2,M,,*70
$GNGGA,225337.00,4910.544437,N,12304.425017,W,1,12,0.5,11.4,M,-19.2,M,,*7F
$GNGGA,225338.00,4910.544435,N,12304.425018,W,1,12,0.5,11.5,M,-19.2,M,,*7C
$GNGGA,225339.00,4910.544435,N,12304.425019,W,1,12,0.5,11.5,M,-19.2,M,,*7C
$GNGGA,225340.00,4910.544434,N,12304.425019,W,1,12,0.5,11.5,M,-19.2,M,,*73
$GNGGA,225341.00,4910.544434,N,12304.425019,W,1,12,0.5,11.5,M,-19.2,M,,*72
$GNGGA,225342.00,4910.544433,N,12304.425020,W,1,12,0.5,11.5,M,-19.2,M,,*7C
$GNGGA,225343.00,4910.544433,N,12304.425020,W,1,12,0.5,11.5,M,-19.2,M,,*7D
$GNGGA,225344.00,4910.544432,N,12304.425021,W,1,12,0.5,11.5,M,-19.2,M,,*7A
$GNGGA,225345.00,4910.544432,N,12304.425022,W,1,12,0.5,11.5,M,-19.2,M,,*78
$GNGGA,225346.00,4910.544431,N,12304.425022,W,1,12,0.5,11.5,M,-19.2,M,,*78
$GNGGA,225347.00,4910.544431,N,12304.425022,W,1,12,0.5,11.5,M,-19.2,M,,*79
$GNGGA,225348.00,4910.544430,N,12304.425022,W,1,12,0.5,11.5,M,-19.2,M,,*77
$GNGGA,225349.00,4910.544430,N,12304.425022,W,1,12,0.5,11.5,M,-19.2,M,,*76
$GNGGA,225350.00,4910.544429,N,12304.425022,W,1,12,0.5,11.5,M,-19.2,M,,*76
$GNGGA,225351.00,4910.544429,N,12304.425022,W,1,12,0.5,11.4,M,-19.2,M,,*76
$GNGGA,225352.00,4910.544429,N,12304.425022,W,1,12,0.5,11.4,M,-19.2,M,,*75
$GNGGA,225353.00,4910.544428,N,12304.425022,W,1,12,0.5,11.4,M,-19.2,M,,*75
$GNGGA,225354.00,4910.544428,N,12304.425023,W,1,12,0.5,11.4,M,-19.2,M,,*73
$GNGGA,225355.00,4910.544427,N,12304.425023,W,1,12,0.5,11.4,M,-19.2,M,,*7D
$GNGGA,225356.00,4910.544426,N,12304.425024,W,1,12,0.5,11.4,M,-19.2,M,,*78
$GNGGA,225357.00,4910.544425,N,12304.425025,W,1,12,0.5,11.4,M,-19.2,M,,*7B
$GNGGA,225358.00,4910.544424,N,12304.425025,W,1,12,0.5,11.4,M,-19.2,M,,*75
$GNGGA,225359.00,4910.544423,N,12304.425026,W,1,12,0.5,11.4,M,-19.2,M,,*70
$GNGGA,225400.00,4910.544422,N,12304.425028,W,1,12,0.5,11.4,M,-19.2,M,,*74
$GNGGA,225401.00,4910.544422,N,12304.425029,W,1,12,0.5,11.4,M,-19.2,M,,*74
$GNGGA,225402.00,4910.544420,N,12304.425031,W,1,12,0.5,11.4,M,-19.2,M,,*7C
$GNGGA,225403.00,4910.544420,N,12304.425032,W,1,12,0.5,11.4,M,-19.2,M,,*7E
$GNGGA,225404.00,4910.544419,N,12304.425033,W,1,12,0.5,11.4,M,-19.2,M,,*72
$GNGGA,225405.00,4910.544418,N,12304.425034,W,1,12,0.5,11.4,M,-19.2,M,,*75
$GNGGA,225406.00,4910.544417,N,12304.425035,W,1,12,0.5,11.4,M,-19.2,M,,*78
$GNGGA,225407.00,4910.544416,N,12304.425037,W,1,12,0.5,11.4,M,-19.2,M,,*7A
$GNGGA,225408.00,4910.544416,N,12304.425038,W,1,12,0.5,11.4,M,-19.2,M,,*7A
$GNGGA,225409.00,4910.544415,N,12304.425040,W,1,12,0.5,11.4,M,-19.2,M,,*77
$GNGGA,225410.00,4910.544414,N,12304.425041,W,1,12,0.5,11.4,M,-19.2,M,,*7F
$GNGGA,225411.00,4910.544414,N,12304.425043,W,1,12,0.5,11.4,M,-19.2,M,,*7C
$GNGGA,225412.00,4910.544414,N,12304.425044,W,1,12,0.5,11.4,M,-19.2,M,,*78
$GNGGA,225413.00,4910.544413,N,12304.425045,W,1,12,0.5,11.4,M,-19.2,M,,*7F
$GNGGA,225414.00,4910.544412,N,12304.425046,W,1,12,0.5,11.4,M,-19.2,M,,*7A
$GNGGA,225415.00,4910.544411,N,12304.425047,W,1,12,0.5,11.4,M,-19.2,M,,*79
$GNGGA,225416.00,4910.544411,N,12304.425049,W,1,12,0.5,11.4,M,-19.2,M,,*74
$GNGGA,225417.00,4910.544410,N,12304.425049,W,1,12,0.5,11.4,M,-19.2,M,,*74
$GNGGA,225418.00,4910.544410,N,12304.425050,W,1,12,0.5,11.4,M,-19.2,M,,*73
$GNGGA,225419.00,4910.544410,N,12304.425050,W,1,12,0.5,11.4,M,-19.2,M,,*72
$GNGGA,225420.00,4910.544410,N,12304.425051,W,1,12,0.5,11.4,M,-19.2,M,,*79
$GNGGA,225421.00,4910.544410,N,12304.425052,W,1,12,0.5,11.4,M,-19.2,M,,*7B
$GNGGA,225422.00,4910.544409,N,12304.425052,W,1,12,0.5,11.4,M,-19.2,M,,*70
$GNGGA,225423.00,4910.544409,N,12304.425052,W,1,12,0.5,11.4,M,-19.2,M,,*71
$GNGGA,225424.00,4910.544408,N,12304.425052,W,1,12,0.5,11.4,M,-19.2,M,,*77
$GNGGA,225425.00,4910.544408,N,12304.425052,W,1,12,0.5,11.4,M,-19.2,M,,*76
$GNGGA,225426.00,4910.544407,N,12304.425052,W,1,12,0.5,11.4,M,-19.2,M,,*7A
$GNGGA,225427.00,4910.544407,N,12304.425052,W,1,12,0.5,11.4,M,-19.2,M,,*7B
$GNGGA,225428.00,4910.544406,N,12304.425052,W,1,12,0.5,11.4,M,-19.2,M,,*75
$GNGGA,225429.00,4910.544406,N,12304.425052,W,1,12,0.5,11.4,M,-19.2,M,,*74
$GNGGA,225430.00,4910.544406,N,12304.425053,W,1,12,0.5,11.4,M,-19.2,M,,*7D
$GNGGA,225431.00,4910.544406,N,12304.425053,W,1,12,0.5,11.4,M,-19.2,M,,*7C
$GNGGA,225432.00,4910.544405,N,12304.425053,W,1,12,0.5,11.4,M,-19.2,M,,*7C
$GNGGA,225433.00,4910.544404,N,12304.425053,W,1,12,0.5,11.4,M,-19.2,M,,*7C
$GNGGA,225434.00,4910.544404,N,12304.425053,W,1,12,0.5,11.4,M,-19.2,M,,*7B
$GNGGA,225435.00,4910.544402,N,12304.425054,W,1,12,0.5,11.4,M,-19.2,M,,*7B
$GNGGA,225436.00,4910.544402,N,12304.425055,W,1,12,0.5,11.4,M,-19.2,M,,*79
$GNGGA,225437.00,4910.544401,N,12304.425056,W,1,12,0.5,11.4,M,-19.2,M,,*78
$GNGGA,225438.00,4910.544400,N,12304.425057,W,1,12,0.5,11.4,M,-19.2,M,,*77
$GNGGA,225439.00,4910.544399,N,12304.425058,W,1,12,0.5,11.4,M,-19.2,M,,*7E
$GNGGA,225440.00,4910.544399,N,12304.425058,W,1,12,0.5,11.4,M,-19.2,M,,*70
$GNGGA,225441.00,4910.544398,N,12304.425058,W,1,12,0.5,11.4,M,-19.2,M,,*70
$GNGGA,225442.00,4910.544397,N,12304.425058,W,1,12,0.5,11.4,M,-19.2,M,,*7C
$GNGGA,225443.00,4910.544396,N,12304.425058,W,1,12,0.5,11.5,M,-19.2,M,,*7D
$GNGGA,225444.00,4910.544396,N,12304.425058,W,1,12,0.5,11.5,M,-19.2,M,,*7A
$GNGGA,225445.00,4910.544396,N,12304.425058,W,1,12,0.5,11.5,M,-19.2,M,,*7B
$GNGGA,225446.00,4910.544395,N,12304.425059,W,1,12,0.5,11.5,M,-19.2,M,,*7A
$GNGGA,225447.00,4910.544395,N,12304.425059,W,1,12,0.5,11.5,M,-19.2,M,,*7B
$GNGGA,225448.00,4910.544395,N,12304.425059,W,1,12,0.5,11.5,M,-19.2,M,,*74
$GNGGA,225449.00,4910.544395,N,12304.425059,W,1,12,0.5,11.5,M,-19.2,M,,*75
$GNGGA,225450.00,4910.544394,N,12304.425059,W,1,12,0.5,11.5,M,-19.2,M,,*7C
$GNGGA,225451.00,4910.544394,N,12304.425059,W,1,12,0.5,11.5,M,-19.2,M,,*7D
$GNGGA,225452.00,4910.544393,N,12304.425059,W,1,12,0.5,11.5,M,-19.2,M,,*79
$GNGGA,225453.00,4910.544393,N,12304.425059,W,1,12,0.5,11.5,M,-19.2,M,,*78
$GNGGA,225454.00,4910.544392,N,12304.425060,W,1,12,0.5,11.5,M,-19.2,M,,*74
$GNGGA,225455.00,4910.544392,N,12304.425060,W,1,12,0.5,11.5,M,-19.2,M,,*75
$GNGGA,225456.00,4910.544392,N,12304.425061,W,1,12,0.5,11.5,M,-19.2,M,,*77
$GNGGA,225457.00,4910.544391,N,12304.425061,W,1,12,0.5,11.5,M,-19.2,M,,*75
$GNGGA,225458.00,4910.544390,N,12304.425061,W,1,12,0.5,11.5,M,-19.2,M,,*7B
$GNGGA,225459.00,4910.544390,N,12304.425061,W,1,12,0.5,11.5,M,-19.2,M,,*7A
$GNGGA,225500.00,4910.544390,N,12304.425060,W,1,12,0.5,11.5,M,-19.2,M,,*76
$GNGGA,225501.00,4910.544389,N,12304.425060,W,1,12,0.5,11.5,M,-19.2,M,,*7F
$GNGGA,225502.00,4910.544389,N,12304.425059,W,1,12,0.5,11.5,M,-19.2,M,,*76
$GNGGA,225503.00,4910.544388,N,12304.425059,W,1,12,0.5,11.5,M,-19.2,M,,*76
$GNGGA,225504.00,4910.544387,N,12304.425059,W,1,12,0.5,11.5,M,-19.2,M,,*7E
$GNGGA,225505.00,4910.544387,N,12304.425059,W,1,12,0.5,11.5,M,-19.2,M,,*7F
$GNGGA,225506.00,4910.544386,N,12304.425059,W,1,12,0.5,11.5,M,-19.2,M,,*7D
$GNGGA,225507.00,4910.544384,N,12304.425059,W,1,12,0.5,11.5,M,-19.2,M,,*7E
$GNGGA,225508.00,4910.544383,N,12304.425059,W,1,12,0.5,11.5,M,-19.2,M,,*76
$GNGGA,225509.00,4910.544381,N,12304.425058,W,1,12,0.5,11.5,M,-19.2,M,,*74
$GNGGA,225510.00,4910.544380,N,12304.425058,W,1,12,0.5,11.4,M,-19.2,M,,*7C
$GNGGA,225511.00,4910.544378,N,12304.425058,W,1,12,0.5,11.4,M,-19.2,M,,*7A
$GNGGA,225512.00,4910.544377,N,12304.425058,W,1,12,0.5,11.4,M,-19.2,M,,*76
$GNGGA,225513.00,4910.544375,N,12304.425057,W,1,12,0.5,11.5,M,-19.2,M,,*7B
$GNGGA,225514.00,4910.544373,N,12304.425057,W,1,12,0.5,11.5,M,-19.2,M,,*7A
$GNGGA,225515.00,4910.544372,N,12304.425056,W,1,12,0.5,11.5,M,-19.2,M,,*7B
$GNGGA,225516.00,4910.544370,N,12304.425056,W,1,12,0.5,11.5,M,-19.2,M,,*7A
$GNGGA,225517.00,4910.544369,N,12304.425056,W,1,12,0.5,11.5,M,-19.2,M,,*73
$GNGGA,225518.00,4910.544368,N,12304.425056,W,1,12,0.5,11.5,M,-19.2,M,,*7D
$GNGGA,225519.00,4910.544368,N,12304.425056,W,1,12,0.5,11.5,M,-19.2,M,,*7C
$GNGGA,225520.00,4910.544367,N,12304.425055,W,1,12,0.5,11.4,M,-19.2,M,,*7B
$GNGGA,225521.00,4910.544366,N,12304.425055,W,1,12,0.5,11.4,M,-19.2,M,,*7B
$GNGGA,225522.00,4910.544366,N,12304.425055,W,1,12,0.5,11.4,M,-19.2,M,,*78
$GNGGA,225523.00,4910.544366,N,12304.425056,W,1,12,0.5,11.4,M,-19.2,M,,*7A
$GNGGA,225524.00,4910.544365,N,12304.425056,W,1,12,0.5,11.4,M,-19.2,M,,*7E
$GNGGA,225525.00,4910.544365,N,12304.425057,W,1,12,0.5,11.4,M,-19.2,M,,*7E
$GNGGA,225526.00,4910.544365,N,12304.425057,W,1,12,0.5,11.4,M,-19.2,M,,*7D
$GNGGA,225527.00,4910.544365,N,12304.425058,W,1,12,0.5,11.4,M,-19.2,M,,*73
$GNGGA,225528.00,4910.544365,N,12304.425058,W,1,12,0.5,11.4,M,-19.2,M,,*7C
$GNGGA,225529.00,4910.544365,N,12304.425058,W,1,12,0.5,11.4,M,-19.2,M,,*7D
$GNGGA,225530.00,4910.544364,N,12304.425059,W,1,12,0.5,11.4,M,-19.2,M,,*75
$GNGGA,225531.00,4910.544364,N,12304.425059,W,1,12,0.5,11.4,M,-19.2,M,,*74
$GNGGA,225532.00,4910.544363,N,12304.425059,W,1,12,0.5,11.4,M,-19.2,M,,*70
$GNGGA,225533.00,4910.544363,N,12304.425059,W,1,12,0.5,11.4,M,-19.2,M,,*71
$GNGGA,225534.00,4910.544363,N,12304.425059,W,1,12,0.5,11.4,M,-19.2,M,,*76
$GNGGA,225535.00,4910.544363,N,12304.425059,W,1,12,0.5,11.4,M,-19.2,M,,*77
$GNGGA,225536.00,4910.544362,N,12304.425059,W,1,12,0.5,11.4,M,-19.2,M,,*75
$GNGGA,225537.00,4910.544362,N,12304.425059,W,1,12,0.5,11.4,M,-19.2,M,,*74
$GNGGA,225538.00,4910.544362,N,12304.425060,W,1,12,0.5,11.4,M,-19.2,M,,*71
$GNGGA,225539.00,4910.544361,N,12304.425061,W,1,12,0.5,11.4,M,-19.2,M,,*72
$GNGGA,225540.00,4910.544360,N,12304.425061,W,1,12,0.5,11.4,M,-19.2,M,,*7D
$GNGGA,225541.00,4910.544360,N,12304.425062,W,1,12,0.5,11.4,M,-19.2,M,,*7F
$GNGGA,225542.00,4910.544360,N,12304.425062,W,1,12,0.5,11.4,M,-19.2,M,,*7C
$GNGGA,225543.00,4910.544359,N,12304.425063,W,1,12,0.5,11.4,M,-19.2,M,,*76
$GNGGA,225544.00,4910.544359,N,12304.425064,W,1,12,0.5,11.4,M,-19.2,M,,*76
$GNGGA,225545.00,4910.544357,N,12304.425064,W,1,12,0.5,11.4,M,-19.2,M,,*79
$GNGGA,225546.00,4910.544357,N,12304.425065,W,1,12,0.5,11.4,M,-19.2,M,,*7B
$GNGGA,225547.00,4910.544356,N,12304.425065,W,1,12,0.5,11.4,M,-19.2,M,,*7B
$GNGGA,225548.00,4910.544356,N,12304.425067,W,1,12,0.5,11.4,M,-19.2,M,,*76
$GNGGA,225549.00,4910.544355,N,12304.425067,W,1,12,0.5,11.4,M,-19.2,M,,*74
$GNGGA,225550.00,4910.544354,N,12304.425068,W,1,12,0.5,11.4,M,-19.2,M,,*72
$GNGGA,225551.00,4910.544354,N,12304.425070,W,1,12,0.5,11.4,M,-19.2,M,,*7A
$GNGGA,225552.00,4910.544354,N,12304.425071,W,1,12,0.5,11.4,M,-19.2,M,,*78
$GNGGA,225553.00,4910.544353,N,12304.425072,W,1,12,0.5,11.4,M,-19.2,M,,*7D
$GNGGA,225554.00,4910.544353,N,12304.425073,W,1,12,0.5,11.4,M,-19.2,M,,*7B
$GNGGA,225555.00,4910.544352,N,12304.425074,W,1,12,0.5,11.4,M,-19.2,M,,*7C
$GNGGA,225556.00,4910.544352,N,12304.425075,W,1,12,0.5,11.4,M,-19.2,M,,*7E
$GNGGA,225557.00,4910.544351,N,12304.425076,W,1,12,0.5,11.4,M,-19.2,M,,*7F
$GNGGA,225558.00,4910.544351,N,12304.425078,W,1,12,0.5,11.4,M,-19.2,M,,*7E
$GNGGA,225559.00,4910.544351,N,12304.425079,W,1,12,0.5,11.4,M,-19.2,M,,*7E
$GNGGA,225600.00,4910.544350,N,12304.425080,W,1,12,0.5,11.4,M,-19.2,M,,*76
$GNGGA,225601.00,4910.544350,N,12304.425080,W,1,12,0.5,11.4,M,-19.2,M,,*77
$GNGGA,225602.00,4910.544349,N,12304.425082,W,1,12,0.5,11.4,M,-19.2,M,,*7E
$GNGGA,225603.00,4910.544348,N,12304.425082,W,1,12,0.5,11.4,M,-19.2,M,,*7E
$GNGGA,225604.00,4910.544347,N,12304.425083,W,1,12,0.5,11.4,M,-19.2,M,,*77
$GNGGA,225605.00,4910.544347,N,12304.425083,W,1,12,0.5,11.4,M,-19.2,M,,*76
$GNGGA,225606.00,4910.544345,N,12304.425083,W,1,12,0.5,11.4,M,-19.2,M,,*77
$GNGGA,225607.00,4910.544344,N,12304.425085,W,1,12,0.5,11.4,M,-19.2,M,,*71
$GNGGA,225608.00,4910.544343,N,12304.425085,W,1,12,0.5,11.4,M,-19.2,M,,*79
$GNGGA,225609.00,4910.544342,N,12304.425086,W,1,12,0.5,11.4,M,-19.2,M,,*7A
$GNGGA,225610.00,4910.544341,N,12304.425086,W,1,12,0.5,11.4,M,-19.2,M,,*71
$GNGGA,225611.00,4910.544340,N,12304.425086,W,1,12,0.5,11.4,M,-19.2,M,,*71
$GNGGA,225612.00,4910.544339,N,12304.425086,W,1,12,0.5,11.4,M,-19.2,M,,*7C
$GNGGA,225613.00,4910.544338,N,12304.425086,W,1,12,0.5,11.4,M,-19.2,M,,*7C
$GNGGA,225614.00,4910.544337,N,12304.425086,W,1,12,0.5,11.4,M,-19.2,M,,*74
$GNGGA,225615.00,4910.544336,N,12304.425086,W,1,12,0.5,11.4,M,-19.2,M,,*74
$GNGGA,225616.00,4910.544335,N,12304.425086,W,1,12,0.5,11.4,M,-19.2,M,,*74
$GNGGA,225617.00,4910.544335,N,12304.425086,W,1,12,0.5,11.4,M,-19.2,M,,*75
$GNGGA,225618.00,4910.544334,N,12304.425087,W,1,12,0.5,11.4,M,-19.2,M,,*7A
$GNGGA,225619.00,4910.544333,N,12304.425088,W,1,12,0.5,11.4,M,-19.2,M,,*73
$GNGGA,225620.00,4910.544333,N,12304.425088,W,1,12,0.5,11.4,M,-19.2,M,,*79
$GNGGA,225621.00,4910.544332,N,12304.425089,W,1,12,0.5,11.4,M,-19.2,M,,*78
$GNGGA,225622.00,4910.544332,N,12304.425089,W,1,12,0.5,11.4,M,-19.2,M,,*7B
$GNGGA,225623.00,4910.544331,N,12304.425090,W,1,12,0.5,11.4,M,-19.2,M,,*71
$GNGGA,225624.00,4910.544331,N,12304.425091,W,1,12,0.5,11.4,M,-19.2,M,,*77
$GNGGA,225625.00,4910.544330,N,12304.425092,W,1,12,0.5,11.4,M,-19.2,M,,*74
$GNGGA,225626.00,4910.544330,N,12304.425092,W,1,12,0.5,11.4,M,-19.2,M,,*77
$GNGGA,225627.00,4910.544330,N,12304.425093,W,1,12,0.5,11.4,M,-19.2,M,,*77
$GNGGA,225628.00,4910.544329,N,12304.425094,W,1,12,0.5,11.3,M,-19.2,M,,*70
$GNGGA,225629.00,4910.544329,N,12304.425095,W,1,12,0.5,11.3,M,-19.2,M,,*70
$GNGGA,225630.00,4910.544328,N,12304.425095,W,1,12,0.5,11.3,M,-19.2,M,,*79
$GNGGA,225631.00,4910.544327,N,12304.425097,W,1,12,0.5,11.3,M,-19.2,M,,*75
$GNGGA,225632.00,4910.544327,N,12304.425097,W,1,12,0.5,11.3,M,-19.2,M,,*76
$GNGGA,225633.00,4910.544327,N,12304.425098,W,1,12,0.5,11.3,M,-19.2,M,,*78
$GNGGA,225634.00,4910.544327,N,12304.425100,W,1,12,0.5,11.3,M,-19.2,M,,*7F
$GNGGA,225635.00,4910.544326,N,12304.425100,W,1,12,0.5,11.3,M,-19.2,M,,*7F
$GNGGA,225636.00,4910.544326,N,12304.425101,W,1,12,0.5,11.3,M,-19.2,M,,*7D
$GNGGA,225637.00,4910.544326,N,12304.425102,W,1,12,0.5,11.3,M,-19.2,M,,*7F
$GNGGA,225638.00,4910.544325,N,12304.425103,W,1,12,0.5,11.3,M,-19.2,M,,*72
$GNGGA,225639.00,4910.544324,N,12304.425103,W,1,12,0.5,11.3,M,-19.2,M,,*72
$GNGGA,225640.00,4910.544324,N,12304.425103,W,1,12,0.5,11.3,M,-19.2,M,,*7C
$GNGGA,225641.00,4910.544324,N,12304.425103,W,1,12,0.5,11.3,M,-19.2,M,,*7D
$GNGGA,225642.00,4910.544324,N,12304.425104,W,1,12,0.5,11.3,M,-19.2,M,,*79
$GNGGA,225643.00,4910.544323,N,12304.425104,W,1,12,0.5,11.3,M,-19.2,M,,*7F
$GNGGA,225644.00,4910.544323,N,12304.425104,W,1,12,0.5,11.3,M,-19.2,M,,*78
$GNGGA,225645.00,4910.544323,N,12304.425104,W,1,12,0.5,11.3,M,-19.2,M,,*79
$GNGGA,225646.00,4910.544322,N,12304.425104,W,1,12,0.5,11.3,M,-19.2,M,,*7B
$GNGGA,225647.00,4910.544322,N,12304.425104,W,1,12,0.5,11.3,M,-19.2,M,,*7A
$GNGGA,225648.00,4910.544321,N,12304.425104,W,1,12,0.5,11.3,M,-19.2,M,,*76
$GNGGA,225649.00,4910.544321,N,12304.425104,W,1,12,0.5,11.3,M,-19.2,M,,*77
$GNGGA,225650.00,4910.544321,N,12304.425104,W,1,12,0.5,11.3,M,-19.2,M,,*7F
$GNGGA,225651.00,4910.544321,N,12304.425105,W,1,12,0.5,11.3,M,-19.2,M,,*7F
$GNGGA,225652.00,4910.544321,N,12304.425106,W,1,12,0.5,11.3,M,-19.2,M,,*7F
$GNGGA,225653.00,4910.544320,N,12304.425106,W,1,12,0.5,11.3,M,-19.2,M,,*7F
$GNGGA,225654.00,4910.544320,N,12304.425106,W,1,12,0.5,11.3,M,-19.2,M,,*78
$GNGGA,225655.00,4910.544320,N,12304.425107,W,1,12,0.5,11.3,M,-19.2,M,,*78
$GNGGA,225656.00,4910.544319,N,12304.425108,W,1,12,0.5,11.3,M,-19.2,M,,*7E
$GNGGA,225657.00,4910.544319,N,12304.425109,W,1,12,0.5,11.3,M,-19.2,M,,*7E
$GNGGA,225658.00,4910.544318,N,12304.425109,W,1,12,0.5,11.3,M,-19.2,M,,*70
$GNGGA,225659.00,4910.544318,N,12304.425110,W,1,12,0.5,11.3,M,-19.2,M,,*79
$GNGGA,225700.00,4910.544317,N,12304.425110,W,1,12,0.5,11.3,M,-19.2,M,,*7B
$GNGGA,225701.00,4910.544317,N,12304.425110,W,1,12,0.5,11.3,M,-19.2,M,,*7A
$GNGGA,225702.00,4910.544316,N,12304.425111,W,1,12,0.5,11.3,M,-19.2,M,,*79
$GNGGA,225703.00,4910.544315,N,12304.425112,W,1,12,0.5,11.3,M,-19.2,M,,*78
$GNGGA,225704.00,4910.544315,N,12304.425112,W,1,12,0.6,11.3,M,-19.2,M,,*7C
$GNGGA,225705.00,4910.544315,N,12304.425113,W,1,12,0.6,11.3,M,-19.2,M,,*7C
$GNGGA,225706.00,4910.544314,N,12304.425114,W,1,12,0.6,11.3,M,-19.2,M,,*79
$GNGGA,225707.00,4910.544314,N,12304.425115,W,1,12,0.6,11.3,M,-19.2,M,,*79
$GNGGA,225708.00,4910.544313,N,12304.425116,W,1,12,0.6,11.3,M,-19.2,M,,*72
$GNGGA,225709.00,4910.544312,N,12304.425116,W,1,12,0.6,11.3,M,-19.2,M,,*72
$GNGGA,225710.00,4910.544312,N,12304.425118,W,1,12,0.6,11.3,M,-19.2,M,,*74
$GNGGA,225711.00,4910.544311,N,12304.425119,W,1,12,0.6,11.3,M,-19.2,M,,*77
$GNGGA,225712.00,4910.544311,N,12304.425120,W,1,12,0.6,11.3,M,-19.2,M,,*7E
$GNGGA,225713.00,4910.544310,N,12304.425121,W,1,12,0.6,11.3,M,-19.2,M,,*7F
$GNGGA,225714.00,4910.544087,N,12304.424869,W,1,12,0.6,11.2,M,-19.2,M,,*70
$GNGGA,225715.00,4910.543655,N,12304.424486,W,1,12,0.5,10.3,M,-19.2,M,,*71
$GNGGA,225716.00,4910.543187,N,12304.424108,W,1,12,0.5,9.6,M,-19.2,M,,*44
$GNGGA,225717.00,4910.542740,N,12304.423824,W,1,12,0.5,9.4,M,-19.2,M,,*4B
$GNGGA,225718.00,4910.542293,N,12304.423655,W,1,12,0.5,9.4,M,-19.2,M,,*47
$GNGGA,225719.00,4910.541839,N,12304.423598,W,1,12,0.5,9.2,M,-19.2,M,,*4B
$GNGGA,225720.00,4910.541471,N,12304.423655,W,1,12,0.5,9.0,M,-19.2,M,,*41
$GNGGA,225721.00,4910.541276,N,12304.424051,W,1,12,0.5,8.8,M,-19.2,M,,*4D
$GNGGA,225722.00,4910.541243,N,12304.424245,W,1,12,0.5,8.9,M,-19.2,M,,*4E
$GNGGA,225723.00,4910.541213,N,12304.424170,W,1,12,0.5,8.4,M,-19.2,M,,*42
$GNGGA,225724.00,4910.541742,N,12304.423636,W,1,12,0.5,8.3,M,-19.2,M,,*41
$GNGGA,225725.00,4910.542727,N,12304.422790,W,1,12,0.5,8.1,M,-19.2,M,,*4E
$GNGGA,225726.00,4910.543637,N,12304.421686,W,1,12,0.5,8.2,M,-19.2,M,,*4A
$GNGGA,225727.00,4910.544470,N,12304.420151,W,1,12,0.5,8.2,M,-19.2,M,,*41
$GNGGA,225728.00,4910.545203,N,12304.418324,W,1,12,0.5,8.0,M,-19.2,M,,*44
$GNGGA,225729.00,4910.545836,N,12304.416474,W,1,12,0.5,8.3,M,-19.2,M,,*46
$GNGGA,225730.00,4910.546393,N,12304.414750,W,1,12,0.5,8.4,M,-19.2,M,,*49
$GNGGA,225731.00,4910.546929,N,12304.413141,W,1,12,0.5,8.3,M,-19.2,M,,*45
$GNGGA,225732.00,4910.547443,N,12304.411663,W,1,12,0.5,8.4,M,-19.2,M,,*44
$GNGGA,225733.00,4910.547962,N,12304.410343,W,1,12,0.5,8.2,M,-19.2,M,,*4B
$GNGGA,225734.00,4910.548529,N,12304.409020,W,1,12,0.5,8.5,M,-19.2,M,,*49
$GNGGA,225735.00,4910.549082,N,12304.407813,W,1,12,0.5,8.5,M,-19.2,M,,*4B