$GNGGA,185305.000,4910.424646,N,12304.399764,W,2,25,0.54,10.432,M,-16.816,M,,*76
$GNGLL,4910.424646,N,12304.399764,W,185305.000,A,D*52
$GNGSA,A,3,07,30,08,14,09,05,27,13,20,,,,1.04,0.54,0.89,1*04
$GNGSA,A,3,71,82,65,80,,,,,,,,,1.04,0.54,0.89,2*00
$GNGSA,A,3,04,06,09,31,21,19,,,,,,,1.04,0.54,0.89,3*04
$GNGSA,A,3,36,22,19,38,27,28,,,,,,,1.04,0.54,0.89,4*08
$GPGSV,3,1,11,07,72,076,31,30,68,290,34,08,39,083,30,14,36,221,28,1*67
$GPGSV,3,2,11,46,33,188,29,09,28,154,20,05,24,297,26,27,22,046,22,1*60
$GPGSV,3,3,11,13,19,310,23,20,19,261,26,04,04,144,15,1*53
$GLGSV,2,1,07,74,62,270,15,72,61,291,23,71,47,190,26,82,19,044,23,1*79
$GLGSV,2,2,07,65,12,333,21,75,12,247,26,80,09,057,28,1*42
$GAGSV,2,1,07,04,70,182,31,06,70,275,32,09,48,302,29,31,42,215,28,7*7A
$GAGSV,2,2,07,21,27,052,26,19,16,144,20,15,04,013,17,7*49
$GBGSV,4,1,16,58,74,067,,36,63,260,29,46,59,065,,22,50,274,27,1*78
$GBGSV,4,2,16,19,36,198,21,38,22,320,19,08,20,336,18,27,17,095,23,1*70
$GBGSV,4,3,16,21,16,323,21,28,15,050,21,45,13,254,18,13,13,342,16,1*70
$GBGSV,4,4,16,31,07,342,,37,06,071,,30,04,140,18,04,01,261,,1*7E
$GNRMC,185305.000,A,4910.424646,N,12304.399764,W,0.03,138.98,080125,,,D,V*19
$GNVTG,138.98,T,,M,0.03,N,0.05,K,D*2B
$PAIRLOG,Full*51
$GNGGA,185306.000,4910.424766,N,12304.399902,W,2,25,0.54,10.340,M,-16.816,M,,*7A
$GNGLL,4910.424766,N,12304.399902,W,185306.000,A,D*5C
$GNGSA,A,3,07,30,08,14,09,05,27,13,20,,,,1.04,0.54,0.89,1*04
$GNGSA,A,3,71,82,65,80,,,,,,,,,1.04,0.54,0.89,2*00
$GNGSA,A,3,04,06,09,31,21,19,,,,,,,1.04,0.54,0.89,3*04
$GNGSA,A,3,36,22,19,38,27,28,,,,,,,1.04,0.54,0.89,4*08
$GPGSV,3,1,11,07,72,076,31,30,68,290,34,08,39,083,30,14,36,221,28,1*67
$GPGSV,3,2,11,46,33,188,29,09,28,154,20,05,24,297,26,27,22,046,22,1*60
$GPGSV,3,3,11,13,19,310,23,20,19,261,25,04,04,144,15,1*50
$GLGSV,2,1,07,74,62,270,15,72,61,291,23,71,47,190,26,82,19,044,23,1*79
$GLGSV,2,2,07,65,12,333,21,75,12,247,26,80,09,057,28,1*42
$GAGSV,2,1,07,04,70,182,31,06,70,275,32,09,48,302,29,31,42,215,28,7*7A
$GAGSV,2,2,07,21,27,052,26,19,16,144,20,15,04,013,17,7*49
$GBGSV,4,1,16,58,74,067,,36,63,260,29,46,59,065,,22,50,274,27,1*78
$GBGSV,4,2,16,19,36,198,21,38,22,320,18,08,20,336,18,27,17,095,22,1*70
$GBGSV,4,3,16,21,16,323,21,28,15,050,21,45,13,254,18,13,13,342,16,1*70
$GBGSV,4,4,16,31,07,342,,37,06,071,,30,04,140,18,04,01,261,,1*7E
$GNRMC,185306.000,A,4910.424766,N,12304.399902,W,0.03,138.98,080125,,,D,V*17
$GNVTG,138.98,T,,M,0.03,N,0.05,K,D*2B
$PAIRLOG,Full*51
$GNGGA,185307.000,4910.424832,N,12304.400022,W,2,25,0.54,10.299,M,-16.817,M,,*7D
$GNGLL,4910.424832,N,12304.400022,W,185307.000,A,D*5F
$GNGSA,A,3,07,30,08,14,09,05,27,13,20,,,,1.04,0.54,0.89,1*04
$GNGSA,A,3,71,82,65,80,,,,,,,,,1.04,0.54,0.89,2*00
$GNGSA,A,3,04,06,09,31,21,19,,,,,,,1.04,0.54,0.89,3*04
$GNGSA,A,3,36,22,19,38,27,28,,,,,,,1.04,0.54,0.89,4*08
$GPGSV,3,1,11,07,72,076,31,30,68,290,34,08,39,083,30,14,36,221,28,1*67
$GPGSV,3,2,11,46,33,188,29,09,28,154,20,05,24,297,26,27,22,046,23,1*61
$GPGSV,3,3,11,13,19,310,23,20,19,261,26,04,04,144,15,1*53
$GLGSV,2,1,07,74,62,270,16,72,61,291,,71,47,190,27,82,19,044,23,1*7A
$GLGSV,2,2,07,65,12,333,21,75,12,247,26,80,09,057,27,1*4D
$GAGSV,2,1,07,04,70,182,31,06,70,275,32,09,48,302,29,31,42,215,28,7*7A
$GAGSV,2,2,07,21,27,052,26,19,16,144,20,15,04,013,17,7*49
$GBGSV,4,1,16,58,74,067,,36,63,260,28,46,59,065,,22,50,274,27,1*79
$GBGSV,4,2,16,19,36,198,20,38,22,320,18,08,20,336,18,27,17,095,21,1*72
$GBGSV,4,3,16,21,16,323,21,28,15,050,20,45,13,254,18,13,13,342,16,1*71
$GBGSV,4,4,16,31,07,342,,37,06,071,,30,04,140,17,04,01,261,,1*71
$GNRMC,185307.000,A,4910.424832,N,12304.400022,W,0.03,138.98,080125,,,D,V*14
$GNVTG,138.98,T,,M,0.03,N,0.05,K,D*2B
$PAIRLOG,Full*51
$GNGGA,185308.000,4910.424838,N,12304.400076,W,2,25,0.54,10.159,M,-16.817,M,,*76
$GNGLL,4910.424838,N,12304.400076,W,185308.000,A,D*5B
$GNGSA,A,3,07,30,08,14,09,05,27,13,20,,,,1.04,0.54,0.89,1*04
$GNGSA,A,3,71,82,65,80,,,,,,,,,1.04,0.54,0.89,2*00
$GNGSA,A,3,04,06,09,31,21,19,,,,,,,1.04,0.54,0.89,3*04
$GNGSA,A,3,36,22,19,38,27,28,,,,,,,1.04,0.54,0.89,4*08
$GPGSV,3,1,11,07,72,076,32,30,68,290,34,08,39,083,30,14,36,221,28,1*64
$GPGSV,3,2,11,46,33,188,29,09,28,154,20,05,24,297,25,27,22,046,23,1*62
$GPGSV,3,3,11,13,19,310,24,20,19,261,26,04,04,144,15,1*54
$GLGSV,2,1,07,74,62,270,16,72,61,291,,71,47,190,27,82,19,044,23,1*7A
$GLGSV,2,2,07,65,12,333,21,75,12,247,26,80,09,057,27,1*4D
$GAGSV,2,1,07,04,70,182,31,06,70,275,32,09,48,302,29,31,42,215,28,7*7A
$GAGSV,2,2,07,21,27,052,26,19,16,144,20,15,04,013,17,7*49
$GBGSV,4,1,16,58,74,067,,36,63,260,28,46,59,065,,22,50,274,27,1*79
$GBGSV,4,2,16,19,36,198,20,38,22,320,18,08,20,336,18,27,17,095,21,1*72
$GBGSV,4,3,16,21,16,323,21,28,15,050,20,45,13,254,18,13,13,342,16,1*71
$GBGSV,4,4,16,31,07,342,,37,06,071,,30,04,140,17,04,01,261,,1*71
$GNRMC,185308.000,A,4910.424838,N,12304.400076,W,0.02,138.98,080125,,,D,V*11
$GNVTG,138.98,T,,M,0.02,N,0.04,K,D*2B
$PAIRLOG,Full*51
$GNGGA,185309.000,4910.424874,N,12304.400064,W,2,25,0.54,10.103,M,-16.816,M,,*72
$GNGLL,4910.424874,N,12304.400064,W,185309.000,A,D*51
$GNGSA,A,3,07,30,08,14,09,05,27,13,20,,,,1.04,0.54,0.89,1*04
$GNGSA,A,3,71,82,65,80,,,,,,,,,1.04,0.54,0.89,2*00
$GNGSA,A,3,04,06,09,31,21,19,,,,,,,1.04,0.54,0.89,3*04
$GNGSA,A,3,36,22,19,38,27,28,,,,,,,1.04,0.54,0.89,4*08
$GPGSV,3,1,11,07,72,076,32,30,68,290,34,08,39,083,29,14,36,221,28,1*6C
$GPGSV,3,2,11,46,33,188,29,09,28,154,21,05,24,297,25,27,22,046,23,1*63
$GPGSV,3,3,11,13,19,310,24,20,19,261,25,04,04,144,15,1*57
$GLGSV,2,1,07,74,62,270,16,72,61,291,,71,47,190,27,82,19,044,24,1*7D
$GLGSV,2,2,07,65,12,333,21,75,12,247,26,80,09,057,28,1*42
$GAGSV,2,1,07,04,70,182,31,06,70,275,32,09,48,302,29,31,42,215,28,7*7A
$GAGSV,2,2,07,21,27,052,26,19,16,144,20,15,04,013,16,7*48
$GBGSV,4,1,16,58,74,067,,36,63,260,28,46,59,065,,22,50,274,27,1*79
$GBGSV,4,2,16,19,36,198,20,38,22,320,18,08,20,336,18,27,17,095,21,1*72
$GBGSV,4,3,16,21,16,323,21,28,15,050,20,45,13,254,18,13,13,342,16,1*71
$GBGSV,4,4,16,31,07,342,,37,06,071,,30,04,140,17,04,01,261,,1*71
$GNRMC,185309.000,A,4910.424874,N,12304.400064,W,0.02,138.98,080125,,,D,V*1B
$GNVTG,138.98,T,,M,0.02,N,0.03,K,D*2C
$PAIRLOG,Full*51
$GNGGA,185310.000,4910.424898,N,12304.400196,W,2,25,0.54,10.132,M,-16.816,M,,*76
$GNGLL,4910.424898,N,12304.400196,W,185310.000,A,D*57
$GNGSA,A,3,07,30,08,14,09,05,27,13,20,,,,1.04,0.54,0.89,1*04
$GNGSA,A,3,71,82,65,80,,,,,,,,,1.04,0.54,0.89,2*00
$GNGSA,A,3,04,06,09,31,21,19,,,,,,,1.04,0.54,0.89,3*04
$GNGSA,A,3,36,22,19,38,27,28,,,,,,,1.04,0.54,0.89,4*08
$GPGSV,3,1,11,07,72,076,31,30,68,290,33,08,39,083,29,14,36,221,27,1*67
$GPGSV,3,2,11,46,33,188,29,09,28,154,21,05,24,297,25,27,22,046,23,1*63
$GPGSV,3,3,11,13,19,310,23,20,19,261,25,04,04,144,15,1*50
$GLGSV,2,1,07,74,62,270,16,72,61,291,23,71,47,190,27,82,19,044,24,1*7C
$GLGSV,2,2,07,65,12,333,20,75,12,247,26,80,09,057,28,1*43
$GAGSV,2,1,07,04,70,182,31,06,70,275,32,09,48,302,28,31,42,215,27,7*74
$GAGSV,2,2,07,21,27,052,26,19,16,144,20,15,04,013,15,7*4B
$GBGSV,4,1,16,58,74,067,,36,63,260,28,46,59,065,,22,50,274,26,1*78
$GBGSV,4,2,16,19,36,198,20,38,22,320,17,08,20,336,18,27,17,095,21,1*7D
$GBGSV,4,3,16,21,16,323,21,28,15,050,20,13,14,342,16,45,13,254,18,1*76
$GBGSV,4,4,16,31,07,342,,37,06,071,,30,04,140,17,04,01,261,,1*71
$GNRMC,185310.000,A,4910.424898,N,12304.400196,W,0.02,138.98,080125,,,D,V*1D
$GNVTG,138.98,T,,M,0.02,N,0.03,K,D*2C
$PAIRLOG,Full*51
$GNGGA,185311.000,4910.424994,N,12304.400268,W,2,25,0.54,10.104,M,-16.817,M,,*7C
$GNGLL,4910.424994,N,12304.400268,W,185311.000,A,D*59
$GNGSA,A,3,07,30,08,14,09,05,27,13,20,,,,1.04,0.54,0.89,1*04
$GNGSA,A,3,71,82,65,80,,,,,,,,,1.04,0.54,0.89,2*00
$GNGSA,A,3,04,06,09,31,21,19,,,,,,,1.04,0.54,0.89,3*04
$GNGSA,A,3,36,22,19,38,27,28,,,,,,,1.04,0.54,0.89,4*08
$GPGSV,3,1,11,07,72,076,31,30,68,290,33,08,39,083,28,14,36,221,26,1*67
$GPGSV,3,2,11,46,33,188,29,09,28,154,21,05,24,297,24,27,22,046,23,1*62
$GPGSV,3,3,11,13,19,310,22,20,19,261,25,04,04,144,15,1*51
$GLGSV,2,1,07,74,62,270,16,72,61,291,23,71,47,190,27,82,19,044,24,1*7C
$GLGSV,2,2,07,65,12,333,20,75,12,247,26,80,09,057,28,1*43
$GAGSV,2,1,07,04,70,182,30,06,70,275,31,09,48,302,28,31,42,215,27,7*76
$GAGSV,2,2,07,21,27,052,26,19,16,144,19,15,04,013,16,7*42
$GBGSV,4,1,16,58,74,067,,36,63,260,28,46,59,065,,22,50,274,26,1*78
$GBGSV,4,2,16,19,36,198,20,38,22,320,17,08,20,336,18,27,17,095,21,1*7D
$GBGSV,4,3,16,21,16,323,21,28,15,050,20,13,14,342,16,45,13,254,18,1*76
$GBGSV,4,4,16,31,07,342,,37,06,071,,30,04,140,17,04,01,261,,1*71
$GNRMC,185311.000,A,4910.424994,N,12304.400268,W,0.02,138.98,080125,,,D,V*13
$GNVTG,138.98,T,,M,0.02,N,0.03,K,D*2C
$PAIRLOG,Full*51
$GNGGA,185312.000,4910.425090,N,12304.400346,W,2,25,0.54,10.132,M,-16.817,M,,*7B
$GNGLL,4910.425090,N,12304.400346,W,185312.000,A,D*5B
$GNGSA,A,3,07,30,08,14,09,05,27,13,20,,,,1.04,0.54,0.89,1*04
$GNGSA,A,3,71,82,65,80,,,,,,,,,1.04,0.54,0.89,2*00
$GNGSA,A,3,04,06,09,31,21,19,,,,,,,1.04,0.54,0.89,3*04
$GNGSA,A,3,36,22,19,38,27,28,,,,,,,1.04,0.54,0.89,4*08
$GPGSV,3,1,11,07,72,076,31,30,68,290,33,08,39,083,28,14,36,221,26,1*67
$GPGSV,3,2,11,46,33,188,29,09,28,154,21,05,24,297,25,27,22,046,23,1*63
$GPGSV,3,3,11,13,19,310,22,20,19,261,25,04,04,144,14,1*50
$GLGSV,2,1,07,74,62,270,15,72,61,291,23,71,47,190,28,82,19,044,24,1*70
$GLGSV,2,2,07,65,12,333,20,75,12,247,26,80,09,057,28,1*43
$GAGSV,2,1,07,04,70,182,30,06,70,275,31,09,48,302,28,31,42,215,27,7*76
$GAGSV,2,2,07,21,27,052,26,19,16,144,19,15,04,013,16,7*42
$GBGSV,4,1,16,58,74,067,,36,63,260,28,46,59,065,,22,50,274,26,1*78
$GBGSV,4,2,16,19,36,198,20,38,22,320,17,08,20,336,18,27,17,095,21,1*7D
$GBGSV,4,3,16,21,16,323,21,28,15,050,20,13,14,342,16,45,13,254,18,1*76
$GBGSV,4,4,16,31,07,342,,37,06,071,,30,04,140,17,04,01,261,,1*71
$GNRMC,185312.000,A,4910.425090,N,12304.400346,W,0.02,138.98,080125,,,D,V*11
$GNVTG,138.98,T,,M,0.02,N,0.03,K,D*2C
$PAIRLOG,Full*51
$GNGGA,185313.000,4910.425132,N,12304.400400,W,2,25,0.54,10.148,M,-16.816,M,,*7A
$GNGLL,4910.425132,N,12304.400400,W,185313.000,A,D*56
$GNGSA,A,3,07,30,08,14,09,05,27,13,20,,,,1.04,0.54,0.89,1*04
$GNGSA,A,3,71,82,65,80,,,,,,,,,1.04,0.54,0.89,2*00
$GNGSA,A,3,04,06,09,31,21,19,,,,,,,1.04,0.54,0.89,3*04
$GNGSA,A,3,36,22,19,38,27,28,,,,,,,1.04,0.54,0.89,4*08
$GPGSV,3,1,11,07,72,076,31,30,68,290,33,08,39,083,28,14,36,221,27,1*66
$GPGSV,3,2,11,46,33,188,29,09,28,154,21,05,24,297,25,27,22,046,23,1*63
$GPGSV,3,3,11,13,19,310,22,20,19,261,25,04,04,144,15,1*51
$GLGSV,2,1,07,74,62,270,15,72,61,291,23,71,47,190,28,82,19,044,24,1*70
$GLGSV,2,2,07,65,12,333,20,75,12,247,26,80,09,057,28,1*43
$GAGSV,2,1,07,04,70,182,30,06,70,275,31,09,48,302,28,31,42,215,27,7*76
$GAGSV,2,2,07,21,27,052,26,19,16,144,19,15,04,013,17,7*43
$GBGSV,4,1,16,58,74,067,,36,63,260,28,46,59,065,,22,50,274,26,1*78
$GBGSV,4,2,16,19,36,198,20,38,22,320,18,08,20,336,18,27,17,095,22,1*71
$GBGSV,4,3,16,21,16,323,21,28,15,050,20,13,14,342,16,45,13,254,18,1*76
$GBGSV,4,4,16,31,07,342,,37,06,071,,30,04,140,18,04,01,261,,1*7E
$GNRMC,185313.000,A,4910.425132,N,12304.400400,W,0.01,138.98,080125,,,D,V*1F
$GNVTG,138.98,T,,M,0.01,N,0.03,K,D*2F
$PAIRLOG,Full*51
$GNGGA,185314.000,4910.425216,N,12304.400466,W,2,25,0.54,10.110,M,-16.816,M,,*75
$GNGLL,4910.425216,N,12304.400466,W,185314.000,A,D*54
$GNGSA,A,3,07,30,08,14,09,05,27,13,20,,,,1.04,0.54,0.89,1*04
$GNGSA,A,3,71,82,65,80,,,,,,,,,1.04,0.54,0.89,2*00
$GNGSA,A,3,04,06,09,31,21,19,,,,,,,1.04,0.54,0.89,3*04
$GNGSA,A,3,36,22,19,38,27,28,,,,,,,1.04,0.54,0.89,4*08
$GPGSV,3,1,11,07,72,076,31,30,68,290,33,08,39,083,28,14,36,221,26,1*67
$GPGSV,3,2,11,46,33,188,29,09,28,154,22,05,24,297,25,27,22,046,23,1*60
$GPGSV,3,3,11,13,19,310,22,20,19,261,25,04,04,144,15,1*51
$GLGSV,2,1,07,74,62,270,15,72,61,291,23,71,47,190,28,82,19,044,23,1*77
$GLGSV,2,2,07,65,12,333,20,75,12,247,26,80,09,057,28,1*43
$GAGSV,2,1,07,04,70,182,30,06,70,275,31,09,48,302,28,31,42,215,27,7*76
$GAGSV,2,2,07,21,27,052,26,19,16,144,19,15,04,013,17,7*43
$GBGSV,4,1,16,58,74,067,,36,63,260,28,46,59,065,,22,50,274,26,1*78
$GBGSV,4,2,16,19,36,198,20,38,22,320,18,08,20,336,18,27,17,095,22,1*71
$GBGSV,4,3,16,21,16,323,21,28,15,050,20,13,14,342,16,45,13,254,18,1*76
$GBGSV,4,4,16,31,07,342,,37,06,071,,30,04,140,18,04,01,261,,1*7E
$GNRMC,185314.000,A,4910.425216,N,12304.400466,W,0.01,138.98,080125,,,D,V*1D
$GNVTG,138.98,T,,M,0.01,N,0.03,K,D*2F
$PAIRLOG,Full*51
$GNGGA,185315.000,4910.425252,N,12304.400526,W,2,25,0.54,10.010,M,-16.817,M,,*71
$GNGLL,4910.425252,N,12304.400526,W,185315.000,A,D*50
$GNGSA,A,3,07,30,08,14,09,05,27,13,20,,,,1.04,0.54,0.89,1*04
$GNGSA,A,3,71,82,65,80,,,,,,,,,1.04,0.54,0.89,2*00
$GNGSA,A,3,04,06,09,31,21,19,,,,,,,1.04,0.54,0.89,3*04
$GNGSA,A,3,36,22,19,38,27,28,,,,,,,1.04,0.54,0.89,4*08
$GPGSV,3,1,11,07,72,076,31,30,68,290,33,08,39,083,28,14,36,221,27,1*66
$GPGSV,3,2,11,46,33,188,29,09,28,154,22,05,24,297,25,27,22,046,23,1*60
$GPGSV,3,3,11,13,19,310,22,20,19,261,25,04,04,144,16,1*52
$GLGSV,2,1,07,74,62,270,14,72,61,291,23,71,47,190,28,82,19,044,22,1*77
$GLGSV,2,2,07,65,12,333,20,75,12,247,25,80,09,057,27,1*4F
$GAGSV,2,1,07,04,70,182,30,06,70,275,31,09,48,302,28,31,42,215,27,7*76
$GAGSV,2,2,07,21,27,052,26,19,16,144,19,15,04,013,16,7*42
$GBGSV,4,1,16,58,74,067,,36,63,260,28,46,59,065,,22,50,274,25,1*7B
$GBGSV,4,2,16,19,36,198,20,38,22,320,18,08,20,336,18,27,17,095,21,1*72
$GBGSV,4,3,16,21,16,323,21,28,15,050,20,13,14,342,16,45,13,254,18,1*76
$GBGSV,4,4,16,31,07,342,,37,06,071,,30,04,140,18,04,01,261,,1*7E
$GNRMC,185315.000,A,4910.425252,N,12304.400526,W,0.02,138.98,080125,,,D,V*1A
$GNVTG,138.98,T,,M,0.02,N,0.03,K,D*2C
$PAIRLOG,Full*51
$GNGGA,185316.000,4910.425276,N,12304.400580,W,2,25,0.54,9.912,M,-16.816,M,,*4A
$GNGLL,4910.425276,N,12304.400580,W,185316.000,A,D*59
$GNGSA,A,3,07,30,08,14,09,05,27,13,20,,,,1.04,0.54,0.89,1*04
$GNGSA,A,3,71,82,65,80,,,,,,,,,1.04,0.54,0.89,2*00
$GNGSA,A,3,04,06,09,31,21,19,,,,,,,1.04,0.54,0.89,3*04
$GNGSA,A,3,36,22,19,38,27,28,,,,,,,1.04,0.54,0.89,4*08
$GPGSV,3,1,11,07,72,076,32,30,68,290,34,08,39,083,28,14,36,221,27,1*62
$GPGSV,3,2,11,46,33,188,29,09,28,154,22,05,24,297,25,27,22,046,23,1*60
$GPGSV,3,3,11,13,19,310,23,20,19,261,25,04,04,144,16,1*53
$GLGSV,2,1,07,74,62,270,14,72,61,291,24,71,47,190,28,82,19,044,22,1*70
$GLGSV,2,2,07,65,12,333,20,75,12,247,25,80,09,057,27,1*4F
$GAGSV,2,1,07,04,70,182,30,06,70,275,32,09,48,302,28,31,42,215,27,7*75
$GAGSV,2,2,07,21,27,052,26,19,16,144,19,15,04,013,16,7*42
$GBGSV,4,1,16,58,74,067,,36,63,260,28,46,59,065,,22,50,274,24,1*7A
$GBGSV,4,2,16,19,35,197,19,38,22,320,18,08,20,336,18,27,17,095,21,1*74
$GBGSV,4,3,16,21,16,323,20,28,15,050,20,13,14,342,16,45,13,254,18,1*77
$GBGSV,4,4,16,31,07,342,,37,06,071,,30,04,140,18,04,01,261,,1*7E
$GNRMC,185316.000,A,4910.425276,N,12304.400580,W,0.02,138.98,080125,,,D,V*13
$GNVTG,138.98,T,,M,0.02,N,0.03,K,D*2C
$PAIRLOG,Full*51
$GNGGA,185317.000,4910.425198,N,12304.400610,W,2,25,0.54,9.780,M,-16.816,M,,*47
$GNGLL,4910.425198,N,12304.400610,W,185317.000,A,D*51
$GNGSA,A,3,07,30,08,14,09,05,27,13,20,,,,1.04,0.54,0.89,1*04
$GNGSA,A,3,71,82,65,80,,,,,,,,,1.04,0.54,0.89,2*00
$GNGSA,A,3,04,06,09,31,21,19,,,,,,,1.04,0.54,0.89,3*04
$GNGSA,A,3,36,22,19,38,27,28,,,,,,,1.04,0.54,0.89,4*08
$GPGSV,3,1,11,07,72,076,32,30,68,290,34,08,39,083,28,14,36,221,27,1*62
$GPGSV,3,2,11,46,33,188,29,09,28,154,23,05,24,297,25,27,22,046,23,1*61
$GPGSV,3,3,11,13,19,310,23,20,19,261,25,04,04,144,16,1*53
$GLGSV,2,1,07,74,62,270,15,72,61,291,24,71,47,190,28,82,19,044,23,1*70
$GLGSV,2,2,07,65,12,333,21,75,12,247,25,80,09,057,27,1*4E
$GAGSV,2,1,07,04,70,182,30,06,70,275,32,09,48,302,28,31,42,215,27,7*75
$GAGSV,2,2,07,21,27,052,26,19,16,144,19,15,04,013,16,7*42
$GBGSV,4,1,16,58,74,067,,36,63,260,29,46,59,065,,22,50,274,25,1*7A
$GBGSV,4,2,16,19,35,197,19,38,22,320,18,08,20,336,18,27,17,095,21,1*74
$GBGSV,4,3,16,21,16,323,20,28,15,050,20,13,14,342,16,45,13,254,18,1*77
$GBGSV,4,4,16,31,07,342,,37,06,071,,30,04,140,18,04,01,261,,1*7E
$GNRMC,185317.000,A,4910.425198,N,12304.400610,W,0.02,138.98,080125,,,D,V*1B
$GNVTG,138.98,T,,M,0.02,N,0.04,K,D*2B
$PAIRLOG,Full*51
$GNGGA,185318.000,4910.425204,N,12304.400718,W,2,25,0.54,9.649,M,-16.816,M,,*43
$GNGLL,4910.425204,N,12304.400718,W,185318.000,A,D*51
$GNGSA,A,3,07,30,08,14,09,05,27,13,20,,,,1.04,0.54,0.89,1*04
$GNGSA,A,3,71,82,65,80,,,,,,,,,1.04,0.54,0.89,2*00
$GNGSA,A,3,04,06,09,31,21,19,,,,,,,1.04,0.54,0.89,3*04
$GNGSA,A,3,36,22,19,38,27,28,,,,,,,1.04,0.54,0.89,4*08
$GPGSV,3,1,11,07,72,076,31,30,68,290,33,08,39,083,28,14,36,221,26,1*67
$GPGSV,3,2,11,46,33,188,29,09,28,154,23,05,24,297,24,27,22,046,22,1*61
$GPGSV,3,3,11,13,19,310,23,20,19,261,23,04,04,144,16,1*55
$GLGSV,2,1,07,74,62,270,15,72,61,291,23,71,47,190,28,82,19,044,24,1*70
$GLGSV,2,2,07,65,12,333,22,75,12,247,26,80,09,057,28,1*41
$GAGSV,2,1,07,04,70,182,30,06,70,275,32,09,48,302,28,31,42,215,26,7*74
$GAGSV,2,2,07,21,27,052,26,19,16,144,19,15,04,013,16,7*42
$GBGSV,4,1,16,58,74,067,,36,63,260,28,46,59,065,,22,50,274,25,1*7B
$GBGSV,4,2,16,19,35,197,19,38,22,320,18,08,20,336,18,21,17,323,20,1*7D
$GBGSV,4,3,16,27,17,095,21,28,15,050,20,13,14,342,16,45,13,254,18,1*7F
$GBGSV,4,4,16,31,07,342,,37,06,071,,30,04,140,18,04,01,261,,1*7E
$GNRMC,185318.000,A,4910.425204,N,12304.400718,W,0.02,138.98,080125,,,D,V*1B
$GNVTG,138.98,T,,M,0.02,N,0.03,K,D*2C
$PAIRLOG,Full*51
$GNGGA,185319.000,4910.425192,N,12304.400796,W,2,25,0.54,9.631,M,-16.816,M,,*47
$GNGLL,4910.425192,N,12304.400796,W,185319.000,A,D*5A
$GNGSA,A,3,07,30,08,14,09,05,27,13,20,,,,1.04,0.54,0.89,1*04
$GNGSA,A,3,71,82,65,80,,,,,,,,,1.04,0.54,0.89,2*00
$GNGSA,A,3,04,06,09,31,21,19,,,,,,,1.04,0.54,0.89,3*04
$GNGSA,A,3,36,22,19,38,27,28,,,,,,,1.04,0.54,0.89,4*08
$GPGSV,3,1,11,07,72,076,30,30,68,290,32,08,39,083,28,14,36,221,24,1*65
$GPGSV,3,2,11,46,33,188,29,09,28,154,22,05,24,297,24,27,22,046,21,1*63
$GPGSV,3,3,11,13,19,310,22,20,19,261,24,04,04,144,16,1*53
$GLGSV,2,1,07,74,62,270,15,72,61,291,23,71,47,190,28,82,19,044,23,1*77
$GLGSV,2,2,07,65,12,333,22,75,12,247,26,80,09,057,28,1*41
$GAGSV,2,1,07,04,70,182,29,06,70,275,32,09,48,302,28,31,42,215,26,7*7C
$GAGSV,2,2,07,21,27,052,26,19,16,144,18,15,04,013,16,7*43
$GBGSV,4,1,16,58,74,067,,36,63,260,28,46,59,065,,22,50,272,25,1*7D
$GBGSV,4,2,16,19,35,197,18,38,22,320,17,08,20,336,17,21,17,323,20,1*7C
$GBGSV,4,3,16,27,17,095,21,28,15,050,20,13,14,342,16,45,13,254,18,1*7F
$GBGSV,4,4,16,31,07,342,,37,06,071,,30,04,140,18,04,01,261,,1*7E
$GNRMC,185319.000,A,4910.425192,N,12304.400796,W,0.02,138.98,080125,,,D,V*10
$GNVTG,138.98,T,,M,0.02,N,0.03,K,D*2C
$PAIRLOG,Full*51
$GNGGA,185320.000,4910.425228,N,12304.400892,W,2,25,0.54,9.587,M,-16.817,M,,*4B
$GNGLL,4910.425228,N,12304.400892,W,185320.000,A,D*59
$GNGSA,A,3,07,30,08,14,09,05,27,13,20,,,,1.04,0.54,0.89,1*04
$GNGSA,A,3,71,82,65,80,,,,,,,,,1.04,0.54,0.89,2*00
$GNGSA,A,3,04,06,09,31,21,19,,,,,,,1.04,0.54,0.89,3*04
$GNGSA,A,3,36,22,19,38,27,28,,,,,,,1.04,0.54,0.89,4*08
$GPGSV,3,1,11,07,72,076,30,30,68,290,32,08,39,083,28,14,36,221,24,1*65
$GPGSV,3,2,11,46,33,188,29,09,28,154,22,05,24,297,24,27,22,046,21,1*63
$GPGSV,3,3,11,13,19,310,22,20,19,261,24,04,04,144,16,1*53
$GLGSV,2,1,07,74,62,270,15,72,61,291,22,71,47,190,28,82,19,044,23,1*76
$GLGSV,2,2,07,65,12,333,22,75,12,247,26,80,09,057,28,1*41
$GAGSV,2,1,07,04,70,182,29,06,70,275,31,09,48,302,28,31,42,215,26,7*7F
$GAGSV,2,2,07,21,27,052,26,19,16,144,18,15,04,013,16,7*43
$GBGSV,4,1,16,58,74,067,,36,63,260,27,46,59,065,,22,50,272,24,1*73
$GBGSV,4,2,16,19,35,197,18,38,22,320,17,08,20,336,17,21,17,323,20,1*7C
$GBGSV,4,3,16,27,17,095,21,28,15,050,20,13,14,342,16,45,13,254,18,1*7F
$GBGSV,4,4,16,31,07,342,,37,06,071,,30,04,140,18,04,01,261,,1*7E
$GNRMC,185320.000,A,4910.425228,N,12304.400892,W,0.01,138.98,080125,,,D,V*10
$GNVTG,138.98,T,,M,0.01,N,0.02,K,D*2E
$PAIRLOG,Full*51
$GNGGA,185321.000,4910.425240,N,12304.400958,W,2,25,0.54,9.452,M,-16.817,M,,*4A
$GNGLL,4910.425240,N,12304.400958,W,185321.000,A,D*51
$GNGSA,A,3,07,30,08,14,09,05,27,13,20,,,,1.04,0.54,0.89,1*04
$GNGSA,A,3,71,82,65,80,,,,,,,,,1.04,0.54,0.89,2*00
$GNGSA,A,3,04,06,09,31,21,19,,,,,,,1.04,0.54,0.89,3*04
$GNGSA,A,3,36,22,19,38,27,28,,,,,,,1.04,0.54,0.89,4*08
$GPGSV,3,1,11,07,72,076,31,30,68,290,33,08,39,083,28,14,36,221,25,1*64
$GPGSV,3,2,11,46,33,188,29,09,28,154,23,05,24,297,25,27,22,046,21,1*63
$GPGSV,3,3,11,13,19,310,22,20,19,261,24,04,04,144,16,1*53
$GLGSV,2,1,07,74,62,270,14,72,61,291,,71,47,190,28,82,19,044,21,1*75
$GLGSV,2,2,07,65,12,333,22,75,12,247,26,80,09,057,28,1*41
$GAGSV,2,1,07,04,70,182,29,06,70,275,31,09,48,302,28,31,42,215,26,7*7F
$GAGSV,2,2,07,21,27,052,26,19,16,144,18,15,04,013,16,7*43
$GBGSV,4,1,16,58,74,067,,36,63,260,27,46,59,065,,22,50,272,24,1*73
$GBGSV,4,2,16,19,35,197,18,38,22,320,17,08,20,336,17,21,17,323,20,1*7C
$GBGSV,4,3,16,27,17,095,21,28,15,050,19,13,14,342,15,45,13,254,17,1*79
$GBGSV,4,4,16,31,07,342,,37,06,071,,30,04,140,18,04,01,261,,1*7E
$GNRMC,185321.000,A,4910.425240,N,12304.400958,W,0.01,138.98,080125,,,D,V*18
$GNVTG,138.98,T,,M,0.01,N,0.01,K,D*2D
$PAIRLOG,Full*51
$GNGGA,185322.000,4910.425246,N,12304.401078,W,2,25,0.54,9.362,M,-16.816,M,,*40
$GNGLL,4910.425246,N,12304.401078,W,185322.000,A,D*5E
$GNGSA,A,3,07,30,08,14,09,05,27,13,20,,,,1.04,0.54,0.89,1*04
$GNGSA,A,3,71,82,65,80,,,,,,,,,1.04,0.54,0.89,2*00
$GNGSA,A,3,04,06,09,31,21,19,,,,,,,1.04,0.54,0.89,3*04
$GNGSA,A,3,36,22,19,38,27,28,,,,,,,1.04,0.54,0.89,4*08
$GPGSV,3,1,11,07,72,076,31,30,68,290,34,08,39,083,28,14,36,221,26,1*60
$GPGSV,3,2,11,46,33,188,29,09,28,154,23,05,24,297,25,27,22,046,22,1*60
$GPGSV,3,3,11,13,19,310,23,20,19,261,24,04,04,144,16,1*52
$GLGSV,2,1,07,74,62,270,14,72,61,291,,71,47,190,28,82,19,044,23,1*77
$GLGSV,2,2,07,65,12,333,22,75,12,247,26,80,09,057,28,1*41
$GAGSV,2,1,07,04,70,182,30,06,70,275,31,09,48,302,28,31,42,215,27,7*76
$GAGSV,2,2,07,21,27,052,26,19,16,144,18,15,04,013,16,7*43
$GBGSV,4,1,16,58,74,067,,36,63,260,28,46,59,065,,22,50,272,24,1*7C
$GBGSV,4,2,16,19,35,197,18,38,22,320,17,08,20,336,17,21,17,323,20,1*7C
$GBGSV,4,3,16,27,17,095,20,28,15,050,18,13,14,342,15,45,13,254,16,1*78
$GBGSV,4,4,16,31,07,342,,37,06,071,,30,04,140,17,04,01,261,,1*71
$GNRMC,185322.000,A,4910.425246,N,12304.401078,W,0.01,138.98,080125,,,D,V*17
$GNVTG,138.98,T,,M,0.01,N,0.01,K,D*2D
$PAIRLOG,Full*51
$GNGGA,185323.000,4910.425234,N,12304.401186,W,2,25,0.54,9.153,M,-16.817,M,,*45
$GNGLL,4910.425234,N,12304.401186,W,185323.000,A,D*5A
$GNGSA,A,3,07,30,08,14,09,05,27,13,20,,,,1.04,0.54,0.89,1*04
$GNGSA,A,3,71,82,65,80,,,,,,,,,1.04,0.54,0.89,2*00
$GNGSA,A,3,04,06,09,31,21,19,,,,,,,1.04,0.54,0.89,3*04
$GNGSA,A,3,36,22,19,38,27,28,,,,,,,1.04,0.54,0.89,4*08
$GPGSV,3,1,11,07,72,076,31,30,68,290,34,08,39,083,28,14,36,221,26,1*60
$GPGSV,3,2,11,46,33,188,29,09,28,154,23,05,24,297,25,27,22,046,23,1*61
$GPGSV,3,3,11,13,19,310,23,20,19,261,24,04,04,144,16,1*52
$GLGSV,2,1,07,74,62,270,15,72,61,291,,71,47,190,28,82,19,044,24,1*71
$GLGSV,2,2,07,65,12,333,22,75,12,247,26,80,09,057,28,1*41
$GAGSV,2,1,07,04,70,182,30,06,70,275,31,09,48,302,28,31,42,215,27,7*76
$GAGSV,2,2,07,21,27,052,26,19,16,144,18,15,04,013,16,7*43
$GBGSV,4,1,16,58,74,067,,36,63,260,28,46,59,065,,22,50,272,24,1*7C
$GBGSV,4,2,16,19,35,197,18,38,22,320,17,08,20,336,17,21,17,323,19,1*76
$GBGSV,4,3,16,27,17,095,19,28,15,050,18,13,14,342,15,45,13,254,16,1*72
$GBGSV,4,4,16,31,07,342,,37,06,071,,30,04,140,17,04,01,261,,1*71
$GNRMC,185323.000,A,4910.425234,N,12304.401186,W,0.01,138.98,080125,,,D,V*13
$GNVTG,138.98,T,,M,0.01,N,0.01,K,D*2D
$PAIRLOG,Full*51
$GNGGA,185324.000,4910.425132,N,12304.401312,W,2,25,0.54,8.987,M,-16.816,M,,*49
$GNGLL,4910.425132,N,12304.401312,W,185324.000,A,D*57
$GNGSA,A,3,07,30,08,14,09,05,27,13,20,,,,1.04,0.54,0.89,1*04
$GNGSA,A,3,71,82,65,80,,,,,,,,,1.04,0.54,0.89,2*00
$GNGSA,A,3,04,06,09,31,21,19,,,,,,,1.04,0.54,0.89,3*04
$GNGSA,A,3,36,22,19,38,27,28,,,,,,,1.04,0.54,0.89,4*08
$GPGSV,3,1,11,07,72,076,31,30,68,290,34,08,39,083,28,14,36,221,26,1*60
$GPGSV,3,2,11,46,33,188,29,09,28,154,23,05,24,297,25,27,22,046,24,1*66
$GPGSV,3,3,11,13,19,310,23,20,19,261,24,04,04,144,16,1*52
$GLGSV,2,1,07,74,62,270,16,72,61,291,21,71,47,190,28,82,19,044,24,1*71
$GLGSV,2,2,07,65,12,333,22,75,12,247,26,80,09,057,28,1*41
$GAGSV,2,1,07,04,70,182,30,06,70,275,32,09,48,302,29,31,42,215,27,7*74
$GAGSV,2,2,07,21,27,052,26,19,16,144,18,15,04,013,16,7*43
$GBGSV,4,1,16,58,74,067,,36,63,260,28,46,59,065,,22,50,272,23,1*7B
$GBGSV,4,2,16,19,35,197,18,38,22,320,16,08,20,336,17,27,18,094,19,1*71
$GBGSV,4,3,16,21,17,323,18,28,15,050,18,13,14,342,15,45,13,254,16,1*7B
$GBGSV,4,4,16,31,07,342,,37,06,071,,30,04,140,17,04,01,261,,1*71
$GNRMC,185324.000,A,4910.425132,N,12304.401312,W,0.02,138.98,080125,,,D,V*1D
$GNVTG,138.98,T,,M,0.02,N,0.03,K,D*2C
$PAIRLOG,Full*51
$GNGGA,185325.000,4910.425144,N,12304.401402,W,2,25,0.54,8.856,M,-16.816,M,,*42
$GNGLL,4910.425144,N,12304.401402,W,185325.000,A,D*51
$GNGSA,A,3,07,30,08,14,09,05,27,13,20,,,,1.04,0.54,0.89,1*04
$GNGSA,A,3,71,82,65,80,,,,,,,,,1.04,0.54,0.89,2*00
$GNGSA,A,3,04,06,09,31,21,19,,,,,,,1.04,0.54,0.89,3*04
$GNGSA,A,3,36,22,19,38,27,28,,,,,,,1.04,0.54,0.89,4*08
$GPGSV,3,1,11,07,72,076,32,30,68,290,34,08,39,083,28,14,36,221,26,1*63
$GPGSV,3,2,11,46,33,188,29,09,28,154,23,05,24,297,25,27,22,046,24,1*66
$GPGSV,3,3,11,13,19,310,23,20,19,261,24,04,04,144,15,1*51
$GLGSV,2,1,07,74,62,270,16,72,61,291,21,71,47,190,28,82,19,044,24,1*71
$GLGSV,2,2,07,65,12,333,22,75,12,247,26,80,09,057,28,1*41
$GAGSV,2,1,07,04,70,182,30,06,70,275,32,09,48,302,29,31,42,215,27,7*74
$GAGSV,2,2,07,21,27,052,26,19,16,144,18,15,04,013,16,7*43
$GBGSV,4,1,16,58,74,067,,36,63,260,28,46,59,065,,22,50,272,23,1*7B
$GBGSV,4,2,16,19,35,197,18,38,22,320,16,08,20,336,17,27,18,094,18,1*70
$GBGSV,4,3,16,21,17,323,18,28,15,049,18,13,14,342,15,45,13,254,16,1*73
$GBGSV,4,4,16,31,07,342,,37,06,071,,30,04,140,17,04,01,261,,1*71
$GNRMC,185325.000,A,4910.425144,N,12304.401402,W,0.02,138.98,080125,,,D,V*1B
$GNVTG,138.98,T,,M,0.02,N,0.04,K,D*2B
$PAIRLOG,Full*51
$GNGGA,185326.000,4910.425168,N,12304.401516,W,2,25,0.54,8.885,M,-16.816,M,,*45
$GNGLL,4910.425168,N,12304.401516,W,185326.000,A,D*58
$GNGSA,A,3,07,30,08,14,09,05,27,13,20,,,,1.04,0.54,0.89,1*04
$GNGSA,A,3,71,82,65,80,,,,,,,,,1.04,0.54,0.89,2*00
$GNGSA,A,3,04,06,09,31,21,19,,,,,,,1.04,0.54,0.89,3*04
$GNGSA,A,3,36,22,19,38,27,28,,,,,,,1.04,0.54,0.89,4*08
$GPGSV,3,1,11,07,72,076,32,30,68,290,34,08,39,083,28,14,36,221,27,1*62
$GPGSV,3,2,11,46,33,188,29,09,28,154,23,05,24,297,26,27,22,046,24,1*65
$GPGSV,3,3,11,13,19,310,23,20,19,261,24,04,04,144,15,1*51
$GLGSV,2,1,07,74,62,270,16,72,61,291,21,71,47,190,28,82,19,044,25,1*70
$GLGSV,2,2,07,65,12,333,22,75,12,247,26,80,09,057,28,1*41
$GAGSV,2,1,07,04,70,182,30,06,70,275,32,09,48,302,29,31,42,215,27,7*74
$GAGSV,2,2,07,21,27,052,26,19,16,144,18,15,04,013,17,7*42
$GBGSV,4,1,16,58,74,067,,36,63,260,28,46,59,065,,22,50,272,23,1*7B
$GBGSV,4,2,16,19,35,197,18,38,22,320,16,08,20,336,17,27,18,094,18,1*70
$GBGSV,4,3,16,21,17,323,18,28,15,049,18,13,14,342,14,45,13,254,15,1*71
$GBGSV,4,4,16,31,07,342,,37,06,071,,30,04,140,17,04,01,261,,1*71
$GNRMC,185326.000,A,4910.425168,N,12304.401516,W,0.02,138.98,080125,,,D,V*12
$GNVTG,138.98,T,,M,0.02,N,0.04,K,D*2B
$PAIRLOG,Full*51
$GNGGA,185327.000,4910.425210,N,12304.401624,W,2,25,0.54,8.829,M,-16.816,M,,*4C
$GNGLL,4910.425210,N,12304.401624,W,185327.000,A,D*57
$GNGSA,A,3,07,30,08,14,09,05,27,13,20,,,,1.04,0.54,0.89,1*04
$GNGSA,A,3,71,82,65,80,,,,,,,,,1.04,0.54,0.89,2*00
$GNGSA,A,3,04,06,09,31,21,19,,,,,,,1.04,0.54,0.89,3*04
$GNGSA,A,3,36,22,19,38,27,28,,,,,,,1.04,0.54,0.89,4*08
$GPGSV,3,1,11,07,72,076,32,30,68,290,34,08,39,083,28,14,36,221,27,1*62
$GPGSV,3,2,11,46,33,188,30,09,28,154,23,05,24,297,26,27,22,046,24,1*6D
$GPGSV,3,3,11,13,19,310,23,20,19,261,24,04,04,144,16,1*52
$GLGSV,2,1,07,74,62,270,16,72,61,291,21,71,47,190,27,82,19,044,25,1*7F
$GLGSV,2,2,07,65,12,333,22,75,12,247,26,80,09,057,28,1*41
$GAGSV,2,1,07,04,70,182,30,06,70,275,32,09,48,302,29,31,42,215,27,7*74
$GAGSV,2,2,07,21,27,052,26,19,16,144,18,15,04,013,17,7*42
$GBGSV,4,1,16,58,74,067,,36,63,260,28,46,59,065,,22,50,272,24,1*7C
$GBGSV,4,2,16,19,35,197,18,38,22,320,16,08,20,336,17,27,18,094,18,1*70
$GBGSV,4,3,16,21,17,323,18,28,15,049,18,13,14,342,14,45,13,254,15,1*71
$GBGSV,4,4,16,31,07,342,,37,06,071,,30,05,139,17,04,01,261,,1*7E
$GNRMC,185327.000,A,4910.425210,N,12304.401624,W,0.02,138.98,080125,,,D,V*1D
$GNVTG,138.98,T,,M,0.02,N,0.04,K,D*2B
$PAIRLOG,Full*51
$GNGGA,185328.000,4910.425210,N,12304.401702,W,2,25,0.54,8.803,M,-16.816,M,,*4E
$GNGLL,4910.425210,N,12304.401702,W,185328.000,A,D*5D
$GNGSA,A,3,07,30,08,14,09,05,27,13,20,,,,1.04,0.54,0.89,1*04
$GNGSA,A,3,71,82,65,80,,,,,,,,,1.04,0.54,0.89,2*00
$GNGSA,A,3,04,06,09,31,21,19,,,,,,,1.04,0.54,0.89,3*04
$GNGSA,A,3,36,22,19,38,27,28,,,,,,,1.04,0.54,0.89,4*08
$GPGSV,3,1,11,07,72,076,32,30,68,290,34,08,39,083,28,14,36,221,27,1*62
$GPGSV,3,2,11,46,33,188,30,09,28,154,24,05,24,297,26,27,22,046,25,1*6B
$GPGSV,3,3,11,13,19,310,23,20,19,261,24,04,04,144,15,1*51
$GLGSV,2,1,07,74,62,270,16,72,61,291,20,71,47,190,28,82,19,044,25,1*71
$GLGSV,2,2,07,65,12,333,23,75,12,247,26,80,09,057,28,1*40
$GAGSV,2,1,07,04,70,182,30,06,70,275,32,09,48,302,29,31,42,215,27,7*74
$GAGSV,2,2,07,21,27,052,26,19,16,144,18,15,04,013,17,7*42
$GBGSV,4,1,16,58,74,067,,36,63,260,28,46,59,065,,22,50,272,24,1*7C
$GBGSV,4,2,16,19,35,197,19,38,22,320,16,08,20,336,17,27,18,094,19,1*70
$GBGSV,4,3,16,21,17,323,18,28,15,049,18,13,14,342,15,45,13,254,16,1*73
$GBGSV,4,4,16,31,07,342,,37,06,071,,30,05,139,18,04,01,261,,1*71
$GNRMC,185328.000,A,4910.425210,N,12304.401702,W,0.02,138.98,080125,,,D,V*17
$GNVTG,138.98,T,,M,0.02,N,0.04,K,D*2B
$PAIRLOG,Full*51
$GNGGA,185329.000,4910.425216,N,12304.401768,W,2,25,0.54,8.854,M,-16.816,M,,*47
$GNGLL,4910.425216,N,12304.401768,W,185329.000,A,D*56
$GNGSA,A,3,07,30,08,14,09,05,27,13,20,,,,1.04,0.54,0.89,1*04
$GNGSA,A,3,71,82,65,80,,,,,,,,,1.04,0.54,0.89,2*00
$GNGSA,A,3,04,06,09,31,21,19,,,,,,,1.04,0.54,0.89,3*04
$GNGSA,A,3,36,22,19,38,27,28,,,,,,,1.04,0.54,0.89,4*08
$GPGSV,3,1,11,07,72,076,32,30,68,290,34,08,39,083,28,14,36,221,27,1*62
$GPGSV,3,2,11,46,33,188,30,09,28,154,24,05,24,297,26,27,22,046,25,1*6B
$GPGSV,3,3,11,13,19,310,24,20,19,261,24,04,04,144,16,1*55
$GLGSV,2,1,07,74,62,270,16,72,61,291,,71,47,190,28,82,19,044,25,1*73
$GLGSV,2,2,07,65,12,333,23,75,12,247,26,80,09,057,27,1*4F
$GAGSV,2,1,07,04,70,182,30,06,70,275,32,09,48,302,29,31,42,215,27,7*74
$GAGSV,2,2,07,21,27,052,26,19,16,144,18,15,04,013,17,7*42
$GBGSV,4,1,16,58,74,067,,36,63,260,28,46,59,065,,22,50,272,25,1*7D
$GBGSV,4,2,16,19,35,197,20,38,22,320,16,08,20,336,16,27,18,094,19,1*7B
$GBGSV,4,3,16,21,17,323,18,28,15,049,18,13,14,342,15,45,13,254,16,1*73
$GBGSV,4,4,16,31,07,342,,37,06,071,,30,05,139,19,04,01,261,,1*70
$GNRMC,185329.000,A,4910.425216,N,12304.401768,W,0.02,138.98,080125,,,D,V*1C
$GNVTG,138.98,T,,M,0.02,N,0.03,K,D*2C
$PAIRLOG,Full*51
$GNGGA,185330.000,4910.425264,N,12304.402002,W,2,25,0.54,8.963,M,-16.816,M,,*47
$GNGLL,4910.425264,N,12304.402002,W,185330.000,A,D*53
$GNGSA,A,3,07,30,08,14,09,05,27,13,20,,,,1.04,0.54,0.89,1*04
$GNGSA,A,3,71,82,65,80,,,,,,,,,1.04,0.54,0.89,2*00
$GNGSA,A,3,04,06,09,31,21,19,,,,,,,1.04,0.54,0.89,3*04
$GNGSA,A,3,36,22,19,38,27,28,,,,,,,1.04,0.54,0.89,4*08
$GPGSV,3,1,11,07,72,076,32,30,68,290,34,08,39,083,29,14,36,221,28,1*6C
$GPGSV,3,2,11,46,33,188,30,09,28,154,25,05,24,297,27,27,22,046,25,1*6B
$GPGSV,3,3,11,13,19,310,24,20,19,261,24,04,04,144,17,1*54
$GLGSV,2,1,07,74,62,270,16,72,61,291,20,71,47,190,28,82,19,044,25,1*71
$GLGSV,2,2,07,65,12,333,23,75,12,247,26,80,09,057,27,1*4F
$GAGSV,2,1,07,04,70,182,30,06,70,275,32,09,48,302,30,31,42,215,27,7*7C
$GAGSV,2,2,07,21,27,052,26,19,16,144,18,15,04,013,17,7*42
$GBGSV,4,1,16,58,74,067,,36,63,260,28,46,59,065,,22,50,272,25,1*7D
$GBGSV,4,2,16,19,35,197,20,38,22,320,16,08,20,336,16,27,18,094,19,1*7B
$GBGSV,4,3,16,21,17,323,18,28,15,049,18,13,14,342,15,45,13,254,16,1*73
$GBGSV,4,4,16,31,07,342,,37,06,071,,30,05,139,19,04,01,261,,1*70
$GNRMC,185330.000,A,4910.425264,N,12304.402002,W,0.03,138.98,080125,,,D,V*18
$GNVTG,138.98,T,,M,0.03,N,0.05,K,D*2B
$PAIRLOG,Full*51
$GNGGA,185331.000,4910.425306,N,12304.402128,W,2,25,0.54,8.910,M,-16.816,M,,*4E
$GNGLL,4910.425306,N,12304.402128,W,185331.000,A,D*5E
$GNGSA,A,3,07,30,08,14,09,05,27,13,20,,,,1.04,0.54,0.89,1*04
$GNGSA,A,3,71,82,65,80,,,,,,,,,1.04,0.54,0.89,2*00
$GNGSA,A,3,04,06,09,31,21,19,,,,,,,1.04,0.54,0.89,3*04
$GNGSA,A,3,36,22,19,38,27,28,,,,,,,1.04,0.54,0.89,4*08
$GPGSV,3,1,11,07,72,076,32,30,68,290,34,08,39,083,29,14,36,221,28,1*6C
$GPGSV,3,2,11,46,33,188,30,09,28,154,25,05,24,297,25,27,22,046,25,1*69
$GPGSV,3,3,11,13,19,310,24,20,19,261,24,04,04,144,16,1*55
$GLGSV,2,1,07,74,62,270,16,72,61,291,20,71,47,190,28,82,19,044,25,1*71
$GLGSV,2,2,07,65,12,333,24,75,12,247,26,80,09,057,26,1*49
$GAGSV,2,1,07,04,70,182,30,06,70,275,32,09,48,302,30,31,42,215,27,7*7C
$GAGSV,2,2,07,21,27,052,26,19,16,144,18,15,04,013,17,7*42
$GBGSV,4,1,16,58,74,067,,36,63,260,28,46,59,065,,22,50,272,25,1*7D
$GBGSV,4,2,16,19,35,197,20,38,22,320,16,08,20,336,16,27,18,094,19,1*7B
$GBGSV,4,3,16,21,17,323,18,28,15,049,18,13,14,342,15,45,13,254,16,1*73
$GBGSV,4,4,16,31,07,342,,37,06,071,,30,05,139,19,04,01,261,,1*70
$GNRMC,185331.000,A,4910.425306,N,12304.402128,W,0.03,138.98,080125,,,D,V*15
$GNVTG,138.98,T,,M,0.03,N,0.06,K,D*28
$PAIRLOG,Full*51
$GNGGA,185332.000,4910.425306,N,12304.402194,W,2,25,0.54,8.843,M,-16.816,M,,*4D
$GNGLL,4910.425306,N,12304.402194,W,185332.000,A,D*5A
$GNGSA,A,3,07,30,08,14,09,05,27,13,20,,,,1.04,0.54,0.89,1*04
$GNGSA,A,3,71,82,65,80,,,,,,,,,1.04,0.54,0.89,2*00
$GNGSA,A,3,04,06,09,31,21,19,,,,,,,1.04,0.54,0.89,3*04
$GNGSA,A,3,36,22,19,38,27,28,,,,,,,1.04,0.54,0.89,4*08
$GPGSV,3,1,11,07,72,076,32,30,68,290,34,08,39,083,29,14,36,221,28,1*6C
$GPGSV,3,2,11,46,33,188,30,09,28,154,24,05,24,297,27,27,22,046,25,1*6A
$GPGSV,3,3,11,13,19,310,24,20,19,261,24,04,04,144,16,1*55
$GLGSV,2,1,07,74,62,270,15,72,61,291,,71,47,190,28,82,19,044,25,1*70
$GLGSV,2,2,07,65,12,333,24,75,12,247,26,80,09,057,26,1*49
$GAGSV,2,1,07,04,70,182,30,06,70,275,32,09,48,302,30,31,42,215,27,7*7C
$GAGSV,2,2,07,21,27,052,26,19,16,144,18,15,04,013,17,7*42
$GBGSV,4,1,16,58,74,067,,36,63,260,28,46,59,065,,22,50,272,25,1*7D
$GBGSV,4,2,16,19,35,197,20,38,22,320,16,08,20,336,16,27,18,094,19,1*7B
$GBGSV,4,3,16,21,17,323,18,28,15,049,18,13,14,342,15,45,13,254,16,1*73
$GBGSV,4,4,16,31,07,342,,37,06,071,,30,05,139,19,04,01,261,,1*70
$GNRMC,185332.000,A,4910.425306,N,12304.402194,W,0.03,138.98,080125,,,D,V*11
$GNVTG,138.98,T,,M,0.03,N,0.06,K,D*28
$PAIRLOG,Full*51
$GNGGA,185333.000,4910.425408,N,12304.402344,W,2,25,0.54,8.797,M,-16.816,M,,*4C
$GNGLL,4910.425408,N,12304.402344,W,185333.000,A,D*5D
$GNGSA,A,3,07,30,08,14,09,05,27,13,20,,,,1.04,0.54,0.89,1*04
$GNGSA,A,3,71,82,65,80,,,,,,,,,1.04,0.54,0.89,2*00
$GNGSA,A,3,04,06,09,31,21,19,,,,,,,1.04,0.54,0.89,3*04
$GNGSA,A,3,36,22,19,38,27,28,,,,,,,1.04,0.54,0.89,4*08
$GPGSV,3,1,11,07,72,076,32,30,68,290,34,08,39,083,29,14,36,221,28,1*6C
$GPGSV,3,2,11,46,33,188,30,09,28,154,24,05,24,297,27,27,22,046,26,1*69
$GPGSV,3,3,11,13,19,310,24,20,19,261,24,04,04,144,16,1*55
$GLGSV,2,1,07,74,62,270,14,72,61,291,,71,47,190,28,82,19,044,25,1*71
$GLGSV,2,2,07,65,12,333,24,75,12,247,26,80,09,057,26,1*49
$GAGSV,2,1,07,04,70,182,30,06,70,275,32,09,48,302,30,31,42,215,27,7*7C
$GAGSV,2,2,07,21,27,052,26,19,16,144,18,15,04,013,16,7*43
$GBGSV,4,1,16,58,74,067,,36,64,261,28,46,59,065,,22,50,272,25,1*7B
$GBGSV,4,2,16,19,35,197,19,38,22,320,16,08,20,336,16,27,18,094,18,1*70
$GBGSV,4,3,16,21,17,323,18,28,15,049,18,13,14,342,15,45,13,254,16,1*73
$GBGSV,4,4,16,31,07,342,,37,06,071,,30,05,139,19,04,01,261,,1*70
$GNRMC,185333.000,A,4910.425408,N,12304.402344,W,0.03,138.98,080125,,,D,V*16
$GNVTG,138.98,T,,M,0.03,N,0.06,K,D*28
$PAIRLOG,Full*51
$GNGGA,185334.000,4910.425432,N,12304.402314,W,2,25,0.54,8.732,M,-16.816,M,,*48
$GNGLL,4910.425432,N,12304.402314,W,185334.000,A,D*56
$GNGSA,A,3,07,30,08,14,09,05,27,13,20,,,,1.04,0.54,0.89,1*04
$GNGSA,A,3,71,82,65,80,,,,,,,,,1.04,0.54,0.89,2*00
$GNGSA,A,3,04,06,09,31,21,19,,,,,,,1.04,0.54,0.89,3*04
$GNGSA,A,3,36,22,19,38,27,28,,,,,,,1.04,0.54,0.89,4*08
$GPGSV,3,1,11,07,72,076,32,30,68,290,34,08,39,083,29,14,36,221,28,1*6C
$GPGSV,3,2,11,46,33,188,30,09,28,154,24,05,24,297,26,27,22,046,26,1*68
$GPGSV,3,3,11,13,19,310,24,20,19,261,22,04,04,144,16,1*53
$GLGSV,2,1,07,74,62,270,15,72,61,291,24,71,47,190,29,82,19,044,26,1*74
$GLGSV,2,2,07,65,12,333,24,75,12,247,26,80,09,057,25,1*4A
$GAGSV,2,1,07,04,70,182,30,06,70,275,32,09,48,302,30,31,42,215,27,7*7C
$GAGSV,2,2,07,21,27,052,27,19,16,144,18,15,04,013,16,7*42
$GBGSV,4,1,16,58,74,067,,36,64,261,27,46,59,065,,22,50,272,25,1*74
$GBGSV,4,2,16,19,35,197,19,38,22,320,16,08,20,336,16,27,18,094,17,1*7F
$GBGSV,4,3,16,21,17,323,18,28,15,049,17,13,14,342,15,45,13,254,16,1*7C
$GBGSV,4,4,16,31,07,342,,37,06,072,,30,05,139,19,04,01,261,,1*73
$GNRMC,185334.000,A,4910.425432,N,12304.402314,W,0.03,138.98,080125,,,D,V*1D
$GNVTG,138.98,T,,M,0.03,N,0.05,K,D*2B
$PAIRLOG,Full*51
$GNGGA,185335.000,4910.425504,N,12304.402344,W,2,25,0.54,8.721,M,-16.816,M,,*4A
