$GNRMC,185305.000,A,4910.428372,N,12304.403682,W,0.02,152.88,080125,,,D,V*16
$GNGGA,185305.000,4910.428372,N,12304.403682,W,2,44,0.52,23.253,M,-16.817,M,,*74
$GNVTG,152.88,T,,M,0.02,N,0.03,K,D*21
$GNGSA,A,3,07,30,08,14,09,05,27,13,20,,,,0.94,0.52,0.78,1*04
$GNGSA,A,3,73,72,71,,,,,,,,,,0.94,0.52,0.78,2*00
$GNGSA,A,3,04,06,09,31,21,19,,,,,,,0.94,0.52,0.78,3*04
$GNGSA,A,3,36,22,19,38,27,21,28,45,13,,,,0.94,0.52,0.78,4*08
$GPGSV,3,1,11,07,71,077,37,30,67,289,38,08,39,082,34,14,37,221,32,1*67
$GPGSV,3,2,11,46,33,188,31,09,28,154,29,05,24,296,31,27,22,046,30,1*64
$GPGSV,3,3,11,13,20,310,29,20,19,261,28,04,03,144,19,1*56
$GPGSV,2,1,05,30,67,289,26,08,39,082,22,14,37,221,23,09,28,154,19,8*6C
$GPGSV,2,2,05,27,22,046,17,8*59
$GLGSV,2,1,07,73,62,036,20,72,60,293,28,71,48,191,26,82,19,044,,1*7F
$GLGSV,2,2,07,75,12,246,19,65,12,333,,81,07,000,17,1*4D
$GAGSV,2,1,07,04,71,182,34,06,70,276,33,09,48,302,31,31,42,215,30,7*7C
$GAGSV,2,2,07,21,28,052,28,19,17,143,19,15,04,014,17,7*43
$GAGSV,2,1,05,04,71,182,25,06,70,276,24,09,48,302,24,31,42,215,22,1*79
$GAGSV,2,2,05,21,28,052,19,1*46
$GBGSV,4,1,14,36,63,260,31,46,59,066,,22,50,273,29,19,35,198,26,1*7C
$GBGSV,4,2,14,38,22,320,24,08,19,336,20,27,17,094,26,21,17,323,21,1*73
$GBGSV,4,3,14,48,15,179,23,28,15,050,23,45,14,254,22,13,13,342,18,1*73
$GBGSV,4,4,14,37,06,072,13,30,05,140,20,1*77
$GBGSV,2,1,08,36,63,260,26,22,50,273,24,19,35,198,21,38,22,320,17,5*7D
$GBGSV,2,2,08,21,17,323,18,27,17,094,17,48,15,179,18,45,14,254,16,5*72
$GNGLL,4910.428372,N,12304.403682,W,185305.000,A,D*51
$GNRMC,185306.000,A,4910.428366,N,12304.403604,W,0.02,152.88,080125,,,D,V*1E
$GNGGA,185306.000,4910.428366,N,12304.403604,W,2,44,0.52,23.371,M,-16.816,M,,*7C
$GNVTG,152.88,T,,M,0.02,N,0.03,K,D*21
$GNGSA,A,3,07,30,08,14,09,05,27,13,20,,,,0.94,0.52,0.78,1*04
$GNGSA,A,3,73,72,71,,,,,,,,,,0.94,0.52,0.78,2*00
$GNGSA,A,3,04,06,09,31,21,19,,,,,,,0.94,0.52,0.78,3*04
$GNGSA,A,3,36,22,19,38,27,21,28,45,13,,,,0.94,0.52,0.78,4*08
$GPGSV,3,1,11,07,71,077,37,30,67,289,38,08,39,082,34,14,37,221,31,1*64
$GPGSV,3,2,11,46,33,188,31,09,28,154,29,05,24,296,31,27,22,046,30,1*64
$GPGSV,3,3,11,13,20,310,29,20,19,261,28,04,03,144,19,1*56
$GPGSV,2,1,05,30,67,289,26,08,39,082,22,14,37,221,23,09,28,154,19,8*6C
$GPGSV,2,2,05,27,22,046,17,8*59
$GLGSV,2,1,07,73,62,036,20,72,60,293,27,71,48,191,26,75,12,246,14,1*76
$GLGSV,2,2,07,83,12,085,,80,09,056,,81,07,000,17,1*40
$GAGSV,2,1,07,04,71,182,34,06,70,276,33,09,48,302,31,31,42,215,30,7*7C
$GAGSV,2,2,07,21,28,052,28,19,17,143,19,15,04,014,17,7*43
$GAGSV,2,1,05,04,71,182,25,06,70,276,24,09,48,302,23,31,42,215,21,1*7D
$GAGSV,2,2,05,21,28,052,18,1*47
$GBGSV,4,1,14,36,63,260,31,46,59,066,,22,50,273,29,19,35,198,26,1*7C
$GBGSV,4,2,14,38,22,320,24,08,19,336,20,27,17,094,26,21,17,323,21,1*73
$GBGSV,4,3,14,48,15,179,23,28,15,050,23,45,14,254,21,13,13,342,18,1*70
$GBGSV,4,4,14,37,06,072,13,30,05,140,20,1*77
$GBGSV,2,1,08,36,63,260,26,22,50,273,24,19,35,198,21,38,22,320,17,5*7D
$GBGSV,2,2,08,21,17,323,18,27,17,094,16,48,15,179,17,45,14,254,16,5*7C
$GNGLL,4910.428366,N,12304.403604,W,185306.000,A,D*59
$GNRMC,185307.000,A,4910.428300,N,12304.403562,W,0.02,152.88,080125,,,D,V*1C
$GNGGA,185307.000,4910.428300,N,12304.403562,W,2,44,0.52,23.478,M,-16.816,M,,*70
$GNVTG,152.88,T,,M,0.02,N,0.03,K,D*21
$GNGSA,A,3,07,30,08,14,09,05,27,13,20,,,,0.94,0.52,0.78,1*04
$GNGSA,A,3,73,72,71,,,,,,,,,,0.94,0.52,0.78,2*00
$GNGSA,A,3,04,06,09,31,21,19,,,,,,,0.94,0.52,0.78,3*04
$GNGSA,A,3,36,22,19,38,27,21,28,45,13,,,,0.94,0.52,0.78,4*08
$GPGSV,3,1,11,07,71,077,37,30,67,289,38,08,39,082,34,14,37,221,31,1*64
$GPGSV,3,2,11,46,33,188,31,09,28,154,29,05,24,296,31,27,22,046,30,1*64
$GPGSV,3,3,11,13,20,310,29,20,19,261,28,04,03,144,19,1*56
$GPGSV,2,1,05,30,67,289,26,08,39,082,22,14,37,221,23,09,28,154,19,8*6C
$GPGSV,2,2,05,27,22,046,17,8*59
$GLGSV,2,1,08,74,62,268,,73,62,036,20,72,60,293,28,71,48,191,26,1*79
$GLGSV,2,2,08,75,12,246,15,83,12,085,,80,09,056,,81,07,000,17,1*7A
$GAGSV,2,1,07,04,71,182,34,06,70,276,33,09,48,302,31,31,42,215,30,7*7C
$GAGSV,2,2,07,21,28,052,28,19,17,143,19,15,04,014,17,7*43
$GAGSV,2,1,05,04,71,182,25,06,70,276,24,09,48,302,23,31,42,215,22,1*7E
$GAGSV,2,2,05,21,28,052,19,1*46
$GBGSV,4,1,14,36,63,260,31,46,59,066,,22,50,273,29,19,35,198,26,1*7C
$GBGSV,4,2,14,38,22,320,24,08,19,336,20,27,17,094,26,21,17,323,21,1*73
$GBGSV,4,3,14,28,15,050,23,48,15,179,23,45,14,254,21,13,13,342,18,1*70
$GBGSV,4,4,14,37,06,072,13,30,05,140,20,1*77
$GBGSV,2,1,08,36,63,260,26,22,50,273,24,19,35,198,21,38,22,320,17,5*7D
$GBGSV,2,2,08,21,17,323,18,27,17,094,16,48,15,179,17,45,14,254,17,5*7D
$GNGLL,4910.428300,N,12304.403562,W,185307.000,A,D*5B
$GNRMC,185308.000,A,4910.428234,N,12304.403640,W,0.02,152.88,080125,,,D,V*16
$GNGGA,185308.000,4910.428234,N,12304.403640,W,2,44,0.52,23.535,M,-16.816,M,,*72
$GNVTG,152.88,T,,M,0.02,N,0.04,K,D*26
$GNGSA,A,3,07,30,08,14,09,05,27,13,20,,,,0.94,0.52,0.78,1*04
$GNGSA,A,3,73,72,71,,,,,,,,,,0.94,0.52,0.78,2*00
$GNGSA,A,3,04,06,09,31,21,19,,,,,,,0.94,0.52,0.78,3*04
$GNGSA,A,3,36,22,19,38,27,21,28,45,13,,,,0.94,0.52,0.78,4*08
$GPGSV,3,1,11,07,71,077,37,30,68,290,38,08,39,082,34,14,37,221,31,1*63
$GPGSV,3,2,11,46,33,188,31,09,28,154,29,05,24,296,31,27,22,046,30,1*64
$GPGSV,3,3,11,13,20,310,29,20,19,261,28,04,03,144,19,1*56
$GPGSV,2,1,05,30,68,290,27,08,39,082,22,14,37,221,23,09,28,154,19,8*6A
$GPGSV,2,2,05,27,22,046,16,8*58
$GLGSV,2,1,07,73,62,036,20,72,60,293,28,71,48,191,25,82,19,044,,1*7C
$GLGSV,2,2,07,75,12,246,15,65,12,333,,81,07,000,16,1*40
$GAGSV,2,1,07,04,71,182,34,06,70,276,33,09,48,302,31,31,42,215,30,7*7C
$GAGSV,2,2,07,21,28,052,28,19,17,143,19,15,04,014,17,7*43
$GAGSV,2,1,05,04,71,182,26,06,70,276,24,09,48,302,23,31,42,215,23,1*7C
$GAGSV,2,2,05,21,28,052,19,1*46
$GBGSV,4,1,14,36,63,260,31,46,59,066,,22,50,273,29,19,35,198,26,1*7C
$GBGSV,4,2,14,38,22,320,24,08,19,336,20,27,17,094,26,21,17,323,21,1*73
$GBGSV,4,3,14,48,15,179,23,28,15,050,23,45,14,254,21,13,13,342,18,1*70
$GBGSV,4,4,14,37,06,072,13,30,05,140,20,1*77
$GBGSV,2,1,08,36,63,260,26,22,50,273,24,19,35,198,21,38,22,320,17,5*7D
$GBGSV,2,2,08,21,17,323,18,27,17,094,16,48,15,179,18,45,14,254,17,5*72
$GNGLL,4910.428234,N,12304.403640,W,185308.000,A,D*51
$GNRMC,185309.000,A,4910.428156,N,12304.403616,W,0.02,152.88,080125,,,D,V*13
$GNGGA,185309.000,4910.428156,N,12304.403616,W,2,44,0.52,23.535,M,-16.817,M,,*76
$GNVTG,152.88,T,,M,0.02,N,0.04,K,D*26
$GNGSA,A,3,07,30,08,14,09,05,27,13,20,,,,0.94,0.52,0.78,1*04
$GNGSA,A,3,73,72,71,,,,,,,,,,0.94,0.52,0.78,2*00
$GNGSA,A,3,04,06,09,31,21,19,,,,,,,0.94,0.52,0.78,3*04
$GNGSA,A,3,36,22,19,38,21,27,28,45,13,,,,0.94,0.52,0.78,4*08
$GPGSV,3,1,11,07,71,077,37,30,68,290,38,08,39,082,34,14,37,221,31,1*63
$GPGSV,3,2,11,46,33,188,31,09,28,154,29,05,24,296,31,27,22,046,30,1*64
$GPGSV,3,3,11,13,20,310,29,20,19,261,28,04,03,144,19,1*56
$GPGSV,2,1,05,30,68,290,27,08,39,082,23,14,37,221,23,09,28,154,19,8*6B
$GPGSV,2,2,05,27,22,046,16,8*58
$GLGSV,2,1,08,73,62,036,21,72,60,293,28,71,48,191,25,75,12,246,17,1*77
$GLGSV,2,2,08,83,12,085,,65,12,333,,80,09,056,,81,07,000,16,1*7D
$GAGSV,2,1,07,04,71,182,34,06,70,276,33,09,48,302,31,31,42,215,30,7*7C
$GAGSV,2,2,07,21,28,052,28,19,17,143,19,15,04,014,17,7*43
$GAGSV,2,1,05,04,71,182,26,06,70,276,24,09,48,302,23,31,42,215,23,1*7C
$GAGSV,2,2,05,21,28,052,19,1*46
$GBGSV,4,1,14,36,63,260,31,46,59,066,,22,50,273,29,19,35,198,26,1*7C
$GBGSV,4,2,14,38,22,320,24,08,19,336,20,21,17,323,21,27,17,094,25,1*70
$GBGSV,4,3,14,28,15,050,23,48,15,179,23,45,14,254,21,13,13,342,18,1*70
$GBGSV,4,4,14,37,06,072,13,30,05,140,20,1*77
$GBGSV,2,1,08,36,63,260,26,22,50,273,24,19,35,198,21,38,22,320,17,5*7D
$GBGSV,2,2,08,21,17,323,18,27,17,094,15,48,15,179,18,45,14,254,17,5*71
$GNGLL,4910.428156,N,12304.403616,W,185309.000,A,D*54
$GNRMC,185310.000,A,4910.428048,N,12304.403688,W,0.03,152.88,080125,,,D,V*13
$GNGGA,185310.000,4910.428048,N,12304.403688,W,2,44,0.52,23.479,M,-16.817,M,,*7E
$GNVTG,152.88,T,,M,0.03,N,0.05,K,D*26
$GNGSA,A,3,07,30,08,14,09,05,27,13,20,,,,0.94,0.52,0.78,1*04
$GNGSA,A,3,73,72,71,,,,,,,,,,0.94,0.52,0.78,2*00
$GNGSA,A,3,04,06,09,31,21,19,,,,,,,0.94,0.52,0.78,3*04
$GNGSA,A,3,36,22,19,38,21,27,28,45,13,,,,0.94,0.52,0.78,4*08
$GPGSV,3,1,11,07,71,077,37,30,68,290,38,08,39,082,34,14,37,221,31,1*63
$GPGSV,3,2,11,46,33,188,31,09,28,154,29,05,24,296,31,27,22,046,30,1*64
$GPGSV,3,3,11,13,20,310,29,20,19,261,28,04,03,144,19,1*56
$GPGSV,2,1,05,30,68,290,27,08,39,082,23,14,37,221,23,09,28,154,19,8*6B
$GPGSV,2,2,05,27,22,046,16,8*58
$GLGSV,2,1,08,73,62,036,21,72,60,293,28,71,48,191,25,75,12,246,17,1*77
$GLGSV,2,2,08,83,12,085,,65,12,333,,80,09,056,,81,07,000,16,1*7D
$GAGSV,2,1,07,04,71,182,34,06,70,276,33,09,48,302,31,31,42,215,29,7*74
$GAGSV,2,2,07,21,28,052,27,19,17,143,19,15,04,014,17,7*4C
$GAGSV,2,1,05,04,71,182,25,06,70,276,24,09,48,302,23,31,42,215,23,1*7F
$GAGSV,2,2,05,21,28,052,19,1*46
$GBGSV,4,1,13,36,63,260,31,22,50,273,29,19,35,198,26,38,22,320,24,1*79
$GBGSV,4,2,13,08,19,336,20,21,17,323,21,27,17,094,25,28,15,050,23,1*71
$GBGSV,4,3,13,48,15,179,23,45,14,254,21,13,13,342,18,37,06,072,13,1*78
$GBGSV,4,4,13,30,05,140,20,1*45
$GBGSV,2,1,08,36,63,260,26,22,50,273,24,19,35,198,21,38,22,320,18,5*72
$GBGSV,2,2,08,21,17,323,18,27,17,094,15,48,15,179,18,45,14,254,17,5*71
$GNGLL,4910.428048,N,12304.403688,W,185310.000,A,D*55
$GNRMC,185311.000,A,4910.427976,N,12304.403748,W,0.03,152.88,080125,,,D,V*14
$GNGGA,185311.000,4910.427976,N,12304.403748,W,2,44,0.52,23.435,M,-16.816,M,,*70
$GNVTG,152.88,T,,M,0.03,N,0.05,K,D*26
$GNGSA,A,3,07,30,08,14,09,05,27,13,20,,,,0.94,0.52,0.78,1*04
$GNGSA,A,3,73,72,71,,,,,,,,,,0.94,0.52,0.78,2*00
$GNGSA,A,3,04,06,09,31,21,19,,,,,,,0.94,0.52,0.78,3*04
$GNGSA,A,3,36,22,19,38,27,21,28,45,13,,,,0.94,0.52,0.78,4*08
$GPGSV,3,1,11,07,71,077,37,30,68,290,38,08,39,082,34,14,37,221,31,1*63
$GPGSV,3,2,11,46,33,188,31,09,28,154,29,05,24,296,31,27,22,046,30,1*64
$GPGSV,3,3,11,13,20,310,29,20,19,261,28,04,03,144,19,1*56
$GPGSV,2,1,05,30,68,290,27,08,39,082,24,14,37,221,23,09,28,154,19,8*6C
$GPGSV,2,2,05,27,22,046,17,8*59
$GLGSV,2,1,06,73,62,036,21,72,60,293,28,71,48,191,25,75,12,246,17,1*79
$GLGSV,2,2,06,80,09,056,,81,07,000,16,1*75
$GAGSV,2,1,07,04,71,182,34,06,70,276,33,09,48,302,31,31,42,215,29,7*74
$GAGSV,2,2,07,21,28,052,27,19,17,143,19,15,04,014,17,7*4C
$GAGSV,2,1,05,04,71,182,25,06,70,276,24,09,48,302,23,31,42,215,24,1*78
$GAGSV,2,2,05,21,28,052,19,1*46
$GBGSV,4,1,13,36,63,260,31,22,50,273,29,19,35,198,26,38,22,320,24,1*79
$GBGSV,4,2,13,08,19,336,20,27,17,094,26,21,17,323,21,48,15,179,23,1*7E
$GBGSV,4,3,13,28,15,050,23,45,14,254,22,13,13,342,18,37,06,072,13,1*77
$GBGSV,4,4,13,30,05,140,20,1*45
$GBGSV,2,1,08,36,63,260,27,22,50,273,24,19,35,198,21,38,22,320,18,5*73
$GBGSV,2,2,08,21,17,323,18,27,17,094,16,48,15,179,19,45,14,254,17,5*73
$GNGLL,4910.427976,N,12304.403748,W,185311.000,A,D*52
$GNRMC,185312.000,A,4910.427886,N,12304.403670,W,0.03,152.88,080125,,,D,V*13
$GNGGA,185312.000,4910.427886,N,12304.403670,W,2,44,0.52,23.368,M,-16.817,M,,*79
$GNVTG,152.88,T,,M,0.03,N,0.05,K,D*26
$GNGSA,A,3,07,30,08,14,09,05,27,13,20,,,,0.94,0.52,0.78,1*04
$GNGSA,A,3,73,72,71,,,,,,,,,,0.94,0.52,0.78,2*00
$GNGSA,A,3,04,06,09,31,21,19,,,,,,,0.94,0.52,0.78,3*04
$GNGSA,A,3,36,22,19,38,27,21,28,45,13,,,,0.94,0.52,0.78,4*08
$GPGSV,3,1,11,07,71,077,37,30,68,290,38,08,39,082,34,14,37,221,31,1*63
$GPGSV,3,2,11,46,33,188,31,09,28,154,29,05,24,296,31,27,22,046,30,1*64
$GPGSV,3,3,11,13,20,310,29,20,19,261,28,04,03,144,19,1*56
$GPGSV,2,1,05,30,68,290,27,08,39,082,24,14,37,221,23,09,28,154,19,8*6C
$GPGSV,2,2,05,27,22,046,17,8*59
$GLGSV,2,1,05,73,62,036,21,72,60,293,28,71,48,191,25,75,12,246,17,1*7A
$GLGSV,2,2,05,81,07,000,16,1*44
$GAGSV,2,1,07,04,71,182,34,06,70,276,33,09,48,302,31,31,42,215,29,7*74
$GAGSV,2,2,07,21,28,052,27,19,17,143,19,15,04,014,17,7*4C
$GAGSV,2,1,05,04,71,182,25,06,70,276,24,09,48,302,23,31,42,215,24,1*78
$GAGSV,2,2,05,21,28,052,19,1*46
$GBGSV,4,1,13,36,63,260,31,22,50,273,29,19,35,198,26,38,22,320,24,1*79
$GBGSV,4,2,13,08,19,336,20,27,17,094,25,21,17,323,21,28,15,050,22,1*70
$GBGSV,4,3,13,48,15,179,23,45,14,254,22,13,13,342,18,37,06,072,13,1*7B
$GBGSV,4,4,13,30,05,140,20,1*45
$GBGSV,2,1,08,36,63,260,27,22,50,273,24,19,35,198,21,38,22,320,18,5*73
$GBGSV,2,2,08,21,17,323,18,27,17,094,16,48,15,179,19,45,14,254,17,5*73
$GNGLL,4910.427886,N,12304.403670,W,185312.000,A,D*55
$GNRMC,185313.000,A,4910.427832,N,12304.403628,W,0.02,152.88,080125,,,D,V*11
$GNGGA,185313.000,4910.427832,N,12304.403628,W,2,44,0.52,23.306,M,-16.817,M,,*72
$GNVTG,152.88,T,,M,0.02,N,0.04,K,D*26
$GNGSA,A,3,07,30,08,14,09,05,27,13,20,,,,0.94,0.52,0.78,1*04
$GNGSA,A,3,73,72,71,,,,,,,,,,0.94,0.52,0.78,2*00
$GNGSA,A,3,04,06,09,31,21,19,,,,,,,0.94,0.52,0.78,3*04
$GNGSA,A,3,36,22,19,38,27,21,28,45,13,,,,0.94,0.52,0.78,4*08
$GPGSV,3,1,11,07,71,077,37,30,68,290,38,08,39,082,34,14,37,221,31,1*63
$GPGSV,3,2,11,46,33,188,31,09,28,154,29,05,24,296,31,27,22,046,30,1*64
$GPGSV,3,3,11,13,20,310,29,20,19,261,28,04,03,144,19,1*56
$GPGSV,2,1,05,30,68,290,27,08,39,082,24,14,37,221,23,09,28,154,20,8*66
$GPGSV,2,2,05,27,22,046,17,8*59
$GLGSV,2,1,05,73,62,036,21,72,60,293,28,71,48,191,26,75,12,246,17,1*79
$GLGSV,2,2,05,81,07,000,16,1*44
$GAGSV,2,1,07,04,71,182,33,06,70,276,33,09,48,302,31,31,42,215,29,7*73
$GAGSV,2,2,07,21,28,052,27,19,17,143,19,15,04,014,17,7*4C
$GAGSV,2,1,05,04,71,182,25,06,70,276,25,09,48,302,24,31,42,215,24,1*7E
$GAGSV,2,2,05,21,28,052,20,1*4C
$GBGSV,4,1,13,36,63,260,31,22,50,273,29,19,35,198,26,38,22,320,24,1*79
$GBGSV,4,2,13,08,19,336,20,27,17,094,25,21,17,323,21,28,15,050,22,1*70
$GBGSV,4,3,13,48,15,179,23,45,14,254,22,13,13,342,18,37,06,072,,1*79
$GBGSV,4,4,13,30,05,140,20,1*45
$GBGSV,2,1,08,36,63,260,27,22,50,273,24,19,35,198,22,38,22,320,18,5*70
$GBGSV,2,2,08,21,17,323,18,27,17,094,16,48,15,179,19,45,14,254,17,5*73
$GNGLL,4910.427832,N,12304.403628,W,185313.000,A,D*56
$GNRMC,185314.000,A,4910.427784,N,12304.403640,W,0.02,152.88,080125,,,D,V*1A
$GNGGA,185314.000,4910.427784,N,12304.403640,W,2,44,0.52,23.243,M,-16.816,M,,*78
$GNVTG,152.88,T,,M,0.02,N,0.03,K,D*21
$GNGSA,A,3,07,30,08,14,09,05,27,13,20,,,,0.94,0.52,0.78,1*04
$GNGSA,A,3,73,72,71,,,,,,,,,,0.94,0.52,0.78,2*00
$GNGSA,A,3,04,06,09,31,21,19,,,,,,,0.94,0.52,0.78,3*04
$GNGSA,A,3,36,22,19,38,27,21,28,45,13,,,,0.94,0.52,0.78,4*08
$GPGSV,3,1,11,07,71,077,37,30,68,290,38,08,39,082,34,14,37,221,31,1*63
$GPGSV,3,2,11,46,33,188,31,09,28,154,29,05,24,296,31,27,22,046,30,1*64
$GPGSV,3,3,11,13,20,310,29,20,19,261,28,04,03,144,19,1*56
$GPGSV,2,1,05,30,68,290,27,08,39,082,24,14,37,221,24,09,28,154,20,8*61
$GPGSV,2,2,05,27,22,046,17,8*59
$GLGSV,2,1,05,73,62,036,21,72,60,293,28,71,48,191,25,75,12,246,17,1*7A
$GLGSV,2,2,05,81,07,000,15,1*47
$GAGSV,2,1,07,04,71,182,34,06,70,276,33,09,48,302,31,31,42,215,30,7*7C
$GAGSV,2,2,07,21,28,052,27,19,17,143,19,15,04,014,17,7*4C
$GAGSV,2,1,05,04,71,182,26,06,70,276,25,09,48,302,24,31,42,215,24,1*7D
$GAGSV,2,2,05,21,28,052,21,1*4D
$GBGSV,4,1,13,36,63,260,32,22,50,273,30,19,35,198,27,38,22,320,24,1*73
$GBGSV,4,2,13,08,19,336,20,27,17,094,26,21,17,323,22,28,15,050,23,1*71
$GBGSV,4,3,13,48,15,179,24,45,14,254,23,13,13,342,18,37,06,072,,1*7F
$GBGSV,4,4,13,30,05,140,20,1*45
$GBGSV,2,1,08,36,63,260,27,22,50,273,24,19,35,198,22,38,22,320,18,5*70
$GBGSV,2,2,08,21,17,323,18,27,17,094,16,48,15,179,19,45,14,254,17,5*73
$GNGLL,4910.427784,N,12304.403640,W,185314.000,A,D*5D
$GNRMC,185315.000,A,4910.427778,N,12304.403616,W,0.01,152.88,080125,,,D,V*18
$GNGGA,185315.000,4910.427778,N,12304.403616,W,2,44,0.52,23.263,M,-16.816,M,,*7B
$GNVTG,152.88,T,,M,0.01,N,0.02,K,D*23
$GNGSA,A,3,07,30,08,14,09,05,27,13,20,,,,0.94,0.52,0.78,1*04
$GNGSA,A,3,73,72,71,,,,,,,,,,0.94,0.52,0.78,2*00
$GNGSA,A,3,04,06,09,31,21,19,,,,,,,0.94,0.52,0.78,3*04
$GNGSA,A,3,36,22,19,38,27,21,28,45,13,,,,0.94,0.52,0.78,4*08
$GPGSV,3,1,11,07,71,077,37,30,68,290,38,08,39,082,34,14,37,221,31,1*63
$GPGSV,3,2,11,46,33,188,31,09,28,154,29,05,24,296,31,27,22,046,30,1*64
$GPGSV,3,3,11,13,20,310,29,20,19,261,28,04,03,144,19,1*56
$GPGSV,2,1,05,30,68,290,27,08,39,082,24,14,37,221,24,09,28,154,20,8*61
$GPGSV,2,2,05,27,22,046,17,8*59
$GLGSV,2,1,05,73,62,036,20,72,60,293,28,71,48,191,24,75,12,246,18,1*75
$GLGSV,2,2,05,81,07,000,16,1*44
$GAGSV,2,1,07,04,71,182,34,06,70,276,33,09,48,302,31,31,42,215,30,7*7C
$GAGSV,2,2,07,21,28,052,27,19,17,143,19,15,04,014,17,7*4C
$GAGSV,2,1,05,04,71,182,26,06,70,276,25,09,48,302,24,31,42,215,24,1*7D
$GAGSV,2,2,05,21,28,052,21,1*4D
$GBGSV,4,1,13,36,63,260,31,22,50,273,30,19,35,198,26,38,22,320,23,1*76
$GBGSV,4,2,13,08,19,336,20,27,17,094,24,21,17,323,22,28,15,050,23,1*73
$GBGSV,4,3,13,48,15,179,24,45,14,254,23,13,13,342,18,37,06,072,,1*7F
$GBGSV,4,4,13,30,05,140,20,1*45
$GBGSV,2,1,08,36,63,260,26,22,50,273,24,19,35,198,21,38,22,320,18,5*72
$GBGSV,2,2,08,21,17,323,18,27,17,094,16,48,15,179,19,45,14,254,17,5*73
$GNGLL,4910.427778,N,12304.403616,W,185315.000,A,D*5C
$GNRMC,185316.000,A,4910.427754,N,12304.403586,W,0.01,152.88,080125,,,D,V*1F
$GNGGA,185316.000,4910.427754,N,12304.403586,W,2,44,0.52,23.258,M,-16.816,M,,*74
$GNVTG,152.88,T,,M,0.01,N,0.02,K,D*23
$GNGSA,A,3,07,30,08,14,09,05,27,13,20,,,,0.94,0.52,0.78,1*04
$GNGSA,A,3,73,72,71,,,,,,,,,,0.94,0.52,0.78,2*00
$GNGSA,A,3,04,06,09,31,21,19,,,,,,,0.94,0.52,0.78,3*04
$GNGSA,A,3,36,22,19,38,27,21,28,45,13,,,,0.94,0.52,0.78,4*08
$GPGSV,3,1,11,07,71,077,37,30,68,290,38,08,39,082,34,14,37,221,31,1*63
$GPGSV,3,2,11,46,33,188,31,09,28,154,29,05,24,296,31,27,22,046,30,1*64
$GPGSV,3,3,11,13,20,310,29,20,19,261,28,04,03,144,18,1*57
$GPGSV,2,1,05,30,68,290,27,08,39,082,24,14,37,221,23,09,28,154,20,8*66
$GPGSV,2,2,05,27,22,046,17,8*59
$GLGSV,2,1,05,73,62,036,20,72,60,293,28,71,48,191,26,75,12,246,19,1*76
$GLGSV,2,2,05,81,07,000,16,1*44
$GAGSV,2,1,07,04,71,182,34,06,70,276,33,09,48,302,31,31,42,215,30,7*7C
$GAGSV,2,2,07,21,28,052,28,19,17,143,19,15,04,014,17,7*43
$GAGSV,2,1,05,04,71,182,26,06,70,276,25,09,48,302,24,31,42,215,24,1*7D
$GAGSV,2,2,05,21,28,052,20,1*4C
$GBGSV,4,1,14,36,63,260,31,46,59,066,,22,50,273,30,19,35,198,26,1*74
$GBGSV,4,2,14,38,22,320,23,08,19,336,20,27,17,094,24,21,17,323,22,1*75
$GBGSV,4,3,14,28,15,050,23,48,15,179,24,45,14,254,23,13,13,342,18,1*75
$GBGSV,4,4,14,37,06,072,14,30,05,140,20,1*70
$GBGSV,2,1,08,36,63,260,26,22,50,273,24,19,35,198,21,38,22,320,18,5*72
$GBGSV,2,2,08,21,17,323,18,27,17,094,16,48,15,179,19,45,14,254,17,5*73
$GNGLL,4910.427754,N,12304.403586,W,185316.000,A,D*5B
$GNRMC,185317.000,A,4910.427724,N,12304.403616,W,0.01,152.88,080125,,,D,V*13
$GNGGA,185317.000,4910.427724,N,12304.403616,W,2,44,0.52,23.276,M,-16.816,M,,*74
$GNVTG,152.88,T,,M,0.01,N,0.01,K,D*20
$GNGSA,A,3,07,30,08,14,09,05,27,13,20,,,,0.94,0.52,0.78,1*04
$GNGSA,A,3,73,72,71,,,,,,,,,,0.94,0.52,0.78,2*00
$GNGSA,A,3,04,06,09,31,21,19,,,,,,,0.94,0.52,0.78,3*04
$GNGSA,A,3,36,22,19,38,27,21,28,45,13,,,,0.94,0.52,0.78,4*08
$GPGSV,3,1,11,07,71,077,37,30,68,290,38,08,39,082,34,14,37,221,31,1*63
$GPGSV,3,2,11,46,33,188,31,09,28,154,29,05,24,296,31,27,22,046,30,1*64
$GPGSV,3,3,11,13,20,310,29,20,19,261,28,04,03,144,18,1*57
$GPGSV,2,1,05,30,68,290,27,08,39,082,24,14,37,221,23,09,28,154,20,8*66
$GPGSV,2,2,05,27,22,046,17,8*59
$GLGSV,2,1,06,73,62,036,20,72,60,293,28,71,48,191,26,82,19,044,,1*7E
$GLGSV,2,2,06,75,12,246,18,81,07,000,16,1*7F
$GAGSV,2,1,07,04,71,182,34,06,70,276,33,09,48,302,31,31,42,215,30,7*7C
$GAGSV,2,2,07,21,28,052,28,19,17,143,19,15,04,014,17,7*43
$GAGSV,2,1,05,04,71,182,25,06,70,276,25,09,48,302,24,31,42,215,24,1*7E
$GAGSV,2,2,05,21,28,052,20,1*4C
$GBGSV,4,1,14,36,63,260,31,46,59,066,,22,50,273,30,19,35,198,26,1*74
$GBGSV,4,2,14,38,22,320,23,08,19,336,20,27,17,094,24,21,17,323,22,1*75
$GBGSV,4,3,14,48,15,179,24,28,15,050,23,45,14,254,23,13,13,342,18,1*75
$GBGSV,4,4,14,37,06,072,13,30,05,140,20,1*77
$GBGSV,2,1,08,36,63,260,26,22,50,273,24,19,35,198,21,38,22,320,18,5*72
$GBGSV,2,2,08,21,17,323,18,27,17,094,16,48,15,179,19,45,14,254,17,5*73
$GNGLL,4910.427724,N,12304.403616,W,185317.000,A,D*57
$GNRMC,185318.000,A,4910.427640,N,12304.403610,W,0.01,152.88,080125,,,D,V*19
$GNGGA,185318.000,4910.427640,N,12304.403610,W,2,44,0.52,23.233,M,-16.817,M,,*7E
$GNVTG,152.88,T,,M,0.01,N,0.01,K,D*20
$GNGSA,A,3,07,30,08,14,09,05,27,13,20,,,,0.94,0.52,0.78,1*04
$GNGSA,A,3,73,72,71,,,,,,,,,,0.94,0.52,0.78,2*00
$GNGSA,A,3,04,06,09,31,21,19,,,,,,,0.94,0.52,0.78,3*04
$GNGSA,A,3,36,22,19,38,27,21,28,45,13,,,,0.94,0.52,0.78,4*08
$GPGSV,3,1,11,07,71,077,37,30,68,290,38,08,39,082,34,14,37,221,31,1*63
$GPGSV,3,2,11,46,33,188,31,09,28,154,29,05,24,296,31,27,22,046,31,1*65
$GPGSV,3,3,11,13,20,310,29,20,19,261,28,04,03,144,18,1*57
$GPGSV,2,1,05,30,68,290,27,08,39,082,24,14,37,221,23,09,28,154,20,8*66
$GPGSV,2,2,05,27,22,046,17,8*59
$GLGSV,2,1,07,73,62,036,20,72,60,293,29,71,48,191,26,75,12,246,18,1*74
$GLGSV,2,2,07,83,12,085,,80,09,056,,81,07,000,16,1*41
$GAGSV,2,1,07,04,71,182,34,06,70,276,33,09,48,302,31,31,42,215,30,7*7C
$GAGSV,2,2,07,21,28,052,28,19,17,143,19,15,04,014,17,7*43
$GAGSV,2,1,05,04,71,182,25,06,70,276,25,09,48,302,24,31,42,215,24,1*7E
$GAGSV,2,2,05,21,28,052,20,1*4C
$GBGSV,4,1,14,36,63,260,31,46,59,066,,22,50,273,30,19,35,198,26,1*74
$GBGSV,4,2,14,38,22,320,23,08,19,336,20,27,17,094,24,21,17,323,22,1*75
$GBGSV,4,3,14,48,15,179,24,28,15,050,23,45,14,254,23,13,13,342,18,1*75
$GBGSV,4,4,14,37,06,072,13,30,05,140,20,1*77
$GBGSV,2,1,08,36,63,260,26,22,50,273,24,19,35,198,21,38,22,320,18,5*72
$GBGSV,2,2,08,21,17,323,18,27,17,094,16,48,15,179,19,45,14,254,17,5*73
$GNGLL,4910.427640,N,12304.403610,W,185318.000,A,D*5D
$GNRMC,185319.000,A,4910.427520,N,12304.403526,W,0.01,152.88,080125,,,D,V*1B
$GNGGA,185319.000,4910.427520,N,12304.403526,W,2,44,0.52,23.230,M,-16.816,M,,*7E
$GNVTG,152.88,T,,M,0.01,N,0.02,K,D*23
$GNGSA,A,3,07,30,08,14,09,05,27,13,20,,,,0.94,0.52,0.78,1*04
$GNGSA,A,3,73,72,71,,,,,,,,,,0.94,0.52,0.78,2*00
$GNGSA,A,3,04,06,09,31,21,19,,,,,,,0.94,0.52,0.78,3*04
$GNGSA,A,3,36,22,19,38,27,21,28,45,13,,,,0.94,0.52,0.78,4*08
$GPGSV,3,1,11,07,71,077,37,30,68,290,38,08,39,082,34,14,37,221,31,1*63
$GPGSV,3,2,11,46,33,188,32,09,28,154,29,05,24,296,31,27,22,046,31,1*66
$GPGSV,3,3,11,13,20,310,29,20,19,261,28,04,03,144,18,1*57
$GPGSV,2,1,05,30,68,290,27,08,39,082,25,14,37,221,24,09,28,154,21,8*61
$GPGSV,2,2,05,27,22,046,17,8*59
$GLGSV,2,1,06,73,62,036,20,72,60,293,29,71,48,191,26,75,12,246,18,1*75
$GLGSV,2,2,06,80,09,056,,81,07,000,16,1*75
$GAGSV,2,1,07,04,71,182,34,06,70,276,33,09,48,302,31,31,42,215,30,7*7C
$GAGSV,2,2,07,21,28,052,28,19,17,143,20,15,04,014,18,7*46
$GAGSV,2,1,05,04,71,182,26,06,70,276,25,09,48,302,25,31,42,215,24,1*7C
$GAGSV,2,2,05,21,28,052,20,1*4C
$GBGSV,4,1,14,36,63,260,31,46,59,066,,22,50,273,30,19,35,198,26,1*74
$GBGSV,4,2,14,38,22,320,23,08,19,336,20,27,17,094,24,21,17,323,23,1*74
$GBGSV,4,3,14,48,15,179,24,28,15,050,23,45,14,254,23,13,13,342,18,1*75
$GBGSV,4,4,14,37,06,072,12,30,05,140,20,1*76
$GBGSV,2,1,08,36,63,260,27,22,50,273,24,19,35,198,22,38,22,320,19,5*71
$GBGSV,2,2,08,21,17,323,19,27,17,094,17,48,15,179,19,45,14,254,17,5*73
$GNGLL,4910.427520,N,12304.403526,W,185319.000,A,D*5F
$GNRMC,185320.000,A,4910.427418,N,12304.403442,W,0.02,152.88,080125,,,D,V*1B
$GNGGA,185320.000,4910.427418,N,12304.403442,W,2,44,0.52,23.212,M,-16.816,M,,*7D
$GNVTG,152.88,T,,M,0.02,N,0.03,K,D*21
$GNGSA,A,3,07,30,08,14,09,05,27,13,20,,,,0.94,0.52,0.78,1*04
$GNGSA,A,3,73,72,71,,,,,,,,,,0.94,0.52,0.78,2*00
$GNGSA,A,3,04,06,09,31,21,19,,,,,,,0.94,0.52,0.78,3*04
$GNGSA,A,3,36,22,19,38,27,21,28,45,13,,,,0.94,0.52,0.78,4*08
$GPGSV,3,1,11,07,71,077,37,30,68,290,38,08,39,082,34,14,37,221,31,1*63
$GPGSV,3,2,11,46,33,188,32,09,28,154,29,05,24,296,31,27,22,046,31,1*66
$GPGSV,3,3,11,13,20,310,29,20,19,261,28,04,03,144,18,1*57
$GPGSV,2,1,05,30,68,290,27,08,39,082,25,14,37,221,24,09,28,154,20,8*60
$GPGSV,2,2,05,27,22,046,16,8*58
$GLGSV,2,1,07,73,62,036,20,72,60,293,29,71,48,191,26,75,12,246,19,1*75
$GLGSV,2,2,07,80,09,056,20,81,07,000,16,70,05,169,,1*4A
$GAGSV,2,1,07,04,71,182,34,06,70,276,33,09,48,302,31,31,42,215,30,7*7C
$GAGSV,2,2,07,21,28,052,28,19,17,143,20,15,04,014,18,7*46
$GAGSV,2,1,05,04,71,182,26,06,70,276,25,09,48,302,25,31,42,215,24,1*7C
$GAGSV,2,2,05,21,28,052,20,1*4C
$GBGSV,4,1,15,36,63,260,31,46,59,066,,22,50,273,31,19,35,198,26,1*74
$GBGSV,4,2,15,38,22,320,23,08,19,336,20,27,17,094,24,21,17,323,23,1*75
$GBGSV,4,3,15,48,15,179,24,28,15,050,23,45,14,254,23,13,13,342,18,1*74
$GBGSV,4,4,15,37,06,072,12,30,05,140,20,04,01,261,,1*47
$GBGSV,2,1,08,36,63,260,27,22,50,273,24,19,35,198,22,38,22,320,19,5*71
$GBGSV,2,2,08,21,17,323,19,27,17,094,16,48,15,179,18,45,14,254,17,5*73
$GNGLL,4910.427418,N,12304.403442,W,185320.000,A,D*5C
$GNRMC,185321.000,A,4910.427376,N,12304.403412,W,0.02,152.88,080125,,,D,V*10
$GNGGA,185321.000,4910.427376,N,12304.403412,W,2,44,0.52,23.189,M,-16.817,M,,*76
$GNVTG,152.88,T,,M,0.02,N,0.03,K,D*21
$GNGSA,A,3,07,30,08,14,09,05,27,13,20,,,,0.94,0.52,0.78,1*04
$GNGSA,A,3,73,72,71,,,,,,,,,,0.94,0.52,0.78,2*00
$GNGSA,A,3,04,06,09,31,21,19,,,,,,,0.94,0.52,0.78,3*04
$GNGSA,A,3,36,22,19,38,27,21,28,45,13,,,,0.94,0.52,0.78,4*08
$GPGSV,3,1,11,07,71,077,37,30,68,290,38,08,39,082,34,14,37,221,31,1*63
$GPGSV,3,2,11,46,33,188,32,09,28,154,29,05,24,296,31,27,22,046,31,1*66
$GPGSV,3,3,11,13,20,310,29,20,19,261,28,04,03,144,18,1*57
$GPGSV,2,1,05,30,68,290,27,08,39,082,25,14,37,221,24,09,28,154,20,8*60
$GPGSV,2,2,05,27,22,046,16,8*58
$GLGSV,2,1,06,73,62,036,20,72,60,293,28,71,48,191,26,75,12,246,19,1*75
$GLGSV,2,2,06,80,09,056,20,81,07,000,16,1*77
$GAGSV,2,1,07,04,70,181,34,06,70,276,33,09,48,302,31,31,42,215,30,7*7E
$GAGSV,2,2,07,21,28,052,28,19,17,143,20,15,04,014,18,7*46
$GAGSV,2,1,05,04,70,181,26,06,70,276,25,09,48,302,25,31,42,215,24,1*7E
$GAGSV,2,2,05,21,28,052,20,1*4C
$GBGSV,4,1,14,36,63,260,31,46,59,066,,22,50,273,31,19,35,198,26,1*75
$GBGSV,4,2,14,38,22,320,24,08,19,336,20,27,17,094,24,21,17,323,23,1*73
$GBGSV,4,3,14,48,15,179,24,28,15,050,23,45,14,254,23,13,13,342,19,1*74
$GBGSV,4,4,14,37,06,072,,30,05,140,21,1*74
$GBGSV,2,1,08,36,63,260,26,22,50,273,24,19,35,198,22,38,22,320,18,5*71
$GBGSV,2,2,08,21,17,323,18,27,17,094,16,48,15,179,18,45,14,254,17,5*72
$GNGLL,4910.427376,N,12304.403412,W,185321.000,A,D*57
$GNRMC,185322.000,A,4910.427466,N,12304.403364,W,0.02,152.88,080125,,,D,V*13
$GNGGA,185322.000,4910.427466,N,12304.403364,W,2,44,0.52,23.205,M,-16.817,M,,*72
$GNVTG,152.88,T,,M,0.02,N,0.04,K,D*26
$GNGSA,A,3,07,30,08,14,09,05,27,13,20,,,,0.94,0.52,0.78,1*04
$GNGSA,A,3,73,72,71,,,,,,,,,,0.94,0.52,0.78,2*00
$GNGSA,A,3,04,06,09,31,21,19,,,,,,,0.94,0.52,0.78,3*04
$GNGSA,A,3,36,22,19,38,27,21,28,45,13,,,,0.94,0.52,0.78,4*08
$GPGSV,3,1,11,07,71,077,36,30,68,290,37,08,39,082,34,14,37,221,31,1*6D
$GPGSV,3,2,11,46,33,188,32,09,28,154,29,05,24,296,30,27,22,046,30,1*66
$GPGSV,3,3,11,13,20,310,29,20,19,261,28,04,03,144,18,1*57
$GPGSV,2,1,05,30,68,290,27,08,39,082,25,14,37,221,24,09,28,154,20,8*60
$GPGSV,2,2,05,27,22,046,17,8*59
$GLGSV,2,1,07,74,62,268,,73,62,036,20,72,60,293,28,71,48,191,26,1*76
$GLGSV,2,2,07,75,12,246,19,80,09,056,20,81,07,000,16,1*4F
$GAGSV,2,1,07,04,70,181,34,06,70,276,33,09,48,302,31,31,42,215,29,7*76
$GAGSV,2,2,07,21,28,052,27,19,17,143,19,15,04,014,18,7*43
$GAGSV,2,1,05,04,70,181,26,06,70,276,25,09,48,302,25,31,42,215,24,1*7E
$GAGSV,2,2,05,21,28,052,20,1*4C
$GBGSV,4,1,13,36,63,260,31,22,50,273,31,19,35,198,26,38,22,320,24,1*70
$GBGSV,4,2,13,08,19,336,20,27,17,094,24,21,17,323,23,48,15,179,24,1*79
$GBGSV,4,3,13,28,15,050,23,45,14,254,23,13,13,342,19,37,06,072,,1*75
$GBGSV,4,4,13,30,05,140,22,1*47
$GBGSV,2,1,08,36,63,260,26,22,50,273,25,19,35,198,22,38,22,320,18,5*70
$GBGSV,2,2,08,21,17,323,18,27,17,094,16,48,15,179,18,45,14,254,17,5*72
$GNGLL,4910.427466,N,12304.403364,W,185322.000,A,D*54
$GNRMC,185323.000,A,4910.427430,N,12304.403406,W,0.02,152.88,080125,,,D,V*12
$GNGGA,185323.000,4910.427430,N,12304.403406,W,2,44,0.52,23.200,M,-16.817,M,,*76
$GNVTG,152.88,T,,M,0.02,N,0.04,K,D*26
$GNGSA,A,3,07,30,08,14,09,05,27,13,20,,,,0.94,0.52,0.78,1*04
$GNGSA,A,3,73,72,71,,,,,,,,,,0.94,0.52,0.78,2*00
$GNGSA,A,3,04,06,09,31,21,19,,,,,,,0.94,0.52,0.78,3*04
$GNGSA,A,3,36,22,19,38,27,21,28,45,13,,,,0.94,0.52,0.78,4*08
$GPGSV,3,1,11,07,71,077,36,30,68,290,37,08,39,082,34,14,37,221,31,1*6D
$GPGSV,3,2,11,46,33,188,32,09,28,154,29,05,24,296,30,27,22,046,30,1*66
$GPGSV,3,3,11,13,20,310,29,20,19,261,28,04,03,144,18,1*57
$GPGSV,2,1,05,30,68,290,27,08,39,082,25,14,37,221,24,09,28,154,19,8*6A
$GPGSV,2,2,05,27,22,046,17,8*59
$GLGSV,2,1,07,74,62,268,,73,62,036,20,72,60,293,28,71,48,191,26,1*76
$GLGSV,2,2,07,75,12,246,19,80,09,056,21,81,07,000,16,1*4E
$GAGSV,2,1,07,04,70,181,34,06,70,273,33,09,48,302,31,31,42,215,29,7*73
$GAGSV,2,2,07,21,28,052,27,19,17,143,19,15,04,014,18,7*43
$GAGSV,2,1,05,04,70,181,26,06,70,273,25,09,48,302,25,31,42,215,24,1*7B
$GAGSV,2,2,05,21,28,052,20,1*4C
$GBGSV,3,1,12,36,63,260,31,22,50,273,31,19,35,198,26,38,22,320,24,1*76
$GBGSV,3,2,12,08,19,336,20,27,17,094,24,21,17,323,23,48,15,179,24,1*7F
$GBGSV,3,3,12,28,15,050,23,45,14,254,23,13,13,342,19,30,05,140,22,1*77
$GBGSV,2,1,08,36,63,260,26,22,50,273,25,19,35,198,21,38,22,320,17,5*7C
$GBGSV,2,2,08,21,17,323,18,27,17,094,16,48,15,179,18,45,14,254,17,5*72
$GNGLL,4910.427430,N,12304.403406,W,185323.000,A,D*55
$GNRMC,185324.000,A,4910.427364,N,12304.403424,W,0.02,152.88,080125,,,D,V*13
$GNGGA,185324.000,4910.427364,N,12304.403424,W,2,44,0.52,23.220,M,-16.816,M,,*74
$GNVTG,152.88,T,,M,0.02,N,0.04,K,D*26
$GNGSA,A,3,07,30,08,14,09,05,27,13,20,,,,0.94,0.52,0.78,1*04
$GNGSA,A,3,73,72,71,,,,,,,,,,0.94,0.52,0.78,2*00
$GNGSA,A,3,04,06,09,31,21,19,,,,,,,0.94,0.52,0.78,3*04
$GNGSA,A,3,36,22,19,38,21,27,28,45,13,,,,0.94,0.52,0.78,4*08
$GPGSV,3,1,11,07,71,077,36,30,68,290,37,08,39,082,34,14,37,221,31,1*6D
$GPGSV,3,2,11,46,33,188,32,09,28,154,30,05,24,296,30,27,22,046,30,1*6E
$GPGSV,3,3,11,13,20,310,29,20,19,261,28,04,03,144,18,1*57
$GPGSV,2,1,05,30,68,290,27,08,39,082,25,14,37,221,24,09,28,154,20,8*60
$GPGSV,2,2,05,27,22,046,17,8*59
$GLGSV,2,1,07,74,62,268,,73,62,036,21,72,60,293,28,71,48,191,26,1*77
$GLGSV,2,2,07,75,12,246,19,80,09,056,21,81,07,000,16,1*4E
$GAGSV,2,1,07,04,70,181,34,06,70,273,33,09,48,302,31,31,42,215,29,7*73
$GAGSV,2,2,07,21,28,052,27,19,17,143,19,15,04,014,18,7*43
$GAGSV,2,1,05,04,70,181,26,06,70,273,25,09,48,302,25,31,42,215,24,1*7B
$GAGSV,2,2,05,21,28,052,20,1*4C
$GBGSV,4,1,13,36,63,260,31,46,59,066,,22,50,273,31,19,35,198,26,1*72
$GBGSV,4,2,13,38,22,320,24,08,19,336,20,21,17,323,23,27,17,094,24,1*74
$GBGSV,4,3,13,48,15,179,24,28,15,050,23,45,14,254,23,13,13,342,19,1*73
$GBGSV,4,4,13,30,05,140,22,1*47
$GBGSV,2,1,08,36,63,260,26,22,50,273,25,19,35,198,21,38,22,320,17,5*7C
$GBGSV,2,2,08,21,17,323,18,27,17,094,16,48,15,179,18,45,14,254,17,5*72
$GNGLL,4910.427364,N,12304.403424,W,185324.000,A,D*54
$GNRMC,185325.000,A,4910.427328,N,12304.403448,W,0.02,152.88,080125,,,D,V*10
$GNGGA,185325.000,4910.427328,N,12304.403448,W,2,44,0.52,23.221,M,-16.816,M,,*76
$GNVTG,152.88,T,,M,0.02,N,0.04,K,D*26
$GNGSA,A,3,07,30,08,14,09,05,27,13,20,,,,0.94,0.52,0.78,1*04
$GNGSA,A,3,73,72,71,,,,,,,,,,0.94,0.52,0.78,2*00
$GNGSA,A,3,04,06,09,31,21,19,,,,,,,0.94,0.52,0.78,3*04
$GNGSA,A,3,36,22,19,38,27,21,28,45,13,,,,0.94,0.52,0.78,4*08
$GPGSV,3,1,11,07,71,077,36,30,68,290,37,08,39,082,34,14,37,221,31,1*6D
$GPGSV,3,2,11,46,33,188,32,09,28,154,30,05,24,296,30,27,22,046,30,1*6E
$GPGSV,3,3,11,13,20,310,29,20,19,261,28,04,03,144,18,1*57
$GPGSV,2,1,05,30,68,290,27,08,39,082,25,14,37,221,24,09,28,154,20,8*60
$GPGSV,2,2,05,27,22,046,17,8*59
$GLGSV,2,1,08,74,62,268,,73,62,036,21,72,60,293,28,71,48,191,26,1*78
$GLGSV,2,2,08,82,19,044,,75,12,246,18,80,09,056,21,81,07,000,16,1*72
$GAGSV,2,1,07,04,70,181,34,06,70,273,33,09,48,302,31,31,42,215,29,7*73
$GAGSV,2,2,07,21,28,052,27,19,17,143,19,15,04,014,18,7*43
$GAGSV,2,1,05,04,70,181,26,06,70,273,25,09,48,302,25,31,42,215,24,1*7B
$GAGSV,2,2,05,21,28,052,20,1*4C
$GBGSV,4,1,13,36,63,260,31,46,59,066,,22,50,273,31,19,35,198,26,1*72
$GBGSV,4,2,13,38,22,320,24,08,19,336,20,27,17,094,24,21,17,323,23,1*74
$GBGSV,4,3,13,48,15,179,23,28,15,050,23,45,14,254,23,13,13,342,19,1*74
$GBGSV,4,4,13,30,05,140,22,1*47
$GBGSV,2,1,08,36,63,260,26,22,50,273,25,19,35,198,21,38,22,320,17,5*7C
$GBGSV,2,2,08,21,17,323,18,27,17,094,16,48,15,179,18,45,14,254,17,5*72
$GNGLL,4910.427328,N,12304.403448,W,185325.000,A,D*57
$GNRMC,185326.000,A,4910.427280,N,12304.403478,W,0.02,152.88,080125,,,D,V*13
$GNGGA,185326.000,4910.427280,N,12304.403478,W,2,44,0.52,23.200,M,-16.816,M,,*76
$GNVTG,152.88,T,,M,0.02,N,0.03,K,D*21
$GNGSA,A,3,07,30,08,14,09,05,27,13,20,,,,0.94,0.52,0.78,1*04
$GNGSA,A,3,73,72,71,,,,,,,,,,0.94,0.52,0.78,2*00
$GNGSA,A,3,04,06,09,31,21,19,,,,,,,0.94,0.52,0.78,3*04
$GNGSA,A,3,36,22,19,38,27,21,28,45,13,,,,0.94,0.52,0.78,4*08
$GPGSV,3,1,11,07,71,077,36,30,68,290,37,08,39,082,34,14,37,221,32,1*6E
$GPGSV,3,2,11,46,33,188,32,09,28,154,30,05,24,296,30,27,22,046,30,1*6E
$GPGSV,3,3,11,13,20,310,29,20,19,261,28,04,03,144,18,1*57
$GPGSV,2,1,05,30,68,290,27,08,39,082,25,14,37,221,24,09,28,154,20,8*60
$GPGSV,2,2,05,27,22,046,17,8*59
$GLGSV,3,1,10,73,62,036,21,72,60,293,28,71,48,191,26,82,19,044,,1*79
$GLGSV,3,2,10,65,12,333,,75,12,246,18,83,12,085,,80,09,056,21,1*77
$GLGSV,3,3,10,81,07,000,17,70,05,169,,1*7D
$GAGSV,2,1,07,04,70,181,34,06,70,273,33,09,48,302,32,31,42,215,29,7*70
$GAGSV,2,2,07,21,28,052,27,19,17,143,19,15,04,014,18,7*43
$GAGSV,2,1,05,04,70,181,26,06,70,273,25,09,48,302,25,31,42,215,24,1*7B
$GAGSV,2,2,05,21,28,052,20,1*4C
$GBGSV,4,1,14,36,63,260,31,46,59,066,,22,50,273,31,19,35,198,26,1*75
$GBGSV,4,2,14,38,22,320,24,08,19,336,19,27,17,094,24,21,17,323,23,1*79
$GBGSV,4,3,14,48,15,179,23,28,15,050,23,45,14,254,23,13,13,342,19,1*73
$GBGSV,4,4,14,37,06,072,,30,05,140,22,1*77
$GBGSV,2,1,08,36,63,260,26,22,50,273,25,19,35,198,21,38,22,320,18,5*73
$GBGSV,2,2,08,21,17,323,18,27,17,094,16,48,15,179,18,45,14,254,17,5*72
$GNGLL,4910.427280,N,12304.403478,W,185326.000,A,D*54
$GNRMC,185327.000,A,4910.427256,N,12304.403496,W,0.01,152.88,080125,,,D,V*1A
$GNGGA,185327.000,4910.427256,N,12304.403496,W,2,44,0.52,23.193,M,-16.816,M,,*75
$GNVTG,152.88,T,,M,0.01,N,0.02,K,D*23
$GNGSA,A,3,07,30,08,14,09,05,27,13,20,,,,0.94,0.52,0.78,1*04
$GNGSA,A,3,73,72,71,,,,,,,,,,0.94,0.52,0.78,2*00
$GNGSA,A,3,04,06,09,31,21,19,,,,,,,0.94,0.52,0.78,3*04
$GNGSA,A,3,36,22,19,38,21,27,28,45,13,,,,0.94,0.52,0.78,4*08
$GPGSV,3,1,11,07,71,077,36,30,68,290,37,08,39,082,34,14,37,221,32,1*6E
$GPGSV,3,2,11,46,33,188,32,09,28,154,30,05,24,296,30,27,22,046,30,1*6E
$GPGSV,3,3,11,13,20,310,29,20,19,261,28,04,03,144,18,1*57
$GPGSV,2,1,05,30,68,290,27,08,39,082,25,14,37,221,24,09,28,154,20,8*60
$GPGSV,2,2,05,27,22,046,17,8*59
$GLGSV,2,1,08,73,62,036,21,72,60,293,28,71,48,191,26,75,12,246,18,1*7B
$GLGSV,2,2,08,83,12,085,,65,12,333,,80,09,056,22,81,07,000,17,1*7C
$GAGSV,2,1,07,04,70,181,34,06,70,273,33,09,48,302,32,31,42,215,29,7*70
$GAGSV,2,2,07,21,28,052,28,19,17,143,19,15,04,014,18,7*4C
$GAGSV,2,1,05,04,70,181,26,06,70,273,25,09,48,302,25,31,42,215,24,1*7B
$GAGSV,2,2,05,21,28,052,20,1*4C
$GBGSV,4,1,14,36,63,260,31,46,59,066,,22,50,273,31,19,35,198,26,1*75
$GBGSV,4,2,14,38,22,320,24,08,19,336,19,21,17,323,23,27,17,094,24,1*79
$GBGSV,4,3,14,28,15,050,22,48,15,179,23,45,14,254,22,13,13,342,19,1*73
$GBGSV,4,4,14,37,06,072,,30,05,140,22,1*77
$GBGSV,2,1,08,36,63,260,26,22,50,273,25,19,35,198,21,38,22,320,18,5*73
$GBGSV,2,2,08,21,17,323,18,27,17,094,16,48,15,179,18,45,14,254,17,5*72
$GNGLL,4910.427256,N,12304.403496,W,185327.000,A,D*5E
$GNRMC,185328.000,A,4910.427268,N,12304.403550,W,0.01,152.88,080125,,,D,V*13
$GNGGA,185328.000,4910.427268,N,12304.403550,W,2,44,0.52,23.201,M,-16.817,M,,*75
$GNVTG,152.88,T,,M,0.01,N,0.02,K,D*23
$GNGSA,A,3,07,30,08,14,09,05,27,13,20,,,,0.94,0.52,0.78,1*04
$GNGSA,A,3,73,72,71,,,,,,,,,,0.94,0.52,0.78,2*00
$GNGSA,A,3,04,06,09,31,21,19,,,,,,,0.94,0.52,0.78,3*04
$GNGSA,A,3,36,22,19,38,21,27,28,45,13,,,,0.94,0.52,0.78,4*08
$GPGSV,3,1,11,07,71,077,36,30,68,290,37,08,39,082,33,14,37,221,32,1*69
$GPGSV,3,2,11,46,33,188,32,09,28,154,30,05,24,296,30,27,22,046,30,1*6E
$GPGSV,3,3,11,13,20,310,29,20,19,261,28,04,03,144,18,1*57
$GPGSV,2,1,05,30,68,290,27,08,39,082,25,14,37,221,24,09,28,154,20,8*60
$GPGSV,2,2,05,27,22,046,17,8*59
$GLGSV,2,1,08,73,62,036,21,72,60,293,28,71,48,191,25,75,12,246,17,1*77
$GLGSV,2,2,08,83,12,085,,65,12,333,,80,09,056,21,81,07,000,16,1*7E
$GAGSV,2,1,07,04,70,181,34,06,70,273,33,09,48,302,32,31,42,215,30,7*78
$GAGSV,2,2,07,21,28,052,28,19,17,143,19,15,04,014,18,7*4C
$GAGSV,2,1,05,04,70,181,26,06,70,273,25,09,48,302,25,31,42,215,24,1*7B
$GAGSV,2,2,05,21,28,052,20,1*4C
$GBGSV,4,1,14,36,63,260,31,46,59,066,,22,50,273,31,19,35,198,26,1*75
$GBGSV,4,2,14,38,22,320,24,08,19,336,19,21,17,323,23,27,17,094,24,1*79
$GBGSV,4,3,14,28,15,050,21,48,15,179,23,45,14,254,22,13,13,342,20,1*7A
$GBGSV,4,4,14,37,06,072,,30,05,140,22,1*77
$GBGSV,2,1,08,36,63,260,26,22,50,273,25,19,35,198,21,38,22,320,18,5*73
$GBGSV,2,2,08,21,17,323,18,27,17,094,16,48,15,179,18,45,14,254,17,5*72
$GNGLL,4910.427268,N,12304.403550,W,185328.000,A,D*57
$GNRMC,185329.000,A,4910.427280,N,12304.403580,W,0.01,152.88,080125,,,D,V*19
$GNGGA,185329.000,4910.427280,N,12304.403580,W,2,44,0.52,23.149,M,-16.816,M,,*71
$GNVTG,152.88,T,,M,0.01,N,0.02,K,D*23
$GNGSA,A,3,07,30,08,14,09,05,27,13,20,,,,0.94,0.52,0.78,1*04
$GNGSA,A,3,73,72,71,,,,,,,,,,0.94,0.52,0.78,2*00
$GNGSA,A,3,04,06,09,31,21,19,,,,,,,0.94,0.52,0.78,3*04
$GNGSA,A,3,36,22,19,38,27,21,28,45,13,,,,0.94,0.52,0.78,4*08
$GPGSV,3,1,11,07,71,077,36,30,68,290,37,08,39,082,33,14,37,221,32,1*69
$GPGSV,3,2,11,46,33,188,32,09,28,154,30,05,24,296,30,27,22,046,30,1*6E
$GPGSV,3,3,11,13,20,310,29,20,19,261,28,04,03,144,17,1*58
$GPGSV,2,1,05,30,68,290,27,08,39,082,25,14,37,221,24,09,28,154,20,8*60
$GPGSV,2,2,05,27,22,046,17,8*59
$GLGSV,2,1,07,73,62,036,21,72,60,293,29,71,48,191,25,82,19,044,,1*7C
$GLGSV,2,2,07,75,12,246,18,80,09,056,22,81,07,000,16,1*4C
$GAGSV,2,1,07,04,70,181,34,06,70,273,33,09,48,302,32,31,42,215,30,7*78
$GAGSV,2,2,07,21,28,052,28,19,17,143,19,15,04,014,17,7*43
$GAGSV,2,1,05,04,70,181,26,06,70,273,25,09,48,302,25,31,42,215,24,1*7B
$GAGSV,2,2,05,21,28,052,19,1*46
$GBGSV,4,1,14,36,63,260,31,46,59,066,,22,50,273,31,19,35,198,26,1*75
$GBGSV,4,2,14,38,22,320,24,08,19,336,19,27,17,094,24,21,17,323,23,1*79
$GBGSV,4,3,14,48,15,179,23,28,15,050,21,45,14,254,22,13,13,342,20,1*7A
$GBGSV,4,4,14,37,06,072,,30,05,140,22,1*77
$GBGSV,2,1,08,36,63,260,26,22,50,273,25,19,35,198,21,38,22,320,18,5*73
$GBGSV,2,2,08,21,17,323,18,27,17,094,16,48,15,179,18,45,14,254,17,5*72
$GNGLL,4910.427280,N,12304.403580,W,185329.000,A,D*5D
$GNRMC,185330.000,A,4910.427304,N,12304.403622,W,0.01,152.88,080125,,,D,V*17
$GNGGA,185330.000,4910.427304,N,12304.403622,W,2,44,0.52,23.135,M,-16.817,M,,*75
$GNVTG,152.88,T,,M,0.01,N,0.02,K,D*23
$GNGSA,A,3,07,30,08,14,09,05,27,13,20,,,,0.94,0.52,0.78,1*04
$GNGSA,A,3,73,72,71,,,,,,,,,,0.94,0.52,0.78,2*00
$GNGSA,A,3,04,06,09,31,21,19,,,,,,,0.94,0.52,0.78,3*04
$GNGSA,A,3,36,22,19,38,21,27,28,45,13,,,,0.94,0.52,0.78,4*08
$GPGSV,3,1,11,07,71,077,36,30,68,290,37,08,39,082,33,14,37,221,32,1*69
$GPGSV,3,2,11,46,33,188,32,09,28,154,30,05,24,296,30,27,22,046,30,1*6E
$GPGSV,3,3,11,13,20,310,29,20,19,261,28,04,03,144,17,1*58
$GPGSV,2,1,05,30,68,290,27,08,39,082,25,14,37,221,23,09,28,154,20,8*67
$GPGSV,2,2,05,27,22,046,17,8*59
$GLGSV,2,1,08,73,62,036,21,72,60,293,29,71,48,191,25,75,12,246,18,1*79
$GLGSV,2,2,08,83,12,085,,65,12,333,,80,09,056,21,81,07,000,16,1*7E
$GAGSV,2,1,07,04,70,181,34,06,70,273,33,09,48,302,32,31,42,215,30,7*78
$GAGSV,2,2,07,21,28,052,28,19,17,143,19,15,04,014,17,7*43
$GAGSV,2,1,05,04,70,181,26,06,70,273,25,09,48,302,25,31,42,215,24,1*7B
$GAGSV,2,2,05,21,28,052,19,1*46
$GBGSV,4,1,14,36,63,260,31,46,59,066,,22,50,273,31,19,35,198,26,1*75
$GBGSV,4,2,14,38,22,320,24,08,19,336,19,21,17,323,23,27,17,094,23,1*7E
$GBGSV,4,3,14,28,15,050,21,48,15,179,23,45,14,254,22,13,13,342,20,1*7A
$GBGSV,4,4,14,37,06,072,,30,05,140,22,1*77
$GBGSV,2,1,08,36,63,260,26,22,50,273,25,19,35,198,21,38,22,320,18,5*73
$GBGSV,2,2,08,21,17,323,18,27,17,094,16,48,15,179,18,45,14,254,17,5*72
$GNGLL,4910.427304,N,12304.403622,W,185330.000,A,D*53
$GNRMC,185331.000,A,4910.427226,N,12304.403628,W,0.02,152.88,080125,,,D,V*1E
$GNGGA,185331.000,4910.427226,N,12304.403628,W,2,44,0.52,23.064,M,-16.816,M,,*7B
$GNVTG,152.88,T,,M,0.02,N,0.03,K,D*21
$GNGSA,A,3,07,30,08,14,09,05,27,13,20,,,,0.94,0.52,0.78,1*04
$GNGSA,A,3,73,72,71,,,,,,,,,,0.94,0.52,0.78,2*00
$GNGSA,A,3,04,06,09,31,21,19,,,,,,,0.94,0.52,0.78,3*04
$GNGSA,A,3,36,22,19,38,27,21,28,45,13,,,,0.94,0.52,0.78,4*08
$GPGSV,3,1,11,07,71,077,36,30,68,290,37,08,39,082,33,14,37,221,32,1*69
$GPGSV,3,2,11,46,33,188,32,09,28,154,30,05,24,296,30,27,22,046,30,1*6E
$GPGSV,3,3,11,13,20,310,29,20,19,261,28,04,03,144,17,1*58
$GPGSV,2,1,05,30,68,290,27,08,39,082,25,14,37,221,23,09,28,154,20,8*67
$GPGSV,2,2,05,27,22,046,17,8*59
$GLGSV,3,1,09,73,62,036,21,72,60,293,29,71,48,191,25,83,12,085,,1*74
$GLGSV,3,2,09,65,12,333,,75,12,246,18,80,09,056,21,81,07,000,16,1*73
$GLGSV,3,3,09,70,05,169,,1*4D
$GAGSV,2,1,07,04,70,181,34,06,70,273,33,09,48,302,32,31,42,215,30,7*78
$GAGSV,2,2,07,21,28,052,27,19,17,143,19,15,04,014,17,7*4C
$GAGSV,2,1,05,04,70,181,26,06,70,273,25,09,48,302,25,31,42,215,24,1*7B
$GAGSV,2,2,05,21,28,052,20,1*4C
$GBGSV,4,1,15,36,63,260,30,46,59,066,,22,50,273,31,19,35,198,26,1*75
$GBGSV,4,2,15,38,22,320,23,08,19,336,18,27,17,094,22,21,17,323,23,1*78
$GBGSV,4,3,15,28,15,050,21,48,15,179,23,45,14,254,22,13,13,342,20,1*7B
$GBGSV,4,4,15,37,06,072,,30,05,140,22,04,01,261,,1*46
$GBGSV,2,1,08,36,63,260,26,22,50,273,25,19,35,198,21,38,22,320,18,5*73
$GBGSV,2,2,08,21,17,323,18,27,17,094,16,48,15,179,18,45,14,254,17,5*72
$GNGLL,4910.427226,N,12304.403628,W,185331.000,A,D*59
$PAIR010,0,1,2348,327229*38
$GNRMC,185332.000,A,4910.427202,N,12304.403670,W,0.01,152.88,080125,,,D,V*15
$GNGGA,185332.000,4910.427202,N,12304.403670,W,2,44,0.52,22.994,M,-16.816,M,,*74
$GNVTG,152.88,T,,M,0.01,N,0.02,K,D*23
$GNGSA,A,3,07,30,08,14,09,05,27,13,20,,,,0.94,0.52,0.78,1*04
$GNGSA,A,3,73,72,71,,,,,,,,,,0.94,0.52,0.78,2*00
$GNGSA,A,3,04,06,09,31,21,19,,,,,,,0.94,0.52,0.78,3*04
$GNGSA,A,3,36,22,19,38,27,21,28,45,13,,,,0.94,0.52,0.78,4*08
$GPGSV,3,1,11,07,71,077,36,30,68,290,37,08,39,082,33,14,37,221,32,1*69
$GPGSV,3,2,11,46,33,188,32,09,28,154,30,05,24,296,30,27,22,046,30,1*6E
$GPGSV,3,3,11,13,20,310,28,20,19,261,28,04,03,144,17,1*59
$GPGSV,2,1,05,30,68,290,27,08,39,082,25,14,37,221,23,09,28,154,20,8*67
$GPGSV,2,2,05,27,22,046,17,8*59
$GLGSV,2,1,07,73,62,036,21,72,60,293,29,71,48,191,25,65,12,333,,1*7D
$GLGSV,2,2,07,75,12,246,18,80,09,056,21,81,07,000,16,1*4F
$GAGSV,2,1,07,04,70,181,34,06,70,273,33,09,48,302,32,31,42,215,30,7*78
$GAGSV,2,2,07,21,28,052,27,19,17,143,19,15,04,013,17,7*4B
$GAGSV,2,1,05,04,70,181,26,06,70,273,25,09,48,302,25,31,42,215,24,1*7B
$GAGSV,2,2,05,21,28,052,20,1*4C
$GBGSV,4,1,14,36,63,260,30,46,59,066,,22,50,273,31,19,35,198,25,1*77
$GBGSV,4,2,14,38,22,320,23,08,19,336,18,27,17,094,21,21,17,323,23,1*7A
$GBGSV,4,3,14,48,15,179,23,28,15,050,21,45,14,254,22,13,13,342,20,1*7A
$GBGSV,4,4,14,37,06,072,,30,05,140,21,1*74
$GBGSV,2,1,08,36,63,260,26,22,50,273,25,19,35,198,21,38,22,320,18,5*73
$GBGSV,2,2,08,21,17,323,18,27,17,094,16,48,15,179,18,45,14,254,17,5*72
$GNGLL,4910.427202,N,12304.403670,W,185332.000,A,D*51
$GNRMC,185333.000,A,4910.427160,N,12304.403688,W,0.01,152.88,080125,,,D,V*14
$GNGGA,185333.000,4910.427160,N,12304.403688,W,2,44,0.52,22.883,M,-16.816,M,,*72
$GNVTG,152.88,T,,M,0.01,N,0.02,K,D*23
$GNGSA,A,3,07,30,08,14,09,05,27,13,20,,,,0.94,0.52,0.78,1*04
$GNGSA,A,3,73,72,71,,,,,,,,,,0.94,0.52,0.78,2*00
$GNGSA,A,3,04,06,09,31,21,19,,,,,,,0.94,0.52,0.78,3*04
$GNGSA,A,3,36,22,19,38,21,27,28,45,13,,,,0.94,0.52,0.78,4*08
$GPGSV,3,1,11,07,71,077,36,30,68,290,37,08,39,082,33,14,37,221,32,1*69
$GPGSV,3,2,11,46,33,188,32,09,28,154,30,05,24,296,30,27,22,046,30,1*6E
$GPGSV,3,3,11,13,20,310,28,20,19,261,28,04,03,144,18,1*56
$GPGSV,2,1,05,30,68,290,27,08,39,082,25,14,37,221,23,09,28,154,20,8*67
$GPGSV,2,2,05,27,22,046,17,8*59
$GLGSV,2,1,07,73,62,036,21,72,60,293,29,71,48,191,25,65,12,333,,1*7D
$GLGSV,2,2,07,75,12,246,18,80,09,056,21,81,07,000,16,1*4F
$GAGSV,2,1,07,04,70,181,34,06,70,273,33,09,48,302,32,31,42,215,30,7*78
$GAGSV,2,2,07,21,28,052,27,19,17,143,19,15,04,013,17,7*4B
$GAGSV,2,1,05,04,70,181,26,06,70,273,25,09,48,302,25,31,42,215,24,1*7B
$GAGSV,2,2,05,21,28,052,20,1*4C
$GBGSV,4,1,13,36,63,260,30,46,59,066,,22,50,273,31,19,35,198,25,1*70
$GBGSV,4,2,13,38,22,320,23,08,19,336,18,21,17,323,23,27,17,094,20,1*7C
$GBGSV,4,3,13,48,15,179,23,28,15,050,21,45,14,254,23,13,13,342,20,1*7C
$GBGSV,4,4,13,30,05,140,21,1*44
$GBGSV,2,1,08,36,63,260,26,22,50,273,25,19,35,198,22,38,22,320,18,5*70
$GBGSV,2,2,08,21,17,323,18,27,17,094,16,48,15,179,18,45,14,254,17,5*72
$GNGLL,4910.427160,N,12304.403688,W,185333.000,A,D*50
$GNRMC,185334.000,A,4910.427148,N,12304.403748,W,0.01,152.88,080125,,,D,V*14
$GNGGA,185334.000,4910.427148,N,12304.403748,W,2,44,0.52,22.828,M,-16.817,M,,*72
$GNVTG,152.88,T,,M,0.01,N,0.02,K,D*23
$GNGSA,A,3,07,30,08,14,09,05,27,13,20,,,,0.94,0.52,0.78,1*04
$GNGSA,A,3,73,72,71,,,,,,,,,,0.94,0.52,0.78,2*00
$GNGSA,A,3,04,06,09,31,21,19,,,,,,,0.94,0.52,0.78,3*04
$GNGSA,A,3,36,22,19,38,21,27,28,45,13,,,,0.94,0.52,0.78,4*08
$GPGSV,3,1,11,07,71,077,36,30,68,290,37,08,39,082,33,14,37,221,32,1*69
$GPGSV,3,2,11,46,33,188,32,09,28,154,30,05,24,296,29,27,22,046,30,1*66
$GPGSV,3,3,11,13,20,310,28,20,19,261,28,04,03,144,18,1*56
$GPGSV,2,1,05,30,68,290,27,08,39,082,25,14,37,221,23,09,28,154,20,8*67
$GPGSV,2,2,05,27,22,046,17,8*59
$GLGSV,2,1,06,73,62,036,21,72,60,293,29,71,48,191,25,75,12,246,19,1*76
$GLGSV,2,2,06,80,09,056,21,81,07,000,16,1*76
$GAGSV,2,1,07,04,70,181,34,06,70,273,33,09,48,302,32,31,42,215,30,7*78
$GAGSV,2,2,07,21,28,052,27,19,17,143,19,15,04,013,17,7*4B
$GAGSV,2,1,05,04,70,181,26,06,70,273,25,09,48,302,25,31,42,215,24,1*7B
$GAGSV,2,2,05,21,28,052,20,1*4C
$GBGSV,4,1,13,36,63,260,30,46,59,066,,22,50,273,31,19,35,198,25,1*70
$GBGSV,4,2,13,38,22,320,23,08,19,336,18,21,17,323,23,27,17,094,20,1*7C
$GBGSV,4,3,13,48,15,179,23,28,15,050,21,45,14,254,23,13,13,342,20,1*7C
$GBGSV,4,4,13,30,05,140,21,1*44
$GBGSV,2,1,08,36,63,260,26,22,50,273,25,19,35,198,22,38,22,320,18,5*70
$GBGSV,2,2,08,21,17,323,18,27,17,094,16,48,15,179,18,45,14,254,17,5*72
$GNGLL,4910.427148,N,12304.403748,W,185334.000,A,D*50
$GNRMC,185335.000,A,4910.427112,N,12304.403778,W,0.01,152.88,080125,,,D,V*19
