$GNGGA,190919.000,4910.426878,N,12304.400976,W,2,30,0.50,11.877,M,-16.816,M,,*72
$GNGLL,4910.426878,N,12304.400976,W,190919.000,A,D*5A
$GNGSA,A,3,09,07,04,16,20,30,27,26,11,03,08,,0.78,0.50,0.59,1*01
$GNGSA,A,3,69,68,79,67,,,,,,,,,0.78,0.50,0.59,2*0A
$GNGSA,A,3,09,06,31,05,04,24,34,15,,,,,0.78,0.50,0.59,3*0C
$GNGSA,A,3,37,20,23,32,19,38,25,,,,,,0.78,0.50,0.59,4*00
$GPGSV,4,1,13,09,88,148,31,07,58,258,30,04,56,117,25,16,41,060,28,1*6A
$GPGSV,4,2,13,46,33,188,27,20,22,316,20,30,21,253,23,27,15,102,18,1*6C
$GPGSV,4,3,13,26,14,044,22,11,10,292,17,03,08,173,20,08,07,132,15,1*69
$GPGSV,4,4,13,06,03,257,,1*53
$GLGSV,2,1,07,78,68,047,15,69,63,321,25,68,61,138,30,79,54,211,26,1*7E
$GLGSV,2,2,07,67,11,140,20,86,09,004,,80,02,216,,1*45
$GAGSV,3,1,09,09,85,097,26,06,59,114,24,31,59,129,22,05,38,298,21,7*74
$GAGSV,3,2,09,04,32,115,19,24,24,187,19,34,14,286,17,15,09,335,15,7*71
$GAGSV,3,3,09,36,02,240,13,7*49
$GBGSV,4,1,13,37,64,212,36,20,59,293,36,23,57,064,36,32,52,166,35,1*75
$GBGSV,4,2,13,19,14,316,27,38,12,333,24,46,11,227,,25,07,053,24,1*76
$GBGSV,4,3,13,08,06,341,22,41,03,146,21,12,03,021,21,34,02,046,,1*7A
$GBGSV,4,4,13,04,01,262,,1*47
$GNRMC,190919.000,A,4910.426878,N,12304.400976,W,0.01,0.00,051224,,,D,V*16
$GNVTG,0.00,T,,M,0.01,N,0.03,K,D*24
$GNGGA,190920.000,4910.426866,N,12304.401060,W,2,30,0.50,11.874,M,-16.817,M,,*7A
$GNGLL,4910.426866,N,12304.401060,W,190920.000,A,D*50
$GNGSA,A,3,09,07,04,16,20,30,27,26,11,03,08,,0.78,0.50,0.59,1*01
$GNGSA,A,3,69,68,79,67,,,,,,,,,0.78,0.50,0.59,2*0A
$GNGSA,A,3,09,06,31,05,04,24,34,15,,,,,0.78,0.50,0.59,3*0C
$GNGSA,A,3,37,20,23,32,19,38,25,,,,,,0.78,0.50,0.59,4*00
$GPGSV,4,1,13,09,88,148,31,07,58,258,29,04,56,117,25,16,41,060,28,1*62
$GPGSV,4,2,13,46,33,188,26,20,22,316,20,30,21,253,23,27,15,102,17,1*62
$GPGSV,4,3,13,26,14,044,21,11,10,292,18,03,08,173,20,08,07,132,16,1*66
$GPGSV,4,4,13,06,03,257,,1*53
$GLGSV,2,1,07,78,68,047,15,69,63,321,25,68,61,138,30,79,54,211,26,1*7E
$GLGSV,2,2,07,67,11,140,20,86,09,004,,80,02,216,,1*45
$GAGSV,3,1,09,09,85,097,26,06,59,114,24,31,59,129,21,05,38,298,21,7*77
$GAGSV,3,2,09,04,32,115,19,24,24,187,19,34,14,286,17,15,09,335,16,7*72
$GAGSV,3,3,09,36,02,240,13,7*49
$GBGSV,4,1,13,37,64,212,36,20,59,293,36,23,57,064,36,32,52,166,35,1*75
$GBGSV,4,2,13,19,14,316,27,38,12,333,24,46,11,227,,25,07,053,24,1*76
$GBGSV,4,3,13,08,06,341,21,41,03,146,21,12,03,021,21,34,02,046,,1*79
$GBGSV,4,4,13,04,01,262,,1*47
$GNRMC,190920.000,A,4910.426866,N,12304.401060,W,0.01,0.00,051224,,,D,V*1C
$GNVTG,0.00,T,,M,0.01,N,0.02,K,D*25
$GNGGA,190921.000,4910.426830,N,12304.401192,W,2,30,0.50,11.861,M,-16.817,M,,*70
$GNGLL,4910.426830,N,12304.401192,W,190921.000,A,D*5E
$GNGSA,A,3,09,07,04,16,20,30,27,26,11,03,08,,0.78,0.50,0.59,1*01
$GNGSA,A,3,69,68,79,67,,,,,,,,,0.78,0.50,0.59,2*0A
$GNGSA,A,3,09,06,31,05,04,24,34,15,,,,,0.78,0.50,0.59,3*0C
$GNGSA,A,3,37,20,23,32,19,38,25,,,,,,0.78,0.50,0.59,4*00
$GPGSV,4,1,13,09,88,148,32,07,58,258,29,04,56,117,26,16,41,060,28,1*62
$GPGSV,4,2,13,46,33,188,26,20,22,316,20,30,21,253,24,27,15,102,17,1*65
$GPGSV,4,3,13,26,14,044,21,11,10,292,17,03,08,173,20,08,07,132,15,1*6A
$GPGSV,4,4,13,06,03,257,,1*53
$GLGSV,2,1,07,78,68,047,15,69,63,321,25,68,61,138,30,79,54,211,26,1*7E
$GLGSV,2,2,07,67,11,140,20,86,09,004,,80,02,216,,1*45
$GAGSV,3,1,09,09,85,097,26,06,59,114,24,31,59,129,21,05,38,298,21,7*77
$GAGSV,3,2,09,04,32,115,19,24,24,187,19,34,14,286,17,15,09,335,16,7*72
$GAGSV,3,3,09,36,02,240,14,7*4E
$GBGSV,4,1,13,37,64,212,36,20,59,293,36,23,57,064,36,32,52,166,35,1*75
$GBGSV,4,2,13,19,14,316,27,38,12,333,24,46,11,227,,25,07,053,24,1*76
$GBGSV,4,3,13,08,06,341,21,41,03,146,21,12,03,021,21,34,02,046,,1*79
$GBGSV,4,4,13,04,01,262,,1*47
$GNRMC,190921.000,A,4910.426830,N,12304.401192,W,0.01,0.00,051224,,,D,V*12
$GNVTG,0.00,T,,M,0.01,N,0.02,K,D*25
$GNGGA,190922.000,4910.426872,N,12304.401258,W,2,30,0.50,11.961,M,-16.816,M,,*70
$GNGLL,4910.426872,N,12304.401258,W,190922.000,A,D*5E
$GNGSA,A,3,09,07,04,16,20,30,27,26,11,03,08,,0.78,0.50,0.59,1*01
$GNGSA,A,3,69,68,79,67,,,,,,,,,0.78,0.50,0.59,2*0A
$GNGSA,A,3,09,06,31,05,04,24,34,15,,,,,0.78,0.50,0.59,3*0C
$GNGSA,A,3,37,20,23,32,19,38,25,,,,,,0.78,0.50,0.59,4*00
$GPGSV,4,1,13,09,88,148,32,07,58,258,29,04,56,117,26,16,41,060,28,1*62
$GPGSV,4,2,13,46,33,188,26,20,22,316,20,30,21,253,25,27,15,102,18,1*6B
$GPGSV,4,3,13,26,14,044,21,11,10,292,19,03,08,173,20,08,07,132,17,1*66
$GPGSV,4,4,13,06,03,257,,1*53
$GLGSV,2,1,07,78,68,047,15,69,63,321,25,68,61,138,30,79,54,211,26,1*7E
$GLGSV,2,2,07,67,11,140,20,86,09,004,,80,02,216,,1*45
$GAGSV,3,1,09,09,85,097,26,06,59,114,24,31,59,129,22,05,38,298,21,7*74
$GAGSV,3,2,09,04,32,115,19,24,24,187,19,34,14,286,17,15,09,335,16,7*72
$GAGSV,3,3,09,36,02,240,14,7*4E
$GBGSV,4,1,13,37,64,212,36,20,59,293,36,23,57,064,36,32,52,166,35,1*75
$GBGSV,4,2,13,19,14,316,27,38,12,333,24,46,11,227,,25,07,053,24,1*76
$GBGSV,4,3,13,08,06,341,22,41,03,146,21,12,03,021,21,34,02,046,,1*7A
$GBGSV,4,4,13,04,01,262,,1*47
$GNRMC,190922.000,A,4910.426872,N,12304.401258,W,0.01,0.00,051224,,,D,V*12
$GNVTG,0.00,T,,M,0.01,N,0.02,K,D*25
$GNGGA,190923.000,4910.426896,N,12304.401492,W,2,30,0.50,12.095,M,-16.816,M,,*7A
$GNGLL,4910.426896,N,12304.401492,W,190923.000,A,D*55
$GNGSA,A,3,09,07,04,16,20,30,27,26,11,03,08,,0.78,0.50,0.59,1*01
$GNGSA,A,3,69,68,79,67,,,,,,,,,0.78,0.50,0.59,2*0A
$GNGSA,A,3,09,06,31,05,04,24,34,15,,,,,0.78,0.50,0.59,3*0C
$GNGSA,A,3,37,20,23,32,19,38,25,,,,,,0.78,0.50,0.59,4*00
$GPGSV,4,1,13,09,88,148,32,07,58,258,29,04,56,117,27,16,41,060,28,1*63
$GPGSV,4,2,13,46,33,188,26,20,22,316,21,30,21,253,25,27,15,102,18,1*6A
$GPGSV,4,3,13,26,14,044,21,11,10,292,19,03,08,173,21,08,07,132,17,1*67
$GPGSV,4,4,13,06,03,257,,1*53
$GLGSV,2,1,07,78,68,047,16,69,63,321,25,68,61,138,30,79,54,211,26,1*7D
$GLGSV,2,2,07,67,11,140,20,86,09,004,,80,02,216,,1*45
$GAGSV,3,1,09,09,85,097,27,06,59,114,24,31,59,129,22,05,38,298,21,7*75
$GAGSV,3,2,09,04,32,115,19,24,24,187,19,34,14,286,17,15,09,335,16,7*72
$GAGSV,3,3,09,36,02,240,14,7*4E
$GBGSV,4,1,13,37,64,212,36,20,59,293,36,23,57,064,36,32,52,166,35,1*75
$GBGSV,4,2,13,19,14,316,27,38,12,333,24,46,11,227,,25,07,053,24,1*76
$GBGSV,4,3,13,08,06,341,22,41,03,146,21,12,03,021,21,34,02,046,,1*7A
$GBGSV,4,4,13,04,01,262,,1*47
$GNRMC,190923.000,A,4910.426896,N,12304.401492,W,0.02,0.00,051224,,,D,V*1A
$GNVTG,0.00,T,,M,0.02,N,0.03,K,D*27
$GNGGA,190924.000,4910.426926,N,12304.401654,W,2,30,0.50,12.223,M,-16.816,M,,*70
