
$GNGSA,A,3,04,09,16,07,26,03,06,11,31,20,,,0.85,0.50,0.69,1*0A
$GNGSA,A,3,68,78,69,67,79,85,,,,,,,0.85,0.50,0.69,2*09
$GNGSA,A,3,09,06,04,31,05,34,36,21,,,,,0.85,0.50,0.69,3*09
$GNGSA,A,3,32,23,37,20,25,41,38,,,,,,0.85,0.50,0.69,4*0C
$GPGSV,4,1,13,04,77,086,34,09,69,301,36,16,48,091,33,07,38,242,31,1*66
$GPGSV,4,2,13,48,33,182,28,26,31,054,30,03,30,173,28,06,17,273,23,1*61
$GPGSV,4,3,13,11,15,312,27,31,14,061,25,20,07,327,26,30,03,242,15,1*60
$GPGSV,4,4,13,29,02,011,,1*5F
$GLGSV,2,1,07,68,82,059,32,78,76,144,19,69,38,317,28,67,33,125,25,1*79
$GLGSV,2,2,07,79,26,200,26,85,13,337,19,84,09,286,,1*4A
$GAGSV,3,1,10,09,77,312,32,06,75,089,31,04,47,101,29,31,43,147,28,7*7E
$GAGSV,3,2,10,05,23,290,22,34,21,302,23,36,17,250,21,24,07,186,21,7*72
$GAGSV,3,3,10,21,07,031,17,15,04,349,21,7*7F
$GBGSV,2,1,08,32,75,169,38,23,71,099,38,37,42,205,35,20,41,306,34,1*71
$GBGSV,2,2,08,25,25,051,30,41,21,138,29,38,05,333,24,04,01,262,,1*76
$GNRMC,182135.000,A,4910.427052,N,12304.400616,W,0.02,0.00,051224,,,D,V*18
$GNVTG,0.00,T,,M,0.02,N,0.04,K,D*20
$GNGGA,182136.000,4910.427046,N,12304.400610,W,2,31,0.50,9.612,M,-16.816,M,,*4A
$GNGLL,4910.427046,N,12304.400610,W,182136.000,A,D*57
$GNGSA,A,3,04,09,16,07,26,03,06,11,31,20,,,0.85,0.50,0.69,1*0A
$GNGSA,A,3,68,78,69,67,79,85,,,,,,,0.85,0.50,0.69,2*09
$GNGSA,A,3,09,06,04,31,05,34,36,21,,,,,0.85,0.50,0.69,3*09
$GNGSA,A,3,32,23,37,20,25,41,38,,,,,,0.85,0.50,0.69,4*0C
$GPGSV,4,1,13,04,77,086,35,09,69,301,36,16,48,091,33,07,38,242,31,1*67
$GPGSV,4,2,13,48,33,182,28,26,31,054,30,03,30,173,28,06,17,273,24,1*66
$GPGSV,4,3,13,11,15,312,27,31,14,061,25,20,07,327,26,30,03,242,15,1*60
$GPGSV,4,4,13,29,02,011,,1*5F
$GLGSV,2,1,07,68,82,059,32,78,76,144,19,69,38,317,28,67,33,125,25,1*79
$GLGSV,2,2,07,79,28,200,26,85,13,337,19,84,09,286,,1*44
$GAGSV,3,1,10,09,77,312,32,06,75,089,31,04,47,101,29,31,43,147,28,7*7E
$GAGSV,3,2,10,05,23,290,22,34,21,302,23,36,17,250,22,24,07,186,21,7*71
$GAGSV,3,3,10,21,07,031,17,15,04,349,21,7*7F
$GBGSV,2,1,08,32,75,169,38,23,71,099,38,37,42,205,35,20,41,306,34,1*71
$GBGSV,2,2,08,25,25,051,30,41,21,138,29,38,05,333,24,04,01,262,,1*76
$GNRMC,182136.000,A,4910.427046,N,12304.400610,W,0.02,0.00,051224,,,D,V*18
$GNVTG,0.00,T,,M,0.02,N,0.03,K,D*27
$GNGGA,182137.000,4910.427016,N,12304.400688,W,2,31,0.50,9.588,M,-16.816,M,,*4F
$GNGLL,4910.427016,N,12304.400688,W,182137.000,A,D*52
$GNGSA,A,3,04,09,16,07,26,03,06,11,31,20,,,0.85,0.50,0.69,1*0A
$GNGSA,A,3,68,78,69,67,79,85,,,,,,,0.85,0.50,0.69,2*09
$GNGSA,A,3,09,06,04,31,05,34,36,21,,,,,0.85,0.50,0.69,3*09
$GNGSA,A,3,32,23,37,20,25,41,38,,,,,,0.85,0.50,0.69,4*0C
$GPGSV,4,1,13,04,77,086,35,09,69,301,36,16,48,091,33,07,38,242,31,1*67
$GPGSV,4,2,13,48,33,182,29,26,31,054,30,03,30,173,28,06,17,273,24,1*67
$GPGSV,4,3,13,11,15,312,27,31,14,061,26,20,07,327,27,30,03,242,15,1*62
$GPGSV,4,4,13,29,02,011,,1*5F
$GLGSV,2,1,07,68,82,059,31,78,76,144,19,69,38,317,28,67,33,125,25,1*7A
$GLGSV,2,2,07,79,28,200,26,85,13,337,19,84,09,286,,1*44
$GAGSV,3,1,10,09,77,312,32,06,75,089,31,04,47,101,29,31,43,147,28,7*7E
$GAGSV,3,2,10,05,23,290,22,34,21,302,24,36,17,250,22,24,07,186,21,7*76
$GAGSV,3,3,10,21,07,031,17,15,04,349,22,7*7C
$GBGSV,2,1,08,32,75,169,38,23,71,099,38,37,42,205,35,20,41,306,34,1*71
$GBGSV,2,2,08,25,25,051,30,41,21,138,29,38,05,333,24,04,01,262,,1*76
$GNRMC,182137.000,A,4910.427016,N,12304.400688,W,0.02,0.00,051224,,,D,V*1D
$GNVTG,0.00,T,,M,0.02,N,0.04,K,D*20
$GNGGA,182138.000,4910.426998,N,12304.400658,W,2,31,0.50,9.639,M,-16.817,M,,*4B
$GNGLL,4910.426998,N,12304.400658,W,182138.000,A,D*5E
$GNGSA,A,3,04,09,16,07,26,03,06,11,31,20,,,0.85,0.50,0.69,1*0A
$GNGSA,A,3,68,78,69,67,79,85,,,,,,,0.85,0.50,0.69,2*09
$GNGSA,A,3,09,06,04,31,05,34,36,21,,,,,0.85,0.50,0.69,3*09
$GNGSA,A,3,32,23,37,20,25,41,38,,,,,,0.85,0.50,0.69,4*0C
$GPGSV,4,1,13,04,77,086,35,09,69,301,36,16,48,091,33,07,38,242,31,1*67
$GPGSV,4,2,13,48,33,182,29,26,31,054,30,03,30,173,28,06,17,273,24,1*67
$GPGSV,4,3,13,11,15,312,27,31,14,061,26,20,07,327,27,30,03,242,15,1*62
$GPGSV,4,4,13,29,02,011,,1*5F
$GLGSV,2,1,07,68,82,059,31,78,76,144,19,69,38,317,28,67,33,125,25,1*7A
$GLGSV,2,2,07,79,28,200,26,85,13,337,19,84,09,286,,1*44
$GAGSV,3,1,10,09,77,312,32,06,75,089,32,04,47,101,29,31,43,147,28,7*7D
$GAGSV,3,2,10,05,23,290,22,34,21,302,24,36,17,250,22,24,07,186,21,7*76
$GAGSV,3,3,10,21,07,031,17,15,04,349,21,7*7F
$GBGSV,2,1,08,32,75,169,38,23,71,099,38,37,42,205,35,20,41,306,34,1*71
$GBGSV,2,2,08,25,25,051,30,41,21,138,30,38,05,333,24,04,01,262,,1*7E
$GNRMC,182138.000,A,4910.426998,N,12304.400658,W,0.02,0.00,051224,,,D,V*11
$GNVTG,0.00,T,,M,0.02,N,0.04,K,D*20
$GNGGA,182139.000,4910.426986,N,12304.400676,W,2,31,0.50,9.744,M,-16.816,M,,*43
$GNGLL,4910.426986,N,12304.400676,W,182139.000,A,D*5C
$GNGSA,A,3,04,09,16,07,26,03,06,11,31,20,,,0.85,0.50,0.69,1*0A
$GNGSA,A,3,68,78,69,67,79,85,,,,,,,0.85,0.50,0.69,2*09
$GNGSA,A,3,09,06,04,31,05,34,36,21,,,,,0.85,0.50,0.69,3*09
$GNGSA,A,3,32,23,37,20,25,41,38,,,,,,0.85,0.50,0.69,4*0C
$GPGSV,4,1,13,04,77,086,35,09,69,301,36,16,48,091,33,07,38,242,31,1*67
$GPGSV,4,2,13,48,33,182,29,26,31,054,30,03,30,173,29,06,17,273,24,1*66
$GPGSV,4,3,13,11,15,312,27,31,14,061,26,20,07,327,27,30,03,242,15,1*62
$GPGSV,4,4,13,29,02,011,,1*5F
$GLGSV,2,1,07,68,82,059,31,78,76,144,19,69,38,317,28,67,33,125,25,1*7A
$GLGSV,2,2,07,79,28,200,26,85,13,337,19,84,09,286,,1*44
$GAGSV,3,1,10,09,77,312,33,06,75,089,32,04,47,101,29,31,43,147,28,7*7C
$GAGSV,3,2,10,05,23,290,23,34,21,302,24,36,17,250,23,24,07,186,22,7*75
$GAGSV,3,3,10,21,07,031,17,15,04,349,21,7*7F
$GBGSV,2,1,08,32,75,169,38,23,71,099,38,37,42,205,35,20,41,306,34,1*71
$GBGSV,2,2,08,25,25,051,30,41,21,138,30,38,05,333,24,04,01,262,,1*7E
$GNRMC,182139.000,A,4910.426986,N,12304.400676,W,0.02,0.00,051224,,,D,V*13
$GNVTG,0.00,T,,M,0.02,N,0.03,K,D*27
$GNGGA,182140.000,4910.427028,N,12304.400640,W,2,31,0.50,9.728,M,-16.817,M,,*4F
