6B
$GLGSV,2,1,07,78,79,119,18,68,79,095,31,69,43,319,27,79,33,202,28,1*71
$GLGSV,2,2,07,67,28,129,26,85,12,331,21,86,03,020,,1*49
$GAGSV,3,1,10,09,81,321,31,06,71,097,31,31,47,144,28,04,44,104,29,7*7E
$GAGSV,3,2,10,05,27,292,25,34,20,298,23,36,13,247,21,24,10,186,23,7*76
$GAGSV,3,3,10,15,06,346,20,21,04,030,18,7*7E
$GBGSV,3,1,09,32,70,166,38,23,69,085,39,37,47,207,36,20,46,304,37,1*7C
$GBGSV,3,2,09,25,20,051,27,41,17,140,30,38,07,333,27,04,01,262,,1*76
$GBGSV,3,3,09,19,01,314,,1*40
$GNRMC,183231.000,A,4910.425606,N,12304.399302,W,0.03,0.00,051224,,,D,V*1D
$GNVTG,0.00,T,,M,0.03,N,0.05,K,D*20
$GNGGA,183232.000,4910.425516,N,12304.399392,W,2,31,0.50,12.368,M,-16.816,M,,*74
$GNGLL,4910.425516,N,12304.399392,W,183232.000,A,D*5B
$GNGSA,A,3,09,04,16,07,26,03,06,11,20,31,30,,0.82,0.50,0.65,1*02
$GNGSA,A,3,78,68,69,79,67,85,,,,,,,0.82,0.50,0.65,2*02
$GNGSA,A,3,09,06,31,04,05,34,36,,,,,,0.82,0.50,0.65,3*01
$GNGSA,A,3,32,23,37,20,25,41,38,,,,,,0.82,0.50,0.65,4*07
$GPGSV,4,1,14,09,75,303,38,04,72,098,35,16,47,082,34,07,43,245,31,1*6A
$GPGSV,4,2,14,48,33,182,30,26,27,050,28,03,24,174,29,06,14,269,20,1*6D
$GPGSV,4,3,14,11,14,307,26,20,11,325,21,31,09,063,22,30,08,245,26,1*64
$GPGSV,4,4,14,27,04,114,19,29,01,007,,1*61
$GLGSV,2,1,07,78,79,117,18,68,79,097,31,69,43,319,27,79,34,202,28,1*7A
$GLGSV,2,2,07,67,28,129,26,85,12,330,21,86,03,020,,1*48
$GAGSV,3,1,10,09,81,321,31,06,71,097,31,31,47,144,28,04,44,105,28,7*7E
$GAGSV,3,2,10,05,27,292,25,34,20,298,23,36,13,247,21,24,11,186,23,7*77
$GAGSV,3,3,10,15,06,346,20,21,04,030,18,7*7E
$GBGSV,3,1,09,32,69,166,38,23,69,084,39,37,48,207,36,20,46,304,38,1*75
$GBGSV,3,2,09,25,20,051,28,41,16,140,30,38,07,333,28,04,01,262,,1*77
$GBGSV,3,3,09,19,01,314,,1*40
$GNRMC,183232.000,A,4910.425516,N,12304.399392,W,0.03,0.00,051224,,,D,V*15
$GNVTG,0.00,T,,M,0.03,N,0.05,K,D*20
$GNGGA,183233.000,4910.425432,N,12304.399386,W,2,31,0.50,12.345,M,-16.816,M,,*78
$GNGLL,4910.425432,N,12304.399386,W,183233.000,A,D*58
$GNGSA,A,3,09,04,16,07,26,03,06,11,20,31,30,,0.82,0.50,0.65,1*02
$GNGSA,A,3,78,68,69,79,67,85,,,,,,,0.82,0.50,0.65,2*02
$GNGSA,A,3,09,06,31,04,05,34,36,,,,,,0.82,0.50,0.65,3*01
$GNGSA,A,3,32,23,37,20,25,41,38,,,,,,0.82,0.50,0.65,4*07
$GPGSV,4,1,14,09,75,303,38,04,72,098,35,16,47,082,34,07,43,245,31,1*6A
$GPGSV,4,2,14,48,33,182,30,26,27,050,28,03,24,174,29,06,14,269,21,1*6C
$GPGSV,4,3,14,11,14,307,26,20,11,325,22,31,09,063,23,30,08,245,26,1*66
$GPGSV,4,4,14,27,04,114,19,29,01,007,,1*61
$GLGSV,2,1,07,78,79,117,18,68,79,097,31,69,43,319,27,79,34,202,28,1*7A
$GLGSV,2,2,07,67,28,129,26,85,12,330,21,86,03,020,,1*48
$GAGSV,3,1,10,09,81,321,31,06,71,097,31,31,47,144,28,04,44,105,29,7*7F
$GAGSV,3,2,10,05,27,292,25,34,20,298,23,36,13,247,21,24,11,186,23,7*77
$GAGSV,3,3,10,15,06,346,20,21,04,030,18,7*7E
$GBGSV,3,1,09,32,69,166,38,23,69,084,39,37,48,207,36,20,46,304,38,1*75
$GBGSV,3,2,09,25,20,051,28,41,16,140,30,38,07,333,28,04,01,262,,1*77
$GBGSV,3,3,09,19,01,314,,1*40
$GNRMC,183233.000,A,4910.425432,N,12304.399386,W,0.03,0.00,051224,,,D,V*16
$GNVTG,0.00,T,,M,0.03,N,0.05,K,D*20
$GNGGA,183234.000,4910.425330,N,12304.399416,W,2,31,0.50,12.371,M,-16.817,M,,*72
$GNGLL,4910.425330,N,12304.399416,W,183234.000,A,D*54
$GNGSA,A,3,09,04,16,07,26,03,06,11,20,31,30,,0.82,0.50,0.65,1*02
$GNGSA,A,3,78,68,69,79,67,85,,,,,,,0.82,0.50,0.65,2*02
$GNGSA,A,3,09,06,31,04,05,34,36,,,,,,0.82,0.50,0.65,3*01
$GNGSA,A,3,32,23,37,20,25,41,38,,,,,,0.82,0.50,0.65,4*07
$GPGSV,4,1,14,09,75,303,38,04,72,098,35,16,47,082,34,07,43,245,31,1*6A
$GPGSV,4,2,14,48,33,182,29,26,27,050,28,03,24,174,29,06,14,269,21,1*64
$GPGSV,4,3,14,11,14,307,26,20,11,325,20,31,09,063,24,30,08,245,26,1*63
$GPGSV,4,4,14,27,04,114,19,29,01,007,,1*61
$GLGSV,2,1,07,78,79,117,18,68,79,097,31,69,43,319,27,79,34,202,28,1*7A
$GLGSV,2,2,07,67,28,129,26,85,12,330,21,86,03,020,,1*48
$GAGSV,3,1,10,09,81,321,31,06,71,097,31,31,47,144,28,04,44,105,29,7*7F
$GAGSV,3,2,10,05,27,292,25,34,20,298,23,36,13,247,21,24,11,186,23,7*77
$GAGSV,3,3,10,15,06,346,20,21,04,030,18,7*7E
$GBGSV,3,1,09,32,69,166,38,23,69,084,39,37,48,207,36,20,46,304,38,1*75
$GBGSV,3,2,09,25,20,051,28,41,16,140,30,38,07,333,27,04,01,262,,1*78
$GBGSV,3,3,09,19,01,314,,1*40
$GNRMC,183234.000,A,4910.425330,N,12304.399416,W,0.02,0.00,051224,,,D,V*1B
$GNVTG,0.00,T,,M,0.02,N,0.04,K,D*20
$GNGGA,183235.000,4910.425186,N,12304.399446,W,2,31,0.50,12.369,M,-16.816,M,,*71
$GNGLL,4910.425186,N,12304.399446,W,183235.000,A,D*5F
$GNGSA,A,3,09,04,16,07,26,03,06,11,20,31,30,,0.82,0.50,0.65,1*02
$GNGSA,A,3,78,68,69,79,67,85,,,,,,,0.82,0.50,0.65,2*02
$GNGSA,A,3,09,06,31,04,05,34,36,,,,,,0.82,0.50,0.65,3*01
$GNGSA,A,3,32,23,37,20,25,41,38,,,,,,0.82,0.50,0.65,4*07
$GPGSV,4,1,14,09,75,303,38,04,72,098,35,16,47,082,35,07,43,245,31,1*6B
$GPGSV,4,2,14,48,33,182,29,26,27,050,28,03,24,174,29,06,14,269,21,1*64
$GPGSV,4,3,14,11,14,307,26,20,11,325,22,31,09,063,23,30,08,245,25,1*65
$GPGSV,4,4,14,27,04,114,19,29,01,007,,1*61
$GLGSV,2,1,07,78,79,117,18,68,79,097,31,69,43,319,27,79,34,202,28,1*7A
$GLGSV,2,2,07,67,28,129,26,85,12,330,21,86,03,020,,1*48
$GAGSV,3,1,10,09,81,321,31,06,71,097,31,31,47,144,28,04,44,105,29,7*7F
$GAGSV,3,2,10,05,27,292,25,34,20,298,23,36,13,247,21,24,11,186,23,7*77
$GAGSV,3,3,10,15,06,346,20,21,04,030,18,7*7E
$GBGSV,3,1,09,32,69,166,38,23,69,084,38,37,48,207,36,20,46,304,37,1*7B
$GBGSV,3,2,09,25,20,051,28,41,16,140,29,38,07,333,26,04,01,262,,1*71
$GBGSV,3,3,09,19,01,314,,1*40
$GNRMC,183235.000,A,4910.425186,N,12304.399446,W,0.02,0.00,051224,,,D,V*10
$GNVTG,0.00,T,,M,0.02,N,0.04,K,D*20
$GNGGA,183236.000,4910.425066,N,12304.399476,W,2,31,0.50,12.430,M,-16.816,M,,*75
