$GNGGA,220341.000,4910.425042,N,12304.399590,W,2,36,0.43,7.487,M,-16.816,M,,*4C
$GNGLL,4910.425042,N,12304.399590,W,220341.000,A,D*54
$GNGSA,A,3,30,07,14,08,13,22,05,09,27,20,,,0.80,0.43,0.68,1*00
$GNGSA,A,3,72,73,71,65,75,83,82,,,,,,0.80,0.43,0.68,2*04
$GNGSA,A,3,06,04,09,31,21,19,,,,,,,0.80,0.43,0.68,3*00
$GNGSA,A,3,23,37,20,32,43,11,08,38,34,13,19,25,0.80,0.43,0.68,4*0D
$GNGSA,A,3,12,,,,,,,,,,,,0.80,0.43,0.68,4*06
$GPGSV,3,1,11,30,80,309,36,07,60,091,33,14,49,226,33,08,37,066,32,1*68
$GPGSV,3,2,11,46,33,188,29,13,30,309,32,22,27,226,30,05,22,283,24,1*6D
$GPGSV,3,3,11,09,17,157,21,27,15,038,25,20,12,252,24,1*54
$GLGSV,2,1,07,72,61,258,35,73,49,049,32,71,32,189,34,65,24,329,32,1*7E
$GLGSV,2,2,07,75,23,257,33,83,21,073,14,82,19,029,28,1*46
$GAGSV,3,1,10,06,71,243,33,04,59,177,31,09,56,293,33,31,53,222,31,7*78
$GAGSV,3,2,10,21,18,053,20,05,08,317,23,19,07,148,15,15,04,005,21,7*74
$GAGSV,3,3,10,13,04,052,19,24,03,229,21,7*74
$GBGSV,4,1,14,23,62,068,34,37,61,268,32,58,52,284,,20,44,280,31,1*7A
$GBGSV,4,2,14,32,32,207,29,43,24,097,26,11,23,073,21,08,22,329,23,1*77
$GBGSV,4,3,14,38,21,317,22,34,18,048,25,13,15,338,25,19,15,325,26,1*79
$GBGSV,4,4,14,25,11,077,23,12,07,023,19,1*78
$GNRMC,220341.000,A,4910.425042,N,12304.399590,W,0.01,196.10,291124,,,D,V*1A
$GNVTG,196.10,T,,M,0.01,N,0.02,K,D*2A
$PAIRLOG,Full*51
$GNGGA,220342.000,4910.424952,N,12304.399512,W,2,36,0.43,7.614,M,-16.816,M,,*44
$GNGLL,4910.424952,N,12304.399512,W,220342.000,A,D*54
$GNGSA,A,3,30,07,14,08,13,22,05,09,27,20,,,0.80,0.43,0.68,1*00
$GNGSA,A,3,72,73,71,65,75,83,82,,,,,,0.80,0.43,0.68,2*04
$GNGSA,A,3,06,04,09,31,21,19,,,,,,,0.80,0.43,0.68,3*00
$GNGSA,A,3,23,37,20,32,43,11,08,38,34,13,19,25,0.80,0.43,0.68,4*0D
$GNGSA,A,3,12,,,,,,,,,,,,0.80,0.43,0.68,4*06
$GPGSV,3,1,11,30,80,309,36,07,60,091,33,14,49,226,33,08,37,066,32,1*68
$GPGSV,3,2,11,46,33,188,29,13,30,309,32,22,27,226,30,05,22,283,24,1*6D
$GPGSV,3,3,11,09,17,157,21,27,15,038,25,20,12,252,25,1*55
$GLGSV,2,1,07,72,61,258,35,73,49,049,32,71,32,189,34,65,24,329,32,1*7E
$GLGSV,2,2,07,75,23,257,32,83,21,073,13,82,19,029,28,1*40
$GAGSV,3,1,10,06,71,243,33,04,59,177,31,09,56,293,33,31,53,222,31,7*78
$GAGSV,3,2,10,21,18,053,20,05,08,317,23,19,07,148,16,15,04,005,21,7*77
$GAGSV,3,3,10,13,04,052,19,24,03,229,21,7*74
$GBGSV,4,1,14,23,62,068,34,37,61,268,32,58,52,284,,20,44,280,31,1*7A
$GBGSV,4,2,14,32,32,207,29,43,24,097,26,11,23,073,21,08,22,329,23,1*77
$GBGSV,4,3,14,38,21,317,22,34,18,048,25,13,15,338,25,19,15,325,26,1*79
$GBGSV,4,4,14,25,11,077,23,12,07,023,19,1*78
$GNRMC,220342.000,A,4910.424952,N,12304.399512,W,0.01,196.10,291124,,,D,V*1A
$GNVTG,196.10,T,,M,0.01,N,0.02,K,D*2A
$PAIRLOG,Full*51
$GNGGA,220343.000,4910.424790,N,12304.399458,W,2,36,0.43,7.764,M,-16.816,M,,*4C
$GNGLL,4910.424790,N,12304.399458,W,220343.000,A,D*5A
$GNGSA,A,3,30,07,14,08,13,22,05,09,27,20,,,0.80,0.43,0.68,1*00
$GNGSA,A,3,72,73,71,65,75,83,82,,,,,,0.80,0.43,0.68,2*04
$GNGSA,A,3,06,04,09,31,21,19,,,,,,,0.80,0.43,0.68,3*00
$GNGSA,A,3,23,37,20,32,43,11,08,38,34,13,19,25,0.80,0.43,0.68,4*0D
$GNGSA,A,3,12,,,,,,,,,,,,0.80,0.43,0.68,4*06
$GPGSV,3,1,11,30,80,309,36,07,60,091,33,14,49,226,33,08,37,066,32,1*68
$GPGSV,3,2,11,46,33,188,29,13,30,309,32,22,27,226,30,05,22,283,24,1*6D
$GPGSV,3,3,11,09,17,157,21,27,15,038,26,20,12,252,23,1*50
$GLGSV,2,1,07,72,61,258,35,73,49,049,32,71,32,189,34,65,24,329,32,1*7E
$GLGSV,2,2,07,75,23,257,32,83,21,073,12,82,19,029,28,1*41
$GAGSV,3,1,10,06,71,243,33,04,59,177,31,09,56,293,33,31,53,222,31,7*78
$GAGSV,3,2,10,21,18,053,20,05,08,317,23,19,07,148,16,15,04,005,21,7*77
$GAGSV,3,3,10,13,04,052,19,24,03,229,21,7*74
$GBGSV,4,1,14,23,62,068,34,37,61,268,32,58,52,284,,20,44,280,31,1*7A
$GBGSV,4,2,14,32,32,207,29,43,24,097,26,11,23,073,20,08,22,329,23,1*76
$GBGSV,4,3,14,38,21,317,22,34,18,048,24,13,15,338,25,19,15,325,26,1*78
$GBGSV,4,4,14,25,11,077,23,12,07,023,19,1*78
$GNRMC,220343.000,A,4910.424790,N,12304.399458,W,0.02,196.10,291124,,,D,V*17
$GNVTG,196.10,T,,M,0.02,N,0.03,K,D*28
$PAIRLOG,Full*51
$GNGGA,220344.000,4910.424652,N,12304.399434,W,2,36,0.43,7.880,M,-16.817,M,,*4A
$GNGLL,4910.424652,N,12304.399434,W,220344.000,A,D*58
$GNGSA,A,3,30,07,14,08,13,22,05,09,27,20,,,0.80,0.43,0.68,1*00
$GNGSA,A,3,72,73,71,65,75,83,82,,,,,,0.80,0.43,0.68,2*04
$GNGSA,A,3,06,04,09,31,21,19,,,,,,,0.80,0.43,0.68,3*00
$GNGSA,A,3,23,37,20,32,43,11,08,38,34,13,19,25,0.80,0.43,0.68,4*0D
$GNGSA,A,3,12,,,,,,,,,,,,0.80,0.43,0.68,4*06
$GPGSV,3,1,11,30,80,309,36,07,60,091,33,14,49,226,33,08,37,066,32,1*68
$GPGSV,3,2,11,46,33,188,30,13,30,309,33,22,27,226,30,05,22,283,24,1*64
$GPGSV,3,3,11,09,17,157,21,27,15,038,26,20,12,252,24,1*57
$GLGSV,2,1,07,72,61,258,35,73,49,049,32,71,32,189,34,65,24,329,32,1*7E
$GLGSV,2,2,07,75,23,257,32,83,21,073,14,82,19,029,28,1*47
$GAGSV,3,1,10,06,71,243,33,04,59,177,31,09,56,293,33,31,53,222,31,7*78
$GAGSV,3,2,10,21,18,053,20,05,08,317,23,19,07,148,16,15,04,005,20,7*76
$GAGSV,3,3,10,13,04,052,20,24,03,229,21,7*7E
$GBGSV,4,1,14,23,62,068,34,37,61,268,32,58,52,284,,20,44,280,31,1*7A
$GBGSV,4,2,14,32,32,207,29,43,24,097,27,11,23,073,19,08,22,329,23,1*7D
$GBGSV,4,3,14,38,21,317,21,34,18,048,24,13,15,338,25,19,15,325,27,1*7A
$GBGSV,4,4,14,25,11,077,23,12,07,023,19,1*78
$GNRMC,220344.000,A,4910.424652,N,12304.399434,W,0.02,196.10,291124,,,D,V*15
$GNVTG,196.10,T,,M,0.02,N,0.03,K,D*28
$PAIRLOG,Full*51
$GNGGA,220345.000,4910.424586,N,12304.399380,W,2,36,0.43,7.960,M,-16.816,M,,*47
$GNGLL,4910.424586,N,12304.399380,W,220345.000,A,D*5B
$GNGSA,A,3,30,07,14,08,13,22,05,09,27,20,,,0.80,0.43,0.68,1*00
$GNGSA,A,3,72,73,71,65,75,83,82,,,,,,0.80,0.43,0.68,2*04
$GNGSA,A,3,06,04,09,31,21,19,,,,,,,0.80,0.43,0.68,3*00
$GNGSA,A,3,23,37,20,32,43,11,08,38,34,13,19,25,0.80,0.43,0.68,4*0D
$GNGSA,A,3,12,,,,,,,,,,,,0.80,0.43,0.68,4*06
$GPGSV,3,1,11,30,80,309,36,07,60,091,33,14,49,226,33,08,37,066,32,1*68
$GPGSV,3,2,11,46,33,188,30,13,30,309,33,22,27,226,30,05,22,283,25,1*65
$GPGSV,3,3,11,09,17,157,21,27,15,038,27,20,12,252,24,1*56
$GLGSV,2,1,07,72,61,258,35,73,49,049,32,71,32,189,34,65,24,329,32,1*7E
$GLGSV,2,2,07,75,23,257,32,83,21,073,14,82,19,029,28,1*47
$GAGSV,3,1,10,06,71,243,33,04,59,177,31,09,56,293,33,31,53,222,31,7*78
$GAGSV,3,2,10,21,18,053,20,05,08,317,23,19,07,148,16,15,04,005,21,7*77
$GAGSV,3,3,10,13,04,052,20,24,03,229,21,7*7E
$GBGSV,4,1,14,23,62,068,34,37,61,268,32,58,52,284,,20,44,280,31,1*7A
$GBGSV,4,2,14,32,32,207,29,43,25,096,27,11,23,073,20,08,22,329,23,1*77
$GBGSV,4,3,14,38,21,317,21,34,18,048,24,13,15,338,25,19,15,325,27,1*7A
$GBGSV,4,4,14,25,11,077,24,12,07,023,19,1*7F
$GNRMC,220345.000,A,4910.424586,N,12304.399380,W,0.02,196.10,291124,,,D,V*16
$GNVTG,196.10,T,,M,0.02,N,0.03,K,D*28
$PAIRLOG,Full*51
$GNGGA,220346.000,4910.424538,N,12304.399212,W,2,36,0.43,8.022,M,-16.816,M,,*4B
$GNGLL,4910.424538,N,12304.399212,W,220346.000,A,D*57
$GNGSA,A,3,30,07,14,08,13,22,05,09,27,20,,,0.80,0.43,0.68,1*00
$GNGSA,A,3,72,73,71,65,75,83,82,,,,,,0.80,0.43,0.68,2*04
$GNGSA,A,3,06,04,09,31,21,19,,,,,,,0.80,0.43,0.68,3*00
$GNGSA,A,3,23,37,20,32,43,11,08,38,34,13,19,25,0.80,0.43,0.68,4*0D
$GNGSA,A,3,12,,,,,,,,,,,,0.80,0.43,0.68,4*06
$GPGSV,3,1,11,30,80,309,37,07,60,091,34,14,49,226,33,08,37,066,32,1*6E
$GPGSV,3,2,11,46,33,188,30,13,30,309,33,22,27,226,30,05,22,283,25,1*65
$GPGSV,3,3,11,09,17,157,22,27,15,038,27,20,12,252,25,1*54
$GLGSV,2,1,07,72,61,258,35,73,49,049,32,71,32,189,34,65,24,329,32,1*7E
$GLGSV,2,2,07,75,23,257,31,83,21,073,15,82,19,029,28,1*45
$GAGSV,3,1,10,06,71,243,33,04,59,177,31,09,56,293,33,31,53,222,31,7*78
$GAGSV,3,2,10,21,18,053,20,05,08,317,23,19,07,148,16,15,04,005,21,7*77
$GAGSV,3,3,10,13,04,052,20,24,03,229,22,7*7D
$GBGSV,4,1,14,23,62,068,34,37,61,268,33,58,52,284,,20,44,280,31,1*7B
$GBGSV,4,2,14,32,32,207,29,43,25,096,27,11,23,073,21,08,22,329,23,1*76
$GBGSV,4,3,14,38,21,317,21,34,18,048,24,13,15,338,25,19,15,325,27,1*7A
$GBGSV,4,4,14,25,11,077,22,12,07,023,19,1*79
$GNRMC,220346.000,A,4910.424538,N,12304.399212,W,0.02,196.10,291124,,,D,V*1A
