,,,,0.97,0.57,0.79,1*0B
$GNGSA,A,3,85,75,76,84,67,,,,,,,,0.97,0.57,0.79,2*03
$GNGSA,A,3,30,02,36,34,27,11,29,07,,,,,0.97,0.57,0.79,3*0B
$GNGSA,A,3,44,24,12,25,34,26,,,,,,,0.97,0.57,0.79,4*07
$GPGSV,3,1,10,06,60,108,33,12,58,298,31,19,51,062,31,24,45,224,29,1*63
$GPGSV,3,2,10,11,43,168,31,17,21,065,18,25,18,298,27,03,10,032,23,1*6B
$GPGSV,3,3,10,32,09,317,25,47,,,,1*5C
$GLGSV,3,1,09,85,73,053,33,75,60,136,34,76,54,319,34,86,44,205,,1*7E
$GLGSV,3,2,09,84,19,035,18,68,09,009,21,77,08,318,,74,08,138,,1*75
$GLGSV,3,3,09,67,08,324,21,1*4E
$GAGSV,3,1,09,30,70,301,32,02,53,109,29,36,51,072,29,34,47,161,29,7*7E
$GAGSV,3,2,09,27,18,295,20,11,13,035,19,29,13,308,19,07,11,257,20,7*78
$GAGSV,3,3,09,25,03,113,14,7*48
$GBGSV,2,1,06,44,80,156,39,24,72,203,38,12,58,209,33,25,38,305,33,1*75
$GBGSV,2,2,06,34,30,222,32,26,28,150,29,1*76
$GNRMC,004132.000,A,4910.428234,N,12304.402044,W,0.17,218.71,080125,,,D,V*19
$GNVTG,218.71,T,,M,0.17,N,0.31,K,D*2F
$PAIRLOG,Full*51
$GNGGA,004133.000,4910.428228,N,12304.402158,W,2,28,0.57,-2.495,M,-16.816,M,,*68
$GNGLL,4910.428228,N,12304.402158,W,004133.000,A,D*51
$GNGSA,A,3,06,12,19,24,11,17,25,03,32,,,,0.97,0.57,0.79,1*0B
$GNGSA,A,3,85,75,76,84,67,,,,,,,,0.97,0.57,0.79,2*03
$GNGSA,A,3,30,02,36,34,27,11,29,07,,,,,0.97,0.57,0.79,3*0B
$GNGSA,A,3,44,24,12,25,34,26,,,,,,,0.97,0.57,0.79,4*07
$GPGSV,3,1,10,06,60,108,33,12,58,298,31,19,51,062,31,24,45,224,29,1*63
$GPGSV,3,2,10,11,43,168,31,17,21,065,18,25,18,298,27,03,10,032,23,1*6B
$GPGSV,3,3,10,32,09,317,25,47,,,,1*5C
$GLGSV,2,1,08,85,73,053,33,75,60,136,34,76,54,319,34,86,44,205,,1*7E
$GLGSV,2,2,08,84,19,035,18,68,09,009,21,77,08,318,23,67,08,324,21,1*7A
$GAGSV,3,1,09,30,70,301,32,02,53,109,29,36,51,072,29,34,47,161,29,7*7E
$GAGSV,3,2,09,27,18,295,20,11,13,035,19,29,13,308,19,07,11,257,21,7*79
$GAGSV,3,3,09,25,03,113,15,7*49
$GBGSV,2,1,06,44,80,156,39,24,72,203,38,12,58,209,33,25,38,305,34,1*72
$GBGSV,2,2,06,34,30,222,32,26,28,150,29,1*76
$GNRMC,004133.000,A,4910.428228,N,12304.402158,W,0.17,218.71,080125,,,D,V*19
$GNVTG,218.71,T,,M,0.17,N,0.31,K,D*2F
$PAIRLOG,Full*51
$GNGGA,004134.000,4910.428270,N,12304.402314,W,2,28,0.57,-2.318,M,-16.817,M,,*6B
$GNGLL,4910.428270,N,12304.402314,W,004134.000,A,D*51
$GNGSA,A,3,06,12,19,24,11,17,25,03,32,,,,0.97,0.57,0.79,1*0B
$GNGSA,A,3,85,75,76,84,67,,,,,,,,0.97,0.57,0.79,2*03
$GNGSA,A,3,30,02,36,34,27,11,29,07,,,,,0.97,0.57,0.79,3*0B
$GNGSA,A,3,44,24,12,25,34,26,,,,,,,0.97,0.57,0.79,4*07
$GPGSV,3,1,10,06,60,108,33,12,58,298,31,19,51,062,31,24,45,224,29,1*63
$GPGSV,3,2,10,11,43,168,31,17,21,065,18,25,18,298,27,03,10,032,24,1*6C
$GPGSV,3,3,10,32,09,317,25,47,,,,1*5C
$GLGSV,3,1,09,85,73,053,33,75,60,136,34,76,54,319,34,86,44,205,,1*7E
$GLGSV,3,2,09,84,19,035,18,68,09,009,21,77,08,318,24,74,08,138,,1*73
$GLGSV,3,3,09,67,08,324,21,1*4E
$GAGSV,3,1,11,30,70,301,32,02,53,109,29,36,51,072,29,34,47,161,29,7*77
$GAGSV,3,2,11,27,18,295,20,11,13,035,19,29,13,308,19,07,11,257,21,7*70
$GAGSV,3,3,11,15,05,194,,19,03,350,,25,03,113,16,7*43
$GBGSV,3,1,11,44,80,156,39,24,72,203,38,12,58,209,34,35,41,057,,1*7E
$GBGSV,3,2,11,25,38,305,34,34,30,222,32,26,28,150,29,39,11,330,,1*76
$GBGSV,3,3,11,11,07,222,,20,02,028,,16,01,334,,1*4B
$GNRMC,004134.000,A,4910.428270,N,12304.402314,W,0.17,218.71,080125,,,D,V*19
$GNVTG,218.71,T,,M,0.17,N,0.31,K,D*2F
$PAIRLOG,Full*51
$GNGGA,004135.000,4910.428246,N,12304.402470,W,2,30,0.55,-1.964,M,-16.817,M,,*63
$GNGLL,4910.428246,N,12304.402470,W,004135.000,A,D*50
$GNGSA,A,3,06,12,19,24,11,17,25,03,32,,,,0.96,0.55,0.78,1*09
$GNGSA,A,3,85,75,76,84,67,,,,,,,,0.96,0.55,0.78,2*01
$GNGSA,A,3,30,02,36,34,27,29,11,07,,,,,0.96,0.55,0.78,3*09
$GNGSA,A,3,44,24,12,35,25,34,26,39,,,,,0.96,0.55,0.78,4*09
$GPGSV,3,1,10,06,60,108,33,12,58,298,31,19,51,062,30,24,45,224,29,1*62
$GPGSV,3,2,10,11,43,168,31,17,21,065,18,25,18,298,27,03,10,032,24,1*6C
$GPGSV,3,3,10,32,09,317,25,47,,,,1*5C
$GLGSV,2,1,08,85,73,053,34,75,60,136,33,76,54,319,33,86,44,205,,1*79
$GLGSV,2,2,08,84,19,035,18,68,09,009,21,67,08,324,21,77,,,22,1*49
$GAGSV,3,1,11,30,70,301,32,02,53,109,29,36,51,072,29,34,47,161,29,7*77
$GAGSV,3,2,11,27,18,295,20,29,13,308,19,11,13,035,19,07,11,257,21,7*70
$GAGSV,3,3,11,15,05,194,,25,03,113,16,19,03,350,,7*43
$GBGSV,3,1,11,44,80,156,39,24,72,203,38,12,58,209,34,35,41,057,35,1*78
$GBGSV,3,2,11,25,38,305,34,34,30,222,32,26,28,150,29,39,11,330,28,1*7C
$GBGSV,3,3,11,11,07,222,,20,02,028,,16,01,334,,1*4B
$GNRMC,004135.000,A,4910.428246,N,12304.402470,W,0.16,218.71,080125,,,D,V*19
$GNVTG,218.71,T,,M,0.16,N,0.30,K,D*2F
$PAIRLOG,Full*51
$GNGGA,004136.000,4910.428198,N,12304.402602,W,2,30,0.55,-1.671,M,-16.816,M,,*6D
$GNGLL,4910.428198,N,12304.402602,W,004136.000,A,D*54
$GNGSA,A,3,06,12,19,24,11,17,25,03,32,,,,0.96,0.55,0.78,1*09
$GNGSA,A,3,85,75,76,84,67,,,,,,,,0.96,0.55,0.78,2*01
$GNGSA,A,3,30,02,36,34,27,11,29,07,,,,,0.96,0.55,0.78,3*09
$GNGSA,A,3,44,24,12,35,25,34,26,39,,,,,0.96,0.55,0.78,4*09
$GPGSV,3,1,10,06,60,108,32,12,58,298,30,19,51,062,30,24,45,224,29,1*62
$GPGSV,3,2,10,11,43,168,31,17,21,065,18,25,18,298,26,03,10,032,22,1*6B
$GPGSV,3,3,10,32,09,317,25,47,,,,1*5C
$GLGSV,2,1,07,85,73,053,34,75,60,136,33,76,54,319,33,86,44,205,,1*76
$GLGSV,2,2,07,84,19,035,18,68,09,009,21,67,08,324,21,1*46
$GAGSV,3,1,11,30,70,301,31,02,53,109,28,36,51,072,29,34,47,161,29,7*75
$GAGSV,3,2,11,27,18,295,20,11,13,035,19,29,13,308,19,07,11,257,20,7*71
$GAGSV,3,3,11,15,05,194,,19,03,350,,25,03,113,15,7*40
$GBGSV,3,1,11,44,80,156,39,24,72,203,38,12,58,209,34,35,41,057,35,1*78
$GBGSV,3,2,11,25,38,305,34,34,30,222,32,26,28,150,29,39,11,330,29,1*7D
$GBGSV,3,3,11,11,07,222,,20,02,028,22,16,01,334,,1*4B
$GNRMC,004136.000,A,4910.428198,N,12304.402602,W,0.16,218.71,080125,,,D,V*1D
$GNVTG,218.71,T,,M,0.16,N,0.30,K,D*2F
$PAIRLOG,Full*51
$GNGGA,004137.000,4910.428174,N,12304.402740,W,2,30,0.55,-1.430,M,-16.816,M,,*6E
$GNGLL,4910.428174,N,12304.402740,W,004137.000,A,D*50
$GNGSA,A,3,06,12,19,24,11,17,25,03,32,,,,0.96,0.55,0.78,1*09
$GNGSA,A,3,85,75,76,84,67,,,,,,,,0.96,0.55,0.78,2*01
$GNGSA,A,3,30,02,36,34,27,11,29,07,,,,,0.96,0.55,0.78,3*09
$GNGSA,A,3,44,24,12,35,25,34,26,39,,,,,0.96,0.55,0.78,4*09
$GPGSV,3,1,09,06,60,108,32,12,58,298,30,19,51,062,30,24,45,224,29,1*6A
$GPGSV,3,2,09,11,43,168,31,17,21,065,18,25,18,298,26,03,10,032,24,1*65
$GPGSV,3,3,09,32,09,317,25,1*57
$GLGSV,2,1,07,85,73,053,35,75,60,136,33,76,54,319,33,86,44,205,,1*77
$GLGSV,2,2,07,84,19,035,18,68,09,009,21,67,08,324,21,1*46
$GAGSV,3,1,11,30,70,301,31,02,53,109,29,36,51,072,29,34,47,161,29,7*74
$GAGSV,3,2,11,27,18,295,20,11,13,035,19,29,13,308,19,07,11,257,20,7*71
$GAGSV,3,3,11,15,05,194,,19,03,350,,25,03,113,15,7*40
$GBGSV,3,1,11,44,80,156,39,24,72,203,38,12,58,209,34,35,41,057,35,1*78
$GBGSV,3,2,11,25,38,305,34,34,30,222,32,26,28,150,29,39,11,330,28,1*7C
$GBGSV,3,3,11,11,07,222,25,20,02,028,22,16,01,334,,1*4C
$GNRMC,004137.000,A,4910.428174,N,12304.402740,W,0.16,218.71,080125,,,D,V*19
$GNVTG,218.71,T,,M,0.16,N,0.29,K,D*27
$PAIRLOG,Full*51
$GNGGA,004138.000,4910.428174,N,12304.402818,W,2,29,0.55,-1.390,M,-16.816,M,,*66
$GNGLL,4910.428174,N,12304.402818,W,004138.000,A,D*5D
$GNGSA,A,3,06,12,19,24,11,17,25,03,32,,,,0.97,0.55,0.79,1*09
$GNGSA,A,3,85,75,76,84,67,,,,,,,,0.97,0.55,0.79,2*01
$GNGSA,A,3,30,02,36,34,27,11,29,07,,,,,0.97,0.55,0.79,3*09
$GNGSA,A,3,44,24,12,35,25,34,26,,,,,,0.97,0.55,0.79,4*03
$GPGSV,3,1,10,06,60,108,32,12,58,298,30,19,51,062,30,24,45,224,29,1*62
$GPGSV,3,2,10,11,43,168,31,48,33,182,,17,21,065,18,25,18,298,26,1*6F
$GPGSV,3,3,10,03,10,032,24,32,09,317,25,1*6A
$GLGSV,2,1,07,85,73,053,35,75,60,136,33,76,54,319,33,86,44,205,,1*77
$GLGSV,2,2,07,84,19,035,18,68,09,009,21,67,08,324,20,1*47
$GAGSV,3,1,11,30,70,301,31,02,53,109,29,36,51,072,29,34,47,161,29,7*74
$GAGSV,3,2,11,27,18,295,20,11,13,035,19,29,13,308,19,07,11,257,20,7*71
$GAGSV,3,3,11,15,05,194,,19,03,350,,25,03,113,14,7*41
$GBGSV,3,1,11,44,80,156,39,24,72,203,38,12,58,209,34,35,41,057,35,1*78
$GBGSV,3,2,11,25,38,305,34,34,30,222,32,26,28,150,29,39,11,330,,1*76
$GBGSV,3,3,11,11,07,222,,20,02,028,,16,01,334,,1*4B
$GNRMC,004138.000,A,4910.428174,N,12304.402818,W,0.15,218.71,080125,,,D,V*17
$GNVTG,218.71,T,,M,0.15,N,0.28,K,D*25
$PAIRLOG,Full*51
$GNGGA,004139.000,4910.428222,N,12304.402848,W,2,28,0.57,-1.260,M,-16.817,M,,*6E
$GNGLL,4910.428222,N,12304.402848,W,004139.000,A,D*59
$GNGSA,A,3,06,12,19,24,11,17,25,03,32,,,,0.97,0.57,0.79,1*0B
$GNGSA,A,3,85,75,76,84,67,,,,,,,,0.97,0.57,0.79,2*03
$GNGSA,A,3,30,02,36,34,27,11,29,07,,,,,0.97,0.57,0.79,3*0B
$GNGSA,A,3,44,24,12,25,34,26,,,,,,,0.97,0.57,0.79,4*07
$GPGSV,3,1,10,06,60,108,32,12,58,298,31,19,51,062,30,24,45,224,29,1*63
$GPGSV,3,2,10,11,43,168,31,48,33,182,,17,21,065,18,25,18,298,26,1*6F
$GPGSV,3,3,10,03,10,032,25,32,09,317,25,1*6B
$GLGSV,3,1,09,85,73,053,34,75,60,136,34,76,54,319,34,86,44,205,,1*79
$GLGSV,3,2,09,84,19,035,18,68,09,009,21,77,08,318,,74,08,138,,1*75
$GLGSV,3,3,09,67,08,324,20,1*4F
$GAGSV,3,1,11,30,70,301,32,02,53,109,29,36,51,072,29,34,47,161,29,7*77
$GAGSV,3,2,11,27,18,295,21,11,13,035,19,29,13,308,19,07,11,257,21,7*71
$GAGSV,3,3,11,15,05,194,,19,03,350,,25,03,113,15,7*40
$GBGSV,3,1,11,44,80,156,38,24,72,203,38,12,58,209,34,35,41,057,,1*7F
$GBGSV,3,2,11,25,38,305,33,34,30,222,31,26,28,150,28,39,11,330,,1*73
$GBGSV,3,3,11,11,07,222,,20,02,028,,16,01,334,,1*4B
$GNRMC,004139.000,A,4910.428222,N,12304.402848,W,0.14,218.71,080125,,,D,V*12
$GNVTG,218.71,T,,M,0.14,N,0.26,K,D*2A
$PAIRLOG,Full*51
$GNGGA,004140.000,4910.428228,N,12304.402842,W,2,28,0.57,-1.185,M,-16.817,M,,*68
$GNGLL,4910.428228,N,12304.402842,W,004140.000,A,D*57
$GNGSA,A,3,06,12,19,24,11,17,25,03,32,,,,0.97,0.57,0.79,1*0B
$GNGSA,A,3,85,75,76,84,67,,,,,,,,0.97,0.57,0.79,2*03
$GNGSA,A,3,30,02,36,34,27,11,29,07,,,,,0.97,0.57,0.79,3*0B
$GNGSA,A,3,44,24,12,25,34,26,,,,,,,0.97,0.57,0.79,4*07
$GPGSV,3,1,10,06,60,108,32,12,58,298,31,19,51,062,30,24,45,224,29,1*63
$GPGSV,3,2,10,11,43,168,31,48,33,182,,17,21,065,18,25,18,298,26,1*6F
$GPGSV,3,3,10,03,10,032,25,32,09,317,25,1*6B
$GLGSV,3,1,09,85,73,053,34,75,60,136,35,76,54,319,34,86,44,205,,1*78
$GLGSV,3,2,09,84,19,035,18,68,09,009,22,77,08,318,,74,08,138,,1*76
$GLGSV,3,3,09,67,08,324,20,1*4F
$GAGSV,3,1,09,30,70,301,32,02,53,109,29,36,51,072,29,34,47,161,29,7*7E
$GAGSV,3,2,09,27,18,295,21,11,13,035,19,29,13,308,19,07,11,257,21,7*78
$GAGSV,3,3,09,25,03,113,15,7*49
$GBGSV,2,1,06,44,80,156,38,24,72,203,38,12,58,209,34,25,38,305,33,1*73
$GBGSV,2,2,06,34,30,222,31,26,28,150,28,1*74
$GNRMC,004140.000,A,4910.428228,N,12304.402842,W,0.13,218.71,080125,,,D,V*1B
$GNVTG,218.71,T,,M,0.13,N,0.24,K,D*2F
$PAIRLOG,Full*51
$GNGGA,004141.000,4910.428210,N,12304.402884,W,2,28,0.57,-1.076,M,-16.816,M,,*64
$GNGLL,4910.428210,N,12304.402884,W,004141.000,A,D*57
$GNGSA,A,3,06,12,19,24,11,17,25,03,32,,,,0.97,0.57,0.79,1*0B
$GNGSA,A,3,85,75,76,84,67,,,,,,,,0.97,0.57,0.79,2*03
$GNGSA,A,3,30,02,36,34,27,11,29,07,,,,,0.97,0.57,0.79,3*0B
$GNGSA,A,3,44,24,12,25,34,26,,,,,,,0.97,0.57,0.79,4*07
$GPGSV,3,1,10,06,60,108,32,12,58,298,31,19,51,062,30,24,45,224,29,1*63
$GPGSV,3,2,10,11,43,168,31,48,33,182,,17,21,065,18,25,18,298,26,1*6F
$GPGSV,3,3,10,03,10,032,25,32,09,317,25,1*6B
$GLGSV,3,1,09,85,73,053,34,75,60,136,35,76,54,319,33,86,44,205,,1*7F
$GLGSV,3,2,09,84,19,035,18,68,09,009,22,77,08,318,,74,08,138,,1*76
$GLGSV,3,3,09,67,08,324,20,1*4F
$GAGSV,3,1,09,30,70,301,32,02,53,109,29,36,51,072,28,34,47,161,29,7*7F
$GAGSV,3,2,09,27,18,295,20,11,13,035,19,29,13,308,19,07,11,257,21,7*79
$GAGSV,3,3,09,25,03,113,15,7*49
$GBGSV,2,1,06,44,80,156,38,24,72,203,38,12,58,209,34,25,38,305,33,1*73
$GBGSV,2,2,06,34,30,222,31,26,28,150,28,1*74
$GNRMC,004141.000,A,4910.428210,N,12304.402884,W,0.12,218.71,080125,,,D,V*1A
$GNVTG,218.71,T,,M,0.12,N,0.23,K,D*29
$PAIRLOG,Full*51
$GNGGA,004142.000,4910.428258,N,12304.402836,W,2,28,0.57,-0.955,M,-16.817,M,,*6A
$GNGLL,4910.428258,N,12304.402836,W,004142.000,A,D*51
$GNGSA,A,3,06,12,19,24,11,17,25,03,32,,,,0.97,0.57,0.79,1*0B
$GNGSA,A,3,85,75,76,84,67,,,,,,,,0.97,0.57,0.79,2*03
$GNGSA,A,3,30,02,36,34,27,11,29,07,,,,,0.97,0.57,0.79,3*0B
$GNGSA,A,3,44,24,12,25,34,26,,,,,,,0.97,0.57,0.79,4*07
$GPGSV,3,1,10,06,60,108,32,12,58,298,31,19,51,062,30,24,45,224,29,1*63
$GPGSV,3,2,10,11,43,168,30,48,33,182,,17,21,065,18,25,18,298,26,1*6E
$GPGSV,3,3,10,03,10,032,24,32,09,317,25,1*6A
$GLGSV,3,1,09,85,73,053,34,75,60,136,35,76,54,319,33,86,44,205,,1*7F
$GLGSV,3,2,09,84,19,035,18,68,09,009,22,77,08,318,,74,08,138,,1*76
$GLGSV,3,3,09,67,08,324,20,1*4F
$GAGSV,3,1,09,30,70,301,32,02,53,109,29,36,51,072,28,34,47,161,29,7*7F
$GAGSV,3,2,09,27,18,295,20,11,13,035,19,29,13,308,19,07,11,257,21,7*79
$GAGSV,3,3,09,25,03,113,15,7*49
$GBGSV,2,1,06,44,80,156,38,24,72,203,38,12,58,209,34,25,38,305,33,1*73
$GBGSV,2,2,06,34,30,222,31,26,28,150,28,1*74
$GNRMC,004142.000,A,4910.428258,N,12304.402836,W,0.11,218.71,080125,,,D,V*1F
$GNVTG,218.71,T,,M,0.11,N,0.20,K,D*29
$PAIRLOG,Full*51
$GNGGA,004143.000,4910.428240,N,12304.402800,W,2,30,0.55,-0.789,M,-16.817,M,,*63
$GNGLL,4910.428240,N,12304.402800,W,004143.000,A,D*5C
$GNGSA,A,3,06,12,19,24,11,17,25,03,32,,,,0.96,0.55,0.78,1*09
$GNGSA,A,3,85,75,76,84,67,,,,,,,,0.96,0.55,0.78,2*01
$GNGSA,A,3,30,02,36,34,27,11,29,07,,,,,0.96,0.55,0.78,3*09
$GNGSA,A,3,44,24,12,35,25,34,26,39,,,,,0.96,0.55,0.78,4*09
$GPGSV,3,1,10,06,60,108,30,12,58,298,30,19,51,062,28,24,45,224,27,1*67
$GPGSV,3,2,10,11,43,168,29,48,33,182,,17,21,065,18,25,18,298,25,1*65
$GPGSV,3,3,10,03,10,032,23,32,09,317,23,1*6B
$GLGSV,2,1,07,85,73,053,34,75,60,136,35,76,54,319,33,86,44,205,,1*70
$GLGSV,2,2,07,84,19,035,18,68,09,009,22,67,08,324,20,1*44
$GAGSV,3,1,11,30,70,301,31,02,53,109,28,36,51,072,27,34,47,161,28,7*7A
$GAGSV,3,2,11,27,18,295,20,11,13,035,19,29,13,308,19,07,11,257,21,7*70
$GAGSV,3,3,11,15,05,194,,19,03,350,,25,03,113,15,7*40
$GBGSV,3,1,11,44,80,156,38,24,72,203,38,12,59,210,34,35,41,057,33,1*76
$GBGSV,3,2,11,25,38,305,33,34,30,222,31,26,28,150,28,39,11,330,27,1*76
$GBGSV,3,3,11,11,08,222,,20,02,028,,16,01,334,,1*44
$GNRMC,004143.000,A,4910.428240,N,12304.402800,W,0.10,218.71,080125,,,D,V*13
$GNVTG,218.71,T,,M,0.10,N,0.18,K,D*23
$PAIRLOG,Full*51
$GNGGA,004144.000,4910.428270,N,12304.402734,W,2,30,0.55,-0.605,M,-16.817,M,,*6A
$GNGLL,4910.428270,N,12304.402734,W,004144.000,A,D*50
$GNGSA,A,3,06,12,19,24,11,17,25,03,32,,,,0.96,0.55,0.78,1*09
$GNGSA,A,3,85,75,76,84,67,,,,,,,,0.96,0.55,0.78,2*01
$GNGSA,A,3,30,02,36,34,27,11,29,07,,,,,0.96,0.55,0.78,3*09
$GNGSA,A,3,44,24,12,35,25,34,26,39,,,,,0.96,0.55,0.78,4*09
$GPGSV,3,1,10,06,60,108,29,12,58,298,29,19,51,062,27,24,45,224,27,1*68
$GPGSV,3,2,10,11,43,168,28,48,33,182,,17,21,065,18,25,18,298,24,1*65
$GPGSV,3,3,10,03,10,032,22,32,09,317,22,1*6B
$GLGSV,2,1,07,85,73,053,34,75,60,136,34,76,54,319,33,86,44,205,,1*71
$GLGSV,2,2,07,84,19,035,18,68,09,009,22,67,08,324,20,1*44
$GAGSV,3,1,11,30,70,301,30,02,53,109,27,36,51,072,27,34,47,161,28,7*74
$GAGSV,3,2,11,27,18,295,19,11,13,035,19,29,13,308,19,07,11,257,21,7*7A
$GAGSV,3,3,11,15,05,194,,19,03,350,,25,03,113,15,7*40
$GBGSV,3,1,11,44,80,156,38,24,72,203,38,12,59,210,34,35,41,057,35,1*70
$GBGSV,3,2,11,25,38,305,33,34,30,222,31,26,28,150,28,39,11,330,29,1*78
$GBGSV,3,3,11,11,08,222,,20,02,028,,16,01,334,,1*44
$GNRMC,004144.000,A,4910.428270,N,12304.402734,W,0.09,218.71,080125,,,D,V*17
$GNVTG,218.71,T,,M,0.09,N,0.16,K,D*25
$PAIRLOG,Full*51
$GNGGA,004145.000,4910.428264,N,12304.402626,W,2,30,0.55,-0.443,M,-16.816,M,,*6D
$GNGLL,4910.428264,N,12304.402626,W,004145.000,A,D*56
$GNGSA,A,3,06,12,19,24,11,17,25,03,32,,,,0.96,0.55,0.78,1*09
$GNGSA,A,3,85,75,76,84,67,,,,,,,,0.96,0.55,0.78,2*01
$GNGSA,A,3,30,02,36,34,27,11,29,07,,,,,0.96,0.55,0.78,3*09
$GNGSA,A,3,44,24,12,35,25,34,26,39,,,,,0.96,0.55,0.78,4*09
$GPGSV,3,1,10,06,60,108,29,12,58,298,29,19,51,062,27,24,45,224,26,1*69
$GPGSV,3,2,10,11,43,168,27,48,33,182,,17,21,065,18,25,18,298,24,1*6A
$GPGSV,3,3,10,03,10,032,21,32,09,317,21,1*6B
$GLGSV,2,1,07,85,73,053,33,75,60,136,34,76,54,319,34,86,44,205,,1*71
$GLGSV,2,2,07,84,19,035,18,68,09,009,22,67,08,324,20,1*44
$GAGSV,3,1,11,30,70,301,30,02,53,109,27,36,51,072,27,34,47,161,28,7*74
$GAGSV,3,2,11,27,18,295,19,11,13,035,19,29,13,308,19,07,11,257,21,7*7A
$GAGSV,3,3,11,15,05,194,,19,03,350,,25,03,113,15,7*40
$GBGSV,3,1,11,44,80,156,38,24,72,203,38,12,59,210,34,35,41,057,34,1*71
$GBGSV,3,2,11,25,38,305,33,34,30,222,31,26,28,150,28,39,11,330,28,1*79
$GBGSV,3,3,11,11,08,222,,20,02,028,20,16,01,334,,1*46
$GNRMC,004145.000,A,4910.428264,N,12304.402626,W,0.07,218.71,080125,,,D,V*1F
$GNVTG,218.71,T,,M,0.07,N,0.13,K,D*2E
$PAIRLOG,Full*51
$GNGGA,004146.000,4910.428240,N,12304.402488,W,2,30,0.55,-0.276,M,-16.817,M,,*6F
$GNGLL,4910.428240,N,12304.402488,W,004146.000,A,D*55
$GNGSA,A,3,06,12,19,24,11,17,25,03,32,,,,0.96,0.55,0.78,1*09
$GNGSA,A,3,85,75,76,84,67,,,,,,,,0.96,0.55,0.78,2*01
$GNGSA,A,3,30,02,36,34,27,11,29,07,,,,,0.96,0.55,0.78,3*09
$GNGSA,A,3,44,24,12,35,25,34,26,39,,,,,0.96,0.55,0.78,4*09
$GPGSV,3,1,10,06,60,108,29,12,58,298,29,19,51,062,27,24,45,224,26,1*69
$GPGSV,3,2,10,11,43,168,27,48,33,182,,17,21,065,18,25,18,298,24,1*6A
$GPGSV,3,3,10,03,10,032,21,32,09,317,21,1*6B
$GLGSV,2,1,07,85,73,053,34,75,60,136,34,76,54,319,35,86,44,205,,1*77
$GLGSV,2,2,07,84,19,035,18,68,09,009,22,67,08,324,20,1*44
$GAGSV,3,1,11,30,70,301,30,02,53,109,27,36,51,072,27,34,47,161,28,7*74
$GAGSV,3,2,11,27,18,295,19,11,13,035,19,29,13,308,19,07,11,257,21,7*7A
$GAGSV,3,3,11,15,05,194,,19,03,350,,25,03,113,15,7*40
$GBGSV,3,1,10,44,80,156,38,24,72,203,38,12,59,210,34,35,41,057,34,1*70
$GBGSV,3,2,10,25,38,305,33,34,30,222,31,26,28,150,28,39,11,330,28,1*78
$GBGSV,3,3,10,20,02,028,22,16,01,334,,1*7F
$GNRMC,004146.000,A,4910.428240,N,12304.402488,W,0.06,218.71,080125,,,D,V*1D
$GNVTG,218.71,T,,M,0.06,N,0.12,K,D*2E
$PAIRLOG,Full*51
$GNGGA,004147.000,4910.428294,N,12304.402374,W,2,28,0.57,-0.211,M,-16.816,M,,*68
$GNGLL,4910.428294,N,12304.402374,W,004147.000,A,D*59
$GNGSA,A,3,06,12,19,24,11,17,25,03,32,,,,0.97,0.57,0.79,1*0B
$GNGSA,A,3,85,75,76,84,67,,,,,,,,0.97,0.57,0.79,2*03
$GNGSA,A,3,30,02,36,34,27,11,29,07,,,,,0.97,0.57,0.79,3*0B
$GNGSA,A,3,44,24,12,25,34,26,,,,,,,0.97,0.57,0.79,4*07
$GPGSV,3,1,10,06,60,108,29,12,58,298,28,19,51,062,26,24,45,224,26,1*69
$GPGSV,3,2,10,11,43,168,27,48,33,182,,17,21,065,18,25,18,298,24,1*6A
$GPGSV,3,3,10,03,10,032,20,32,09,317,20,1*6B
$GLGSV,2,1,07,85,73,053,34,75,60,136,35,76,54,319,35,86,44,205,,1*76
$GLGSV,2,2,07,84,19,035,18,68,09,009,22,67,08,324,20,1*44
$GAGSV,3,1,09,30,70,301,30,02,53,109,27,36,51,072,27,34,47,161,28,7*7D
$GAGSV,3,2,09,27,18,295,19,11,13,035,19,29,13,308,18,07,11,257,20,7*73
$GAGSV,3,3,09,25,03,113,15,7*49
$GBGSV,2,1,06,44,80,156,39,24,72,203,39,12,59,210,35,25,38,305,34,1*7C
$GBGSV,2,2,06,34,30,222,31,26,28,150,28,1*74
$GNRMC,004147.000,A,4910.428294,N,12304.402374,W,0.06,218.71,080125,,,D,V*11
$GNVTG,218.71,T,,M,0.06,N,0.10,K,D*2C
$PAIRLOG,Full*51
$GNGGA,004148.000,4910.428354,N,12304.402284,W,2,28,0.57,-0.132,M,-16.816,M,,*66
$GNGLL,4910.428354,N,12304.402284,W,004148.000,A,D*55
$GNGSA,A,3,06,12,19,24,11,17,25,03,32,,,,0.97,0.57,0.79,1*0B
$GNGSA,A,3,85,75,76,84,67,,,,,,,,0.97,0.57,0.79,2*03
$GNGSA,A,3,30,02,36,34,27,11,29,07,,,,,0.97,0.57,0.79,3*0B
$GNGSA,A,3,44,24,12,25,34,26,,,,,,,0.97,0.57,0.79,4*07
$GPGSV,3,1,10,06,60,108,29,12,58,298,28,19,51,062,26,24,45,224,26,1*69
$GPGSV,3,2,10,11,43,168,27,48,33,182,,17,21,065,18,25,18,298,24,1*6A
$GPGSV,3,3,10,03,10,032,20,32,09,317,19,1*61
$GLGSV,3,1,09,85,73,053,34,75,60,136,35,76,54,319,34,86,44,205,,1*78
$GLGSV,3,2,09,84,19,035,18,77,09,318,,68,09,009,22,74,08,138,,1*77
$GLGSV,3,3,09,67,08,324,20,1*4F
$GAGSV,3,1,09,30,70,301,30,02,53,109,27,36,51,072,27,34,47,161,28,7*7D
$GAGSV,3,2,09,27,18,295,19,11,13,035,19,29,13,308,18,07,11,257,20,7*73
$GAGSV,3,3,09,25,03,113,15,7*49
$GBGSV,2,1,06,44,80,156,39,24,72,203,39,12,59,210,35,25,38,305,34,1*7C
$GBGSV,2,2,06,34,30,222,32,26,28,150,28,1*77
$GNRMC,004148.000,A,4910.428354,N,12304.402284,W,0.05,218.71,080125,,,D,V*1E
$GNVTG,218.71,T,,M,0.05,N,0.09,K,D*27
$PAIRLOG,Full*51
$GNGGA,004149.000,4910.428360,N,12304.402200,W,2,28,0.57,-0.045,M,-16.816,M,,*6D
$GNGLL,4910.428360,N,12304.402200,W,004149.000,A,D*5F
$GNGSA,A,3,06,12,19,24,11,17,25,03,32,,,,0.97,0.57,0.79,1*0B
$GNGSA,A,3,85,75,76,84,67,,,,,,,,0.97,0.57,0.79,2*03
$GNGSA,A,3,30,02,36,34,27,11,29,07,,,,,0.97,0.57,0.79,3*0B
$GNGSA,A,3,44,24,12,25,34,26,,,,,,,0.97,0.57,0.79,4*07
$GPGSV,3,1,10,06,60,108,29,12,58,298,28,19,51,062,26,24,45,224,26,1*69
$GPGSV,3,2,10,11,43,168,26,48,33,182,,17,21,065,18,25,18,298,24,1*6B
$GPGSV,3,3,10,03,10,032,20,32,09,317,19,1*61
$GLGSV,3,1,09,85,73,053,34,75,60,136,35,76,54,319,34,86,44,205,,1*78
$GLGSV,3,2,09,84,19,035,18,77,09,318,22,68,09,009,23,74,08,138,,1*76
$GLGSV,3,3,09,67,08,324,20,1*4F
$GAGSV,3,1,09,30,70,301,30,02,53,109,27,36,51,072,27,34,47,161,28,7*7D
$GAGSV,3,2,09,27,18,295,18,11,13,035,19,29,13,308,18,07,11,257,20,7*72
$GAGSV,3,3,09,25,03,113,16,7*4A
$GBGSV,2,1,06,44,80,156,39,24,72,203,39,12,59,210,35,25,38,305,34,1*7C
$GBGSV,2,2,06,34,30,222,32,26,28,150,28,1*77
$GNRMC,004149.000,A,4910.428360,N,12304.402200,W,0.04,218.71,080125,,,D,V*15
$GNVTG,218.71,T,,M,0.04,N,0.08,K,D*27
$PAIRLOG,Full*51
$GNGGA,004150.000,4910.428324,N,12304.402182,W,2,30,0.55,0.079,M,-16.816,M,,*45
$GNGLL,4910.428324,N,12304.402182,W,004150.000,A,D*5E
$GNGSA,A,3,06,12,19,24,11,17,25,03,32,,,,0.96,0.55,0.78,1*09
$GNGSA,A,3,85,75,76,84,67,,,,,,,,0.96,0.55,0.78,2*01
$GNGSA,A,3,30,02,36,34,27,29,11,07,,,,,0.96,0.55,0.78,3*09
$GNGSA,A,3,44,24,12,35,25,34,26,39,,,,,0.96,0.55,0.78,4*09
$GPGSV,3,1,10,06,60,108,28,12,58,298,27,19,51,062,26,24,45,224,26,1*67
$GPGSV,3,2,10,11,43,168,25,48,33,182,,17,21,065,18,25,18,298,23,1*6F
$GPGSV,3,3,10,03,10,032,19,32,09,317,18,1*6A
$GLGSV,2,1,08,85,73,053,34,75,60,136,35,76,54,319,34,86,44,205,,1*78
$GLGSV,2,2,08,84,19,035,18,68,09,009,23,67,08,324,20,77,,,22,1*4A
$GAGSV,3,1,11,30,70,301,29,02,53,109,27,36,51,072,27,34,47,161,27,7*73
$GAGSV,3,2,11,27,18,295,18,29,13,308,18,11,13,035,19,07,11,257,19,7*71
$GAGSV,3,3,11,15,05,194,,25,03,113,15,19,03,350,,7*40
$GBGSV,3,1,11,44,80,156,39,24,72,203,39,12,59,210,35,35,41,057,35,1*71
$GBGSV,3,2,11,25,38,305,34,34,30,222,32,26,28,150,28,39,11,330,28,1*7D
$GBGSV,3,3,11,11,08,222,,16,02,334,,20,02,028,,1*47
$GNRMC,004150.000,A,4910.428324,N,12304.402182,W,0.04,218.71,080125,,,D,V*14
$GNVTG,218.71,T,,M,0.04,N,0.08,K,D*27
$PAIRLOG,Full*51
$GNGGA,004151.000,4910.428282,N,12304.402182,W,2,30,0.55,0.135,M,-16.816,M,,*40
$GNGLL,4910.428282,N,12304.402182,W,004151.000,A,D*52
$GNGSA,A,3,06,12,19,24,11,17,25,03,32,,,,0.96,0.55,0.78,1*09
$GNGSA,A,3,85,75,76,84,67,,,,,,,,0.96,0.55,0.78,2*01
$GNGSA,A,3,30,02,36,34,27,11,29,07,,,,,0.96,0.55,0.78,3*09
$GNGSA,A,3,44,24,12,35,25,34,26,39,,,,,0.96,0.55,0.78,4*09
$GPGSV,3,1,10,06,60,108,28,12,58,298,28,19,51,062,27,24,45,224,26,1*69
$GPGSV,3,2,10,11,43,168,26,48,33,182,,17,21,065,18,25,18,298,23,1*6C
$GPGSV,3,3,10,03,10,032,19,32,09,317,19,1*6B
$GLGSV,2,1,07,85,73,053,34,75,60,136,35,76,54,319,34,86,44,205,,1*77
$GLGSV,2,2,07,84,19,035,18,68,09,009,23,67,08,324,20,1*45
$GAGSV,3,1,11,30,70,301,29,02,53,109,28,36,51,072,27,34,47,161,27,7*7C
$GAGSV,3,2,11,27,18,295,18,11,13,035,19,29,13,308,18,07,11,257,19,7*71
$GAGSV,3,3,11,15,05,194,,19,03,350,,25,03,113,15,7*40
$GBGSV,3,1,11,44,80,156,39,24,72,203,39,12,59,210,35,35,41,057,35,1*71
$GBGSV,3,2,11,25,38,305,34,34,30,222,32,26,28,150,29,39,11,330,29,1*7D
$GBGSV,3,3,11,11,08,222,,20,02,027,,16,02,334,,1*48
$GNRMC,004151.000,A,4910.428282,N,12304.402182,W,0.05,218.71,080125,,,D,V*19
$GNVTG,218.71,T,,M,0.05,N,0.09,K,D*27
$PAIRLOG,Full*51
$GNGGA,004152.000,4910.428240,N,12304.402188,W,2,30,0.55,0.323,M,-16.816,M,,*42
$GNGLL,4910.428240,N,12304.402188,W,004152.000,A,D*55
$GNGSA,A,3,06,12,19,24,11,17,25,03,32,,,,0.96,0.55,0.78,1*09
$GNGSA,A,3,85,75,76,84,67,,,,,,,,0.96,0.55,0.78,2*01
$GNGSA,A,3,30,02,36,34,27,11,29,07,,,,,0.96,0.55,0.78,3*09
$GNGSA,A,3,44,24,12,35,25,34,26,39,,,,,0.96,0.55,0.78,4*09
$GPGSV,3,1,10,06,60,108,29,12,58,298,28,19,51,062,27,24,45,224,26,1*68
$GPGSV,3,2,10,11,43,168,26,48,33,182,,17,21,065,18,25,18,298,23,1*6C
$GPGSV,3,3,10,03,10,032,19,32,09,317,19,1*6B
$GLGSV,2,1,07,85,73,053,34,75,60,136,35,76,54,319,34,86,44,205,,1*77
$GLGSV,2,2,07,84,19,035,18,68,09,009,23,67,08,324,20,1*45
$GAGSV,3,1,11,30,70,301,29,02,53,109,29,36,51,072,27,34,47,161,28,7*72
$GAGSV,3,2,11,27,18,295,18,11,13,035,19,29,13,308,18,07,11,257,19,7*71
$GAGSV,3,3,11,15,05,194,18,19,03,350,,25,03,113,15,7*49
$GBGSV,3,1,11,44,80,156,39,24,72,203,39,12,59,210,35,35,41,057,35,1*71
$GBGSV,3,2,11,25,38,305,34,34,30,222,32,26,28,150,29,39,11,330,28,1*7C
$GBGSV,3,3,11,11,08,222,,20,02,027,,16,02,334,,1*48
$GNRMC,004152.000,A,4910.428240,N,12304.402188,W,0.05,218.71,080125,,,D,V*1E
$GNVTG,218.71,T,,M,0.05,N,0.09,K,D*27
$PAIRLOG,Full*51
$GNGGA,004153.000,4910.428180,N,12304.402116,W,2,30,0.55,0.355,M,-16.816,M,,*4A
$GNGLL,4910.428180,N,12304.402116,W,004153.000,A,D*5C
$GNGSA,A,3,06,12,19,24,11,17,25,03,32,,,,0.96,0.55,0.78,1*09
$GNGSA,A,3,85,75,76,84,67,,,,,,,,0.96,0.55,0.78,2*01
$GNGSA,A,3,30,02,36,34,27,11,29,07,,,,,0.96,0.55,0.78,3*09
$GNGSA,A,3,44,24,12,35,25,34,26,39,,,,,0.96,0.55,0.78,4*09
$GPGSV,3,1,10,06,60,108,30,12,58,298,28,19,51,062,27,24,45,224,26,1*60
$GPGSV,3,2,10,11,43,168,26,48,33,182,,17,21,065,18,25,18,298,23,1*6C
$GPGSV,3,3,10,03,10,032,19,32,09,317,19,1*6B
$GLGSV,2,1,07,85,73,053,34,75,60,136,35,76,54,319,34,86,44,205,,1*77
$GLGSV,2,2,07,84,19,035,18,68,09,009,23,67,08,324,20,1*45
$GAGSV,3,1,11,30,70,301,29,02,53,109,29,36,51,072,27,34,47,161,28,7*72
$GAGSV,3,2,11,27,18,295,18,11,13,035,19,29,13,308,18,07,11,257,19,7*71
$GAGSV,3,3,11,15,05,194,18,19,03,350,,25,03,113,16,7*4A
$GBGSV,3,1,11,44,80,156,39,24,72,203,39,12,59,210,35,35,41,057,35,1*71
$GBGSV,3,2,11,25,38,305,34,34,30,222,32,26,28,150,29,39,11,330,29,1*7D
$GBGSV,3,3,11,11,08,222,,20,02,027,,16,02,334,,1*48
$GNRMC,004153.000,A,4910.428180,N,12304.402116,W,0.05,218.71,080125,,,D,V*17
$GNVTG,218.71,T,,M,0.05,N,0.09,K,D*27
$PAIRLOG,Full*51
$GNGGA,004154.000,4910.428168,N,12304.401996,W,2,29,0.55,0.418,M,-16.816,M,,*4E
$GNGLL,4910.428168,N,12304.401996,W,004154.000,A,D*5E
$GNGSA,A,3,06,12,19,24,11,17,25,03,32,,,,0.97,0.55,0.79,1*09
$GNGSA,A,3,85,75,76,84,67,,,,,,,,0.97,0.55,0.79,2*01
$GNGSA,A,3,30,02,36,34,27,11,29,07,,,,,0.97,0.55,0.79,3*09
$GNGSA,A,3,44,24,12,35,25,34,26,,,,,,0.97,0.55,0.79,4*03
$GPGSV,3,1,10,06,60,108,30,12,58,298,28,19,51,062,27,24,45,224,26,1*60
$GPGSV,3,2,10,11,43,168,26,48,33,182,,17,21,065,19,25,18,298,23,1*6D
$GPGSV,3,3,10,03,10,032,19,32,09,317,19,1*6B
$GLGSV,2,1,07,85,73,053,34,75,60,136,35,76,54,319,34,86,44,205,,1*77
$GLGSV,2,2,07,84,19,035,18,68,09,009,23,67,08,324,20,1*45
$GAGSV,3,1,11,30,70,301,29,02,53,109,29,36,51,072,27,34,47,161,28,7*72
$GAGSV,3,2,11,27,18,295,18,11,13,035,19,29,13,308,18,07,11,257,19,7*71
$GAGSV,3,3,11,15,05,194,,19,03,350,,25,03,113,16,7*43
$GBGSV,3,1,11,44,80,156,39,24,72,203,39,12,59,210,35,35,41,057,35,1*71
$GBGSV,3,2,11,25,38,305,34,34,30,222,32,26,28,150,29,39,11,330,,1*76
$GBGSV,3,3,11,11,08,222,,20,02,027,,16,02,334,,1*48
$GNRMC,004154.000,A,4910.428168,N,12304.401996,W,0.06,218.71,080125,,,D,V*16
$GNVTG,218.71,T,,M,0.06,N,0.10,K,D*2C
$PAIRLOG,Full*51
$GNGGA,004155.000,4910.428168,N,12304.401894,W,2,28,0.57,0.415,M,-16.816,M,,*42
$GNGLL,4910.428168,N,12304.401894,W,004155.000,A,D*5C
$GNGSA,A,3,06,12,19,24,11,17,25,03,32,,,,0.97,0.57,0.79,1*0B
$GNGSA,A,3,85,75,76,84,67,,,,,,,,0.97,0.57,0.79,2*03
$GNGSA,A,3,30,02,36,34,27,11,29,07,,,,,0.97,0.57,0.79,3*0B
$GNGSA,A,3,44,24,12,25,34,26,,,,,,,0.97,0.57,0.79,4*07
$GPGSV,3,1,10,06,60,108,30,12,58,298,28,19,51,062,27,24,45,224,26,1*60
$GPGSV,3,2,10,11,43,168,26,48,33,182,,17,21,065,19,25,18,298,23,1*6D
$GPGSV,3,3,10,03,10,032,19,32,09,317,20,1*61
$GLGSV,3,1,09,85,73,053,34,75,60,136,35,76,54,319,34,86,44,205,,1*78
$GLGSV,3,2,09,84,19,035,18,77,09,318,,68,09,009,23,74,08,138,,1*76
$GLGSV,3,3,09,67,08,324,20,1*4F
$GAGSV,3,1,11,30,70,301,29,02,53,109,29,36,51,072,27,34,47,161,28,7*72
$GAGSV,3,2,11,27,18,295,18,11,13,035,19,29,13,308,18,07,11,257,19,7*71
$GAGSV,3,3,11,15,05,194,,19,03,350,,25,03,113,16,7*43
$GBGSV,3,1,11,44,80,156,39,24,71,200,39,12,59,210,35,35,41,057,,1*77
$GBGSV,3,2,11,25,38,305,34,34,30,222,32,26,28,150,29,39,11,330,,1*76
$GBGSV,3,3,11,11,08,222,,20,02,027,,16,02,334,,1*48
$GNRMC,004155.000,A,4910.428168,N,12304.401894,W,0.06,218.71,080125,,,D,V*14
$GNVTG,218.71,T,,M,0.06,N,0.11,K,D*2D
$PAIRLOG,Full*51
$GNGGA,004156.000,4910.428174,N,12304.401750,W,2,28,0.57,0.468,M,-16.816,M,,*41
$GNGLL,4910.428174,N,12304.401750,W,004156.000,A,D*55
$GNGSA,A,3,06,12,19,24,11,17,25,03,32,,,,0.97,0.57,0.79,1*0B
$GNGSA,A,3,85,75,76,84,67,,,,,,,,0.97,0.57,0.79,2*03
$GNGSA,A,3,30,02,36,34,27,11,29,07,,,,,0.97,0.57,0.79,3*0B
$GNGSA,A,3,44,24,12,25,34,26,,,,,,,0.97,0.57,0.79,4*07
$GPGSV,3,1,09,06,60,108,30,12,58,298,28,19,51,062,26,24,45,224,26,1*69
$GPGSV,3,2,09,11,43,168,26,17,21,065,19,25,18,298,23,03,10,032,19,1*69
$GPGSV,3,3,09,32,09,317,20,1*52
$GLGSV,2,1,08,85,73,053,34,75,60,136,36,76,54,319,34,86,44,205,,1*7B
$GLGSV,2,2,08,84,19,035,18,77,09,318,23,68,09,009,23,67,08,324,20,1*78
$GAGSV,3,1,09,30,70,301,29,02,53,109,29,36,51,072,27,34,47,161,28,7*7B
$GAGSV,3,2,09,27,18,295,18,11,13,035,19,29,13,308,18,07,11,257,19,7*78
$GAGSV,3,3,09,25,03,113,16,7*4A
$GBGSV,2,1,06,44,80,156,39,24,71,200,39,12,59,210,35,25,39,304,34,1*7C
$GBGSV,2,2,06,34,30,222,32,26,28,150,29,1*76
$GNRMC,004156.000,A,4910.428174,N,12304.401750,W,0.06,218.71,080125,,,D,V*1D
$GNVTG,218.71,T,,M,0.06,N,0.11,K,D*2D
$PAIRLOG,Full*51
$GNGGA,004157.000,4910.428168,N,12304.401726,W,2,29,0.55,0.560,M,-16.816,M,,*46
$GNGLL,4910.428168,N,12304.401726,W,004157.000,A,D*58
$GNGSA,A,3,06,12,19,24,11,17,25,03,32,,,,0.97,0.55,0.79,1*09
$GNGSA,A,3,85,75,76,84,67,,,,,,,,0.97,0.55,0.79,2*01
$GNGSA,A,3,30,02,36,34,27,11,29,07,,,,,0.97,0.55,0.79,3*09
$GNGSA,A,3,44,24,12,35,25,34,26,,,,,,0.97,0.55,0.79,4*03
$GPGSV,3,1,10,06,60,108,30,12,58,298,28,19,51,062,26,24,45,224,26,1*61
$GPGSV,3,2,10,11,43,168,25,44,33,171,,17,21,065,19,25,18,298,23,1*6E
$GPGSV,3,3,10,03,10,032,19,32,09,317,18,1*6A
$GLGSV,3,1,09,85,73,053,34,75,60,136,36,76,54,319,34,86,44,205,,1*7B
$GLGSV,3,2,09,84,19,035,18,77,09,318,21,68,09,009,23,74,08,138,,1*75
$GLGSV,3,3,09,67,08,324,20,1*4F
$GAGSV,3,1,11,30,70,301,29,02,53,109,29,36,51,072,27,34,47,161,28,7*72
$GAGSV,3,2,11,27,18,295,18,11,13,035,19,29,13,308,19,07,11,257,19,7*70
$GAGSV,3,3,11,15,05,194,,19,03,350,,25,03,113,16,7*43
$GBGSV,3,1,11,44,80,156,39,24,71,200,39,12,59,210,35,35,41,057,34,1*70
$GBGSV,3,2,11,25,39,304,34,34,30,222,32,26,27,151,29,39,11,330,,1*78
$GBGSV,3,3,11,11,08,222,,20,02,027,,16,02,334,,1*48
$GNRMC,004157.000,A,4910.428168,N,12304.401726,W,0.07,218.71,080125,,,D,V*11
$GNVTG,218.71,T,,M,0.07,N,0.12,K,D*2F
$PAIRLOG,Full*51
$GNGGA,004158.000,4910.428228,N,12304.401540,W,2,28,0.57,0.699,M,-16.816,M,,*4A
$GNGLL,4910.428228,N,12304.401540,W,004158.000,A,D*52
$GNGSA,A,3,06,12,19,24,11,17,25,03,32,,,,0.97,0.57,0.79,1*0B
$GNGSA,A,3,85,75,76,84,67,,,,,,,,0.97,0.57,0.79,2*03
$GNGSA,A,3,30,02,36,34,27,11,29,07,,,,,0.97,0.57,0.79,3*0B
$GNGSA,A,3,44,24,12,25,34,26,,,,,,,0.97,0.57,0.79,4*07
$GPGSV,3,1,10,06,60,108,30,12,58,298,28,19,51,062,26,24,45,224,26,1*61
$GPGSV,3,2,10,11,43,168,25,44,33,171,,17,21,065,20,25,18,298,23,1*64
$GPGSV,3,3,10,03,10,032,19,32,09,317,17,1*65
$GLGSV,3,1,09,85,73,053,34,75,60,136,36,76,54,319,34,86,44,205,,1*7B
$GLGSV,3,2,09,84,19,035,18,77,09,318,21,68,09,009,23,74,08,138,,1*75
$GLGSV,3,3,09,67,08,324,20,1*4F
$GAGSV,3,1,09,30,70,301,29,02,53,109,29,36,51,072,27,34,47,161,28,7*7B
$GAGSV,3,2,09,27,18,295,18,11,13,035,19,29,13,308,19,07,11,257,19,7*79
$GAGSV,3,3,09,25,03,113,16,7*4A
$GBGSV,2,1,06,44,80,156,39,24,71,200,39,12,59,210,35,25,39,304,34,1*7C
$GBGSV,2,2,06,34,30,222,32,26,27,151,29,1*78
$GNRMC,004158.000,A,4910.428228,N,12304.401540,W,0.07,218.71,080125,,,D,V*1B
$GNVTG,218.71,T,,M,0.07,N,0.13,K,D*2E
$PAIRLOG,Full*51
$GNGGA,004159.000,4910.428216,N,12304.401534,W,2,28,0.57,0.740,M,-16.816,M,,*40
$GNGLL,4910.428216,N,12304.401534,W,004159.000,A,D*5D
$GNGSA,A,3,06,12,19,24,11,17,25,03,32,,,,0.97,0.57,0.79,1*0B
$GNGSA,A,3,85,75,76,84,67,,,,,,,,0.97,0.57,0.79,2*03
$GNGSA,A,3,30,02,36,34,27,11,29,07,,,,,0.97,0.57,0.79,3*0B
$GNGSA,A,3,44,24,12,25,34,26,,,,,,,0.97,0.57,0.79,4*07
$GPGSV,3,1,10,06,60,108,31,12,58,298,29,19,51,062,27,24,45,224,27,1*61
$GPGSV,3,2,10,11,43,168,25,44,33,171,,17,21,065,20,25,18,298,23,1*64
$GPGSV,3,3,10,03,10,032,20,32,09,317,18,1*60
$GLGSV,3,1,09,85,73,053,34,75,60,136,36,76,54,319,34,86,44,205,,1*7B
$GLGSV,3,2,09,84,19,035,18,77,09,318,21,68,09,009,23,74,08,138,,1*75
$GLGSV,3,3,09,67,08,324,20,1*4F
$GAGSV,3,1,09,30,70,301,30,02,53,109,29,36,51,072,28,34,47,161,28,7*7C
$GAGSV,3,2,09,27,18,295,19,11,13,035,19,29,13,308,19,07,11,257,19,7*78
$GAGSV,3,3,09,25,03,113,16,7*4A
$GBGSV,2,1,06,44,80,156,39,24,71,200,39,12,59,210,35,25,39,304,34,1*7C
$GBGSV,2,2,06,34,30,222,32,26,27,151,29,1*78
$GNRMC,004159.000,A,4910.428216,N,12304.401534,W,0.07,218.71,080125,,,D,V*14
$GNVTG,218.71,T,,M,0.07,N,0.14,K,D*29
$PAIRLOG,Full*51
$GNGGA,004200.000,4910.428204,N,12304.401468,W,2,28,0.57,0.721,M,-16.816,M,,*43
$GNGLL,4910.428204,N,12304.401468,W,004200.000,A,D*59
$GNGSA,A,3,06,12,19,24,11,17,25,03,32,,,,0.97,0.57,0.79,1*0B
$GNGSA,A,3,85,75,76,84,67,,,,,,,,0.97,0.57,0.79,2*03
$GNGSA,A,3,30,02,36,34,27,11,29,07,,,,,0.97,0.57,0.79,3*0B
$GNGSA,A,3,44,24,12,25,34,26,,,,,,,0.97,0.57,0.79,4*07
$GPGSV,3,1,10,06,60,108,29,12,58,298,28,19,51,062,26,24,45,224,23,1*6C
$GPGSV,3,2,10,11,43,168,24,44,33,171,,17,21,065,19,25,18,298,22,1*6E
$GPGSV,3,3,10,03,10,032,20,32,09,317,17,1*6F
$GLGSV,3,1,09,85,73,053,34,75,60,136,36,76,54,319,34,86,44,205,,1*7B
$GLGSV,3,2,09,84,19,035,18,77,09,318,21,68,09,009,23,74,08,138,,1*75
$GLGSV,3,3,09,67,08,324,20,1*4F
$GAGSV,3,1,11,30,70,301,29,02,53,109,28,36,51,072,27,34,47,161,27,7*7C
$GAGSV,3,2,11,27,18,295,19,11,13,035,19,29,13,308,19,07,11,257,19,7*71
$GAGSV,3,3,11,15,05,194,,19,03,350,,25,03,113,15,7*40
$GBGSV,3,1,11,44,80,156,39,24,71,200,39,12,59,210,34,35,41,057,,1*76
$GBGSV,3,2,11,25,39,304,34,34,30,222,32,26,27,151,29,39,11,330,,1*78
$GBGSV,3,3,11,11,08,222,,20,02,027,,16,02,334,,1*48
$GNRMC,004200.000,A,4910.428204,N,12304.401468,W,0.08,218.71,080125,,,D,V*1F
$GNVTG,218.71,T,,M,0.08,N,0.14,K,D*26
$PAIRLOG,Full*51
$GNGGA,004201.000,4910.428144,N,12304.401498,W,2,29,0.55,0.843,M,-16.817,M,,*43
$GNGLL,4910.428144,N,12304.401498,W,004201.000,A,D*50
$GNGSA,A,3,06,12,19,24,11,17,25,03,32,,,,0.97,0.55,0.79,1*09
$GNGSA,A,3,85,75,76,84,67,,,,,,,,0.97,0.55,0.79,2*01
$GNGSA,A,3,30,02,36,34,27,11,29,07,,,,,0.97,0.55,0.79,3*09
$GNGSA,A,3,44,24,12,35,25,34,26,,,,,,0.97,0.55,0.79,4*03
$GPGSV,3,1,10,06,60,108,29,12,58,298,28,19,51,062,26,24,45,224,25,1*6A
$GPGSV,3,2,10,11,43,168,23,44,33,171,,17,21,065,19,25,18,298,22,1*69
$GPGSV,3,3,10,03,10,032,20,32,09,317,18,1*60
$GLGSV,3,1,09,85,73,053,34,75,60,136,35,76,54,319,34,86,44,205,,1*78
$GLGSV,3,2,09,84,19,035,18,77,09,318,21,68,09,009,23,74,08,138,,1*75
$GLGSV,3,3,09,67,08,324,20,1*4F
$GAGSV,3,1,11,30,70,301,29,02,53,109,28,36,51,072,27,34,47,161,27,7*7C
$GAGSV,3,2,11,27,18,295,19,11,13,035,19,29,13,308,19,07,11,257,19,7*71
$GAGSV,3,3,11,15,05,194,,19,03,350,,25,03,113,14,7*41
$GBGSV,3,1,11,44,80,156,39,24,71,200,39,12,59,210,34,35,41,057,35,1*70
$GBGSV,3,2,11,25,39,304,34,34,30,222,32,26,27,151,29,39,11,330,,1*78
$GBGSV,3,3,11,11,08,222,,20,02,027,,16,02,334,,1*48
$GNRMC,004201.000,A,4910.428144,N,12304.401498,W,0.08,218.71,080125,,,D,V*16
$GNVTG,218.71,T,,M,0.08,N,0.15,K,D*27
$PAIRLOG,Full*51
$GNGGA,004202.000,4910.428084,N,12304.401534,W,2,30,0.55,1.039,M,-16.817,M,,*46
