,1*7D
$GBGSV,3,3,11,11,07,222,21,16,02,334,,20,02,028,18,1*42
$GBGSV,2,1,07,44,80,156,27,24,72,203,29,35,41,057,24,25,37,305,23,5*73
$GBGSV,2,2,07,34,30,222,21,26,28,150,19,39,10,330,14,5*4C
$GNGLL,4910.427214,N,12304.400700,W,004132.000,A,D*59
$GNRMC,004133.000,A,4910.427208,N,12304.400736,W,0.01,335.64,080125,,,D,V*15
$GNGGA,004133.000,4910.427208,N,12304.400736,W,2,47,0.56,15.863,M,-16.816,M,,*7F
$GNVTG,335.64,T,,M,0.01,N,0.02,K,D*22
$GNGSA,A,3,06,12,19,24,11,17,25,03,32,,,,0.99,0.56,0.82,1*00
$GNGSA,A,3,85,75,86,67,,,,,,,,,0.99,0.56,0.82,2*0B
$GNGSA,A,3,30,02,36,34,27,11,29,07,,,,,0.99,0.56,0.82,3*00
$GNGSA,A,3,44,24,12,35,25,34,26,39,,,,,0.99,0.56,0.82,4*00
$GPGSV,3,1,10,06,60,108,38,12,57,298,37,19,51,062,35,24,45,224,35,1*68
$GPGSV,3,2,10,11,42,168,35,44,33,171,31,17,21,065,29,25,18,298,31,1*6C
$GPGSV,3,3,10,03,10,032,24,32,09,317,30,1*6E
$GPGSV,2,1,05,06,60,108,29,24,45,224,29,11,42,168,29,25,18,298,23,8*6F
$GPGSV,2,2,05,03,10,032,17,8*5D
$GLGSV,2,1,05,85,73,053,27,75,61,136,30,86,44,205,19,84,19,035,,1*75
$GLGSV,2,2,05,67,08,324,15,1*45
$GAGSV,3,1,11,30,70,301,36,02,53,109,33,36,51,072,34,34,47,161,33,7*7F
$GAGSV,3,2,11,27,18,295,25,11,13,035,20,29,13,308,21,07,11,257,25,7*70
$GAGSV,3,3,11,15,05,194,22,19,03,350,19,25,03,113,16,7*4B
$GAGSV,2,1,06,30,70,301,25,02,53,109,28,36,51,072,26,34,47,161,26,1*71
$GAGSV,2,2,06,27,18,295,21,29,13,308,18,1*79
$GBGSV,3,1,11,44,80,156,35,24,72,203,33,12,59,210,29,35,41,057,30,1*7F
$GBGSV,3,2,11,25,37,305,30,34,30,222,29,26,28,150,24,39,10,330,24,1*7D
$GBGSV,3,3,11,11,07,222,21,16,02,334,,20,02,028,18,1*42
$GBGSV,2,1,07,44,80,156,27,24,72,203,29,35,41,057,24,25,37,305,23,5*73
$GBGSV,2,2,07,34,30,222,21,26,28,150,20,39,10,330,14,5*46
$GNGLL,4910.427208,N,12304.400736,W,004133.000,A,D*50
$GNRMC,004134.000,A,4910.427124,N,12304.400706,W,0.01,335.64,080125,,,D,V*1C
$GNGGA,004134.000,4910.427124,N,12304.400706,W,2,47,0.56,15.858,M,-16.816,M,,*7E
$GNVTG,335.64,T,,M,0.01,N,0.03,K,D*23
$GNGSA,A,3,06,12,19,24,11,17,25,03,32,,,,0.99,0.56,0.82,1*00
$GNGSA,A,3,85,75,86,67,,,,,,,,,0.99,0.56,0.82,2*0B
$GNGSA,A,3,30,02,36,34,27,11,29,07,,,,,0.99,0.56,0.82,3*00
$GNGSA,A,3,44,24,12,35,25,34,26,39,,,,,0.99,0.56,0.82,4*00
$GPGSV,3,1,10,06,60,108,39,12,57,298,37,19,51,062,35,24,45,224,35,1*69
$GPGSV,3,2,10,11,42,168,35,44,33,171,31,17,21,065,29,25,18,298,32,1*6F
$GPGSV,3,3,10,03,10,032,25,32,09,317,31,1*6E
$GPGSV,2,1,05,06,60,108,29,24,45,224,29,11,42,168,29,25,18,298,23,8*6F
$GPGSV,2,2,05,03,10,032,17,8*5D
$GLGSV,2,1,05,85,73,053,26,75,61,136,30,86,44,205,19,84,19,035,,1*74
$GLGSV,2,2,05,67,08,324,15,1*45
$GAGSV,3,1,11,30,70,301,36,02,53,109,33,36,51,072,34,34,47,161,33,7*7F
$GAGSV,3,2,11,27,18,295,25,11,13,035,20,29,13,308,21,07,11,257,25,7*70
$GAGSV,3,3,11,15,05,194,22,19,03,350,19,25,03,113,16,7*4B
$GAGSV,2,1,06,30,70,301,25,02,53,109,28,36,51,072,26,34,47,161,26,1*71
$GAGSV,2,2,06,27,18,295,21,29,13,308,18,1*79
$GBGSV,3,1,11,44,80,156,35,24,72,203,33,12,59,210,29,35,41,057,30,1*7F
$GBGSV,3,2,11,25,37,305,30,34,30,222,29,26,28,150,22,39,10,330,24,1*7B
$GBGSV,3,3,11,11,07,222,21,16,02,334,,20,02,028,18,1*42
$GBGSV,2,1,07,44,80,156,27,24,72,203,29,35,41,057,24,25,37,305,23,5*73
$GBGSV,2,2,07,34,30,222,21,26,28,150,20,39,10,330,14,5*46
$GNGLL,4910.427124,N,12304.400706,W,004134.000,A,D*59
$GNRMC,004135.000,A,4910.427076,N,12304.400622,W,0.01,335.64,080125,,,D,V*1C
$GNGGA,004135.000,4910.427076,N,12304.400622,W,2,47,0.56,15.882,M,-16.817,M,,*78
$GNVTG,335.64,T,,M,0.01,N,0.03,K,D*23
$GNGSA,A,3,06,12,19,24,11,17,25,03,32,,,,0.99,0.56,0.82,1*00
$GNGSA,A,3,85,75,86,67,,,,,,,,,0.99,0.56,0.82,2*0B
$GNGSA,A,3,30,02,36,34,27,11,29,07,,,,,0.99,0.56,0.82,3*00
$GNGSA,A,3,44,24,12,35,25,34,26,39,,,,,0.99,0.56,0.82,4*00
$GPGSV,3,1,10,06,60,108,39,12,57,298,37,19,51,062,35,24,45,224,35,1*69
$GPGSV,3,2,10,11,42,168,35,44,33,171,31,17,21,065,29,25,18,298,32,1*6F
$GPGSV,3,3,10,03,10,032,25,32,09,317,31,1*6E
$GPGSV,2,1,05,06,60,108,29,24,45,224,29,11,42,168,29,25,18,298,23,8*6F
$GPGSV,2,2,05,03,10,032,17,8*5D
$GLGSV,1,1,04,85,73,053,26,75,61,136,30,86,44,205,19,67,08,324,15,1*7C
$GAGSV,3,1,11,30,70,301,36,02,53,109,33,36,51,072,34,34,47,161,33,7*7F
$GAGSV,3,2,11,27,18,295,25,11,13,035,20,29,13,308,21,07,11,257,25,7*70
$GAGSV,3,3,11,15,05,194,22,25,03,113,16,19,03,350,19,7*4B
$GAGSV,2,1,06,30,70,301,25,02,53,109,28,36,51,072,26,34,47,161,26,1*71
$GAGSV,2,2,06,27,18,295,21,29,13,308,18,1*79
$GBGSV,3,1,11,44,80,156,35,24,72,203,33,12,59,210,29,35,41,057,30,1*7F
$GBGSV,3,2,11,25,37,305,30,34,30,222,29,26,28,150,23,39,10,330,24,1*7A
$GBGSV,3,3,11,11,07,222,21,16,02,334,,20,02,028,18,1*42
$GBGSV,2,1,07,44,80,156,27,24,72,203,29,35,41,057,24,25,37,305,23,5*73
$GBGSV,2,2,07,34,30,222,21,26,28,150,20,39,10,330,14,5*46
$GNGLL,4910.427076,N,12304.400622,W,004135.000,A,D*59
$GNRMC,004136.000,A,4910.427022,N,12304.400568,W,0.01,335.64,080125,,,D,V*13
$GNGGA,004136.000,4910.427022,N,12304.400568,W,2,47,0.56,15.771,M,-16.817,M,,*74
$GNVTG,335.64,T,,M,0.01,N,0.02,K,D*22
$GNGSA,A,3,06,12,19,24,11,17,25,03,32,,,,0.99,0.56,0.82,1*00
$GNGSA,A,3,85,75,86,67,,,,,,,,,0.99,0.56,0.82,2*0B
$GNGSA,A,3,30,02,36,34,27,11,29,07,,,,,0.99,0.56,0.82,3*00
$GNGSA,A,3,44,24,12,35,25,34,26,39,,,,,0.99,0.56,0.82,4*00
$GPGSV,3,1,10,06,60,108,39,12,57,298,38,19,51,062,35,24,45,224,35,1*66
$GPGSV,3,2,10,11,42,168,35,44,33,171,31,17,21,065,29,25,18,298,32,1*6F
$GPGSV,3,3,10,03,10,032,25,32,09,317,31,1*6E
$GPGSV,2,1,05,06,60,108,29,24,45,224,29,11,42,168,29,25,18,298,23,8*6F
$GPGSV,2,2,05,03,10,032,17,8*5D
$GLGSV,1,1,04,85,73,053,27,75,61,136,30,86,44,205,19,67,08,324,15,1*7D
$GAGSV,3,1,11,30,70,301,36,02,53,109,33,36,51,072,34,34,47,161,33,7*7F
$GAGSV,3,2,11,27,18,295,25,11,13,035,20,29,13,308,21,07,11,257,25,7*70
$GAGSV,3,3,11,15,05,194,23,25,03,113,16,19,03,350,19,7*4A
$GAGSV,2,1,06,30,70,301,25,02,53,109,28,36,51,072,26,34,47,161,27,1*70
$GAGSV,2,2,06,27,18,295,21,29,13,308,18,1*79
$GBGSV,3,1,11,44,80,156,35,24,72,203,33,12,59,210,29,35,41,057,30,1*7F
$GBGSV,3,2,11,25,37,305,31,34,30,222,29,26,28,150,22,39,10,330,24,1*7A
$GBGSV,3,3,11,11,07,222,21,16,02,334,,20,02,027,18,1*4D
$GBGSV,2,1,07,44,80,156,27,24,72,203,29,35,41,057,24,25,37,305,23,5*73
$GBGSV,2,2,07,34,30,222,21,26,28,150,20,39,10,330,14,5*46
$GNGLL,4910.427022,N,12304.400568,W,004136.000,A,D*56
$GNRMC,004137.000,A,4910.426878,N,12304.400496,W,0.01,335.64,080125,,,D,V*14
$GNGGA,004137.000,4910.426878,N,12304.400496,W,2,47,0.56,15.667,M,-16.816,M,,*74
$GNVTG,335.64,T,,M,0.01,N,0.03,K,D*23
$GNGSA,A,3,06,12,19,24,11,17,25,03,32,,,,0.99,0.56,0.82,1*00
$GNGSA,A,3,85,75,86,67,,,,,,,,,0.99,0.56,0.82,2*0B
$GNGSA,A,3,30,02,36,34,27,11,29,07,,,,,0.99,0.56,0.82,3*00
$GNGSA,A,3,44,24,12,35,25,34,26,39,,,,,0.99,0.56,0.82,4*00
$GPGSV,3,1,10,06,60,108,39,12,57,298,38,19,51,062,35,24,45,224,35,1*66
$GPGSV,3,2,10,11,42,168,35,44,33,171,32,17,21,065,29,25,18,298,32,1*6C
$GPGSV,3,3,10,03,10,032,26,32,09,317,31,1*6D
$GPGSV,2,1,05,06,60,108,29,24,45,224,29,11,42,168,29,25,18,298,23,8*6F
$GPGSV,2,2,05,03,10,032,17,8*5D
$GLGSV,2,1,05,85,73,053,27,75,61,136,30,86,44,205,19,84,19,035,,1*75
$GLGSV,2,2,05,67,08,324,15,1*45
$GAGSV,3,1,11,30,70,301,36,02,53,109,34,36,51,072,34,34,47,161,33,7*78
$GAGSV,3,2,11,27,18,295,26,11,13,035,20,29,13,308,21,07,11,257,25,7*73
$GAGSV,3,3,11,15,05,194,23,19,03,350,19,25,03,113,17,7*4B
$GAGSV,2,1,06,30,70,301,25,02,53,109,28,36,51,072,26,34,47,161,27,1*70
$GAGSV,2,2,06,27,18,295,21,29,13,308,18,1*79
$GBGSV,3,1,11,44,80,156,35,24,72,203,33,12,59,210,30,35,41,057,30,1*77
$GBGSV,3,2,11,25,37,305,31,34,30,222,29,26,28,150,22,39,10,330,24,1*7A
$GBGSV,3,3,11,11,07,222,21,16,02,334,,20,02,027,18,1*4D
$GBGSV,2,1,07,44,80,156,27,24,72,203,29,35,41,057,24,25,37,305,23,5*73
$GBGSV,2,2,07,34,30,222,21,26,28,150,20,39,10,330,14,5*46
$GNGLL,4910.426878,N,12304.400496,W,004137.000,A,D*51
$GNRMC,004138.000,A,4910.426746,N,12304.400442,W,0.02,335.64,080125,,,D,V*13
$GNGGA,004138.000,4910.426746,N,12304.400442,W,2,47,0.56,15.567,M,-16.816,M,,*73
$GNVTG,335.64,T,,M,0.02,N,0.03,K,D*20
$GNGSA,A,3,06,12,19,24,11,17,25,03,32,,,,0.99,0.56,0.82,1*00
$GNGSA,A,3,85,75,86,67,,,,,,,,,0.99,0.56,0.82,2*0B
$GNGSA,A,3,30,02,36,34,27,11,29,07,,,,,0.99,0.56,0.82,3*00
$GNGSA,A,3,44,24,12,35,25,34,26,39,,,,,0.99,0.56,0.82,4*00
$GPGSV,3,1,10,06,60,108,39,12,57,298,38,19,51,062,36,24,45,224,36,1*66
$GPGSV,3,2,10,11,42,168,36,44,33,171,32,17,21,065,30,25,18,298,32,1*67
$GPGSV,3,3,10,03,10,032,25,32,09,317,32,1*6D
$GPGSV,2,1,05,06,60,108,29,24,45,224,29,11,42,168,29,25,18,298,23,8*6F
$GPGSV,2,2,05,03,10,032,17,8*5D
$GLGSV,2,1,05,85,73,053,27,75,61,136,30,86,44,205,19,84,19,035,,1*75
$GLGSV,2,2,05,67,08,324,15,1*45
$GAGSV,3,1,11,30,70,301,36,02,53,109,34,36,51,072,34,34,47,161,33,7*78
$GAGSV,3,2,11,27,18,295,26,11,13,035,20,29,13,308,21,07,11,257,25,7*73
$GAGSV,3,3,11,15,05,194,23,19,03,350,19,25,03,113,17,7*4B
$GAGSV,2,1,06,30,70,301,25,02,53,109,28,36,51,072,26,34,47,161,27,1*70
$GAGSV,2,2,06,27,18,295,21,29,13,308,18,1*79
$GBGSV,3,1,11,44,80,156,35,24,72,203,33,12,59,210,30,35,41,057,30,1*77
$GBGSV,3,2,11,25,37,305,31,34,30,222,29,26,28,150,23,39,10,330,24,1*7B
$GBGSV,3,3,11,11,07,222,21,16,02,334,,20,02,027,18,1*4D
$GBGSV,2,1,07,44,80,156,27,24,72,203,29,35,41,057,24,25,37,305,23,5*73
$GBGSV,2,2,07,34,30,222,21,26,28,150,20,39,10,330,14,5*46
$GNGLL,4910.426746,N,12304.400442,W,004138.000,A,D*55
$GNRMC,004139.000,A,4910.426662,N,12304.400418,W,0.02,335.64,080125,,,D,V*1A
$GNGGA,004139.000,4910.426662,N,12304.400418,W,2,47,0.56,15.609,M,-16.816,M,,*71
$GNVTG,335.64,T,,M,0.02,N,0.03,K,D*20
$GNGSA,A,3,06,12,19,24,11,17,25,03,32,,,,0.99,0.56,0.82,1*00
$GNGSA,A,3,85,75,86,67,,,,,,,,,0.99,0.56,0.82,2*0B
$GNGSA,A,3,30,02,36,34,27,11,29,07,,,,,0.99,0.56,0.82,3*00
$GNGSA,A,3,44,24,12,35,25,34,26,39,,,,,0.99,0.56,0.82,4*00
$GPGSV,3,1,10,06,60,108,39,12,57,298,38,19,51,062,36,24,45,224,36,1*66
$GPGSV,3,2,10,11,42,168,36,44,33,171,32,17,21,065,30,25,18,298,32,1*67
$GPGSV,3,3,10,03,10,032,28,32,09,317,32,1*60
$GPGSV,2,1,05,06,60,108,29,24,45,224,29,11,42,168,29,25,18,298,23,8*6F
$GPGSV,2,2,05,03,10,032,17,8*5D
$GLGSV,2,1,05,85,73,053,28,75,61,136,31,86,44,205,20,84,19,035,,1*71
$GLGSV,2,2,05,67,08,324,16,1*46
$GAGSV,3,1,11,30,70,301,36,02,53,109,34,36,51,072,34,34,47,161,33,7*78
$GAGSV,3,2,11,27,18,295,26,11,13,035,20,29,13,308,21,07,11,257,24,7*72
$GAGSV,3,3,11,15,05,194,23,19,03,350,19,25,03,113,17,7*4B
$GAGSV,2,1,06,30,70,301,25,02,53,109,27,36,51,072,26,34,47,161,27,1*7F
$GAGSV,2,2,06,27,18,295,21,29,13,308,18,1*79
$GBGSV,3,1,11,44,80,156,35,24,72,203,33,12,59,210,30,35,41,057,30,1*77
$GBGSV,3,2,11,25,37,305,31,34,30,222,29,26,28,150,23,39,10,330,24,1*7B
$GBGSV,3,3,11,11,07,222,21,16,02,334,,20,02,027,18,1*4D
$GBGSV,2,1,07,44,80,156,27,24,72,203,29,35,41,057,24,25,37,305,23,5*73
$GBGSV,2,2,07,34,30,222,21,26,28,150,20,39,10,330,14,5*46
$GNGLL,4910.426662,N,12304.400418,W,004139.000,A,D*5C
$GNRMC,004140.000,A,4910.426524,N,12304.400364,W,0.02,335.64,080125,,,D,V*19
$GNGGA,004140.000,4910.426524,N,12304.400364,W,2,47,0.56,15.587,M,-16.817,M,,*76
$GNVTG,335.64,T,,M,0.02,N,0.03,K,D*20
$GNGSA,A,3,06,12,19,24,11,17,25,03,32,,,,0.99,0.56,0.82,1*00
$GNGSA,A,3,85,75,86,67,,,,,,,,,0.99,0.56,0.82,2*0B
$GNGSA,A,3,30,02,36,34,27,11,29,07,,,,,0.99,0.56,0.82,3*00
$GNGSA,A,3,44,24,12,35,25,34,26,39,,,,,0.99,0.56,0.82,4*00
$GPGSV,3,1,10,06,60,108,39,12,57,298,38,19,51,062,36,24,45,224,36,1*66
$GPGSV,3,2,10,11,42,168,36,44,33,171,32,17,21,065,30,25,18,298,32,1*67
$GPGSV,3,3,10,03,10,032,27,32,09,317,32,1*6F
$GPGSV,2,1,05,06,60,108,29,24,45,224,29,11,42,168,29,25,18,298,23,8*6F
$GPGSV,2,2,05,03,10,032,17,8*5D
$GLGSV,1,1,04,85,73,053,28,75,61,136,31,86,44,205,20,67,08,324,16,1*7A
$GAGSV,3,1,11,30,70,301,36,02,53,109,34,36,51,072,34,34,47,161,33,7*78
$GAGSV,3,2,11,27,18,295,26,11,13,035,20,29,13,308,21,07,11,257,24,7*72
$GAGSV,3,3,11,15,05,194,23,25,03,113,17,19,03,350,19,7*4B
$GAGSV,2,1,06,30,70,301,25,02,53,109,27,36,51,072,26,34,47,161,27,1*7F
$GAGSV,2,2,06,27,18,295,21,29,13,308,18,1*79
$GBGSV,3,1,11,44,80,156,35,24,71,201,34,12,59,210,30,35,41,057,30,1*71
$GBGSV,3,2,11,25,37,305,31,34,30,222,29,26,28,150,24,39,10,330,24,1*7C
$GBGSV,3,3,11,11,07,222,21,16,02,334,,20,02,027,18,1*4D
$GBGSV,2,1,07,44,80,156,27,24,71,201,29,35,41,057,24,25,37,305,24,5*75
$GBGSV,2,2,07,34,30,222,21,26,28,150,19,39,10,330,14,5*4C
$GNGLL,4910.426524,N,12304.400364,W,004140.000,A,D*5F
$GNRMC,004141.000,A,4910.426410,N,12304.400238,W,0.02,335.64,080125,,,D,V*16
$GNGGA,004141.000,4910.426410,N,12304.400238,W,2,47,0.56,15.572,M,-16.816,M,,*72
$GNVTG,335.64,T,,M,0.02,N,0.03,K,D*20
$GNGSA,A,3,06,12,19,24,11,17,25,03,32,,,,0.99,0.56,0.82,1*00
$GNGSA,A,3,85,75,86,67,,,,,,,,,0.99,0.56,0.82,2*0B
$GNGSA,A,3,30,02,36,34,27,11,29,07,,,,,0.99,0.56,0.82,3*00
$GNGSA,A,3,44,24,12,35,25,34,26,39,,,,,0.99,0.56,0.82,4*00
$GPGSV,3,1,10,06,60,108,39,12,57,298,38,19,51,062,36,24,45,224,36,1*66
$GPGSV,3,2,10,11,42,168,36,44,33,171,32,17,21,065,30,25,18,298,33,1*66
$GPGSV,3,3,10,03,10,032,27,32,09,317,32,1*6F
$GPGSV,2,1,05,06,60,108,30,24,45,224,30,11,42,168,29,25,18,298,24,8*68
$GPGSV,2,2,05,03,10,032,18,8*52
$GLGSV,2,1,05,85,73,053,29,75,61,136,31,86,44,205,20,84,19,035,,1*70
$GLGSV,2,2,05,67,08,324,16,1*46
$GAGSV,3,1,11,30,70,301,36,02,53,109,34,36,51,072,34,34,47,161,33,7*78
$GAGSV,3,2,11,27,18,295,26,11,13,035,20,29,13,308,21,07,11,257,24,7*72
$GAGSV,3,3,11,15,05,194,23,19,03,350,19,25,03,113,17,7*4B
$GAGSV,2,1,06,30,70,301,25,02,53,109,27,36,51,072,26,34,47,161,27,1*7F
$GAGSV,2,2,06,27,18,295,21,29,13,308,18,1*79
$GBGSV,3,1,11,44,80,156,35,24,71,201,34,12,59,210,30,35,41,057,30,1*71
$GBGSV,3,2,11,25,38,304,31,34,30,222,29,26,28,150,24,39,10,330,24,1*72
$GBGSV,3,3,11,11,07,222,22,16,02,334,,20,02,027,18,1*4E
$GBGSV,2,1,07,44,80,156,27,24,71,201,29,35,41,057,24,25,38,304,25,5*7A
$GBGSV,2,2,07,34,30,222,21,26,28,150,20,39,10,330,14,5*46
$GNGLL,4910.426410,N,12304.400238,W,004141.000,A,D*50
$GNRMC,004142.000,A,4910.426284,N,12304.400202,W,0.02,335.64,080125,,,D,V*17
$GNGGA,004142.000,4910.426284,N,12304.400202,W,2,47,0.56,15.557,M,-16.816,M,,*74
$GNVTG,335.64,T,,M,0.02,N,0.03,K,D*20
$GNGSA,A,3,06,12,19,24,11,17,25,03,32,,,,0.99,0.56,0.82,1*00
$GNGSA,A,3,85,75,86,67,,,,,,,,,0.99,0.56,0.82,2*0B
$GNGSA,A,3,30,02,36,34,27,11,29,07,,,,,0.99,0.56,0.82,3*00
$GNGSA,A,3,44,24,12,35,25,34,26,39,,,,,0.99,0.56,0.82,4*00
$GPGSV,3,1,10,06,60,108,39,12,57,298,38,19,51,062,36,24,45,224,36,1*66
$GPGSV,3,2,10,11,42,168,36,44,33,171,32,17,21,065,30,25,18,298,33,1*66
$GPGSV,3,3,10,03,10,032,27,32,09,317,32,1*6F
$GPGSV,2,1,05,06,60,108,30,24,45,224,30,11,42,168,29,25,18,298,24,8*68
$GPGSV,2,2,05,03,10,032,18,8*52
$GLGSV,2,1,05,85,73,053,29,75,61,136,31,86,44,205,20,84,19,035,,1*70
$GLGSV,2,2,05,67,08,324,16,1*46
$GAGSV,3,1,11,30,70,301,36,02,53,109,34,36,51,072,34,34,47,161,33,7*78
$GAGSV,3,2,11,27,18,295,26,11,13,035,20,29,13,308,22,07,11,257,24,7*71
$GAGSV,3,3,11,15,05,194,23,19,03,350,18,25,03,113,17,7*4A
$GAGSV,2,1,06,30,70,301,25,02,53,109,27,36,51,072,26,34,47,161,27,1*7F
$GAGSV,2,2,06,27,18,295,21,29,13,308,18,1*79
$GBGSV,3,1,11,44,80,156,35,24,71,201,34,12,59,210,30,35,41,057,30,1*71
$GBGSV,3,2,11,25,38,304,31,34,30,222,29,26,27,151,24,39,10,330,24,1*7C
$GBGSV,3,3,11,11,07,222,22,16,02,334,,20,02,027,18,1*4E
$GBGSV,2,1,07,44,80,156,27,24,71,201,29,35,41,057,24,25,38,304,25,5*7A
$GBGSV,2,2,07,34,30,222,21,26,27,151,20,39,10,330,14,5*48
$GNGLL,4910.426284,N,12304.400202,W,004142.000,A,D*51
$GNRMC,004143.000,A,4910.426158,N,12304.400178,W,0.01,335.64,080125,,,D,V*19
$GNGGA,004143.000,4910.426158,N,12304.400178,W,2,47,0.56,15.503,M,-16.816,M,,*78
$GNVTG,335.64,T,,M,0.01,N,0.03,K,D*23
$GNGSA,A,3,06,12,19,24,11,17,25,03,32,,,,0.99,0.56,0.82,1*00
$GNGSA,A,3,85,75,86,67,,,,,,,,,0.99,0.56,0.82,2*0B
$GNGSA,A,3,30,02,36,34,27,11,29,07,,,,,0.99,0.56,0.82,3*00
$GNGSA,A,3,44,24,12,35,25,34,26,39,,,,,0.99,0.56,0.82,4*00
$GPGSV,3,1,10,06,60,108,39,12,57,298,38,19,51,062,36,24,45,224,36,1*66
$GPGSV,3,2,10,11,42,168,36,44,33,171,32,17,21,065,30,25,18,298,32,1*67
$GPGSV,3,3,10,03,10,032,27,32,09,317,32,1*6F
$GPGSV,2,1,05,06,60,108,30,24,45,224,30,11,42,168,29,25,18,298,24,8*68
$GPGSV,2,2,05,03,10,032,18,8*52
$GLGSV,2,1,05,85,73,053,29,75,61,136,32,86,44,205,20,84,19,035,,1*73
$GLGSV,2,2,05,67,08,324,17,1*47
$GAGSV,3,1,11,30,70,301,36,02,53,109,34,36,51,072,34,34,47,161,33,7*78
$GAGSV,3,2,11,27,18,295,26,11,13,035,20,29,13,308,22,07,11,257,24,7*71
$GAGSV,3,3,11,15,05,194,23,19,03,350,18,25,03,113,17,7*4A
$GAGSV,2,1,06,30,70,301,25,02,53,109,27,36,51,072,26,34,47,161,27,1*7F
$GAGSV,2,2,06,27,18,295,21,29,13,308,18,1*79
$GBGSV,3,1,11,44,80,156,35,24,71,201,34,12,59,210,30,35,41,057,30,1*71
$GBGSV,3,2,11,25,38,304,31,34,30,222,29,26,27,151,24,39,10,330,25,1*7D
$GBGSV,3,3,11,11,07,222,22,16,02,334,,20,02,027,18,1*4E
$GBGSV,2,1,07,44,80,156,27,24,71,201,29,35,41,057,24,25,38,304,25,5*7A
$GBGSV,2,2,07,34,30,222,21,26,27,151,20,39,10,330,14,5*48
$GNGLL,4910.426158,N,12304.400178,W,004143.000,A,D*5C
$GNRMC,004144.000,A,4910.426020,N,12304.400214,W,0.02,335.64,080125,,,D,V*1A
$GNGGA,004144.000,4910.426020,N,12304.400214,W,2,47,0.56,15.465,M,-16.817,M,,*78
$GNVTG,335.64,T,,M,0.02,N,0.03,K,D*20
$GNGSA,A,3,06,12,19,24,11,17,25,03,32,,,,0.99,0.56,0.82,1*00
$GNGSA,A,3,85,75,86,67,,,,,,,,,0.99,0.56,0.82,2*0B
$GNGSA,A,3,30,02,36,34,27,11,29,07,,,,,0.99,0.56,0.82,3*00
$GNGSA,A,3,44,24,12,35,25,34,26,39,,,,,0.99,0.56,0.82,4*00
$GPGSV,3,1,10,06,60,108,39,12,57,298,38,19,51,062,36,24,45,224,36,1*66
$GPGSV,3,2,10,11,42,168,36,44,33,171,32,17,21,065,30,25,18,298,32,1*67
$GPGSV,3,3,10,03,10,032,27,32,09,317,32,1*6F
$GPGSV,2,1,05,06,60,108,30,24,45,224,30,11,42,168,29,25,18,298,24,8*68
$GPGSV,2,2,05,03,10,032,18,8*52
$GLGSV,1,1,04,85,73,053,29,75,61,136,32,86,44,205,20,67,08,324,17,1*79
$GAGSV,3,1,11,30,70,301,36,02,53,109,34,36,51,072,34,34,47,161,33,7*78
$GAGSV,3,2,11,27,18,295,26,11,13,035,20,29,13,308,22,07,11,257,24,7*71
$GAGSV,3,3,11,15,05,194,23,25,03,113,17,19,03,350,18,7*4A
$GAGSV,2,1,06,30,70,301,25,02,53,109,27,36,51,072,26,34,47,161,27,1*7F
$GAGSV,2,2,06,27,18,295,21,29,13,308,18,1*79
$GBGSV,3,1,11,44,80,156,35,24,71,201,34,12,59,210,30,35,41,057,30,1*71
$GBGSV,3,2,11,25,38,304,31,34,30,222,29,26,27,151,24,39,10,330,25,1*7D
$GBGSV,3,3,11,11,07,222,22,16,02,334,,20,02,027,18,1*4E
$GBGSV,2,1,07,44,80,156,27,24,71,201,29,35,41,057,24,25,38,304,25,5*7A
$GBGSV,2,2,07,34,30,222,22,26,27,151,20,39,10,330,14,5*4B
$GNGLL,4910.426020,N,12304.400214,W,004144.000,A,D*5C
$GNRMC,004145.000,A,4910.425924,N,12304.400196,W,0.02,335.64,080125,,,D,V*1C
$GNGGA,004145.000,4910.425924,N,12304.400196,W,2,47,0.56,15.514,M,-16.816,M,,*78
$GNVTG,335.64,T,,M,0.02,N,0.03,K,D*20
$GNGSA,A,3,06,12,19,24,11,17,25,03,32,,,,0.99,0.56,0.82,1*00
$GNGSA,A,3,85,75,86,67,,,,,,,,,0.99,0.56,0.82,2*0B
$GNGSA,A,3,30,02,36,34,27,11,29,07,,,,,0.99,0.56,0.82,3*00
$GNGSA,A,3,44,24,12,35,25,34,26,39,,,,,0.99,0.56,0.82,4*00
$GPGSV,3,1,10,06,60,108,39,12,57,298,38,19,51,062,36,24,45,224,36,1*66
$GPGSV,3,2,10,11,42,168,36,44,33,171,32,17,21,065,30,25,18,298,32,1*67
$GPGSV,3,3,10,03,10,032,27,32,09,317,32,1*6F
$GPGSV,2,1,05,06,60,108,31,24,45,224,30,11,42,168,29,25,18,298,24,8*69
$GPGSV,2,2,05,03,10,032,18,8*52
$GLGSV,1,1,04,85,73,053,28,75,61,136,31,86,44,205,20,67,08,324,16,1*7A
$GAGSV,3,1,11,30,70,301,36,02,53,109,34,36,51,072,34,34,47,161,33,7*78
$GAGSV,3,2,11,27,18,295,26,11,13,035,20,29,13,308,22,07,11,257,23,7*76
$GAGSV,3,3,11,15,05,194,23,25,03,113,17,19,03,350,18,7*4A
$GAGSV,2,1,06,30,70,301,26,02,53,109,28,36,51,072,26,34,47,161,27,1*73
$GAGSV,2,2,06,27,18,295,21,29,13,308,18,1*79
$GBGSV,3,1,11,44,80,156,36,24,71,201,34,12,59,210,30,35,41,057,30,1*72
$GBGSV,3,2,11,25,38,304,31,34,30,222,29,26,27,151,24,39,10,330,25,1*7D
$GBGSV,3,3,11,11,07,222,22,16,02,334,,20,02,027,18,1*4E
$GBGSV,2,1,07,44,80,156,27,24,71,201,29,35,41,057,24,25,38,304,25,5*7A
$GBGSV,2,2,07,34,30,222,23,26,27,151,20,39,10,330,14,5*4A
$GNGLL,4910.425924,N,12304.400196,W,004145.000,A,D*5A
$GNRMC,004146.000,A,4910.425822,N,12304.400190,W,0.02,335.64,080125,,,D,V*1E
$GNGGA,004146.000,4910.425822,N,12304.400190,W,2,47,0.56,15.584,M,-16.816,M,,*73
$GNVTG,335.64,T,,M,0.02,N,0.03,K,D*20
$GNGSA,A,3,06,12,19,24,11,17,25,03,32,,,,0.99,0.56,0.82,1*00
$GNGSA,A,3,85,75,86,67,,,,,,,,,0.99,0.56,0.82,2*0B
$GNGSA,A,3,30,02,36,34,27,11,29,07,,,,,0.99,0.56,0.82,3*00
$GNGSA,A,3,44,24,12,35,25,34,26,39,,,,,0.99,0.56,0.82,4*00
$GPGSV,3,1,10,06,60,108,39,12,57,298,38,19,51,062,36,24,45,224,36,1*66
$GPGSV,3,2,10,11,42,168,36,44,33,171,32,17,21,065,30,25,18,298,32,1*67
$GPGSV,3,3,10,03,10,032,26,32,09,317,32,1*6E
$GPGSV,2,1,05,06,60,108,31,24,45,224,30,11,42,168,29,25,18,298,24,8*69
$GPGSV,2,2,05,03,10,032,18,8*52
$GLGSV,2,1,05,85,73,053,29,75,61,136,31,86,44,205,20,84,19,035,,1*70
$GLGSV,2,2,05,67,08,324,16,1*46
$GAGSV,3,1,11,30,70,301,36,02,53,109,34,36,51,072,34,34,47,161,33,7*78
$GAGSV,3,2,11,27,18,295,26,11,13,035,20,29,13,308,22,07,11,257,23,7*76
$GAGSV,3,3,11,15,05,194,23,19,03,350,17,25,03,113,17,7*45
$GAGSV,2,1,06,30,70,301,26,02,53,109,28,36,51,072,26,34,47,161,27,1*73
$GAGSV,2,2,06,27,18,295,21,29,13,308,18,1*79
$GBGSV,3,1,11,44,80,156,36,24,71,201,34,12,59,210,30,35,41,057,30,1*72
$GBGSV,3,2,11,25,38,304,31,34,30,222,29,26,27,151,24,39,10,330,25,1*7D
$GBGSV,3,3,11,11,07,222,23,16,02,334,,20,02,027,18,1*4F
$GBGSV,2,1,07,44,80,156,27,24,71,201,29,35,41,057,24,25,38,304,25,5*7A
$GBGSV,2,2,07,34,30,222,23,26,27,151,20,39,10,330,14,5*4A
$GNGLL,4910.425822,N,12304.400190,W,004146.000,A,D*58
$GNRMC,004147.000,A,4910.425678,N,12304.400274,W,0.03,335.64,080125,,,D,V*16
$GNGGA,004147.000,4910.425678,N,12304.400274,W,2,47,0.56,15.620,M,-16.817,M,,*76
$GNVTG,335.64,T,,M,0.03,N,0.05,K,D*27
$GNGSA,A,3,06,12,19,24,11,17,25,03,32,,,,0.99,0.56,0.82,1*00
$GNGSA,A,3,85,75,86,67,,,,,,,,,0.99,0.56,0.82,2*0B
$GNGSA,A,3,30,02,36,34,27,11,29,07,,,,,0.99,0.56,0.82,3*00
$GNGSA,A,3,44,24,12,35,25,34,26,39,,,,,0.99,0.56,0.82,4*00
$GPGSV,3,1,10,06,60,108,39,12,57,298,38,19,51,062,36,24,45,224,36,1*66
$GPGSV,3,2,10,11,42,168,36,44,33,171,32,17,21,065,30,25,18,298,32,1*67
$GPGSV,3,3,10,03,10,032,26,32,09,317,32,1*6E
$GPGSV,2,1,05,06,60,108,30,24,45,224,29,11,42,168,28,25,18,298,23,8*66
$GPGSV,2,2,05,03,10,032,17,8*5D
$GLGSV,1,1,04,85,73,053,29,75,61,136,31,86,44,205,20,67,08,324,17,1*7A
$GAGSV,3,1,11,30,70,301,35,02,53,109,33,36,51,072,34,34,47,161,33,7*7C
$GAGSV,3,2,11,27,18,295,26,11,13,035,20,29,13,308,22,07,11,257,22,7*77
$GAGSV,3,3,11,15,05,194,23,25,03,113,17,19,03,350,17,7*45
$GAGSV,2,1,06,30,70,301,25,02,53,109,28,36,51,072,26,34,47,161,26,1*71
$GAGSV,2,2,06,27,18,295,21,29,13,308,18,1*79
$GBGSV,3,1,11,44,80,156,36,24,71,201,34,12,59,210,30,35,41,057,30,1*72
$GBGSV,3,2,11,25,38,304,31,34,30,222,29,26,27,151,24,39,10,330,25,1*7D
$GBGSV,3,3,11,11,07,222,23,16,02,334,,20,02,027,18,1*4F
$GBGSV,2,1,07,44,80,156,27,24,71,201,28,35,41,057,24,25,38,304,24,5*7A
$GBGSV,2,2,07,34,30,222,22,26,27,151,20,39,10,330,14,5*4B
$GNGLL,4910.425678,N,12304.400274,W,004147.000,A,D*51
$GNRMC,004148.000,A,4910.425618,N,12304.400238,W,0.02,335.64,080125,,,D,V*16
$GNGGA,004148.000,4910.425618,N,12304.400238,W,2,47,0.56,15.625,M,-16.817,M,,*72
$GNVTG,335.64,T,,M,0.02,N,0.04,K,D*27
$GNGSA,A,3,06,12,19,24,11,17,25,03,32,,,,0.99,0.56,0.82,1*00
$GNGSA,A,3,85,75,86,67,,,,,,,,,0.99,0.56,0.82,2*0B
$GNGSA,A,3,30,02,36,34,27,11,29,07,,,,,0.99,0.56,0.82,3*00
$GNGSA,A,3,44,24,12,35,25,34,26,39,,,,,0.99,0.56,0.82,4*00
$GPGSV,3,1,10,06,60,108,39,12,57,298,38,19,51,062,36,24,45,224,36,1*66
$GPGSV,3,2,10,11,42,168,36,44,33,171,32,17,21,065,30,25,18,298,32,1*67
$GPGSV,3,3,10,03,10,032,26,32,09,317,32,1*6E
$GPGSV,2,1,05,06,60,108,30,24,45,224,29,11,42,168,28,25,18,298,23,8*66
$GPGSV,2,2,05,03,10,032,17,8*5D
$GLGSV,1,1,04,85,73,053,29,75,61,136,32,86,44,205,20,67,08,324,17,1*79
$GAGSV,3,1,11,30,70,301,35,02,53,109,33,36,51,072,34,34,47,161,33,7*7C
$GAGSV,3,2,11,27,18,295,26,11,13,035,20,29,13,308,22,07,11,257,23,7*76
$GAGSV,3,3,11,15,05,194,23,25,03,113,17,19,03,350,17,7*45
$GAGSV,2,1,06,30,70,301,25,02,53,109,28,36,51,072,26,34,47,161,26,1*71
$GAGSV,2,2,06,27,18,295,21,29,13,308,18,1*79
$GBGSV,3,1,11,44,80,156,36,24,71,201,34,12,59,210,30,35,41,057,30,1*72
$GBGSV,3,2,11,25,38,304,31,34,30,222,29,26,27,151,24,39,10,330,25,1*7D
$GBGSV,3,3,11,11,07,222,23,16,02,334,,20,02,027,18,1*4F
$GBGSV,2,1,07,44,80,156,27,24,71,201,28,35,41,057,24,25,38,304,24,5*7A
$GBGSV,2,2,07,34,30,222,22,26,27,151,20,39,10,330,14,5*4B
$GNGLL,4910.425618,N,12304.400238,W,004148.000,A,D*50
$GNRMC,004149.000,A,4910.425546,N,12304.400274,W,0.02,335.64,080125,,,D,V*17
$GNGGA,004149.000,4910.425546,N,12304.400274,W,2,47,0.56,15.632,M,-16.816,M,,*74
$GNVTG,335.64,T,,M,0.02,N,0.04,K,D*27
$GNGSA,A,3,06,12,19,24,11,17,25,03,32,,,,0.99,0.56,0.82,1*00
$GNGSA,A,3,85,75,86,67,,,,,,,,,0.99,0.56,0.82,2*0B
$GNGSA,A,3,30,02,36,34,27,11,29,07,,,,,0.99,0.56,0.82,3*00
$GNGSA,A,3,44,24,12,35,25,34,26,39,,,,,0.99,0.56,0.82,4*00
$GPGSV,3,1,10,06,60,108,38,12,57,298,38,19,51,062,35,24,45,224,36,1*64
$GPGSV,3,2,10,11,42,168,35,44,33,171,31,17,21,065,30,25,18,298,32,1*67
$GPGSV,3,3,10,03,10,032,26,32,09,317,31,1*6D
$GPGSV,2,1,05,06,60,108,30,24,45,224,29,11,42,168,28,25,18,298,22,8*67
$GPGSV,2,2,05,03,10,032,16,8*5C
$GLGSV,1,1,04,85,73,053,29,75,61,136,32,86,44,205,20,67,08,324,17,1*79
$GAGSV,3,1,11,30,70,301,35,02,53,109,32,36,51,072,34,34,47,161,33,7*7D
$GAGSV,3,2,11,27,18,295,26,11,13,035,20,29,13,308,22,07,11,257,23,7*76
$GAGSV,3,3,11,15,05,194,23,25,03,113,16,19,03,350,17,7*44
$GAGSV,2,1,06,30,70,301,25,02,53,109,28,36,51,072,26,34,47,161,26,1*71
$GAGSV,2,2,06,27,18,295,20,29,13,308,18,1*78
$GBGSV,3,1,11,44,80,156,36,24,71,201,34,12,59,210,29,35,41,057,30,1*7A
$GBGSV,3,2,11,25,38,304,31,34,30,222,29,26,27,151,24,39,10,330,25,1*7D
$GBGSV,3,3,11,11,07,222,23,16,02,334,,20,02,027,18,1*4F
$GBGSV,2,1,07,44,80,156,27,24,71,201,28,35,41,057,24,25,38,304,24,5*7A
$GBGSV,2,2,07,34,30,222,21,26,27,151,20,39,10,330,14,5*48
$GNGLL,4910.425546,N,12304.400274,W,004149.000,A,D*51
$GNRMC,004150.000,A,4910.425486,N,12304.400274,W,0.02,335.64,080125,,,D,V*12
$GNGGA,004150.000,4910.425486,N,12304.400274,W,2,47,0.56,15.574,M,-16.816,M,,*70
$GNVTG,335.64,T,,M,0.02,N,0.04,K,D*27
$GNGSA,A,3,06,12,19,24,11,17,25,03,32,,,,0.99,0.56,0.82,1*00
$GNGSA,A,3,85,75,86,67,,,,,,,,,0.99,0.56,0.82,2*0B
$GNGSA,A,3,30,02,36,34,27,11,29,07,,,,,0.99,0.56,0.82,3*00
$GNGSA,A,3,44,24,12,35,25,34,26,39,,,,,0.99,0.56,0.82,4*00
$GPGSV,3,1,10,06,60,108,38,12,57,298,38,19,51,062,35,24,45,224,35,1*67
$GPGSV,3,2,10,11,42,168,35,44,33,171,31,17,21,065,30,25,18,298,32,1*67
$GPGSV,3,3,10,03,10,032,25,32,09,317,31,1*6E
$GPGSV,2,1,05,06,60,108,29,24,45,224,29,11,42,168,28,25,18,298,22,8*6F
$GPGSV,2,2,05,03,10,032,16,8*5C
$GLGSV,1,1,04,85,73,053,29,75,61,136,32,86,44,205,20,67,08,324,17,1*79
$GAGSV,3,1,11,30,70,301,34,02,53,109,32,36,51,072,34,34,47,161,33,7*7C
$GAGSV,3,2,11,27,18,295,26,11,13,035,20,29,13,308,22,07,11,257,23,7*76
$GAGSV,3,3,11,15,05,194,23,25,03,113,16,19,03,350,17,7*44
$GAGSV,2,1,06,30,70,301,25,02,53,109,27,36,51,072,25,34,47,161,25,1*7E
$GAGSV,2,2,06,27,18,295,20,29,13,308,18,1*78
$GBGSV,3,1,11,44,80,156,36,24,71,201,34,12,59,210,29,35,41,057,30,1*7A
$GBGSV,3,2,11,25,38,304,31,34,31,223,29,26,27,151,24,39,10,330,25,1*7D
$GBGSV,3,3,11,11,07,222,23,16,02,334,,20,02,027,18,1*4F
$GBGSV,2,1,07,44,80,156,26,24,71,201,28,35,41,057,24,25,38,304,24,5*7B
$GBGSV,2,2,07,34,31,223,20,26,27,151,19,39,10,330,14,5*43
$GNGLL,4910.425486,N,12304.400274,W,004150.000,A,D*54
$GNRMC,004151.000,A,4910.425468,N,12304.400262,W,0.01,335.64,080125,,,D,V*17
$GNGGA,004151.000,4910.425468,N,12304.400262,W,2,47,0.56,15.462,M,-16.816,M,,*70
$GNVTG,335.64,T,,M,0.01,N,0.03,K,D*23
$GNGSA,A,3,06,12,19,24,11,17,25,03,32,,,,0.99,0.56,0.82,1*00
$GNGSA,A,3,85,75,86,67,,,,,,,,,0.99,0.56,0.82,2*0B
$GNGSA,A,3,30,02,36,34,27,11,29,07,,,,,0.99,0.56,0.82,3*00
$GNGSA,A,3,44,24,12,35,25,34,26,39,,,,,0.99,0.56,0.82,4*00
$GPGSV,3,1,10,06,60,108,38,12,57,298,38,19,51,062,35,24,45,224,35,1*67
$GPGSV,3,2,10,11,42,168,35,44,33,171,30,17,21,065,30,25,18,298,32,1*66
$GPGSV,3,3,10,03,10,032,25,32,09,317,31,1*6E
$GPGSV,2,1,05,06,60,108,29,24,45,224,29,11,42,168,29,25,18,298,22,8*6E
$GPGSV,2,2,05,03,10,032,16,8*5C
$GLGSV,1,1,04,85,73,053,29,75,61,136,32,86,44,205,20,67,08,324,17,1*79
$GAGSV,3,1,11,30,70,301,34,02,53,109,32,36,51,072,34,34,47,161,33,7*7C
$GAGSV,3,2,11,27,18,295,26,11,13,035,20,29,13,308,22,07,11,257,23,7*76
$GAGSV,3,3,11,15,05,194,23,25,03,113,16,19,03,350,16,7*45
$GAGSV,2,1,06,30,70,301,25,02,53,109,28,36,51,072,25,34,47,161,25,1*71
$GAGSV,2,2,06,27,18,295,20,29,13,308,18,1*78
$GBGSV,3,1,11,44,80,156,36,24,71,201,34,12,59,210,29,35,40,057,30,1*7B
$GBGSV,3,2,11,25,38,304,31,34,31,223,29,26,27,151,24,39,10,330,25,1*7D
$GBGSV,3,3,11,11,07,222,23,16,02,334,,20,02,027,18,1*4F
$GBGSV,2,1,07,44,80,156,26,24,71,201,28,35,40,057,24,25,38,304,24,5*7A
$GBGSV,2,2,07,34,31,223,20,26,27,151,19,39,10,330,14,5*43
$GNGLL,4910.425468,N,12304.400262,W,004151.000,A,D*52
$GNRMC,004152.000,A,4910.425462,N,12304.400286,W,0.01,335.64,080125,,,D,V*14
$GNGGA,004152.000,4910.425462,N,12304.400286,W,2,47,0.56,15.400,M,-16.816,M,,*77
$GNVTG,335.64,T,,M,0.01,N,0.02,K,D*22
$GNGSA,A,3,06,12,19,24,11,17,25,03,32,,,,0.99,0.56,0.82,1*00
$GNGSA,A,3,85,75,86,67,,,,,,,,,0.99,0.56,0.82,2*0B
$GNGSA,A,3,30,02,36,34,27,11,29,07,,,,,0.99,0.56,0.82,3*00
$GNGSA,A,3,44,24,12,35,25,34,26,39,,,,,0.99,0.56,0.82,4*00
$GPGSV,3,1,10,06,60,108,38,12,57,298,37,19,51,062,35,24,45,224,35,1*68
$GPGSV,3,2,10,11,42,168,35,44,33,171,30,17,21,065,30,25,18,298,31,1*65
$GPGSV,3,3,10,03,10,032,25,32,09,317,31,1*6E
$GPGSV,2,1,05,06,60,108,29,24,45,224,29,11,42,168,29,25,18,298,22,8*6E
$GPGSV,2,2,05,03,10,032,16,8*5C
$GLGSV,2,1,05,85,73,053,29,75,61,136,32,86,44,205,20,84,19,035,,1*73
$GLGSV,2,2,05,67,08,324,17,1*47
$GAGSV,3,1,11,30,70,301,34,02,53,109,32,36,51,072,33,34,47,161,33,7*7B
$GAGSV,3,2,11,27,18,295,26,11,13,035,20,29,13,308,22,07,11,257,23,7*76
$GAGSV,3,3,11,15,05,194,24,19,03,350,16,25,03,113,16,7*42
$GAGSV,2,1,06,30,70,301,25,02,53,109,28,36,51,072,25,34,47,161,25,1*71
$GAGSV,2,2,06,27,18,295,20,29,13,308,18,1*78
$GBGSV,3,1,11,44,80,156,36,24,71,201,34,12,59,210,29,35,40,057,30,1*7B
$GBGSV,3,2,11,25,38,304,31,34,31,223,29,26,27,151,24,39,10,330,25,1*7D
$GBGSV,3,3,11,11,07,222,23,16,02,334,,20,02,027,18,1*4F
$GBGSV,2,1,07,44,80,156,26,24,71,201,28,35,40,057,24,25,38,304,24,5*7A
$GBGSV,2,2,07,34,31,223,20,26,27,151,19,39,10,330,14,5*43
$GNGLL,4910.425462,N,12304.400286,W,004152.000,A,D*51
$GNRMC,004153.000,A,4910.425438,N,12304.400274,W,0.01,335.64,080125,,,D,V*17
$GNGGA,004153.000,4910.425438,N,12304.400274,W,2,47,0.56,15.326,M,-16.817,M,,*76
$GNVTG,335.64,T,,M,0.01,N,0.02,K,D*22
$GNGSA,A,3,06,12,19,24,11,17,25,03,32,,,,0.99,0.56,0.82,1*00
$GNGSA,A,3,85,75,86,67,,,,,,,,,0.99,0.56,0.82,2*0B
$GNGSA,A,3,30,02,36,34,27,11,29,07,,,,,0.99,0.56,0.82,3*00
$GNGSA,A,3,44,24,12,35,25,34,26,39,,,,,0.99,0.56,0.82,4*00
$GPGSV,3,1,10,06,60,108,38,12,57,298,37,19,51,062,35,24,45,224,35,1*68
$GPGSV,3,2,10,11,42,168,35,44,33,171,30,17,21,065,30,25,18,298,31,1*65
$GPGSV,3,3,10,03,10,032,25,32,09,317,31,1*6E
$GPGSV,2,1,05,06,60,108,29,24,45,224,29,11,42,168,29,25,18,298,22,8*6E
$GPGSV,2,2,05,03,10,032,16,8*5C
$GLGSV,2,1,05,85,73,053,28,75,61,136,31,86,44,205,20,84,19,035,,1*71
$GLGSV,2,2,05,67,08,324,16,1*46
$GAGSV,3,1,11,30,70,301,34,02,53,109,32,36,51,072,33,34,47,161,33,7*7B
$GAGSV,3,2,11,27,18,295,26,11,13,035,20,29,13,308,22,07,11,257,23,7*76
$GAGSV,3,3,11,15,05,194,24,19,03,350,15,25,03,113,16,7*41
$GAGSV,2,1,06,30,70,301,25,02,53,109,28,36,51,072,25,34,47,161,26,1*72
$GAGSV,2,2,06,27,18,295,20,29,13,308,18,1*78
$GBGSV,3,1,11,44,80,156,36,24,71,201,34,12,59,210,29,35,40,057,30,1*7B
$GBGSV,3,2,11,25,38,304,31,34,31,223,29,26,27,151,24,39,10,330,25,1*7D
$GBGSV,3,3,11,11,07,222,23,16,02,334,,20,02,027,18,1*4F
$GBGSV,2,1,07,44,80,156,26,24,71,201,28,35,40,057,24,25,38,304,24,5*7A
$GBGSV,2,2,07,34,31,223,20,26,27,151,19,39,10,330,14,5*43
$GNGLL,4910.425438,N,12304.400274,W,004153.000,A,D*52
$GNRMC,004154.000,A,4910.425378,N,12304.400340,W,0.01,335.64,080125,,,D,V*15
$GNGGA,004154.000,4910.425378,N,12304.400340,W,2,47,0.56,15.269,M,-16.817,M,,*7E
$GNVTG,335.64,T,,M,0.01,N,0.02,K,D*22
$GNGSA,A,3,06,12,19,24,11,17,25,03,32,,,,0.99,0.56,0.82,1*00
$GNGSA,A,3,85,75,86,67,,,,,,,,,0.99,0.56,0.82,2*0B
$GNGSA,A,3,30,02,36,34,27,11,29,07,,,,,0.99,0.56,0.82,3*00
$GNGSA,A,3,44,24,12,35,25,34,26,39,,,,,0.99,0.56,0.82,4*00
$GPGSV,3,1,10,06,60,108,38,12,57,298,37,19,51,062,35,24,45,224,35,1*68
$GPGSV,3,2,10,11,42,168,35,44,33,171,30,17,21,065,30,25,18,298,31,1*65
$GPGSV,3,3,10,03,10,032,25,32,09,317,31,1*6E
$GPGSV,2,1,05,06,60,108,29,24,45,224,29,11,42,168,29,25,18,298,22,8*6E
$GPGSV,2,2,05,03,10,032,16,8*5C
$GLGSV,2,1,05,85,73,053,28,75,61,136,31,86,44,205,20,84,19,035,,1*71
$GLGSV,2,2,05,67,08,324,16,1*46
$GAGSV,3,1,11,30,70,301,34,02,53,109,32,36,51,072,33,34,47,161,33,7*7B
$GAGSV,3,2,11,27,18,295,26,11,13,035,20,29,13,308,22,07,11,257,23,7*76
$GAGSV,3,3,11,15,05,194,23,19,03,350,15,25,03,113,16,7*46
$GAGSV,2,1,06,30,70,301,25,02,53,109,27,36,51,072,25,34,47,161,26,1*7D
$GAGSV,2,2,06,27,18,295,20,29,13,308,18,1*78
$GBGSV,3,1,11,44,80,156,36,24,71,201,34,12,59,210,29,35,40,057,30,1*7B
$GBGSV,3,2,11,25,38,304,31,34,31,223,28,26,27,151,24,39,10,330,25,1*7C
$GBGSV,3,3,11,11,07,222,23,16,02,334,,20,02,027,18,1*4F
$GBGSV,2,1,07,44,80,156,26,24,71,201,28,35,40,057,23,25,38,304,24,5*7D
$GBGSV,2,2,07,34,31,223,20,26,27,151,18,39,10,330,14,5*42
$GNGLL,4910.425378,N,12304.400340,W,004154.000,A,D*50
$GNRMC,004155.000,A,4910.425402,N,12304.400262,W,0.01,335.64,080125,,,D,V*1F
$GNGGA,004155.000,4910.425402,N,12304.400262,W,2,47,0.56,15.215,M,-16.816,M,,*7E
$GNVTG,335.64,T,,M,0.01,N,0.03,K,D*23
$GNGSA,A,3,06,12,19,24,11,17,25,03,32,,,,0.99,0.56,0.82,1*00
$GNGSA,A,3,85,75,86,67,,,,,,,,,0.99,0.56,0.82,2*0B
$GNGSA,A,3,30,02,36,34,27,11,29,07,,,,,0.99,0.56,0.82,3*00
$GNGSA,A,3,44,24,12,35,25,34,26,39,,,,,0.99,0.56,0.82,4*00
$GPGSV,3,1,10,06,60,108,38,12,57,298,37,19,51,062,35,24,45,224,35,1*68
$GPGSV,3,2,10,11,42,168,35,44,33,171,31,17,21,065,30,25,18,298,31,1*64
$GPGSV,3,3,10,03,10,032,25,32,09,317,31,1*6E
$GPGSV,2,1,05,06,60,108,29,24,45,224,29,11,42,168,29,25,18,298,23,8*6F
$GPGSV,2,2,05,03,10,032,16,8*5C
$GLGSV,2,1,05,85,73,053,28,75,61,136,31,86,44,205,20,84,19,035,,1*71
$GLGSV,2,2,05,67,08,324,17,1*47
$GAGSV,3,1,11,30,70,301,34,02,53,109,32,36,51,072,33,34,47,161,33,7*7B
$GAGSV,3,2,11,27,18,295,27,11,13,035,20,29,13,308,22,07,11,257,23,7*77
$GAGSV,3,3,11,15,05,194,23,19,03,350,15,25,03,113,16,7*46
$GAGSV,2,1,06,30,70,301,25,02,53,109,27,36,51,072,25,34,47,161,26,1*7D
$GAGSV,2,2,06,27,18,295,20,29,13,308,19,1*79
$GBGSV,3,1,11,44,80,156,36,24,71,201,34,12,59,210,30,35,40,057,30,1*73
$GBGSV,3,2,11,25,38,304,31,34,31,223,28,26,27,151,24,39,11,330,25,1*7D
$GBGSV,3,3,11,11,07,222,23,16,02,334,,20,02,027,18,1*4F
$GBGSV,2,1,07,44,80,156,26,24,71,201,28,35,40,057,23,25,38,304,24,5*7D
$GBGSV,2,2,07,34,31,223,20,26,27,151,18,39,11,330,14,5*43
$GNGLL,4910.425402,N,12304.400262,W,004155.000,A,D*5A
$GNRMC,004156.000,A,4910.425396,N,12304.400406,W,0.02,335.64,080125,,,D,V*11
$GNGGA,004156.000,4910.425396,N,12304.400406,W,2,47,0.56,15.205,M,-16.816,M,,*72
$GNVTG,335.64,T,,M,0.02,N,0.03,K,D*20
$GNGSA,A,3,06,12,19,24,11,17,25,03,32,,,,0.99,0.56,0.82,1*00
$GNGSA,A,3,85,75,86,67,,,,,,,,,0.99,0.56,0.82,2*0B
$GNGSA,A,3,30,02,36,34,27,11,29,07,,,,,0.99,0.56,0.82,3*00
$GNGSA,A,3,44,24,12,35,25,34,26,39,,,,,0.99,0.56,0.82,4*00
$GPGSV,3,1,10,06,60,108,38,12,57,298,37,19,51,062,35,24,45,224,35,1*68
$GPGSV,3,2,10,11,42,168,35,44,33,171,31,17,21,065,30,25,18,298,31,1*64
$GPGSV,3,3,10,03,10,032,25,32,09,317,31,1*6E
$GPGSV,2,1,05,06,60,108,29,24,45,224,28,11,42,168,28,25,18,298,23,8*6F
$GPGSV,2,2,05,03,10,032,15,8*5F
$GLGSV,2,1,05,85,73,053,28,75,61,136,31,86,44,205,20,84,19,035,,1*71
$GLGSV,2,2,05,67,08,324,17,1*47
$GAGSV,3,1,11,30,70,301,34,02,53,109,32,36,51,072,33,34,47,161,33,7*7B
$GAGSV,3,2,11,27,18,295,27,11,13,035,20,29,13,308,22,07,11,257,23,7*77
$GAGSV,3,3,11,15,05,194,23,19,03,350,16,25,03,113,16,7*45
$GAGSV,2,1,06,30,70,301,25,02,53,109,27,36,51,072,25,34,47,161,26,1*7D
$GAGSV,2,2,06,27,18,295,20,29,13,308,19,1*79
$GBGSV,3,1,11,44,80,156,36,24,71,201,34,12,59,210,30,35,40,057,30,1*73
$GBGSV,3,2,11,25,38,304,31,34,31,223,28,26,27,151,24,39,11,330,24,1*7C
$GBGSV,3,3,11,11,07,222,23,16,02,334,,20,02,027,19,1*4E
$GBGSV,2,1,07,44,80,156,26,24,71,201,28,35,40,057,23,25,38,304,24,5*7D
$GBGSV,2,2,07,34,31,223,20,26,27,151,18,39,11,330,14,5*43
$GNGLL,4910.425396,N,12304.400406,W,004156.000,A,D*57
$GNRMC,004157.000,A,4910.425348,N,12304.400508,W,0.01,335.64,080125,,,D,V*1F
$GNGGA,004157.000,4910.425348,N,12304.400508,W,2,46,0.56,15.231,M,-16.816,M,,*79
$GNVTG,335.64,T,,M,0.01,N,0.03,K,D*23
$GNGSA,A,3,06,12,19,24,11,17,25,03,32,,,,0.99,0.56,0.82,1*00
$GNGSA,A,3,85,75,86,67,,,,,,,,,0.99,0.56,0.82,2*0B
$GNGSA,A,3,30,02,36,34,27,11,29,07,,,,,0.99,0.56,0.82,3*00
$GNGSA,A,3,44,24,12,35,25,34,26,39,,,,,0.99,0.56,0.82,4*00
$GPGSV,3,1,10,06,60,108,38,12,57,298,36,19,51,062,35,24,45,224,34,1*68
$GPGSV,3,2,10,11,42,168,34,44,33,171,30,17,21,065,29,25,18,298,31,1*6C
$GPGSV,3,3,10,03,10,032,24,32,09,317,31,1*6F
$GPGSV,2,1,05,06,60,108,29,24,45,224,28,11,42,168,28,25,18,298,23,8*6F
$GPGSV,2,2,05,03,10,032,14,8*5E
$GLGSV,1,1,04,85,73,053,28,75,61,136,31,86,44,205,20,67,08,324,17,1*7B
$GAGSV,3,1,11,30,70,301,34,02,53,109,31,36,51,072,33,34,47,161,33,7*78
$GAGSV,3,2,11,27,18,295,26,11,13,035,20,29,13,308,22,07,11,257,23,7*76
$GAGSV,3,3,11,15,05,194,23,25,03,113,17,19,03,350,17,7*45
$GAGSV,2,1,06,30,70,301,25,02,53,109,27,36,51,072,25,34,47,161,26,1*7D
$GAGSV,2,2,06,27,18,295,20,29,13,308,19,1*79
$GBGSV,3,1,11,44,80,156,36,24,71,201,34,12,59,210,29,35,40,057,30,1*7B
$GBGSV,3,2,11,25,38,304,31,34,31,223,28,26,27,151,23,39,11,330,25,1*7A
$GBGSV,3,3,11,11,07,222,22,16,02,334,,20,02,027,18,1*4E
$GBGSV,2,1,07,44,80,156,26,24,71,201,28,35,40,057,23,25,38,304,24,5*7D
$GBGSV,2,2,07,34,31,223,20,26,27,151,18,39,11,330,14,5*43
$GNGLL,4910.425348,N,12304.400508,W,004157.000,A,D*5A
$GNRMC,004158.000,A,4910.425336,N,12304.400526,W,0.01,335.64,080125,,,D,V*15
$GNGGA,004158.000,4910.425336,N,12304.400526,W,2,47,0.56,15.180,M,-16.816,M,,*7B
$GNVTG,335.64,T,,M,0.01,N,0.02,K,D*22
$GNGSA,A,3,06,12,19,24,11,17,25,03,32,,,,0.99,0.56,0.82,1*00
$GNGSA,A,3,85,75,86,67,,,,,,,,,0.99,0.56,0.82,2*0B
$GNGSA,A,3,30,02,36,34,27,11,29,07,,,,,0.99,0.56,0.82,3*00
$GNGSA,A,3,44,24,12,35,25,34,26,39,,,,,0.99,0.56,0.82,4*00
$GPGSV,3,1,10,06,60,108,37,12,57,298,36,19,51,062,35,24,45,224,34,1*67
$GPGSV,3,2,10,11,42,168,34,44,33,171,30,17,21,065,29,25,18,298,30,1*6D
$GPGSV,3,3,10,03,10,032,24,32,09,317,31,1*6F
$GPGSV,2,1,05,06,60,108,29,24,45,224,28,11,42,168,28,25,18,298,22,8*6E
$GPGSV,2,2,05,03,10,032,14,8*5E
$GLGSV,1,1,04,85,73,053,28,75,61,136,31,86,44,205,20,67,08,324,17,1*7B
$GAGSV,3,1,11,30,70,301,33,02,53,109,31,36,51,072,33,34,47,161,33,7*7F
$GAGSV,3,2,11,27,18,295,26,11,13,035,19,29,13,308,22,07,11,257,23,7*7C
$GAGSV,3,3,11,15,05,194,23,25,03,113,17,19,03,350,17,7*45
$GAGSV,2,1,06,30,70,301,25,02,53,109,27,36,51,072,25,34,47,161,26,1*7D
$GAGSV,2,2,06,27,18,295,20,29,13,308,18,1*78
$GBGSV,3,1,11,44,80,156,36,24,71,201,34,12,59,210,29,35,40,057,30,1*7B
$GBGSV,3,2,11,25,38,304,31,34,31,223,28,26,27,151,23,39,11,330,24,1*7B
$GBGSV,3,3,11,11,07,222,22,16,02,334,,20,02,027,18,1*4E
$GBGSV,2,1,07,44,80,156,26,24,71,201,28,35,40,057,23,25,38,304,24,5*7D
$GBGSV,2,2,07,34,31,223,20,26,27,151,18,39,11,330,14,5*43
$GNGLL,4910.425336,N,12304.400526,W,004158.000,A,D*50
$GNRMC,004159.000,A,4910.425330,N,12304.400550,W,0.01,335.64,080125,,,D,V*13
$GNGGA,004159.000,4910.425330,N,12304.400550,W,2,47,0.56,15.131,M,-16.816,M,,*77
$GNVTG,335.64,T,,M,0.01,N,0.02,K,D*22
$GNGSA,A,3,06,12,19,24,11,17,25,03,32,,,,0.99,0.56,0.82,1*00
$GNGSA,A,3,85,75,86,67,,,,,,,,,0.99,0.56,0.82,2*0B
$GNGSA,A,3,30,02,36,34,27,11,29,07,,,,,0.99,0.56,0.82,3*00
$GNGSA,A,3,44,24,12,35,25,34,26,39,,,,,0.99,0.56,0.82,4*00
$GPGSV,3,1,10,06,60,108,37,12,57,298,36,19,51,062,35,24,45,224,34,1*67
$GPGSV,3,2,10,11,42,168,34,44,33,171,30,17,21,065,29,25,18,298,31,1*6C
$GPGSV,3,3,10,03,10,032,24,32,09,317,31,1*6F
$GPGSV,2,1,05,06,60,108,29,24,45,224,28,11,42,168,28,25,18,298,22,8*6E
$GPGSV,2,2,05,03,10,032,14,8*5E
$GLGSV,2,1,05,85,73,053,28,75,61,136,31,86,44,205,20,84,19,035,,1*71
$GLGSV,2,2,05,67,08,324,17,1*47
$GAGSV,3,1,11,30,70,301,34,02,53,109,31,36,51,072,33,34,47,161,33,7*78
$GAGSV,3,2,11,27,18,295,26,11,13,035,19,29,13,308,22,07,11,257,23,7*7C
$GAGSV,3,3,11,15,05,194,22,19,03,350,17,25,03,113,17,7*44
$GAGSV,2,1,06,30,70,301,25,02,53,109,27,36,51,072,25,34,47,161,26,1*7D
$GAGSV,2,2,06,27,18,295,19,29,13,308,18,1*72
$GBGSV,3,1,11,44,80,156,36,24,71,201,34,12,59,210,29,35,40,057,30,1*7B
$GBGSV,3,2,11,25,38,304,31,34,31,223,28,26,27,151,23,39,11,330,24,1*7B
$GBGSV,3,3,11,11,07,222,22,16,02,334,,20,02,027,18,1*4E
$GBGSV,2,1,07,44,80,156,27,24,71,201,28,35,40,057,23,25,38,304,24,5*7C
$GBGSV,2,2,07,34,31,223,20,26,27,151,18,39,11,330,14,5*43
$GNGLL,4910.425330,N,12304.400550,W,004159.000,A,D*56
$GNRMC,004200.000,A,4910.425252,N,12304.400592,W,0.01,335.64,080125,,,D,V*17
$GNGGA,004200.000,4910.425252,N,12304.400592,W,2,47,0.56,15.131,M,-16.816,M,,*73
$GNVTG,335.64,T,,M,0.01,N,0.02,K,D*22
$GNGSA,A,3,06,12,19,24,11,17,25,03,32,,,,0.99,0.56,0.82,1*00
$GNGSA,A,3,85,75,86,67,,,,,,,,,0.99,0.56,0.82,2*0B
$GNGSA,A,3,30,02,36,34,27,11,29,07,,,,,0.99,0.56,0.82,3*00
$GNGSA,A,3,44,24,12,35,25,34,26,39,,,,,0.99,0.56,0.82,4*00
$GPGSV,3,1,10,06,60,108,37,12,57,298,36,19,51,062,35,24,45,224,34,1*67
$GPGSV,3,2,10,11,42,168,34,44,33,171,30,17,21,065,29,25,18,298,31,1*6C
$GPGSV,3,3,10,03,10,032,23,32,09,317,31,1*68
$GPGSV,2,1,05,06,60,108,29,24,45,224,28,11,42,168,27,25,18,298,22,8*61
$GPGSV,2,2,05,03,10,032,13,8*59
$GLGSV,2,1,05,85,73,053,27,75,61,136,31,86,44,205,20,84,19,035,,1*7E
$GLGSV,2,2,05,67,08,324,17,1*47
$GAGSV,3,1,11,30,70,301,34,02,53,109,31,36,51,072,33,34,47,161,33,7*78
$GAGSV,3,2,11,27,18,295,26,11,13,035,19,29,13,308,22,07,11,257,23,7*7C
$GAGSV,3,3,11,15,05,194,22,19,03,350,17,25,03,113,17,7*44
$GAGSV,2,1,06,30,70,301,24,02,53,109,26,36,51,072,25,34,47,161,26,1*7D
$GAGSV,2,2,06,27,18,295,19,29,13,308,18,1*72
$GBGSV,3,1,11,44,81,150,36,24,71,201,34,12,59,210,29,35,40,057,30,1*7C
$GBGSV,3,2,11,25,38,304,31,34,31,223,28,26,27,151,23,39,11,330,24,1*7B
$GBGSV,3,3,11,11,07,222,23,16,02,334,,20,02,027,18,1*4F
$GBGSV,2,1,07,44,81,150,27,24,71,201,28,35,40,057,23,25,38,304,24,5*7B
$GBGSV,2,2,07,34,31,223,20,26,27,151,18,39,11,330,14,5*43
$GNGLL,4910.425252,N,12304.400592,W,004200.000,A,D*52
$GNRMC,004201.000,A,4910.425162,N,12304.400616,W,0.01,335.64,080125,,,D,V*19
$GNGGA,004201.000,4910.425162,N,12304.400616,W,2,47,0.56,15.146,M,-16.816,M,,*7D
$GNVTG,335.64,T,,M,0.01,N,0.02,K,D*22
$GNGSA,A,3,06,12,19,24,11,17,25,03,32,,,,0.99,0.56,0.82,1*00
$GNGSA,A,3,85,75,86,67,,,,,,,,,0.99,0.56,0.82,2*0B
$GNGSA,A,3,30,02,36,34,27,11,29,07,,,,,0.99,0.56,0.82,3*00
$GNGSA,A,3,44,24,12,35,25,34,26,39,,,,,0.99,0.56,0.82,4*00
$GPGSV,3,1,10,06,60,108,38,12,57,298,36,19,51,062,35,24,45,224,34,1*68
$GPGSV,3,2,10,11,42,168,34,44,33,171,31,17,21,065,29,25,18,298,31,1*6D
$GPGSV,3,3,10,03,10,032,24,32,09,317,31,1*6F
$GPGSV,2,1,05,06,60,108,28,24,45,224,27,11,42,168,27,25,18,298,21,8*6C
$GPGSV,2,2,05,03,10,032,13,8*59
$GLGSV,2,1,05,85,73,053,27,75,61,136,31,86,44,205,20,84,19,035,,1*7E
$GLGSV,2,2,05,67,08,324,17,1*47
$GAGSV,3,1,11,30,70,301,34,02,53,109,31,36,51,072,33,34,47,161,33,7*78
$GAGSV,3,2,11,27,18,295,27,11,13,035,19,29,13,308,22,07,11,257,23,7*7D
$GAGSV,3,3,11,15,05,194,23,19,03,350,17,25,03,113,17,7*45
$GAGSV,2,1,06,30,70,301,24,02,53,109,25,36,51,072,24,34,47,161,26,1*7F
$GAGSV,2,2,06,27,18,295,19,29,13,308,17,1*7D
$GBGSV,3,1,11,44,81,150,35,24,71,201,34,12,59,210,29,35,40,057,30,1*7F
$GBGSV,3,2,11,25,38,304,31,34,31,223,28,26,27,151,23,39,11,330,24,1*7B
$GBGSV,3,3,11,11,07,222,23,16,02,334,,20,02,027,18,1*4F
$GBGSV,2,1,07,44,81,150,26,24,71,201,27,35,40,057,23,25,38,304,23,5*72
$GBGSV,2,2,07,34,31,223,19,26,27,151,18,39,11,330,14,5*49
$GNGLL,4910.425162,N,12304.400616,W,004201.000,A,D*5C
$GNRMC,004202.000,A,4910.425102,N,12304.400622,W,0.01,335.64,080125,,,D,V*1B
$GNGGA,004202.000,4910.425102,N,12304.400622,W,2,47,0.56,15.120,M,-16.817,M,,*7E
$GNVTG,335.64,T,,M,0.01,N,0.03,K,D*23
