$GNGGA,182802.000,4910.426674,N,12304.401924,W,2,31,0.50,10.453,M,-16.817,M,,*75
$GNGLL,4910.426674,N,12304.401924,W,182802.000,A,D*56
$GNGSA,A,3,04,09,16,07,26,03,06,11,31,20,,,0.83,0.50,0.66,1*03
$GNGSA,A,3,68,78,69,79,67,85,,,,,,,0.83,0.50,0.66,2*00
$GNGSA,A,3,09,06,04,31,05,34,36,21,,,,,0.83,0.50,0.66,3*00
$GNGSA,A,3,32,23,37,20,25,41,38,,,,,,0.83,0.50,0.66,4*05
$GPGSV,4,1,14,04,74,094,36,09,72,302,38,16,48,086,35,07,41,244,34,1*69
$GPGSV,4,2,14,48,33,182,30,26,28,052,33,03,26,174,30,06,15,270,19,1*63
$GPGSV,4,3,14,11,14,309,24,31,11,062,23,20,09,326,21,30,06,244,22,1*60
$GPGSV,4,4,14,27,02,115,20,29,01,008,,1*63
$GLGSV,2,1,07,68,81,083,31,78,78,131,17,69,41,318,28,79,31,201,29,1*79
$GLGSV,2,2,07,67,30,127,25,85,13,333,20,84,06,283,,1*43
$GAGSV,3,1,10,09,79,317,33,06,72,094,32,04,45,103,29,31,45,145,29,7*79
$GAGSV,3,2,10,05,25,291,24,34,20,300,23,36,15,248,24,24,09,186,22,7*73
$GAGSV,3,3,10,21,06,030,20,15,05,347,22,7*77
$GBGSV,2,1,08,32,72,166,38,23,70,089,39,37,46,206,36,20,44,305,36,1*78
$GBGSV,2,2,08,25,22,051,31,41,18,139,29,38,06,333,26,04,01,262,,1*7A
$GNRMC,182802.000,A,4910.426674,N,12304.401924,W,0.02,0.00,051224,,,D,V*19
$GNVTG,0.00,T,,M,0.02,N,0.03,K,D*27
$GNGGA,182803.000,4910.426674,N,12304.401894,W,2,31,0.50,10.435,M,-16.817,M,,*7E
$GNGLL,4910.426674,N,12304.401894,W,182803.000,A,D*5D
$GNGSA,A,3,04,09,16,07,26,03,06,11,31,20,,,0.83,0.50,0.66,1*03
$GNGSA,A,3,68,78,69,79,67,85,,,,,,,0.83,0.50,0.66,2*00
$GNGSA,A,3,09,06,04,31,05,34,36,21,,,,,0.83,0.50,0.66,3*00
$GNGSA,A,3,32,23,37,20,25,41,38,,,,,,0.83,0.50,0.66,4*05
$GPGSV,4,1,14,04,74,094,36,09,72,302,38,16,48,086,35,07,41,244,34,1*69
$GPGSV,4,2,14,48,33,182,30,26,28,052,33,03,26,174,30,06,15,270,19,1*63
$GPGSV,4,3,14,11,14,309,24,31,11,062,23,20,09,326,20,30,06,244,22,1*61
$GPGSV,4,4,14,27,02,115,20,29,01,008,,1*63
$GLGSV,2,1,07,68,81,083,31,78,78,131,17,69,41,318,28,79,31,201,29,1*79
$GLGSV,2,2,07,67,30,127,25,85,13,333,21,84,06,283,,1*42
$GAGSV,3,1,10,09,79,317,33,06,72,094,32,04,45,103,29,31,45,145,29,7*79
$GAGSV,3,2,10,05,25,291,24,34,20,300,23,36,15,248,24,24,09,186,22,7*73
$GAGSV,3,3,10,21,06,030,20,15,05,347,22,7*77
$GBGSV,2,1,08,32,72,166,38,23,70,089,39,37,46,206,36,20,44,305,36,1*78
$GBGSV,2,2,08,25,22,051,31,41,18,139,29,38,06,333,26,04,01,262,,1*7A
$GNRMC,182803.000,A,4910.426674,N,12304.401894,W,0.02,0.00,051224,,,D,V*12
$GNVTG,0.00,T,,M,0.02,N,0.03,K,D*27
$GNGGA,182804.000,4910.426710,N,12304.401906,W,2,31,0.50,10.422,M,-16.817,M,,*76
$GNGLL,4910.426710,N,12304.401906,W,182804.000,A,D*53
$GNGSA,A,3,04,09,16,07,26,03,06,11,31,20,,,0.83,0.50,0.66,1*03
$GNGSA,A,3,68,78,69,79,67,85,,,,,,,0.83,0.50,0.66,2*00
$GNGSA,A,3,09,06,04,31,05,34,36,21,,,,,0.83,0.50,0.66,3*00
$GNGSA,A,3,32,23,37,20,25,41,38,,,,,,0.83,0.50,0.66,4*05
$GPGSV,4,1,14,04,74,094,36,09,72,302,38,16,48,086,35,07,41,244,34,1*69
$GPGSV,4,2,14,48,33,182,29,26,28,052,33,03,26,174,30,06,15,270,19,1*6B
$GPGSV,4,3,14,11,14,309,24,31,11,062,23,20,09,326,20,30,06,244,22,1*61
$GPGSV,4,4,14,27,02,115,20,29,01,008,,1*63
$GLGSV,2,1,07,68,81,083,31,78,78,131,16,69,41,318,28,79,31,201,29,1*78
$GLGSV,2,2,07,67,30,127,26,85,13,333,22,84,06,283,,1*42
$GAGSV,3,1,10,09,79,317,33,06,72,094,32,04,45,103,29,31,45,145,29,7*79
$GAGSV,3,2,10,05,25,291,24,34,20,300,23,36,15,248,24,24,09,186,22,7*73
$GAGSV,3,3,10,21,06,030,20,15,05,347,22,7*77
$GBGSV,2,1,08,32,72,166,38,23,70,089,39,37,46,206,36,20,44,305,36,1*78
$GBGSV,2,2,08,25,22,051,31,41,18,139,29,38,06,333,26,04,01,262,,1*7A
$GNRMC,182804.000,A,4910.426710,N,12304.401906,W,0.01,0.00,051224,,,D,V*1F
$GNVTG,0.00,T,,M,0.01,N,0.02,K,D*25
$GNGGA,182805.000,4910.426764,N,12304.401912,W,2,31,0.50,10.406,M,-16.816,M,,*76
$GNGLL,4910.426764,N,12304.401912,W,182805.000,A,D*54
$GNGSA,A,3,04,09,16,07,26,03,06,11,31,20,,,0.83,0.50,0.66,1*03
$GNGSA,A,3,68,78,69,79,67,85,,,,,,,0.83,0.50,0.66,2*00
$GNGSA,A,3,09,06,04,31,05,34,36,21,,,,,0.83,0.50,0.66,3*00
$GNGSA,A,3,32,23,37,20,25,41,38,,,,,,0.83,0.50,0.66,4*05
$GPGSV,4,1,14,04,74,094,36,09,72,302,38,16,48,086,35,07,41,244,34,1*69
$GPGSV,4,2,14,48,33,182,29,26,28,052,33,03,26,174,30,06,15,270,19,1*6B
$GPGSV,4,3,14,11,14,309,24,31,11,062,23,20,09,326,20,30,06,244,22,1*61
$GPGSV,4,4,14,27,02,115,20,29,01,008,,1*63
$GLGSV,2,1,07,68,81,083,31,78,78,131,16,69,41,318,28,79,31,201,29,1*78
$GLGSV,2,2,07,67,30,127,26,85,13,333,21,84,06,283,,1*41
$GAGSV,3,1,10,09,79,317,32,06,72,094,32,04,45,103,29,31,45,145,29,7*78
$GAGSV,3,2,10,05,25,291,24,34,20,300,23,36,15,248,24,24,09,186,22,7*73
$GAGSV,3,3,10,21,06,030,20,15,05,347,22,7*77
$GBGSV,2,1,08,32,72,166,38,23,70,089,39,37,46,206,36,20,44,305,36,1*78
$GBGSV,2,2,08,25,22,051,31,41,18,139,29,38,06,333,26,04,01,262,,1*7A
$GNRMC,182805.000,A,4910.426764,N,12304.401912,W,0.01,0.00,051224,,,D,V*18
$GNVTG,0.00,T,,M,0.01,N,0.02,K,D*25
$GNGGA,182806.000,4910.426800,N,12304.401930,W,2,31,0.50,10.358,M,-16.816,M,,*74
$GNGLL,4910.426800,N,12304.401930,W,182806.000,A,D*5A
$GNGSA,A,3,04,09,16,07,26,03,06,11,31,20,,,0.83,0.50,0.66,1*03
$GNGSA,A,3,68,78,69,79,67,85,,,,,,,0.83,0.50,0.66,2*00
$GNGSA,A,3,09,06,04,31,05,34,36,21,,,,,0.83,0.50,0.66,3*00
$GNGSA,A,3,32,23,37,20,25,41,38,,,,,,0.83,0.50,0.66,4*05
$GPGSV,4,1,14,04,74,094,36,09,72,302,38,16,48,086,35,07,41,244,34,1*69
$GPGSV,4,2,14,48,33,182,29,26,28,052,33,03,26,174,30,06,15,270,19,1*6B
$GPGSV,4,3,14,11,14,309,24,31,11,062,24,20,09,326,20,30,06,244,22,1*66
$GPGSV,4,4,14,27,02,115,21,29,01,008,,1*62
$GLGSV,2,1,07,68,81,083,31,78,78,131,16,69,41,318,28,79,31,201,29,1*78
$GLGSV,2,2,07,67,30,127,26,85,13,333,21,84,06,283,,1*41
$GAGSV,3,1,10,09,79,317,32,06,72,094,32,04,45,103,29,31,45,145,29,7*78
$GAGSV,3,2,10,05,25,291,24,34,20,300,23,36,15,248,24,24,09,186,22,7*73
$GAGSV,3,3,10,21,06,030,20,15,05,347,22,7*77
$GBGSV,2,1,08,32,72,166,38,23,70,089,39,37,46,206,36,20,44,305,36,1*78
$GBGSV,2,2,08,25,22,051,31,41,18,139,29,38,06,333,26,04,01,262,,1*7A
$GNRMC,182806.000,A,4910.426800,N,12304.401930,W,0.01,0.00,051224,,,D,V*16
$GNVTG,0.00,T,,M,0.01,N,0.02,K,D*25
$GNGGA,182807.000,4910.426830,N,12304.401870,W,2,31,0.50,10.338,M,-16.817,M,,*74
